~VERSION INFORMATION
 VERS.                 2.0:   CWLS LOG ASCII STANDARD -VERSION 2.0
 WRAP.                  NO:   ONE LINE PER DEPTH STEP
~WELL INFORMATION BLOCK
#MNEM.UNIT           DATA                    DESCRIPTION OF MNEMONIC
#---------    -------------------            -------------------------------
# Generated from Intellog Unique Number	CS_77_79/WELL/852
WELL.         CWWE LEISMER                   : Well_name    - WELL
LOC .         00/05-04-078-05W4/0            : Location     - LOCATION
UWI .         00/05-04-078-05W4/0            : Uwi          - UNIQUE WELL ID
ENTR.         JHS                            : Entered      - ENTERED BY
SRVC.         SCHLUMBERGER                   : Scn          - SERVICE COMPANY
STRT.M        165                            : top_depth    - START DEPTH
STOP.M        420                            : bot_depth    - STOP DEPTH
STEP.M        0.25                           : increment    - STEP LENGTH
 NULL. -999.2500:NULL Value
~CURVE INFORMATION BLOCK
#MNEM UNIT       ERCB CURVE CODE    CURVE DESCRIPTION
#-----------   ------------------   ----------------------------------
DEPT.M        00 001 00 00         : DEPTH        - DEPTH
DPHI.V/V      00 890 00 00         : PHID         - DENSITY POROSITY (LIMESTONE)
NPHI.V/V      00 330 00 00         : PHIN         - NEUTRON POROSITY (LIMESTONE)
GR  .API      00 310 00 00         : GR           - GAMMA RAY
ILD .OHMM     00 120 00 00         : RESD         - DEEP RESISTIVITY (DIL)
RHOB.KG/M3    00 350 00 00         : DENS         - BULK DENSITY
~PARAMETER INFORMATION
#MNEM.UNIT           DATA             DESCRIPTION OF MNEMONIC
#---------         -----------     ------------------------------
GL  .M        585.9                : gl           - GROUND LEVEL ELEVATION
EREF.M        589.8                : kb           - ELEVATION OF DEPTH REFERENCE
DATM.M        589.8                : datum        - DATUM ELEVATION
TDD .M        430                  : tdd          - TOTAL DEPTH DRILLER
RUN .         ONE                  : Run          - RUN NUMBER
ENG .         BILL                 : Engineer     - RECORDING ENGINEER
WIT .         JIM                  : Witness      - WITNESSED BY
MUD .         GEL                  : Mud_type     - MUD TYPE
MATR.         LIMESTONE            : Logunit      - NEUTRON MATRIX
TMAX.C        19                   : BHT          - MAXIMUM RECORDED TEMPERATURE
BHTD.M        430                  : BHTDEP       - MAXIMUM RECORDED TEMPERATURE
MATR.         1                    : LOGUNIT      - NEUTRON MATRIX
RMT .C        25                   : MDTP         - TEMPERATURE OF MUD
NEUT.         1                    : NEUTRON      - NEUTRON TYPE
RESI.         0                    : RESIST       - RESISTIVITY TYPE
RMC .OHMM     0.25                 : RMC          - RESISTIVITY OF MUD CAKE
RMF .OHMM     0.25                 : RMF          - RESISTIVITY OF MUD FILTRATE
SUFT.C        15                   : SUFT         - SURFACE TEMPERATURE
~A  DEPTH     PHID     PHIN       GR     RESD     DENS
# ...
  201.500    0.228    0.371   88.935   10.519    0.000
  201.750    0.220    0.385   85.273   10.127    0.000
  202.000    0.202    0.388   93.296   10.127    0.000
  202.250    0.207    0.398   95.774   11.135    0.000
  202.500    0.229    0.390   96.414   11.788    0.000
  202.750    0.246    0.344   92.744   13.983    0.000
  203.000    0.267    0.309   79.857   15.970    0.000
  203.250    0.337    0.281   66.972   17.896    0.000
  203.500    0.349    0.257   63.924   19.307    0.000
  203.750    0.337    0.285   69.484   19.677    0.000
  204.000    0.299    0.331   77.495   18.944    0.000
  204.250    0.273    0.389   73.832   18.238    0.000
  204.500    0.284    0.404   69.553   18.238    0.000
  204.750    0.304    0.395   66.500   18.588    0.000
  205.000    0.319    0.364   60.378   18.944    0.000
  205.250    0.295    0.351   61.024   19.677    0.000
  205.500    0.269    0.349   65.345   20.054    0.000
  205.750    0.258    0.370   65.984   20.830    0.000
  206.000    0.264    0.383   59.242   22.050    0.000
  206.250    0.286    0.379   52.506   22.903    0.000
  206.500    0.308    0.373   50.075   24.245    0.000
  206.750    0.319    0.374   49.480   26.157    0.000
  207.000    0.328    0.386   49.502   27.689    0.000
  207.250    0.326    0.396   47.071   29.873    0.000
  207.500    0.324    0.405   44.020   30.445    0.000
  207.750    0.333    0.395   41.585   31.623    0.000
  208.000    0.338    0.385   39.764   32.229    0.000
  208.250    0.343    0.380   36.098   32.846    0.000
  208.500    0.343    0.385   31.820   32.229    0.000
  208.750    0.340    0.388   29.385   32.229    0.000
  209.000    0.342    0.380   33.711   30.445    0.000
  209.250    0.326    0.381   43.569   28.760    0.000
  209.500    0.314    0.387   53.431   27.169    0.000
  209.750    0.295    0.377   56.532   26.658    0.000
  210.000    0.282    0.373   54.095   26.658    0.000
  210.250    0.289    0.377   49.814   27.169    0.000
  210.500    0.311    0.379   46.147   27.689    0.000
  210.750    0.336    0.377   40.641   28.760    0.000
  211.000    0.337    0.374   36.975   29.311    0.000
  211.250    0.321    0.375   40.688   29.873    0.000
  211.500    0.311    0.383   38.867   30.445    0.000
  211.750    0.315    0.393   34.590   31.623    0.000
  212.000    0.334    0.398   30.931   32.846    0.000
  212.250    0.347    0.389   29.725   33.475    0.000
  212.500    0.352    0.380   29.129   33.475    0.000
  212.750    0.342    0.379   29.156   34.117    0.000
  213.000    0.342    0.380   29.175   34.770    0.000
  213.250    0.349    0.379   30.430   34.770    0.000
  213.500    0.349    0.384   30.450   34.770    0.000
  213.750    0.335    0.395   36.012   34.770    0.000
  214.000    0.330    0.391   38.490   34.770    0.000
  214.250    0.328    0.381   36.060   34.770    0.000
  214.500    0.339    0.364   33.620   34.117    0.000
  214.750    0.346    0.352   34.262   34.117    0.000
  215.000    0.344    0.360   34.899   33.475    0.000
  215.250    0.331    0.382   34.922   33.475    0.000
  215.500    0.334    0.396   37.406   33.475    0.000
  215.750    0.346    0.393   42.961   32.846    0.000
  216.000    0.347    0.391   47.903   32.846    0.000
  216.250    0.340    0.408   42.393   32.846    0.000
  216.500    0.339    0.420   40.573   32.229    0.000
  216.750    0.346    0.405   44.292   32.229    0.000
  217.000    0.350    0.398   43.081   31.623    0.000
  217.250    0.341    0.388   41.262   31.623    0.000
  217.500    0.330    0.374   44.357   31.623    0.000
  217.750    0.337    0.364   40.691   31.623    0.000
  218.000    0.347    0.365   36.418   31.623    0.000
  218.250    0.352    0.376   39.517   31.028    0.000
  218.500    0.350    0.400   43.224   31.028    0.000
  218.750    0.353    0.406   45.712   30.445    0.000
  219.000    0.343    0.390   48.803   29.311    0.000
  219.250    0.324    0.386   52.517   28.760    0.000
  219.500    0.323    0.375   49.471   27.689    0.000
  219.750    0.313    0.365   47.648   26.658    0.000
  220.000    0.302    0.377   45.829   25.665    0.000
  220.250    0.322    0.433   42.775   24.709    0.000
  220.500    0.339    0.439   37.883   24.709    0.000
  220.750    0.349    0.424   37.907   24.245    0.000
  221.000    0.338    0.409   45.922   24.245    0.000
  221.250    0.315    0.422   50.246   25.183    0.000
  221.500    0.309    0.435   44.127   25.183    0.000
  221.750    0.329    0.413   36.780   26.658    0.000
  222.000    0.345    0.402   38.639   27.169    0.000
  222.250    0.356    0.413   41.736   27.169    0.000
  222.500    0.363    0.434   39.312   27.689    0.000
  222.750    0.368    0.423   37.488   27.169    0.000
  223.000    0.369    0.418   35.663   25.665    0.000
  223.250    0.373    0.434   35.691   24.709    0.000
  223.500    0.373    0.434   35.096   22.903    0.000
  223.750    0.357    0.398   53.562   19.677    0.000
  224.000    0.335    0.374   75.100   16.587    0.000
  224.250    0.289    0.349   88.648   14.524    0.000
  224.500    0.250    0.353   97.896   13.209    0.000
  224.750    0.238    0.383  102.220   11.349    0.000
  225.000    0.224    0.396  110.850   10.519    0.000
  225.250    0.211    0.399  120.710   10.127    0.000
  225.500    0.209    0.403  116.431    9.750    0.000
  225.750    0.213    0.417  113.998    9.387    0.000
  226.000    0.223    0.426  118.939    9.211    0.000
  226.250    0.228    0.440  121.423    9.211    0.000
  226.500    0.235    0.458  118.373    9.211    0.000
  226.750    0.236    0.464  117.170    9.387    0.000
  227.000    0.236    0.461  115.963    9.567    0.000
  227.250    0.241    0.440  109.841   10.127    0.000
  227.500    0.247    0.438  104.328   11.349    0.000
  227.750    0.263    0.440   95.135   12.014    0.000
  228.000    0.276    0.438   88.394   12.717    0.000
  228.250    0.287    0.439   87.187   13.209    0.000
  228.500    0.278    0.433   97.660   13.720    0.000
  228.750    0.266    0.424  101.995   13.983    0.000
  229.000    0.262    0.442   98.326   14.251    0.000
  229.250    0.264    0.450   89.128   14.802    0.000
  229.500    0.275    0.418   79.315   15.086    0.000
  229.750    0.295    0.416   68.271   15.970    0.000
  230.000    0.335    0.416   48.013   17.559    0.000
  230.250    0.348    0.396   45.574   18.944    0.000
  230.500    0.338    0.398   48.673   19.307    0.000
  230.750    0.326    0.410   54.844   19.307    0.000
  231.000    0.326    0.397   58.555   18.944    0.000
  231.250    0.336    0.384   59.197   18.238    0.000
  231.500    0.328    0.405   62.297   16.905    0.000
  231.750    0.313    0.417   69.077   15.970    0.000
  232.000    0.300    0.419   80.786   14.524    0.000
  232.250    0.282    0.422   85.118   12.961    0.000
  232.500    0.262    0.438   85.747   11.135    0.000
  232.750    0.245    0.434   86.388   10.321    0.000
  233.000    0.228    0.422   93.175    9.211    0.000
  233.250    0.221    0.440   99.960    8.065    0.000
  233.500    0.213    0.448  107.977    6.671    0.000
  233.750    0.211    0.449  112.300    6.422    0.000
  234.000    0.226    0.454  106.184    6.671    0.000
  234.250    0.251    0.440   96.366    7.062    0.000
  234.500    0.269    0.417   89.015    8.065    0.000
  234.750    0.272    0.408   88.421    9.750    0.000
  235.000    0.270    0.404   93.365   11.566    0.000
  235.250    0.273    0.398   94.622   13.209    0.000
  235.500    0.278    0.394   92.182   13.209    0.000
  235.750    0.275    0.394   89.752   12.961    0.000
  236.000    0.259    0.400   90.384   12.478    0.000
  236.250    0.249    0.411   93.489   12.478    0.000
  236.500    0.243    0.435   92.281   12.961    0.000
  236.750    0.249    0.466   84.927   13.462    0.000
  237.000    0.251    0.456   73.270   13.983    0.000
  237.250    0.256    0.420   70.224   13.983    0.000
  237.500    0.271    0.379   73.320   13.720    0.000
  237.750    0.293    0.368   73.338   13.209    0.000
