~VERSION INFORMATION
 VERS.                 2.0:   CWLS LOG ASCII STANDARD -VERSION 2.0
 WRAP.                  NO:   ONE LINE PER DEPTH STEP
~WELL INFORMATION BLOCK
#MNEM.UNIT           DATA                    DESCRIPTION OF MNEMONIC
#---------    -------------------            -------------------------------
# Generated from Intellog Unique Number	CS_67_68/WELL/770
WELL.         FISHER CREEK                   : Well_name    - WELL
LOC .         00/07-12-068-05W4/0            : Location     - LOCATION
UWI .         00/07-12-068-05W4/0            : Uwi          - UNIQUE WELL ID
ENTR.         SP                             : Entered      - ENTERED BY
SRVC.         SCHLUMBERGER                   : Scn          - SERVICE COMPANY
STRT.M        330                            : top_depth    - START DEPTH
STOP.M        560                            : bot_depth    - STOP DEPTH
STEP.M        0.25                           : increment    - STEP LENGTH
 NULL. -999.2500:NULL Value
~CURVE INFORMATION BLOCK
#MNEM UNIT       ERCB CURVE CODE    CURVE DESCRIPTION
#-----------   ------------------   ----------------------------------
DEPT.M        00 001 00 00         : DEPTH        - DEPTH
ILD .OHMM     00 120 00 00         : RESD         - DEEP RESISTIVITY (DIL)
DPHI.V/V      00 890 00 00         : PHID         - DENSITY POROSITY (LIMESTONE)
NPHI.V/V      00 330 00 00         : PHIN         - NEUTRON POROSITY (LIMESTONE)
GR  .API      00 310 00 00         : GR           - GAMMA RAY
~PARAMETER INFORMATION
#MNEM.UNIT           DATA             DESCRIPTION OF MNEMONIC
#---------         -----------     ------------------------------
GL  .M        683.1                : gl           - GROUND LEVEL ELEVATION
EREF.M        686.8                : kb           - ELEVATION OF DEPTH REFERENCE
DATM.M        683.1                : datum        - DATUM ELEVATION
TDD .M        565                  : tdd          - TOTAL DEPTH DRILLER
RUN .         ONE                  : Run          - RUN NUMBER
ENG .         BILL                 : Engineer     - RECORDING ENGINEER
WIT .         JIM                  : Witness      - WITNESSED BY
MUD .         GEL                  : Mud_type     - MUD TYPE
MATR.         LIMESTONE            : Logunit      - NEUTRON MATRIX
TMAX.C        26.6                 : BHT          - MAXIMUM RECORDED TEMPERATURE
BHTD.M        565                  : BHTDEP       - MAXIMUM RECORDED TEMPERATURE
MATR.         1                    : LOGUNIT      - NEUTRON MATRIX
RMT .C        25                   : MDTP         - TEMPERATURE OF MUD
NEUT.         1                    : NEUTRON      - NEUTRON TYPE
RESI.         0                    : RESIST       - RESISTIVITY TYPE
RMC .OHMM     0.25                 : RMC          - RESISTIVITY OF MUD CAKE
RMF .OHMM     0.25                 : RMF          - RESISTIVITY OF MUD FILTRATE
SUFT.C        15                   : SUFT         - SURFACE TEMPERATURE
~A  DEPTH     RESD     PHID     PHIN       GR
# ...
  417.000    7.867    0.350    0.455   63.292
  417.250    7.496    0.345    0.447   63.604
  417.500    7.317    0.339    0.432   62.382
  417.750    7.183    0.330    0.431   62.142
  418.000    7.077    0.322    0.425   62.453
  418.250    6.973    0.317    0.409   62.642
  418.500    6.871    0.311    0.406   62.218
  418.750    6.795    0.322    0.416   60.198
  419.000    6.732    0.334    0.421   57.441
  419.250    6.720    0.339    0.428   54.377
  419.500    6.709    0.345    0.445   54.383
  419.750    6.697    0.342    0.455   56.904
  420.000    6.672    0.336    0.452   60.592
  420.250    6.550    0.339    0.446   61.088
  420.500    6.478    0.343    0.430   60.295
  420.750    6.382    0.318    0.415   62.080
  421.000    6.184    0.291    0.406   65.647
  421.250    5.981    0.273    0.419   68.842
  421.500    5.893    0.269    0.431   71.793
  421.750    5.839    0.269    0.437   72.657
  422.000    5.817    0.272    0.441   70.085
  422.250    5.829    0.286    0.441   68.065
  422.500    5.851    0.299    0.432   67.579
  422.750    5.895    0.309    0.421   68.443
  423.000    5.940    0.302    0.421   69.492
  423.250    5.985    0.299    0.441   69.497
  423.500    6.019    0.302    0.451   68.213
  423.750    6.053    0.311    0.457   67.605
  424.000    6.053    0.326    0.438   66.689
  424.250    6.077    0.329    0.421   64.853
  424.500    6.100    0.318    0.411   65.656
  424.750    6.134    0.311    0.416   66.766
  425.000    6.181    0.306    0.404   66.955
  425.250    6.181    0.304    0.400   66.346
  425.500    6.182    0.303    0.430   66.782
  425.750    6.136    0.302    0.447   67.830
  426.000    6.114    0.312    0.434   69.615
  426.250    6.103    0.323    0.427   71.032
  426.500    6.059    0.302    0.426   71.958
  426.750    6.048    0.304    0.443   71.533
  427.000    6.037    0.312    0.440   68.285
  427.250    6.004    0.313    0.433   65.467
  427.500    6.027    0.322    0.430   65.472
  427.750    6.072    0.334    0.428   65.048
  428.000    6.118    0.342    0.435   63.703
  428.250    6.142    0.342    0.441   62.235
  428.500    6.177    0.333    0.427   62.731
  428.750    6.177    0.324    0.416   63.596
  429.000    6.178    0.320    0.419   63.969
  429.250    6.190    0.340    0.447   63.975
  429.500    6.202    0.346    0.470   62.937
  429.750    6.226    0.353    0.443   62.266
  430.000    6.238    0.349    0.436   62.762
  430.250    6.215    0.335    0.438   64.486
  430.500    6.169    0.326    0.445   66.578
  430.750    5.955    0.318    0.430   67.442
  431.000    5.813    0.313    0.421   67.017
  431.250    5.825    0.306    0.424   65.734
  431.500    5.825    0.302    0.435   64.388
  431.750    5.815    0.299    0.428   71.944
  432.000    5.762    0.293    0.415   79.252
  432.250    5.666    0.283    0.438   86.868
  432.500    5.511    0.279    0.467   92.581
  432.750    5.251    0.265    0.492   96.514
  433.000    4.938    0.239    0.471   97.808
  433.250    4.679    0.228    0.462   95.850
  433.500    4.593    0.221    0.463   94.565
  433.750    4.543    0.223    0.468   92.790
  434.000    4.543    0.245    0.470   90.586
  434.250    4.535    0.263    0.461   86.418
  434.500    4.544    0.281    0.457   86.854
  434.750    4.544    0.282    0.460   89.067
  435.000    4.553    0.271    0.471   92.203
  435.250    4.553    0.264    0.468   94.724
  435.500    4.537    0.270    0.450   89.942
  435.750    4.512    0.277    0.443   91.052
  436.000    4.421    0.266    0.451   97.993
  436.250    4.283    0.257    0.476   97.507
  436.500    4.127    0.253    0.492   93.953
  436.750    3.918    0.265    0.497   90.888
  437.000    3.867    0.281    0.511   87.396
  437.250    4.105    0.284    0.536   85.743
  437.500    4.591    0.297    0.542   84.030
  437.750    5.309    0.312    0.493   83.237
  438.000    6.094    0.308    0.467   81.892
  438.250    6.827    0.285    0.431   77.662
  438.500    7.536    0.236    0.391   68.338
  438.750    7.764    0.178    0.319   62.451
  439.000    7.636    0.232    0.406   64.850
  439.250    7.235    0.302    0.440   66.083
  439.500    6.907    0.325    0.458   64.308
  439.750    6.729    0.339    0.468   62.656
  440.000    6.643    0.350    0.472   63.152
  440.250    6.582    0.351    0.483   60.948
  440.500    6.509    0.353    0.494   58.191
  440.750    6.462    0.354    0.453   58.871
  441.000    6.414    0.350    0.425   60.289
  441.250    6.379    0.348    0.413   59.864
  441.500    6.380    0.343    0.445   58.948
  441.750    6.524    0.340    0.461   59.015
  442.000    6.747    0.338    0.476   60.125
  442.250    7.175    0.348    0.491   60.989
  442.500    8.145    0.334    0.493   55.470
  442.750    8.940    0.263    0.268   49.584
  443.000    9.578    0.127    0.239   50.141
  443.250    9.777    0.229    0.271   60.458
  443.500    9.059    0.278    0.347   66.477
  443.750    7.968    0.320    0.404   71.883
  444.000    7.410    0.344    0.452   67.592
  444.250    6.969    0.348    0.437   62.504
  444.500    6.728    0.339    0.440   59.685
  444.750    6.654    0.341    0.443   62.330
  445.000    6.556    0.335    0.435   64.545
  445.250    6.532    0.326    0.430   67.313
  445.500    6.557    0.320    0.426   69.097
  445.750    6.570    0.311    0.458   70.697
  446.000    6.632    0.299    0.486   70.334
  446.250    6.707    0.275    0.435   61.440
  446.500    6.732    0.215    0.399   58.622
  446.750    6.633    0.274    0.407   63.414
  447.000    6.427    0.353    0.446   66.120
  447.250    6.239    0.369    0.461   66.739
  447.500    6.147    0.352    0.458   69.445
  447.750    6.080    0.331    0.461   73.563
  448.000    6.046    0.320    0.468   73.935
  448.250    6.035    0.309    0.482   71.362
  448.500    6.172    0.292    0.454   68.115
  448.750    6.371    0.263    0.421   66.769
  449.000    6.150    0.283    0.457   67.266
  449.250    5.774    0.308    0.479   69.665
  449.500    5.400    0.301    0.464   72.617
  449.750    5.050    0.295    0.450   74.524
  450.000    4.758    0.297    0.459   76.247
  450.250    4.654    0.298    0.472   76.867
  450.500    4.560    0.297    0.464   77.424
  450.750    4.560    0.294    0.454   79.885
  451.000    4.595    0.293    0.487   81.055
  451.250    4.681    0.296    0.520   81.183
  451.500    4.796    0.301    0.527   80.391
  451.750    4.933    0.306    0.497   79.168
  452.000    5.236    0.305    0.478   78.068
  452.250    5.486    0.296    0.465   78.871
  452.500    5.600    0.281    0.451   83.235
  452.750    5.466    0.263    0.446   86.001
  453.000    4.953    0.273    0.506   87.725
  453.250    4.051    0.294    0.526   88.405
  453.500    3.128    0.305    0.544   90.497
  453.750    2.730    0.283    0.555   92.773
  454.000    2.442    0.272    0.545   94.620
  454.250    2.263    0.278    0.558   94.931
  454.500    2.164    0.289    0.571   95.060
  454.750    2.164    0.296    0.561   92.978
  455.000    2.263    0.282    0.545   90.160
  455.250    2.385    0.263    0.531   88.999
  455.500    2.560    0.263    0.521   90.600
  455.750    2.847    0.280    0.537   90.421
  456.000    3.255    0.287    0.546   87.235
  456.250    4.048    0.284    0.516   84.294
  456.500    5.138    0.285    0.480   80.309
  456.750    6.545    0.295    0.454   75.527
  457.000    8.094    0.305    0.466   70.868
  457.250   10.583    0.318    0.479   69.829
  457.500   13.433    0.333    0.491   68.362
  457.750   16.063    0.350    0.474   64.684
  458.000   17.764    0.368    0.461   61.253
  458.250   19.032    0.359    0.473   60.890
  458.500   20.278    0.350    0.469   61.264
  458.750   20.970    0.346    0.448   61.391
  459.000   21.606    0.352    0.428   60.660
  459.250   21.092    0.365    0.415   59.805
  459.500   20.704    0.357    0.417   59.319
  459.750   20.024    0.345    0.427   62.762
  460.000   19.546    0.339    0.435   65.283
  460.250   19.621    0.338    0.455   64.368
