~VERSION INFORMATION
 VERS.                 2.0:   CWLS LOG ASCII STANDARD -VERSION 2.0
 WRAP.                  NO:   ONE LINE PER DEPTH STEP
~WELL INFORMATION BLOCK
#MNEM.UNIT           DATA                    DESCRIPTION OF MNEMONIC
#---------    -------------------            -------------------------------
# Generated from Intellog Unique Number	CW_79_81/WELL/2456
WELL.         GULF WABASCA                   : Well_name    - WELL
LOC .         00/06-34-081-21W4/0            : Location     - LOCATION
UWI .         00/06-34-081-21W4/0            : Uwi          - UNIQUE WELL ID
ENTR.         MAX                            : Entered      - ENTERED BY
SRVC.         SCHLUMBERGER                   : Scn          - SERVICE COMPANY
STRT.M        204.216                        : top_depth    - START DEPTH
STOP.M        441.716                        : bot_depth    - STOP DEPTH
STEP.M        0.25                           : increment    - STEP LENGTH
 NULL. -999.2500:NULL Value
~CURVE INFORMATION BLOCK
#MNEM UNIT       ERCB CURVE CODE    CURVE DESCRIPTION
#-----------   ------------------   ----------------------------------
DEPT.M        00 001 00 00         : DEPTH        - DEPTH
ILD .OHMM     00 120 00 00         : RESD         - DEEP RESISTIVITY (DIL)
NPHI.V/V      00 330 00 00         : PHIN         - NEUTRON POROSITY (SANDSTONE)
DPHI.V/V      00 890 00 00         : PHID         - DENSITY POROSITY (SANDSTONE)
GR  .API      00 310 00 00         : GR           - GAMMA RAY
CALI.MM       00 280 01 00         : CAL          - CALIPER
~PARAMETER INFORMATION
#MNEM.UNIT           DATA             DESCRIPTION OF MNEMONIC
#---------         -----------     ------------------------------
GL  .M        627.492              : gl           - GROUND LEVEL ELEVATION
EREF.M        630.997              : kb           - ELEVATION OF DEPTH REFERENCE
DATM.M        627.492              : datum        - DATUM ELEVATION
TDD .M        440.436              : tdd          - TOTAL DEPTH DRILLER
RUN .         ONE                  : Run          - RUN NUMBER
ENG .         BILL                 : Engineer     - RECORDING ENGINEER
WIT .         JIM                  : Witness      - WITNESSED BY
MUD .         GEL                  : Mud_type     - MUD TYPE
MATR.         SANDSTONE            : Logunit      - NEUTRON MATRIX
TMAX.C        23.8889              : BHT          - MAXIMUM RECORDED TEMPERATURE
BHTD.M        440.436              : BHTDEP       - MAXIMUM RECORDED TEMPERATURE
MATR.         1                    : LOGUNIT      - NEUTRON MATRIX
RMT .C        16.6667              : MDTP         - TEMPERATURE OF MUD
NEUT.         1                    : NEUTRON      - NEUTRON TYPE
RESI.         0                    : RESIST       - RESISTIVITY TYPE
RMC .OHMM     5.1                  : RMC          - RESISTIVITY OF MUD CAKE
RMF .OHMM     5.24                 : RMF          - RESISTIVITY OF MUD FILTRATE
SUFT.C        -20.5556             : SUFT         - SURFACE TEMPERATURE
~A  DEPTH     RESD     PHIN     PHID       GR      CAL
# ...
  386.716   11.765    0.460    0.237  110.765  166.664
  386.966   11.766    0.456    0.233  112.853  163.889
  387.216   11.766    0.440    0.226  117.325  160.105
  387.466   11.596    0.439    0.234  118.757  160.106
  387.716   11.428    0.445    0.224  120.367  160.713
  387.966   11.304    0.444    0.218  121.203  162.531
  388.216   11.223    0.435    0.220  120.727  165.561
  388.466   11.124    0.428    0.210  118.274  169.113
  388.716   11.041    0.433    0.195  115.542  168.694
  388.966   10.961    0.441    0.195  114.827  167.080
  389.216   10.881    0.449    0.201  116.616  165.467
  389.466   10.842    0.452    0.211  117.810  163.247
  389.716   10.822    0.451    0.217  117.154  161.229
  389.966   10.761    0.448    0.208  115.645  162.224
  390.216   10.843    0.445    0.201  117.633  165.169
  390.466   10.764    0.454    0.206  118.349  163.959
  390.716   10.569    0.463    0.198  116.204  162.144
  390.966   10.187    0.467    0.198  115.728  162.549
  391.216    9.738    0.468    0.210  118.531  165.377
  391.466    9.416    0.475    0.216  123.848  168.037
  391.716    9.204    0.473    0.203  126.581  167.197
  391.966    9.204    0.445    0.215  128.013  164.371
  392.216    9.255    0.433    0.225  127.298  163.364
  392.466    9.357    0.433    0.231  125.510  164.778
  392.716    9.477    0.438    0.231  123.424  167.505
  392.966    9.604    0.438    0.216  121.368  168.466
  393.216    9.902    0.432    0.212  120.624  167.205
  393.466   10.194    0.430    0.221  120.625  165.995
  393.716   10.665    0.429    0.230  120.805  165.694
  393.966   11.302    0.432    0.234  120.806  165.291
  394.216   12.093    0.439    0.233  120.210  164.384
  394.466   13.281    0.449    0.236  116.256  162.922
  394.716   14.787    0.446    0.248  104.830  161.661
  394.966   16.354    0.437    0.251  105.308  160.855
  395.216   18.288    0.435    0.248  106.322  160.049
  395.466   20.756    0.434    0.234  105.727  159.243
  395.716   23.831    0.427    0.213  102.866  158.134
  395.966   27.746    0.395    0.191   97.332  156.200
  396.216   30.654    0.352    0.131   91.123  156.622
  396.466   28.693    0.270    0.106   85.400  160.662
  396.716   25.218    0.271    0.115   79.499  162.581
  396.966   22.060    0.313    0.181   79.261  162.583
  397.216   19.937    0.370    0.264   84.985  161.675
  397.466   19.031    0.431    0.262   91.723  161.761
  397.716   18.745    0.425    0.261   93.215  162.183
  397.966   18.882    0.429    0.257   93.931  161.377
  398.216   19.332    0.435    0.254   94.110  159.662
  398.466   19.976    0.436    0.242   94.469  158.654
  398.716   20.572    0.432    0.223   95.185  158.857
  398.966   20.692    0.429    0.200   95.703  160.087
  399.216   20.536    0.416    0.157   94.710  162.192
  399.466   19.798    0.387    0.135   93.995  162.193
  399.716   18.771    0.336    0.126   91.671  161.286
  399.966   17.506    0.305    0.149   90.599  160.480
  400.216   16.164    0.317    0.198   91.672  160.279
  400.466   14.839    0.383    0.243   94.019  160.769
  400.716   14.397    0.411    0.242   95.013  161.190
  400.966   14.822    0.421    0.226   95.252  161.192
  401.216   15.755    0.426    0.225   97.280  161.496
  401.466   17.180    0.422    0.222   98.474  161.901
  401.716   18.716    0.411    0.210   97.521  162.206
  401.966   19.273    0.401    0.185   92.931  162.459
  402.216   19.273    0.376    0.157   85.479  163.723
  402.466   18.718    0.354    0.149   87.864  164.532
  402.716   17.678    0.332    0.169   93.291  163.221
  402.966   16.046    0.349    0.189   97.107  161.607
  403.216   14.502    0.395    0.204   98.479  160.700
  403.466   13.886    0.414    0.228   99.941  160.702
  403.716   13.886    0.408    0.220   97.706  160.703
  403.966   14.399    0.411    0.211   98.184  161.916
  404.216   15.497    0.411    0.200   98.125  163.431
  404.466   16.682    0.409    0.187   97.052  164.846
  404.716   17.376    0.403    0.168   95.027  165.756
  404.966   16.857    0.382    0.140   91.649  165.674
  405.216   15.634    0.344    0.125   86.681  165.254
  405.466   14.634    0.343    0.178   86.205  165.659
  405.716   13.702    0.377    0.219   90.022  166.368
  405.966   13.125    0.408    0.234   93.361  166.773
  406.216   12.842    0.422    0.229   95.329  166.774
  406.466   12.584    0.428    0.225   99.007  166.860
  406.716   12.681    0.420    0.215   99.505  167.282
  406.966   12.681    0.410    0.229  100.698  167.687
  407.216   12.751    0.415    0.221  103.143  168.092
  407.466   12.797    0.419    0.214  104.813  168.498
  407.716   12.798    0.419    0.211  104.933  168.903
  407.966   12.779    0.418    0.201  104.427  169.308
  408.216   12.682    0.417    0.200  106.664  169.309
  408.466   12.591    0.411    0.214  109.049  170.119
  408.716   12.431    0.412    0.210  110.004  170.322
  408.966   12.161    0.416    0.202  109.290  169.717
  409.216   11.790    0.420    0.192  107.562  168.608
  409.466   11.283    0.418    0.181  106.767  167.802
  409.716   10.864    0.424    0.191  108.756  167.804
  409.966   10.551    0.434    0.214  114.718  169.016
  410.216   10.706    0.444    0.209  117.462  170.532
  410.466   10.825    0.453    0.188  117.343  171.139
  410.716   10.667    0.453    0.159  115.138  170.838
  410.966   10.208    0.439    0.128  111.890  170.755
  411.216    9.830    0.431    0.140  111.145  170.336
  411.466    9.758    0.424    0.187  117.346  169.934
  411.716    9.794    0.427    0.213  123.190  169.834
  411.966    9.866    0.424    0.221  126.172  169.835
  412.216    9.992    0.413    0.218  125.934  169.736
  412.466   10.381    0.409    0.218  124.415  169.333
  412.716   10.867    0.414    0.215  125.161  169.335
  412.966   11.850    0.419    0.195  126.592  168.529
  413.216   13.130    0.417    0.176  125.520  168.025
  413.466   14.843    0.404    0.158  122.421  167.825
  413.716   16.988    0.379    0.132  116.639  167.826
  413.966   19.641    0.334    0.096  105.640  167.828
  414.216   22.735    0.310    0.117  101.915  167.829
  414.466   24.967    0.338    0.155  103.346  167.830
  414.716   24.622    0.373    0.188  105.851  167.832
  414.966   23.575    0.388    0.203  107.283  167.833
  415.216   22.904    0.383    0.199  107.522  167.835
  415.466   22.738    0.385    0.197  108.924  167.836
  415.716   22.739    0.383    0.213  111.160  167.838
  415.966   22.905    0.378    0.218  108.061  167.839
  416.216   23.578    0.377    0.226  108.539  167.235
  416.466   24.627    0.377    0.227  109.970  166.428
  416.716   25.921    0.376    0.222  109.256  165.723
  416.966   27.918    0.370    0.221  102.321  165.237
  417.216   31.570    0.362    0.229   99.838  164.818
  417.466   34.916    0.339    0.250   91.016  163.608
  417.716   37.645    0.333    0.278   77.006  161.186
  417.966   41.029    0.336    0.300   65.322  158.765
  418.216   45.503    0.343    0.308   58.823  157.251
  418.466   49.491    0.345    0.304   56.370  157.673
  418.716   50.251    0.359    0.302   59.600  159.778
  418.966   47.386    0.365    0.297   63.416  160.587
  419.216   44.693    0.366    0.295   66.696  158.368
  419.466   41.842    0.367    0.295   70.751  157.359
  419.716   39.215    0.371    0.298   75.641  158.471
  419.966   37.080    0.371    0.300   79.726  159.365
  420.216   34.909    0.370    0.293   77.491  159.787
  420.466   33.903    0.376    0.297   76.776  158.980
  420.716   32.928    0.379    0.301   81.068  158.780
  420.966   31.983    0.381    0.303   85.243  159.185
  421.216   30.890    0.384    0.301   88.225  159.490
  421.466   28.951    0.393    0.293   95.728  158.196
  421.716   27.053    0.400    0.296  109.390  157.776
  421.966   23.500    0.392    0.204  119.646  159.393
  422.216   17.120    0.374    0.170  126.861  161.312
  422.466   13.275    0.358    0.177  126.625  163.736
  422.716   10.958    0.353    0.200  120.961  166.161
  422.966    8.472    0.366    0.202  118.985  166.953
