~VERSION INFORMATION
 VERS.                 2.0:   CWLS LOG ASCII STANDARD -VERSION 2.0
 WRAP.                  NO:   ONE LINE PER DEPTH STEP
~WELL INFORMATION BLOCK
#MNEM.UNIT           DATA                    DESCRIPTION OF MNEMONIC
#---------    -------------------            -------------------------------
# Generated from Intellog Unique Number	CS_73_76/WELL/737
WELL.         MAYNARD EXPLORATION            : Well_name    - WELL
LOC .         00/07-10-073-12W4/0            : Location     - LOCATION
UWI .         00/07-10-073-12W4/0            : Uwi          - UNIQUE WELL ID
ENTR.         SP                             : Entered      - ENTERED BY
SRVC.         SCHLUMBERGER                   : Scn          - SERVICE COMPANY
STRT.M        285                            : top_depth    - START DEPTH
STOP.M        520                            : bot_depth    - STOP DEPTH
STEP.M        0.25                           : increment    - STEP LENGTH
 NULL. -999.2500:NULL Value
~CURVE INFORMATION BLOCK
#MNEM UNIT       ERCB CURVE CODE    CURVE DESCRIPTION
#-----------   ------------------   ----------------------------------
DEPT.M        00 001 00 00         : DEPTH        - DEPTH
ILD .OHMM     00 120 00 00         : RESD         - DEEP RESISTIVITY (DIL)
DPHI.V/V      00 890 00 00         : PHID         - DENSITY POROSITY (LIMESTONE)
NPHI.V/V      00 330 00 00         : PHIN         - NEUTRON POROSITY (LIMESTONE)
GR  .API      00 310 00 00         : GR           - GAMMA RAY
~PARAMETER INFORMATION
#MNEM.UNIT           DATA             DESCRIPTION OF MNEMONIC
#---------         -----------     ------------------------------
GL  .M        638.29               : gl           - GROUND LEVEL ELEVATION
EREF.M        641.49               : kb           - ELEVATION OF DEPTH REFERENCE
DATM.M        638.29               : datum        - DATUM ELEVATION
TDD .M        535                  : tdd          - TOTAL DEPTH DRILLER
RUN .         ONE                  : Run          - RUN NUMBER
ENG .         BILL                 : Engineer     - RECORDING ENGINEER
WIT .         JIM                  : Witness      - WITNESSED BY
MUD .         GEL                  : Mud_type     - MUD TYPE
MATR.         LIMESTONE            : Logunit      - NEUTRON MATRIX
TMAX.C        23                   : BHT          - MAXIMUM RECORDED TEMPERATURE
BHTD.M        535                  : BHTDEP       - MAXIMUM RECORDED TEMPERATURE
MATR.         1                    : LOGUNIT      - NEUTRON MATRIX
RMT .C        25                   : MDTP         - TEMPERATURE OF MUD
NEUT.         1                    : NEUTRON      - NEUTRON TYPE
RESI.         0                    : RESIST       - RESISTIVITY TYPE
RMC .OHMM     0.25                 : RMC          - RESISTIVITY OF MUD CAKE
RMF .OHMM     0.25                 : RMF          - RESISTIVITY OF MUD FILTRATE
SUFT.C        15                   : SUFT         - SURFACE TEMPERATURE
~A  DEPTH     RESD     PHID     PHIN       GR
  285.000    3.008    0.211    0.463   91.465
  285.250    3.090    0.118    0.461   95.741
  285.500    3.090    0.191    0.467  100.021
  285.750    3.091    0.250    0.484  103.076
  286.000    3.173    0.256    0.500  106.742
  286.250    3.254    0.253    0.508  105.533
  286.500    3.255    0.256    0.486  103.106
  286.750    3.336    0.259    0.464  101.284
  287.000    3.418    0.267    0.442  100.682
  287.250    3.419    0.274    0.461  100.082
  287.500    3.500    0.278    0.471  100.705
  287.750    3.582    0.284    0.478  103.760
  288.000    3.583    0.273    0.477  106.816
  288.250    3.583    0.265    0.480  105.609
  288.500    3.665    0.259    0.477  103.180
  288.750    3.665    0.248    0.473  102.575
  289.000    3.666    0.246    0.468  104.418
  289.250    3.666    0.245    0.471  105.034
  289.500    3.748    0.267    0.477  104.434
  289.750    3.748    0.283    0.479  104.445
  290.000    3.749    0.294    0.474  105.061
  290.250    3.749    0.287    0.480  106.290
  290.500    3.749    0.278    0.490  107.520
  290.750    3.669    0.271    0.482  106.921
  291.000    3.669    0.264    0.478  105.102
  291.250    3.669    0.263    0.473  100.231
  291.500    3.589    0.265    0.477   97.799
  291.750    3.589    0.266    0.484   96.589
  292.000    3.508    0.268    0.476   97.818
  292.250    3.509    0.277    0.466   96.607
  292.500    3.428    0.264    0.467   94.178
  292.750    3.428    0.261    0.463   92.360
  293.000    3.429    0.261    0.476   93.589
  293.250    3.510    0.265    0.478   96.039
  293.500    3.592    0.294    0.468   96.655
  293.750    3.837    0.308    0.457   95.445
  294.000    4.243    0.294    0.456   86.308
  294.250    4.650    0.266    0.459   78.391
  294.500    5.301    0.259    0.432   72.302
  294.750    6.196    0.239    0.412   66.215
  295.000    6.847    0.305    0.437   61.346
  295.250    7.741    0.368    0.460   57.086
  295.500    8.880    0.349    0.396   51.608
  295.750    9.287    0.313    0.375   49.176
  296.000    9.206    0.297    0.364   51.629
  296.250    8.963    0.284    0.357   54.684
  296.500    8.801    0.282    0.355   50.423
  296.750    8.638    0.282    0.349   44.340
  297.000    8.476    0.283    0.343   42.517
  297.250    8.233    0.273    0.339   49.233
  297.500    8.071    0.270    0.355   57.167
  297.750    7.990    0.277    0.374   69.983
  298.000    7.990    0.289    0.387   80.357
  298.250    8.235    0.295    0.412   82.806
  298.500    8.397    0.268    0.418   79.767
  298.750    8.804    0.192    0.405   73.070
  299.000    9.293    0.119    0.394   69.419
  299.250    9.618    0.064    0.385   71.256
  299.500    9.537    0.206    0.374   82.852
  299.750    8.725    0.244    0.383   93.227
  300.000    8.319    0.256    0.418   98.722
  300.250    7.913    0.257    0.446   96.294
  300.500    7.507    0.249    0.437   95.082
  300.750    7.263    0.260    0.422   96.921
  301.000    7.020    0.257    0.422   99.978
  301.250    6.939    0.250    0.435   99.379
  301.500    6.696    0.247    0.443   98.781
  301.750    6.777    0.250    0.433   98.787
  302.000    6.940    0.255    0.442   97.577
  302.250    7.347    0.252    0.429   95.147
  302.500    7.998    0.253    0.415   91.499
  302.750    8.405    0.264    0.410   89.067
  303.000    8.893    0.272    0.403   95.174
  303.250    9.381    0.277    0.398   97.622
  303.500    9.707    0.284    0.400   98.244
  303.750   10.195    0.291    0.401   98.252
  304.000   10.196    0.273    0.393   96.432
  304.250    9.302    0.262    0.389   95.220
  304.500    8.652    0.290    0.395   97.668
  304.750    7.839    0.313    0.415   92.802
  305.000    7.027    0.363    0.429   90.375
  305.250    6.621    0.382    0.443   89.770
  305.500    6.215    0.311    0.430   90.392
  305.750    5.971    0.280    0.415   89.180
  306.000    5.809    0.258    0.406   86.751
  306.250    5.809    0.256    0.401   84.932
  306.500    5.891    0.245    0.421   83.723
  306.750    5.973    0.238    0.433   84.340
  307.000    6.136    0.215    0.426   84.955
  307.250    6.218    0.199    0.428   86.800
  307.500    6.299    0.210    0.430   88.636
  307.750    6.462    0.221    0.422   90.471
  308.000    6.463    0.235    0.419   91.091
  308.250    6.463    0.237    0.427   94.150
  308.500    6.464    0.237    0.437   89.282
  308.750    6.464    0.246    0.443   89.898
  309.000    6.465    0.241    0.434   92.348
  309.250    6.384    0.232    0.428   94.185
  309.500    6.384    0.228    0.422   96.637
  309.750    6.303    0.237    0.419   97.862
  310.000    6.304    0.239    0.414   98.482
  310.250    6.304    0.221    0.419   97.883
  310.500    6.223    0.214    0.422   97.283
  310.750    6.224    0.201    0.427   97.902
  311.000    6.224    0.198    0.422   99.132
  311.250    6.306    0.209    0.419   99.138
  311.500    6.306    0.228    0.420   99.762
  311.750    6.469    0.247    0.433   99.159
  312.000    6.795    0.248    0.446   97.336
  312.250    7.121    0.242    0.432   90.637
  312.500    7.365    0.245    0.388   80.281
  312.750    7.609    0.250    0.372   75.411
  313.000    8.179    0.261    0.374   71.156
  313.250    8.342    0.269    0.381   71.163
  313.500    8.830    0.286    0.386   72.391
  313.750    9.074    0.298    0.388   69.357
  314.000    9.156    0.302    0.380   69.364
  314.250    8.750    0.297    0.374   73.641
  314.500    8.263    0.288    0.380   77.305
  314.750    7.450    0.279    0.389   87.683
  315.000    6.556    0.259    0.402   95.619
  315.250    5.988    0.227    0.426  104.163
  315.500    5.581    0.192    0.425  110.268
  315.750    5.257    0.195    0.449  113.939
  316.000    5.257    0.205    0.470  115.166
  316.250    5.420    0.218    0.479  115.176
  316.500    5.746    0.222    0.485  112.746
  316.750    6.234    0.195    0.488  107.876
  317.000    6.804    0.172    0.470  105.445
  317.250    7.129    0.174    0.452  107.894
  317.500    8.024    0.223    0.436  106.686
  317.750    8.838    0.277    0.456  104.257
  318.000    9.570    0.311    0.436  101.826
  318.250    9.895    0.306    0.412   98.175
  318.500   10.302    0.304    0.415   99.406
  318.750   10.546    0.295    0.421   98.194
  319.000   10.141    0.274    0.410   95.154
  319.250    9.897    0.272    0.401   89.677
  319.500    9.328    0.275    0.399   84.808
  319.750    8.841    0.279    0.416   86.035
  320.000    8.191    0.283    0.421   93.972
  320.250    7.704    0.302    0.424  101.299
  320.500    7.541    0.316    0.431  104.966
  320.750    7.623    0.323    0.436  105.589
  321.000    7.867    0.308    0.431  105.593
  321.250    8.193    0.316    0.436  105.602
  321.500    8.437    0.338    0.445   99.515
  321.750    8.845    0.357    0.443   94.037
  322.000    9.089    0.257    0.441   90.996
  322.250    9.414    0.232    0.436   89.178
  322.500    9.740    0.242    0.423   91.016
  322.750    9.659    0.236    0.408   94.076
  323.000    9.253    0.210    0.396   95.911
  323.250    9.010    0.202    0.395   97.750
  323.500    8.603    0.216    0.402   99.592
  323.750    8.197    0.238    0.408   99.598
  324.000    8.035    0.265    0.413  100.218
  324.250    8.198    0.287    0.417  102.055
  324.500    8.443    0.301    0.423  102.063
  324.750    8.606    0.312    0.428   97.198
  325.000    9.094    0.318    0.433   95.987
  325.250    9.420    0.296    0.439   96.603
  325.500    9.664    0.264    0.437   96.615
  325.750    9.908    0.265    0.423   95.402
  326.000   10.234    0.268    0.425   91.756
  326.250   10.234    0.268    0.419   91.152
  326.500    9.910    0.255    0.414   92.385
  326.750    9.747    0.243    0.418   93.002
  327.000    9.423    0.231    0.413   95.450
  327.250    9.260    0.223    0.414   96.068
  327.500    9.098    0.232    0.429   96.687
  327.750    8.936    0.242    0.436   94.257
  328.000    8.693    0.234    0.424   93.048
  328.250    8.368    0.217    0.431   93.667
