~VERSION INFORMATION
 VERS.                 2.0:   CWLS LOG ASCII STANDARD -VERSION 2.0
 WRAP.                  NO:   ONE LINE PER DEPTH STEP
~WELL INFORMATION BLOCK
#MNEM.UNIT           DATA                    DESCRIPTION OF MNEMONIC
#---------    -------------------            -------------------------------
# Generated from Intellog Unique Number	CS_73_76/WELL/2160
WELL.         GULF NISBET                    : Well_name    - WELL
LOC .         00/06-08-074-01W4/0            : Location     - LOCATION
UWI .         00/06-08-074-01W4/0            : Uwi          - UNIQUE WELL ID
ENTR.         SP                             : Entered      - ENTERED BY
SRVC.         SCHLUMBERGER                   : Scn          - SERVICE COMPANY
STRT.M        350                            : top_depth    - START DEPTH
STOP.M        630                            : bot_depth    - STOP DEPTH
STEP.M        0.25                           : increment    - STEP LENGTH
 NULL. -999.2500:NULL Value
~CURVE INFORMATION BLOCK
#MNEM UNIT       ERCB CURVE CODE    CURVE DESCRIPTION
#-----------   ------------------   ----------------------------------
DEPT.M        00 001 00 00         : DEPTH        - DEPTH
ILD .OHMM     00 120 00 00         : RESD         - DEEP RESISTIVITY (DIL)
NPHI.V/V      00 330 00 00         : PHIN         - NEUTRON POROSITY (LIMESTONE)
DPHI.V/V      00 890 00 00         : PHID         - DENSITY POROSITY (LIMESTONE)
GR  .API      00 310 00 00         : GR           - GAMMA RAY
~PARAMETER INFORMATION
#MNEM.UNIT           DATA             DESCRIPTION OF MNEMONIC
#---------         -----------     ------------------------------
GL  .M        705.5                : gl           - GROUND LEVEL ELEVATION
EREF.M        709.2                : kb           - ELEVATION OF DEPTH REFERENCE
DATM.M        705.5                : datum        - DATUM ELEVATION
TDD .M        640                  : tdd          - TOTAL DEPTH DRILLER
RUN .         ONE                  : Run          - RUN NUMBER
ENG .         BILL                 : Engineer     - RECORDING ENGINEER
WIT .         JIM                  : Witness      - WITNESSED BY
MUD .         GEL                  : Mud_type     - MUD TYPE
MATR.         LIMESTONE            : Logunit      - NEUTRON MATRIX
TMAX.C        19.5                 : BHT          - MAXIMUM RECORDED TEMPERATURE
BHTD.M        640                  : BHTDEP       - MAXIMUM RECORDED TEMPERATURE
MATR.         1                    : LOGUNIT      - NEUTRON MATRIX
RMT .C        25                   : MDTP         - TEMPERATURE OF MUD
NEUT.         1                    : NEUTRON      - NEUTRON TYPE
RESI.         0                    : RESIST       - RESISTIVITY TYPE
RMC .OHMM     0.25                 : RMC          - RESISTIVITY OF MUD CAKE
RMF .OHMM     0.25                 : RMF          - RESISTIVITY OF MUD FILTRATE
SUFT.C        15                   : SUFT         - SURFACE TEMPERATURE
~A  DEPTH     RESD     PHIN     PHID       GR
# ...
  480.500    2.776    0.415    0.340   68.755
  480.750    2.828    0.437    0.341   69.372
  481.000    2.828    0.444    0.334   71.219
  481.250    2.827    0.441    0.323   73.062
  481.500    2.827    0.433    0.323   71.859
  481.750    2.827    0.432    0.321   74.925
  482.000    2.880    0.449    0.311   76.765
  482.250    2.880    0.466    0.310   75.559
  482.500    2.989    0.459    0.321   71.915
  482.750    3.045    0.447    0.325   70.711
  483.000    3.161    0.438    0.323   70.118
  483.250    3.220    0.430    0.319   69.521
  483.500    3.220    0.420    0.314   69.537
  483.750    3.219    0.404    0.295   70.774
  484.000    3.219    0.388    0.280   71.402
  484.250    3.219    0.389    0.296   71.416
  484.500    3.159    0.426    0.314   70.817
  484.750    3.159    0.440    0.323   69.002
  485.000    3.159    0.437    0.325   69.630
  485.250    3.100    0.427    0.320   70.251
  485.500    3.042    0.423    0.330   70.880
  485.750    3.042    0.421    0.342   71.506
  486.000    2.985    0.430    0.347   71.517
  486.250    2.985    0.452    0.350   69.701
  486.500    2.985    0.462    0.353   68.495
  486.750    2.929    0.451    0.352   70.951
  487.000    2.929    0.428    0.347   72.793
  487.250    2.929    0.415    0.344   70.983
  487.500    2.929    0.413    0.332   70.995
  487.750    2.984    0.424    0.334   71.009
  488.000    2.984    0.444    0.334   67.370
  488.250    2.983    0.458    0.337   66.163
  488.500    3.039    0.471    0.343   66.178
  488.750    3.039    0.482    0.346   67.413
  489.000    3.039    0.481    0.360   69.867
  489.250    2.982    0.445    0.363   71.707
  489.500    2.982    0.432    0.362   68.065
  489.750    2.982    0.431    0.360   66.862
  490.000    2.981    0.441    0.356   68.710
  490.250    2.926    0.438    0.354   70.551
  490.500    2.926    0.434    0.341   74.221
  490.750    2.926    0.429    0.333   76.066
  491.000    2.925    0.424    0.329   75.471
  491.250    2.925    0.421    0.328   74.271
  491.500    2.871    0.420    0.329   73.063
  491.750    2.871    0.419    0.324   71.251
  492.000    2.870    0.448    0.323   70.042
  492.250    2.870    0.436    0.322   67.621
  492.500    2.870    0.427    0.322   67.632
  492.750    2.870    0.427    0.321   68.867
  493.000    2.816    0.447    0.323   70.713
  493.250    2.816    0.440    0.331   70.122
  493.500    2.816    0.430    0.336   70.743
  493.750    2.764    0.442    0.339   71.978
  494.000    2.763    0.457    0.341   71.991
  494.250    2.712    0.446    0.334   70.179
  494.500    2.712    0.431    0.335   70.802
  494.750    2.712    0.429    0.336   72.645
  495.000    2.661    0.446    0.338   75.101
  495.250    2.711    0.456    0.337   76.334
  495.500    2.711    0.468    0.332   75.740
  495.750    2.711    0.470    0.319   75.145
  496.000    2.762    0.457    0.314   73.941
  496.250    2.761    0.455    0.301   73.956
  496.500    2.866    0.463    0.289   76.409
  496.750    2.920    0.475    0.275   80.082
  497.000    3.088    0.476    0.264   82.535
  497.250    3.266    0.435    0.248   80.721
  497.500    3.518    0.405    0.224   75.248
  497.750    3.721    0.370    0.200   74.045
  498.000    3.935    0.333    0.171   81.988
  498.250    4.161    0.382    0.208   86.269
  498.500    4.161    0.407    0.243   91.164
  498.750    3.934    0.425    0.262   93.006
  499.000    3.789    0.436    0.272   91.801
  499.250    3.583    0.445    0.274   91.206
  499.500    3.451    0.455    0.265   91.227
  499.750    3.324    0.464    0.255   90.628
  500.000    3.324    0.472    0.269   88.201
  500.250    3.262    0.459    0.284   83.339
  500.500    3.262    0.447    0.293   80.306
  500.750    3.262    0.452    0.296   80.322
  501.000    3.261    0.461    0.292   81.555
  501.250    3.323    0.455    0.299   82.789
  501.500    3.322    0.450    0.305   82.807
  501.750    3.322    0.442    0.311   84.041
  502.000    3.260    0.420    0.321   85.273
  502.250    3.200    0.414    0.341   87.121
  502.500    3.025    0.491    0.369   87.134
  502.750    2.914    0.517    0.376   84.707
  503.000    2.755    0.559    0.376   81.674
  503.250    2.654    0.583    0.382   79.859
  503.500    2.605    0.602    0.387   82.316
  503.750    2.604    0.604    0.388   85.994
  504.000    2.653    0.585    0.351   87.222
  504.250    2.754    0.546    0.325   90.287
  504.500    2.806    0.521    0.286   92.131
  504.750    3.080    0.521    0.280   90.924
  505.000    3.445    0.496    0.272   88.501
  505.250    3.781    0.478    0.261   87.298
  505.500    4.074    0.435    0.249   84.872
  505.750    4.309    0.421    0.267   81.840
  506.000    4.308    0.438    0.274   78.803
  506.250    4.228    0.426    0.252   81.257
  506.500    4.073    0.457    0.256   89.810
  506.750    3.923    0.490    0.258   96.532
  507.000    3.923    0.510    0.244   95.937
  507.250    3.997    0.514    0.250   94.731
  507.500    4.306    0.451    0.257   96.579
  507.750    4.640    0.437    0.246   99.030
  508.000    4.907    0.441    0.247   96.607
  508.250    4.999    0.440    0.248   94.182
  508.500    4.998    0.447    0.243   96.031
  508.750    4.815    0.464    0.257   97.875
  509.000    4.468    0.471    0.249  100.331
  509.250    4.146    0.481    0.258  101.559
  509.500    3.994    0.495    0.264  102.797
  509.750    3.706    0.498    0.258  102.808
  510.000    3.570    0.492    0.264  103.434
  510.250    3.375    0.521    0.258  104.056
  510.500    3.191    0.546    0.248  100.412
  510.750    3.312    0.555    0.239   96.769
  511.000    3.503    0.541    0.237   94.955
  511.250    3.918    0.494    0.239   93.146
  511.500    4.548    0.436    0.237   91.937
  511.750    4.993    0.392    0.233   88.907
  512.000    5.379    0.388    0.239   85.869
  512.250    5.689    0.393    0.250   80.394
  512.500    5.905    0.413    0.260   74.311
  512.750    6.129    0.403    0.266   74.938
  513.000    6.128    0.396    0.267   77.393
  513.250    6.128    0.394    0.271   76.798
  513.500    6.243    0.402    0.272   74.984
  513.750    6.242    0.402    0.274   76.825
  514.000    6.359    0.406    0.271   79.280
  514.250    6.359    0.408    0.265   80.518
  514.500    6.478    0.403    0.261   80.535
  514.750    6.478    0.407    0.255   80.544
  515.000    6.599    0.406    0.246   79.951
  515.250    6.599    0.398    0.243   78.136
  515.500    6.476    0.382    0.234   74.492
  515.750    6.238    0.370    0.229   70.846
  516.000    6.009    0.361    0.259   70.862
  516.250    5.897    0.396    0.285   73.926
  516.500    5.681    0.413    0.280   77.599
  516.750    5.472    0.399    0.278   80.053
  517.000    5.271    0.385    0.278   78.243
  517.250    5.078    0.373    0.277   77.034
  517.500    4.983    0.366    0.277   75.221
  517.750    4.891    0.362    0.277   74.624
  518.000    4.800    0.360    0.290   69.763
  518.250    4.799    0.368    0.304   69.168
  518.500    4.799    0.388    0.314   71.012
  518.750    4.889    0.396    0.314   71.639
  519.000    4.981    0.397    0.308   74.700
  519.250    5.074    0.407    0.301   77.154
  519.500    5.267    0.403    0.305   78.387
  519.750    5.366    0.394    0.307   80.846
  520.000    5.569    0.385    0.295   82.685
  520.250    5.781    0.385    0.283   84.530
  520.500    6.000    0.373    0.260   86.374
  520.750    6.345    0.358    0.246   89.440
  521.000    6.464    0.351    0.231   91.891
  521.250    6.836    0.357    0.226   91.906
  521.500    7.096    0.369    0.226   90.703
  521.750    7.229    0.387    0.224   90.717
  522.000    7.364    0.394    0.228   91.951
  522.250    7.644    0.403    0.224   95.016
  522.500    7.643    0.398    0.209  100.521
  522.750    7.786    0.385    0.203  104.192
  523.000    7.786    0.380    0.196  102.377
  523.250    7.785    0.397    0.200   96.293
  523.500    7.785    0.356    0.211   89.604
  523.750    7.784    0.349    0.205   85.957
