~VERSION INFORMATION
 VERS.                 2.0:   CWLS LOG ASCII STANDARD -VERSION 2.0
 WRAP.                  NO:   ONE LINE PER DEPTH STEP
~WELL INFORMATION BLOCK
#MNEM.UNIT           DATA                    DESCRIPTION OF MNEMONIC
#---------    -------------------            -------------------------------
# Generated from Intellog Unique Number	CS_71_72/WELL/737
WELL.         KISSINGER ET AL CORRIGAL       : Well_name    - WELL
LOC .         00/06-07-072-11W4/0            : Location     - LOCATION
UWI .         00/06-07-072-11W4/0            : Uwi          - UNIQUE WELL ID
ENTR.         SP                             : Entered      - ENTERED BY
SRVC.         SCHLUMBERGER                   : Scn          - SERVICE COMPANY
STRT.M        300                            : top_depth    - START DEPTH
STOP.M        529                            : bot_depth    - STOP DEPTH
STEP.M        0.25                           : increment    - STEP LENGTH
 NULL. -999.2500:NULL Value
~CURVE INFORMATION BLOCK
#MNEM UNIT       ERCB CURVE CODE    CURVE DESCRIPTION
#-----------   ------------------   ----------------------------------
DEPT.M        00 001 00 00         : DEPTH        - DEPTH
ILD .OHMM     00 120 00 00         : RESD         - DEEP RESISTIVITY (DIL)
DPHI.V/V      00 890 00 00         : PHID         - DENSITY POROSITY (LIMESTONE)
NPHI.V/V      00 330 00 00         : PHIN         - NEUTRON POROSITY (LIMESTONE)
GR  .API      00 310 00 00         : GR           - GAMMA RAY
~PARAMETER INFORMATION
#MNEM.UNIT           DATA             DESCRIPTION OF MNEMONIC
#---------         -----------     ------------------------------
GL  .M        641.09               : gl           - GROUND LEVEL ELEVATION
EREF.M        644.99               : kb           - ELEVATION OF DEPTH REFERENCE
DATM.M        641.09               : datum        - DATUM ELEVATION
TDD .M        513                  : tdd          - TOTAL DEPTH DRILLER
RUN .         ONE                  : Run          - RUN NUMBER
ENG .         BILL                 : Engineer     - RECORDING ENGINEER
WIT .         JIM                  : Witness      - WITNESSED BY
MUD .         GEL                  : Mud_type     - MUD TYPE
MATR.         LIMESTONE            : Logunit      - NEUTRON MATRIX
TMAX.C        30                   : BHT          - MAXIMUM RECORDED TEMPERATURE
BHTD.M        513                  : BHTDEP       - MAXIMUM RECORDED TEMPERATURE
MATR.         1                    : LOGUNIT      - NEUTRON MATRIX
RMT .C        25                   : MDTP         - TEMPERATURE OF MUD
NEUT.         1                    : NEUTRON      - NEUTRON TYPE
RESI.         0                    : RESIST       - RESISTIVITY TYPE
RMC .OHMM     0.25                 : RMC          - RESISTIVITY OF MUD CAKE
RMF .OHMM     0.25                 : RMF          - RESISTIVITY OF MUD FILTRATE
SUFT.C        15                   : SUFT         - SURFACE TEMPERATURE
~A  DEPTH     RESD     PHID     PHIN       GR
# ...
  474.000    9.051    0.233    0.341   63.465
  474.250    9.452    0.230    0.332   64.684
  474.500    9.612    0.223    0.326   66.515
  474.750    9.693    0.211    0.322   68.343
  475.000    9.451    0.195    0.337   71.388
  475.250    9.210    0.184    0.359   73.214
  475.500    9.692    0.180    0.374   75.652
  475.750   10.977    0.218    0.401   68.372
  476.000   12.101    0.241    0.336   62.305
  476.250   13.145    0.238    0.287   55.025
  476.500   14.269    0.206    0.262   56.248
  476.750   14.911    0.161    0.247   63.547
  477.000   14.670    0.133    0.295   67.197
  477.250   13.304    0.175    0.325   70.846
  477.500   11.939    0.200    0.353   76.926
  477.750   11.055    0.214    0.365   82.400
  478.000    9.689    0.227    0.361   83.013
  478.250    9.207    0.231    0.354   84.236
  478.500    8.885    0.220    0.347   87.889
  478.750    8.564    0.207    0.354   89.716
  479.000    8.403    0.199    0.354   92.761
  479.250    8.322    0.197    0.344   93.982
  479.500    8.161    0.199    0.345   93.380
  479.750    8.241    0.205    0.360   87.316
  480.000    8.321    0.214    0.345   84.893
  480.250    8.482    0.225    0.310   88.547
  480.500    8.722    0.205    0.310   93.411
  480.750    8.803    0.191    0.331   98.277
  481.000    8.883    0.184    0.348  101.321
  481.250    8.963    0.195    0.348   99.506
  481.500    9.525    0.214    0.339   85.546
  481.750   10.328    0.259    0.302   75.229
  482.000   11.211    0.265    0.286   64.305
  482.250   11.853    0.238    0.268   58.847
  482.500   12.174    0.226    0.300   62.501
  482.750   12.013    0.221    0.328   65.545
  483.000   11.611    0.218    0.345   66.764
  483.250   11.129    0.215    0.343   68.595
  483.500   10.968    0.215    0.326   70.423
  483.750   11.450    0.221    0.314   71.645
  484.000   11.851    0.226    0.299   68.008
  484.250   12.574    0.240    0.277   61.943
  484.500   13.537    0.250    0.265   58.916
  484.750   14.662    0.230    0.292   58.925
  485.000   15.545    0.218    0.271   58.322
  485.250   16.187    0.223    0.265   51.649
  485.500   16.428    0.235    0.272   48.015
  485.750   16.588    0.241    0.312   52.271
  486.000   16.508    0.241    0.332   64.425
  486.250   15.945    0.216    0.323   72.934
  486.500   13.937    0.197    0.327   75.370
  486.750   12.812    0.189    0.314   75.985
  487.000   11.527    0.184    0.309   75.995
  487.250   10.884    0.187    0.299   73.572
  487.500   10.884    0.237    0.294   61.432
  487.750   11.446    0.280    0.287   54.760
  488.000   12.329    0.293    0.320   51.125
  488.250   13.052    0.280    0.346   49.916
  488.500   13.935    0.276    0.353   49.924
  488.750   14.658    0.269    0.340   51.755
  489.000   15.220    0.263    0.343   52.975
  489.250   15.540    0.257    0.351   52.983
  489.500   15.460    0.244    0.338   54.208
  489.750   12.086    0.227    0.316   62.713
  490.000    9.275    0.199    0.358   87.622
  490.250    7.266    0.162    0.395   95.522
  490.500    6.142    0.145    0.431  101.602
  490.750    5.418    0.136    0.466  107.682
  491.000    4.936    0.121    0.428  100.403
  491.250    4.775    0.053    0.412   97.373
  491.500    5.096    0.036    0.435   97.990
  491.750    5.337    0.152    0.380   90.708
  492.000    5.979    0.264    0.323   73.713
  492.250    6.381    0.329    0.266   60.966
  492.500    6.702    0.316    0.288   42.149
  492.750    6.621    0.306    0.328   37.298
  493.000    6.380    0.295    0.331   36.698
  493.250    6.058    0.292    0.322   39.134
  493.500    5.576    0.291    0.345   41.571
  493.750    5.335    0.290    0.341   42.793
  494.000    5.335    0.289    0.334   47.052
  494.250    5.174    0.280    0.334   52.527
  494.500    4.852    0.270    0.343   55.569
  494.750    4.531    0.276    0.353   57.396
  495.000    4.370    0.270    0.348   61.051
  495.250    4.369    0.249    0.345   62.877
  495.500    4.289    0.230    0.340   65.922
  495.750    4.288    0.217    0.326   68.966
  496.000    4.288    0.233    0.318   69.581
  496.250    4.368    0.245    0.319   67.160
  496.500    4.529    0.239    0.308   67.165
  496.750    4.769    0.213    0.296   67.781
  497.000    5.010    0.193    0.290   72.646
  497.250    5.572    0.175    0.286   78.728
  497.500    5.973    0.169    0.300   81.162
  497.750    6.214    0.171    0.307   83.598
  498.000    6.615    0.173    0.323   83.607
  498.250    6.936    0.178    0.336   84.829
  498.500    7.017    0.178    0.344   95.769
  498.750    6.936    0.172    0.338   99.417
  499.000    6.936    0.167    0.319  106.106
  499.250    7.176    0.167    0.320  108.542
  499.500    7.578    0.174    0.337   95.189
  499.750    8.059    0.183    0.332   75.157
  500.000    8.380    0.223    0.320   67.875
  500.250    8.621    0.240    0.287   63.633
  500.500    9.022    0.214    0.275   68.500
  500.750    9.102    0.172    0.292   72.151
  501.000    9.182    0.182    0.309   73.980
  501.250    9.022    0.211    0.318   76.416
  501.500    8.861    0.220    0.304   80.675
  501.750    8.941    0.199    0.293   85.539
  502.000    9.262    0.162    0.293   92.227
  502.250   10.225    0.148    0.370   94.664
  502.500   11.430    0.196    0.422   78.881
  502.750   13.920    0.228    0.422   44.881
  503.000   16.490    0.277    0.406   29.099
  503.250   19.220    0.300    0.390   30.323
  503.500   20.425    0.298    0.371   32.757
  503.750   21.067    0.296    0.342   37.626
  504.000   21.629    0.296    0.332   40.060
  504.250   21.950    0.296    0.333   44.931
  504.500   21.789    0.299    0.354   47.973
  504.750   20.745    0.299    0.366   49.800
  505.000   17.371    0.293    0.370   54.669
  505.250   14.800    0.283    0.357   56.495
  505.500   12.230    0.268    0.339   60.145
  505.750   11.105    0.254    0.325   67.439
  506.000   10.703    0.233    0.382   72.306
  506.250   11.265    0.210    0.430   73.528
  506.500   12.711    0.242    0.380   64.426
  506.750   14.879    0.270    0.345   57.755
  507.000   16.566    0.270    0.357   55.332
  507.250   17.369    0.272    0.378   55.338
  507.500   17.931    0.277    0.389   57.777
  507.750   15.119    0.287    0.363   59.606
  508.000   11.906    0.247    0.291   62.042
  508.250   10.621    0.181    0.266   67.514
  508.500    9.737    0.153    0.253   72.987
  508.750    9.335    0.133    0.266   78.460
  509.000    9.174    0.123    0.308   82.112
  509.250    9.174    0.124    0.318   82.726
  509.500    9.173    0.144    0.311   80.304
  509.750    9.334    0.151    0.304   76.668
  510.000    9.414    0.162    0.314   71.820
  510.250    9.735    0.165    0.322   69.397
  510.500   10.859    0.171    0.329   66.972
  510.750   11.421    0.191    0.335   61.514
  511.000   12.545    0.208    0.346   54.235
  511.250   13.589    0.222    0.315   50.599
  511.500   14.392    0.223    0.310   50.607
  511.750   15.115    0.223    0.318   48.793
  512.000   15.757    0.229    0.346   46.369
  512.250   16.319    0.235    0.351   42.733
  512.500   17.283    0.260    0.367   37.886
  512.750   17.925    0.287    0.385   36.068
  513.000   17.925    0.309    0.346   31.824
  513.250   13.989    0.289    0.362   39.124
  513.500   11.579    0.249    0.334   42.163
  513.750   10.454    0.227    0.315   49.459
  514.000    9.249    0.218    0.306   57.361
  514.250    8.204    0.201    0.317   67.085
  514.500    7.401    0.182    0.328   73.164
  514.750    6.678    0.165    0.314   78.637
  515.000    6.356    0.152    0.328   84.112
  515.250    5.954    0.130    0.330   87.761
  515.500    5.713    0.126    0.335   96.878
  515.750    5.392    0.129    0.387   98.102
  516.000    4.749    0.200    0.434   96.285
  516.250    3.945    0.222    0.415   70.179
  516.500    3.383    0.288    0.381   39.216
  516.750    2.820    0.320    0.362   31.936
  517.000    2.579    0.323    0.385   25.870
  517.250    2.498    0.319    0.363   24.663
