~VERSION INFORMATION
 VERS.                 2.0:   CWLS LOG ASCII STANDARD -VERSION 2.0
 WRAP.                  NO:   ONE LINE PER DEPTH STEP
~WELL INFORMATION BLOCK
#MNEM.UNIT           DATA                    DESCRIPTION OF MNEMONIC
#---------    -------------------            -------------------------------
# Generated from Intellog Unique Number	CS_69_70/WELL/813
WELL.         ET AL TWEEDIE                  : Well_name    - WELL
LOC .         00/07-07-069-12W4/0            : Location     - LOCATION
UWI .         00/07-07-069-12W4/0            : Uwi          - UNIQUE WELL ID
ENTR.         SP                             : Entered      - ENTERED BY
SRVC.         SCHLUMBERGER                   : Scn          - SERVICE COMPANY
STRT.M        290                            : top_depth    - START DEPTH
STOP.M        499                            : bot_depth    - STOP DEPTH
STEP.M        0.25                           : increment    - STEP LENGTH
 NULL. -999.2500:NULL Value
~CURVE INFORMATION BLOCK
#MNEM UNIT       ERCB CURVE CODE    CURVE DESCRIPTION
#-----------   ------------------   ----------------------------------
DEPT.M        00 001 00 00         : DEPTH        - DEPTH
ILD .OHMM     00 120 00 00         : RESD         - DEEP RESISTIVITY (DIL)
DPHI.V/V      00 890 00 00         : PHID         - DENSITY POROSITY (LIMESTONE)
NPHI.V/V      00 330 00 00         : PHIN         - NEUTRON POROSITY (LIMESTONE)
GR  .API      00 310 00 00         : GR           - GAMMA RAY
~PARAMETER INFORMATION
#MNEM.UNIT           DATA             DESCRIPTION OF MNEMONIC
#---------         -----------     ------------------------------
GL  .M        598.64               : gl           - GROUND LEVEL ELEVATION
EREF.M        601.19               : kb           - ELEVATION OF DEPTH REFERENCE
DATM.M        598.64               : datum        - DATUM ELEVATION
TDD .M        495                  : tdd          - TOTAL DEPTH DRILLER
RUN .         ONE                  : Run          - RUN NUMBER
ENG .         BILL                 : Engineer     - RECORDING ENGINEER
WIT .         JIM                  : Witness      - WITNESSED BY
MUD .         GEL                  : Mud_type     - MUD TYPE
MATR.         LIMESTONE            : Logunit      - NEUTRON MATRIX
TMAX.C        27                   : BHT          - MAXIMUM RECORDED TEMPERATURE
BHTD.M        495                  : BHTDEP       - MAXIMUM RECORDED TEMPERATURE
MATR.         1                    : LOGUNIT      - NEUTRON MATRIX
RMT .C        25                   : MDTP         - TEMPERATURE OF MUD
NEUT.         1                    : NEUTRON      - NEUTRON TYPE
RESI.         0                    : RESIST       - RESISTIVITY TYPE
RMC .OHMM     0.25                 : RMC          - RESISTIVITY OF MUD CAKE
RMF .OHMM     0.25                 : RMF          - RESISTIVITY OF MUD FILTRATE
SUFT.C        15                   : SUFT         - SURFACE TEMPERATURE
~A  DEPTH     RESD     PHID     PHIN       GR
# ...
  464.000    5.901    0.182    0.325   75.339
  464.250    5.982    0.190    0.318   82.230
  464.500    5.997    0.179    0.312   86.804
  464.750    6.000    0.173    0.319   82.845
  465.000    5.983    0.178    0.329   72.182
  465.250    5.953    0.192    0.340   65.846
  465.500    5.924    0.204    0.339   64.569
  465.750    5.863    0.219    0.329   73.288
  466.000    5.812    0.227    0.330   81.337
  466.250    5.794    0.217    0.329   82.071
  466.500    5.799    0.197    0.320   76.161
  466.750    5.878    0.179    0.317   76.714
  467.000    6.162    0.168    0.320   78.788
  467.250    6.328    0.162    0.312   64.711
  467.500    6.463    0.173    0.301   69.652
  467.750    6.455    0.183    0.305   73.251
  468.000    6.271    0.190    0.312   72.400
  468.250    6.251    0.186    0.317   64.845
  468.500    6.349    0.176    0.307   62.471
  468.750    6.485    0.170    0.299   63.998
  469.000    6.635    0.164    0.292   66.804
  469.250    6.842    0.172    0.288   63.211
  469.500    6.845    0.180    0.284   59.862
  469.750    6.673    0.187    0.296   56.878
  470.000    6.399    0.181    0.309   55.662
  470.250    6.297    0.199    0.298   58.957
  470.500    6.219    0.211    0.286   60.422
  470.750    6.041    0.229    0.275   54.574
  471.000    5.357    0.246    0.278   53.236
  471.250    4.461    0.266    0.287   51.776
  471.500    4.060    0.281    0.310   43.855
  471.750    3.758    0.279    0.328   50.624
  472.000    3.719    0.278    0.323   56.722
  472.250    3.763    0.279    0.312   61.175
  472.500    3.872    0.266    0.303   61.604
  472.750    3.976    0.219    0.296   55.207
  473.000    4.091    0.200    0.291   73.374
  473.250    4.171    0.200    0.294   87.823
  473.500    4.097    0.215    0.297   92.336
  473.750    4.017    0.226    0.298  101.117
  474.000    3.997    0.077    0.297  108.556
  474.250    4.167    0.065    0.295  106.426
  474.500    4.784    0.068    0.284  101.796
  474.750    5.224    0.080    0.349  100.702
  475.000    5.589    0.090    0.378  101.376
  475.250    5.880    0.106    0.366   93.942
  475.500    5.973    0.127    0.340   84.741
  475.750    5.717    0.151    0.306   74.260
  476.000    5.450    0.179    0.280   60.610
  476.250    4.597    0.235    0.260   57.748
  476.500    3.841    0.295    0.253   59.153
  476.750    3.413    0.230    0.277   59.400
  477.000    3.224    0.201    0.296   61.963
  477.250    3.115    0.227    0.313   66.476
  477.500    3.145    0.245    0.326   72.331
  477.750    3.372    0.248    0.332   67.214
  478.000    3.567    0.248    0.325   73.495
  478.250    3.910    0.248    0.320   80.446
  478.500    4.309    0.235    0.328   81.486
  478.750    4.645    0.222    0.331   87.401
  479.000    4.842    0.210    0.321   96.912
  479.250    4.991    0.198    0.312  102.584
  479.500    5.145    0.189    0.306  106.305
  479.750    5.255    0.175    0.296  109.539
  480.000    5.347    0.159    0.287  113.504
  480.250    5.412    0.156    0.280  105.339
  480.500    5.354    0.156    0.283   96.565
  480.750    4.938    0.172    0.307   84.560
  481.000    4.587    0.213    0.331   76.761
  481.250    4.333    0.243    0.312   67.926
  481.500    4.170    0.272    0.299   61.041
  481.750    4.096    0.292    0.287   53.547
  482.000    4.054    0.278    0.315   46.053
  482.250    3.996    0.273    0.308   39.412
  482.500    3.706    0.272    0.305   46.851
  482.750    3.238    0.285    0.313   53.315
  483.000    3.013    0.277    0.308   52.160
  483.250    3.089    0.268    0.298   46.433
  483.500    3.299    0.267    0.293   41.743
  483.750    3.556    0.276    0.311   35.833
  484.000    3.862    0.285    0.317   34.617
  484.250    4.063    0.297    0.306   71.375
  484.500    4.290    0.294    0.297   83.203
  484.750    4.398    0.284    0.286   89.179
  485.000    4.280    0.280    0.285   91.194
  485.250    4.119    0.299    0.299   77.604
  485.500    3.986    0.238    0.378   65.051
  485.750    3.901    0.210    0.376   53.777
  486.000    3.861    0.221    0.346   41.712
  486.250    3.842    0.230    0.298   26.537
  486.500    3.851    0.152    0.252  103.463
  486.750    3.883    0.130    0.278  114.498
  487.000    3.907    0.107    0.314  117.732
  487.250    3.939    0.091    0.340  117.918
  487.500    3.986    0.075    0.364  118.287
  487.750    4.011    0.061    0.335  117.070
  488.000    4.021    0.073    0.338  110.491
  488.250    4.031    0.091    0.338  105.068
  488.500    4.018    0.096    0.332  102.207
  488.750    4.014    0.091    0.322  108.854
  489.000    4.016    0.088    0.322  114.708
  489.250    4.027    0.088    0.323  119.039
  489.500    4.037    0.088    0.314  119.286
  489.750    4.062    0.084    0.305  116.911
  490.000    4.072    0.080    0.298  108.198
  490.250    4.091    0.080    0.297  103.629
  490.500    4.085    0.087    0.297  113.812
  490.750    4.058    0.084    0.294  108.207
  491.000    4.031    0.082    0.291  108.149
  491.250    4.018    0.090    0.289  107.786
  491.500    3.977    0.095    0.292  101.755
  491.750    3.972    0.094    0.303  106.695
  492.000    3.952    0.090    0.314  112.367
  492.250    3.926    0.088    0.326  112.309
  492.500    3.906    0.094    0.315  112.494
  492.750    3.873    0.101    0.309  105.184
  493.000    3.890    0.103    0.305   98.908
  493.250    3.907    0.107    0.314  104.336
  493.500    3.917    0.099    0.327  112.385
  493.750    3.905    0.093    0.332  117.812
  494.000    3.922    0.089    0.324  121.716
  494.250    3.947    0.087    0.320  118.001
  494.500    3.979    0.091    0.319  112.823
  494.750    4.011    0.102    0.324  106.731
  495.000    4.037    0.114    0.334  109.356
  495.250    4.061    0.111    0.331  113.077
  495.500    4.095    0.104    0.320  114.907
  495.750    4.128    0.098    0.312  113.570
  496.000    4.154    0.092    0.309  112.231
  496.250    4.157    0.089    0.308  106.992
  496.500    4.167    0.091    0.310  111.750
  496.750    4.193    0.093    0.310   97.307
  497.000    4.211    0.095    0.308   71.892
  497.250    4.214    0.097    0.301   25.998
  497.500    4.202    0.098    0.285   15.882
  497.750    4.181    0.101    0.272   12.046
  498.000    4.176    0.102    0.272   12.719
  498.250    4.179    0.098    0.284   13.332
  498.500    4.181    0.091    0.296   12.969
  498.750    4.177    0.087    0.307   12.545
  499.000    4.179    0.086    0.318   12.061
