~VERSION INFORMATION
 VERS.                 2.0:   CWLS LOG ASCII STANDARD -VERSION 2.0
 WRAP.                  NO:   ONE LINE PER DEPTH STEP
~WELL INFORMATION BLOCK
#MNEM.UNIT           DATA                    DESCRIPTION OF MNEMONIC
#---------    -------------------            -------------------------------
# Generated from Intellog Unique Number	CS_77_79/WELL/3294
WELL.         LOGAN RESOURCES LTD.           : Well_name    - WELL
LOC .         00/06-25-078-14W4/0            : Location     - LOCATION
UWI .         00/06-25-078-14W4/0            : Uwi          - UNIQUE WELL ID
ENTR.         JOETTE                         : Entered      - ENTERED BY
SRVC.         SCHLUMBERGER                   : Scn          - SERVICE COMPANY
DATE.         08-14-92                       : Date         - LOG DATE
STRT.M        275                            : top_depth    - START DEPTH
STOP.M        510                            : bot_depth    - STOP DEPTH
STEP.M        0.25                           : increment    - STEP LENGTH
 NULL. -999.2500:NULL Value
~CURVE INFORMATION BLOCK
#MNEM UNIT       ERCB CURVE CODE    CURVE DESCRIPTION
#-----------   ------------------   ----------------------------------
DEPT.M        00 001 00 00         : DEPTH        - DEPTH
GR  .API      00 310 00 00         : GR           - GAMMA RAY
NPHI.V/V      00 330 00 00         : PHIN         - NEUTRON POROSITY (SANDSTONE)
DPHI.V/V      00 890 00 00         : PHID         - DENSITY POROSITY (SANDSTONE)
ILD .OHMM     00 120 00 00         : RESD         - DEEP RESISTIVITY (DIL)
~PARAMETER INFORMATION
#MNEM.UNIT           DATA             DESCRIPTION OF MNEMONIC
#---------         -----------     ------------------------------
GL  .M        678.2                : gl           - GROUND LEVEL ELEVATION
EREF.M        681.7                : kb           - ELEVATION OF DEPTH REFERENCE
DATM.M        681.7                : datum        - DATUM ELEVATION
TDD .M        515                  : tdd          - TOTAL DEPTH DRILLER
RUN .         ONE                  : Run          - RUN NUMBER
ENG .         BILL                 : Engineer     - RECORDING ENGINEER
WIT .         JIM                  : Witness      - WITNESSED BY
MUD .         GEL                  : Mud_type     - MUD TYPE
MATR.         SANDSTONE            : Logunit      - NEUTRON MATRIX
TMAX.C        30                   : BHT          - MAXIMUM RECORDED TEMPERATURE
BHTD.M        515                  : BHTDEP       - MAXIMUM RECORDED TEMPERATURE
MATR.         0                    : LOGUNIT      - NEUTRON MATRIX
RMT .C        11                   : MDTP         - TEMPERATURE OF MUD
NEUT.         1                    : NEUTRON      - NEUTRON TYPE
RESI.         0                    : RESIST       - RESISTIVITY TYPE
RM  .OHMM     2.242                : RM           - RESISTIVITY OF MUD
RMC .OHMM     1.969                : RMC          - RESISTIVITY OF MUD CAKE
RMF .OHMM     2.472                : RMF          - RESISTIVITY OF MUD FILTRATE
SUFT.C        5                    : SUFT         - SURFACE TEMPERATURE
~A  DEPTH       GR     PHIN     PHID     RESD
# ...
  449.000   72.771    0.316    0.277   10.956
  449.250   81.293    0.301    0.273   10.783
  449.500   82.583    0.290    0.279   10.217
  449.750   84.477    0.302    0.281    9.861
  450.000   92.379    0.342    0.219    9.344
  450.250   85.800    0.335    0.213    9.023
  450.500   81.637    0.321    0.221    9.928
  450.750   90.159    0.312    0.243   10.510
  451.000   73.899    0.310    0.245   11.138
  451.250   66.112    0.318    0.242   11.155
  451.500   90.959    0.331    0.207   10.197
  451.750  106.746    0.343    0.197    9.666
  452.000  122.532    0.352    0.186    9.330
  452.250  111.709    0.359    0.211    9.182
  452.500  106.338    0.324    0.265   10.467
  452.750  107.612    0.294    0.281   14.639
  453.000  102.241    0.284    0.294   15.505
  453.250   87.206    0.292    0.317   18.014
  453.500   73.362    0.198    0.330   20.546
  453.750   70.424    0.204    0.336   22.169
  454.000   83.778    0.229    0.308   22.641
  454.250   86.864    0.255    0.291   21.852
  454.500   86.325    0.284    0.253   20.716
  454.750   79.730    0.299    0.210   19.649
  455.000   84.040    0.299    0.213   18.617
  455.250   97.410    0.284    0.237   18.656
  455.500   98.096    0.271    0.236   20.505
  455.750   84.840    0.272    0.206   23.410
  456.000   80.090    0.273    0.212   24.342
  456.250   84.367    0.264    0.249   24.380
  456.500   83.225    0.270    0.248   22.712
  456.750   85.102    0.286    0.236   22.319
  457.000   75.503    0.303    0.226   21.158
  457.250   75.569    0.315    0.212   20.058
  457.500   82.279    0.319    0.197   19.369
  457.750   95.045    0.312    0.194   18.714
  458.000   98.131    0.310    0.186   18.400
  458.250   93.984    0.302    0.158   18.438
  458.500   96.466    0.295    0.139   19.915
  458.750   98.931    0.286    0.144   20.686
  459.000  105.641    0.267    0.196   22.748
  459.250   82.133    0.251    0.220   23.642
  459.500   70.118    0.248    0.235   25.522
  459.750   73.204    0.250    0.254   27.034
  460.000   73.269    0.253    0.267   29.169
  460.250   69.123    0.245    0.283   31.489
  460.500   65.548    0.237    0.297   32.743
  460.750   57.157    0.236    0.299   33.423
  461.000   55.410    0.245    0.287   34.099
  461.250   67.572    0.258    0.278   34.170
  461.500   71.866    0.251    0.276   35.530
  461.750   71.311    0.238    0.293   38.376
  462.000   62.316    0.233    0.285   40.627
  462.250   53.925    0.238    0.277   43.836
  462.500   60.031    0.238    0.296   50.023
  462.750   63.117    0.206    0.338   57.023
  463.000   53.518    0.171    0.356   67.486
  463.250   42.107    0.149    0.356   79.952
  463.500   40.344    0.155    0.359   89.517
  463.750   43.462    0.155    0.370  100.174
  464.000   45.323    0.136    0.373  102.254
  464.250   39.953    0.125    0.384   96.936
  464.500   39.414    0.151    0.383   82.245
  464.750   43.104    0.165    0.354   73.760
  465.000   49.813    0.166    0.345   78.209
  465.250   45.683    0.161    0.351   82.755
  465.500   48.736    0.156    0.358   92.703
  465.750   46.386    0.154    0.355   92.703
  466.000   34.975    0.158    0.358  140.029
  466.250   36.852    0.162    0.359  110.167
  466.500   42.974    0.160    0.358  127.993
  466.750   47.856    0.158    0.357  148.781
  467.000   54.582    0.157    0.357  163.444
  467.250   52.835    0.154    0.357  173.123
  467.500   49.880    0.159    0.352  173.748
  467.750   48.134    0.179    0.341  164.542
  468.000   50.632    0.194    0.315  144.789
  468.250   53.718    0.209    0.312  122.846
  468.500   58.599    0.225    0.301  120.844
  468.750   62.892    0.197    0.313  140.398
  469.000   44.233    0.169    0.343  175.728
  469.250   48.527    0.153    0.379  196.752
  469.500   50.404    0.287    0.357  224.516
  469.750   43.825    0.304    0.324  229.060
  470.000   34.831    0.308    0.306  213.169
  470.250   31.256    0.312    0.298  225.792
  470.500   34.374    0.317    0.296  252.935
  470.750   33.835    0.326    0.293  231.075
  471.000   37.509    0.321    0.296  203.335
  471.250   42.406    0.319    0.302  166.255
  471.500   37.639    0.314    0.307  146.372
  471.750   32.285    0.313    0.305  138.831
  472.000   35.354    0.319    0.305  155.360
  472.250   36.628    0.323    0.305  187.299
  472.500   36.089    0.317    0.307  282.045
  472.750   39.779    0.313    0.310  387.014
  473.000   42.865    0.315    0.310  340.730
  473.250   38.735    0.318    0.305  289.239
  473.500   36.368    0.315    0.298  289.836
  473.750   38.833    0.312    0.297  296.006
  474.000   46.163    0.312    0.296  290.883
  474.250   42.000    0.317    0.293  167.295
  474.500   40.858    0.317    0.286  120.181
  474.750   54.816    0.314    0.280  111.843
  475.000   62.162    0.309    0.278  118.588
  475.250   65.248    0.309    0.279  127.824
  475.500   55.633    0.311    0.283  145.786
  475.750   52.058    0.334    0.297  163.311
  476.000   45.495    0.328    0.301  149.274
  476.250   44.353    0.327    0.303  144.151
  476.500   46.834    0.321    0.295  144.523
  476.750   54.148    0.312    0.288  144.747
  477.000   59.062    0.308    0.292  144.971
  477.250   52.467    0.319    0.304  145.270
  477.500   56.157    0.330    0.310  135.261
  477.750   44.141    0.328    0.309  123.571
  478.000   38.754    0.326    0.303  117.144
  478.250   41.236    0.322    0.300  110.995
  478.500   57.055    0.318    0.299  107.130
  478.750   60.108    0.316    0.300  115.711
  479.000   66.230    0.321    0.301  127.181
  479.250   61.447    0.330    0.300  137.226
  479.500   60.925    0.340    0.301  127.640
  479.750   60.386    0.344    0.296   86.701
  480.000   55.603    0.348    0.288   57.844
  480.250   44.192    0.316    0.292   48.153
  480.500   50.902    0.305    0.278   52.010
  480.750   65.480    0.295    0.256   74.017
  481.000   65.546    0.302    0.232   79.864
  481.250   68.632    0.339    0.272  107.634
  481.500   46.348    0.340    0.291  114.008
  481.750   45.205    0.341    0.298  110.096
  482.000   49.483    0.335    0.296   73.414
  482.250   57.417    0.315    0.292   64.634
  482.500   62.315    0.309    0.288   60.150
  482.750   69.057    0.308    0.277   57.051
  483.000   53.989    0.315    0.286   56.092
  483.250   59.491    0.308    0.289   54.195
  483.500   71.049    0.312    0.279   53.285
  483.750   72.323    0.337    0.279   51.483
  484.000   65.744    0.339    0.291   49.690
  484.250   61.581    0.340    0.291   52.660
  484.500   57.419    0.336    0.293   56.790
  484.750   54.464    0.326    0.298   62.516
  485.000   52.113    0.325    0.300   59.234
  485.250   54.578    0.324    0.297   54.059
  485.500   60.701    0.304    0.271   27.826
  485.750   69.222    0.313    0.265   17.563
  486.000   56.603    0.313    0.267   13.839
  486.250   69.957    0.309    0.263   11.735
  486.500   70.627    0.303    0.258    9.247
  486.750   65.256    0.298    0.267    7.702
  487.000   59.885    0.321    0.280    6.784
  487.250   56.343    0.328    0.278    6.548
  487.500   53.372    0.323    0.270    6.327
  487.750   56.458    0.310    0.255    6.336
  488.000   63.167    0.295    0.242    6.236
  488.250   63.837    0.303    0.254    6.019
  488.500   54.238    0.313    0.297    5.602
  488.750   44.639    0.338    0.301    5.021
  489.000   39.268    0.335    0.296    4.423
  489.250   36.901    0.328    0.291    4.353
  489.500   44.231    0.321    0.288    4.358
  489.750   43.089    0.325    0.294    4.367
  490.000   36.510    0.333    0.307    4.376
  490.250   30.519    0.329    0.317    4.385
  490.500   29.393    0.330    0.323    4.394
  490.750   28.854    0.332    0.312    4.485
  491.000   30.715    0.332    0.303    4.499
  491.250   39.270    0.331    0.301    4.342
  491.500   39.319    0.329    0.302    4.271
  491.750   38.781    0.321    0.304    4.127
  492.000   44.282    0.317    0.303    4.133
  492.250   44.348    0.316    0.301    4.144
