~VERSION INFORMATION
 VERS.                 2.0:   CWLS LOG ASCII STANDARD -VERSION 2.0
 WRAP.                  NO:   ONE LINE PER DEPTH STEP
~WELL INFORMATION BLOCK
#MNEM.UNIT           DATA                    DESCRIPTION OF MNEMONIC
#---------    -------------------            -------------------------------
# Generated from Intellog Unique Number	CS_77_79/WELL/844
WELL.         HOME OIL COMPANY LIMITED       : Well_name    - WELL
LOC .         00/03-12-077-08W4/0            : Location     - LOCATION
UWI .         00/03-12-077-08W4/0            : Uwi          - UNIQUE WELL ID
ENTR.         SP                             : Entered      - ENTERED BY
SRVC.         SCHLUMBERGER                   : Scn          - SERVICE COMPANY
STRT.M        140.25                         : top_depth    - START DEPTH
STOP.M        370.00                         : bot_depth    - STOP DEPTH
STEP.M        0.25                           : increment    - STEP LENGTH
 NULL. -999.2500:NULL Value
~CURVE INFORMATION BLOCK
#MNEM UNIT       ERCB CURVE CODE    CURVE DESCRIPTION
#-----------   ------------------   ----------------------------------
DEPT.M        00 001 00 00         : DEPTH        - DEPTH
ILD .OHMM     00 120 00 00         : RESD         - DEEP RESISTIVITY (DIL)
DPHI.V/V      00 890 00 00         : PHID         - DENSITY POROSITY (LIMESTONE)
NPHI.V/V      00 330 00 00         : PHIN         - NEUTRON POROSITY (LIMESTONE)
GR  .API      00 310 00 00         : GR           - GAMMA RAY
~PARAMETER INFORMATION
#MNEM.UNIT           DATA             DESCRIPTION OF MNEMONIC
#---------         -----------     ------------------------------
GL  .M        564                  : gl           - GROUND LEVEL ELEVATION
EREF.M        567.5                : kb           - ELEVATION OF DEPTH REFERENCE
DATM.M        564                  : datum        - DATUM ELEVATION
TDD .M        375.1                : tdd          - TOTAL DEPTH DRILLER
RUN .         ONE                  : Run          - RUN NUMBER
ENG .         BILL                 : Engineer     - RECORDING ENGINEER
WIT .         JIM                  : Witness      - WITNESSED BY
MUD .         GEL                  : Mud_type     - MUD TYPE
MATR.         LIMESTONE            : Logunit      - NEUTRON MATRIX
TMAX.C        16.5                 : BHT          - MAXIMUM RECORDED TEMPERATURE
BHTD.M        375.1                : BHTDEP       - MAXIMUM RECORDED TEMPERATURE
MATR.         1                    : LOGUNIT      - NEUTRON MATRIX
RMT .C        25                   : MDTP         - TEMPERATURE OF MUD
NEUT.         1                    : NEUTRON      - NEUTRON TYPE
RESI.         0                    : RESIST       - RESISTIVITY TYPE
RMC .OHMM     0.25                 : RMC          - RESISTIVITY OF MUD CAKE
RMF .OHMM     0.25                 : RMF          - RESISTIVITY OF MUD FILTRATE
SUFT.C        15                   : SUFT         - SURFACE TEMPERATURE
~A  DEPTH     RESD     PHID     PHIN       GR
# ...
  227.250    8.667    0.238    0.455  101.955
  227.500    8.349    0.255    0.446  101.958
  227.750    8.194    0.231    0.451  103.767
  228.000    7.606    0.220    0.465  107.385
  228.250    7.193    0.216    0.478  109.194
  228.500    6.930    0.220    0.491  111.003
  228.750    6.553    0.227    0.501  112.812
  229.000    6.431    0.220    0.505  111.610
  229.250    6.195    0.212    0.479  107.997
  229.500    6.080    0.198    0.466  108.602
  229.750    5.749    0.208    0.488  111.617
  230.000    5.539    0.214    0.503  112.824
  230.250    5.048    0.205    0.512  112.826
  230.500    4.774    0.212    0.525  111.020
  230.750    4.431    0.217    0.531  109.215
  231.000    4.191    0.226    0.538  110.421
  231.250    4.113    0.210    0.543  112.834
  231.500    4.111    0.214    0.549  110.426
  231.750    4.187    0.223    0.556  107.416
  232.000    4.265    0.227    0.535  103.804
  232.250    4.343    0.238    0.521  101.999
  232.500    4.341    0.250    0.529  102.001
  232.750    4.422    0.257    0.544  102.003
  233.000    4.420    0.244    0.539  102.607
  233.250    4.419    0.228    0.529  104.418
  233.500    4.500    0.230    0.517  105.626
  233.750    4.669    0.227    0.507  106.832
  234.000    4.934    0.211    0.514  109.845
  234.250    4.933    0.203    0.533  111.052
  234.500    4.332    0.206    0.551  108.646
  234.750    4.021    0.217    0.559  108.045
  235.000    3.946    0.209    0.568  107.444
  235.250    3.945    0.215    0.572  107.447
  235.500    3.944    0.220    0.559  106.846
  235.750    4.017    0.216    0.545  106.848
  236.000    4.015    0.221    0.539  107.452
  236.250    3.940    0.227    0.530  108.057
  236.500    3.940    0.228    0.533  108.060
  236.750    3.794    0.232    0.556  106.857
  237.000    3.724    0.253    0.569  105.052
  237.250    3.723    0.252    0.579  102.042
  237.500    3.722    0.244    0.595  100.237
  237.750    3.791    0.266    0.592   98.431
  238.000    3.933    0.245    0.568   95.421
  238.250    4.313    0.199    0.518   91.809
  238.500    4.818    0.206    0.511   93.016
  238.750    5.284    0.223    0.512   95.428
  239.000    5.585    0.230    0.508   96.032
  239.250    5.688    0.222    0.507   94.830
  239.500    5.792    0.209    0.513   96.037
  239.750    5.684    0.217    0.507   94.231
  240.000    5.578    0.224    0.501   96.041
  240.250    5.577    0.236    0.479   99.658
  240.500    5.473    0.271    0.488  101.467
  240.750    4.718    0.252    0.501  101.469
  241.000    4.143    0.247    0.520  100.266
  241.250    4.066    0.240    0.548   96.654
  241.500    4.218    0.281    0.551   93.041
  241.750    4.891    0.270    0.530   85.815
  242.000    6.106    0.296    0.504   82.203
  242.250    7.211    0.306    0.470   77.987
  242.500    8.516    0.314    0.485   74.978
  242.750    8.836    0.316    0.492   74.378
  243.000    8.997    0.302    0.478   74.983
  243.250    9.164    0.288    0.483   74.984
  243.500    8.992    0.289    0.498   74.987
  243.750    8.662    0.278    0.486   74.386
  244.000    8.346    0.277    0.494   72.581
  244.250    8.190    0.269    0.502   72.584
  244.500    8.188    0.262    0.478   73.188
  244.750    8.185    0.290    0.477   73.792
  245.000    8.183    0.298    0.483   75.603
  245.250    8.180    0.300    0.483   76.809
  245.500    8.179    0.290    0.473   79.824
  245.750    8.025    0.282    0.464   81.632
  246.000    8.024    0.264    0.453   86.454
  246.250    7.875    0.245    0.448   88.865
  246.500    7.728    0.243    0.448   91.277
  246.750    7.584    0.252    0.456   89.472
  247.000    7.582    0.251    0.466   88.872
  247.250    7.579    0.247    0.471   88.874
  247.500    7.719    0.237    0.476   90.082
  247.750    8.008    0.234    0.489   90.083
  248.000    8.154    0.245    0.510   92.496
  248.250    8.152    0.254    0.503   94.305
  248.500    8.302    0.249    0.494   93.103
  248.750    8.300    0.258    0.500   93.104
  249.000    8.298    0.259    0.497   94.914
  249.250    8.295    0.246    0.488   96.120
  249.500    8.293    0.246    0.491   97.930
  249.750    8.445    0.246    0.481   97.329
  250.000    8.601    0.248    0.472   91.910
  250.250    8.598    0.254    0.478   90.105
  250.500    8.596    0.246    0.484   94.324
  250.750    8.594    0.233    0.495   94.928
  251.000    8.591    0.235    0.506   93.124
  251.250    8.590    0.235    0.503   92.523
  251.500    8.429    0.243    0.492   93.127
  251.750    8.427    0.228    0.490   92.527
  252.000    8.117    0.218    0.478   93.132
  252.250    7.967    0.221    0.465   94.941
  252.500    7.675    0.228    0.460   99.160
  252.750    7.532    0.202    0.495  102.777
  253.000    7.122    0.207    0.514  103.381
  253.250    6.862    0.210    0.503  104.589
  253.500    6.734    0.218    0.503  105.194
  253.750    6.487    0.230    0.513  105.195
  254.000    6.366    0.243    0.517  105.197
  254.250    5.591    0.233    0.503  103.393
  254.500    4.645    0.235    0.521  102.191
  254.750    3.650    0.213    0.538  101.590
  255.000    3.088    0.230    0.549  100.387
  255.250    2.814    0.247    0.556   99.185
  255.500    2.711    0.260    0.561   97.981
  255.750    2.661    0.257    0.554   96.779
  256.000    2.611    0.258    0.566   95.576
  256.250    2.659    0.257    0.582   94.373
  256.500    2.811    0.246    0.580   93.171
  256.750    3.509    0.244    0.566   91.968
  257.000    4.301    0.241    0.560   90.766
  257.250    4.986    0.249    0.544   90.165
  257.500    6.110    0.253    0.513   88.962
  257.750    7.216    0.260    0.493   87.157
  258.000    8.213    0.287    0.472   84.147
  258.250    9.008    0.305    0.438   79.933
  258.500   10.639    0.326    0.388   78.729
  258.750   13.038    0.362    0.293   79.937
  259.000   15.116    0.373    0.297   82.348
  259.250   17.851    0.361    0.291   82.953
  259.500   20.693    0.365    0.276   82.956
  259.750   22.279    0.349    0.252   82.958
  260.000   23.547    0.355    0.232   83.562
  260.250   26.306    0.385    0.208   81.757
  260.500   29.389    0.401    0.189   76.939
  260.750   31.639    0.396    0.176   72.122
  261.000   34.062    0.388    0.151   66.100
  261.250   35.997    0.404    0.133   64.295
  261.500   37.350    0.421    0.122   64.297
  261.750   38.743    0.437    0.123   63.698
  262.000   38.737    0.438    0.135   63.699
  262.250   37.317    0.444    0.155   63.099
  262.500   33.383    0.449    0.177   64.306
  262.750   26.233    0.438    0.223   64.308
  263.000   19.142    0.419    0.336   62.503
  263.250   16.502    0.399    0.368   60.699
  263.500   13.456    0.375    0.381   60.098
  263.750   11.600    0.336    0.375   59.497
  264.000   10.000    0.315    0.384   58.897
  264.250    9.113    0.324    0.446   57.696
  264.500    8.618    0.330    0.432   57.697
  264.750    8.302    0.314    0.428   56.494
  265.000    7.997    0.302    0.426   57.099
  265.250    7.849    0.319    0.425   58.909
  265.500    7.703    0.324    0.420   60.115
  265.750    7.560    0.325    0.426   60.720
  266.000    7.417    0.319    0.429   61.325
  266.250    7.279    0.310    0.429   61.326
  266.500    7.277    0.327    0.428   61.931
  266.750    7.411    0.326    0.427   59.523
  267.000    7.409    0.332    0.440   57.718
  267.250    7.271    0.328    0.445   57.720
  267.500    7.270    0.325    0.452   57.120
  267.750    7.134    0.331    0.458   57.123
  268.000    7.001    0.334    0.455   58.932
  268.250    6.871    0.326    0.452   60.138
  268.500    6.743    0.332    0.455   60.743
  268.750    6.742    0.339    0.457   59.541
  269.000    6.738    0.337    0.450   58.337
  269.250    6.737    0.327    0.441   57.135
  269.500    6.612    0.339    0.438   56.534
  269.750    6.610    0.332    0.435   55.935
  270.000    6.608    0.334    0.434   55.334
  270.250    6.606    0.328    0.437   56.541
  270.500    6.605    0.327    0.431   56.544
