~VERSION INFORMATION
 VERS.                 2.0:   CWLS LOG ASCII STANDARD -VERSION 2.0
 WRAP.                  NO:   ONE LINE PER DEPTH STEP
~WELL INFORMATION BLOCK
#MNEM.UNIT           DATA                    DESCRIPTION OF MNEMONIC
#---------    -------------------            -------------------------------
# Generated from Intellog Unique Number	CW_82_90/WELL/3060
WELL.         TEXEX WABASCA                  : Well_name    - WELL
LOC .         00/07-01-085-22W4/0            : Location     - LOCATION
UWI .         00/07-01-085-22W4/0            : Uwi          - UNIQUE WELL ID
ENTR.         JAYE                           : Entered      - ENTERED BY
SRVC.         WESTERN ATLAS                  : Scn          - SERVICE COMPANY
DATE.         4 FEB 75                       : Date         - LOG DATE
STRT.M        192.024                        : top_depth    - START DEPTH
STOP.M        426.774                        : bot_depth    - STOP DEPTH
STEP.M        0.25                           : increment    - STEP LENGTH
 NULL. -999.2500:NULL Value
~CURVE INFORMATION BLOCK
#MNEM UNIT       ERCB CURVE CODE    CURVE DESCRIPTION
#-----------   ------------------   ----------------------------------
DEPT.M        00 001 00 00         : DEPTH        - DEPTH
CALI.MM       00 280 01 00         : CAL          - CALIPER
GR  .API      00 310 00 00         : GR           - GAMMA RAY
NPHI.V/V      00 330 00 00         : PHIN         - NEUTRON POROSITY (SANDSTONE)
DPHI.V/V      00 890 00 00         : PHID         - DENSITY POROSITY (SANDSTONE)
ILD .OHMM     00 120 00 00         : RESD         - DEEP RESISTIVITY (DIL)
~PARAMETER INFORMATION
#MNEM.UNIT           DATA             DESCRIPTION OF MNEMONIC
#---------         -----------     ------------------------------
GL  .M        605.485              : gl           - GROUND LEVEL ELEVATION
EREF.M        608.533              : kb           - ELEVATION OF DEPTH REFERENCE
DATM.M        605.485              : datum        - DATUM ELEVATION
TDD .M        380.695              : tdd          - TOTAL DEPTH DRILLER
RUN .         ONE                  : Run          - RUN NUMBER
ENG .         CLARK                : Engineer     - RECORDING ENGINEER
WIT .         McDOUGAL             : Witness      - WITNESSED BY
MUD .         CHEM GEL             : Mud_type     - MUD TYPE
MATR.         SANDSTONE            : Logunit      - NEUTRON MATRIX
TMAX.C        25                   : BHT          - MAXIMUM RECORDED TEMPERATURE
BHTD.M        380.695              : BHTDEP       - MAXIMUM RECORDED TEMPERATURE
RMT .C        15.5556              : MDTP         - TEMPERATURE OF MUD
MUDD.KG/M     9200                 : MWT          - MUD DENSITY
NEUT.         1                    : NEUTRON      - NEUTRON TYPE
RESI.         0                    : RESIST       - RESISTIVITY TYPE
RM  .OHMM     8.8                  : RM           - RESISTIVITY OF MUD
RMC .OHMM     0                    : RMC          - RESISTIVITY OF MUD CAKE
RMF .OHMM     0                    : RMF          - RESISTIVITY OF MUD FILTRATE
SUFT.C        4                    : SUFT         - SURFACE TEMPERATURE
~A  DEPTH      CAL       GR     PHIN     PHID     RESD
# ...
  228.524  232.726   16.641    0.394    0.329   15.501
  228.774  232.556   16.480    0.393    0.332   15.499
  229.024  232.708   21.643    0.399    0.332   15.781
  229.274  232.639   23.688    0.401    0.330   16.068
  229.524  232.883   20.223    0.394    0.329   16.659
  229.774  233.027   18.592    0.393    0.334   17.116
  230.024  233.065   18.795    0.402    0.334   17.587
  230.274  232.788   19.062    0.402    0.332   18.069
  230.524  232.410   20.309    0.399    0.334   18.566
  230.774  232.975   19.537    0.399    0.334   18.903
  231.024  233.219   18.213    0.404    0.332   19.247
  231.274  233.463   17.991    0.407    0.331   19.420
  231.524  233.703   17.828    0.412    0.333   19.595
  231.774  233.953   20.425    0.418    0.331   19.772
  232.024  233.985   20.937    0.424    0.328   19.770
  232.274  233.822   21.387    0.433    0.327   19.768
  232.524  233.752   22.694    0.446    0.331   19.767
  232.774  233.900   23.268    0.438    0.336   19.587
  233.024  233.312   22.436    0.445    0.337   19.408
  233.274  232.828   19.519    0.436    0.337   19.232
  233.524  231.830   21.625    0.431    0.336   19.230
  233.774  230.317   23.054    0.437    0.331   19.055
  234.024  228.590   22.462    0.442    0.287   19.053
  234.274  226.865   20.711    0.441    0.270   19.051
  234.524  225.140   20.245    0.440    0.277   19.049
  234.774  228.812   18.615    0.438    0.266   19.048
  235.024  232.578   19.127    0.434    0.267   19.046
  235.274  233.036   17.616    0.427    0.319   19.044
  235.524  232.552   19.416    0.417    0.316   19.043
  235.774  232.075   21.028    0.408    0.300   19.041
  236.024  231.700   19.706    0.399    0.293   19.213
  236.274  233.605   20.035    0.395    0.311   19.210
  236.524  235.401   26.485    0.402    0.320   19.209
  236.774  235.545   29.939    0.410    0.315   19.207
  237.024  234.029   27.693    0.416    0.304   19.206
  237.274  232.414   23.246    0.426    0.303   19.204
  237.524  231.200   22.720    0.442    0.312   19.377
  237.774  230.925   23.782    0.442    0.335   19.375
  238.024  229.205   23.374    0.436    0.338   19.198
  238.274  227.480   23.030    0.430    0.314   19.024
  238.524  226.272   19.687    0.427    0.309   18.851
  238.774  227.350   17.630    0.409    0.311   18.679
  239.024  229.878   18.813    0.405    0.315   18.342
  239.274  231.160   19.203    0.403    0.338   18.175
  239.524  232.645   18.674    0.404    0.340   18.173
  239.774  233.623   20.413    0.406    0.326   18.172
  240.024  233.449   19.025    0.412    0.325   18.006
  240.274  232.447   14.644    0.424    0.325   18.004
  240.524  231.765   15.523    0.434    0.324   18.003
  240.774  231.177   17.012    0.442    0.321   18.002
  241.024  230.384   16.178    0.442    0.321   17.837
  241.274  229.595   16.936    0.430    0.328   17.836
  241.524  228.905   16.897    0.422    0.332   17.674
  241.774  228.841   16.243    0.422    0.336   17.672
  242.024  228.676   15.963    0.426    0.342   17.670
  242.274  228.405   18.188    0.428    0.345   17.669
  242.524  227.818   17.964    0.430    0.339   17.667
  242.774  226.505   17.068    0.433    0.333   17.506
  243.024  225.405   14.702    0.433    0.333   17.347
  243.274  225.647   17.173    0.429    0.333   17.189
  243.524  226.929   17.320    0.426    0.331   17.033
  243.774  229.248   18.017    0.423    0.331   16.877
  244.024  230.849   18.530    0.426    0.331   16.724
  244.274  231.301   19.105    0.434    0.332   16.722
  244.524  230.921   17.655    0.434    0.337   16.570
  244.774  228.677   15.718    0.429    0.350   16.419
  245.024  230.273   19.049    0.424    0.359   16.418
  245.274  232.072   15.823    0.428    0.362   16.416
  245.524  230.664   14.380    0.431    0.360   16.414
  245.774  229.039   15.379    0.424    0.358   16.413
  246.024  224.826   12.646    0.409    0.355   16.412
  246.274  226.623   15.676    0.399    0.351   16.410
  246.524  229.156   16.737    0.395    0.340   16.558
  246.774  229.811   18.286    0.394    0.329   16.707
  247.024  229.852   14.881    0.395    0.332   16.858
  247.274  229.887   17.779    0.412    0.352   17.164
  247.524  230.554   17.499    0.439    0.350   17.319
  247.774  230.170   14.457    0.458    0.345   17.475
  248.024  230.215   15.771    0.454    0.346   17.793
  248.274  229.940   15.241    0.441    0.346   18.447
  248.524  230.292   14.959    0.432    0.345   18.954
  248.774  230.541   13.508    0.435    0.346   19.652
  249.024  230.371   13.714    0.430    0.346   20.375
  249.274  230.201   16.372    0.424    0.346   21.316
  249.524  230.865   15.474    0.427    0.347   22.302
  249.774  230.898   15.433    0.437    0.348   23.546
  250.024  231.032   14.050    0.446    0.349   25.084
  250.274  231.596   13.704    0.452    0.343   26.483
  250.524  231.837   16.664    0.449    0.330   26.964
  250.774  232.392   15.839    0.444    0.327   26.240
  251.024  232.948   17.704    0.435    0.328   25.075
  251.274  233.712   18.264    0.422    0.331   23.963
  251.524  233.648   15.843    0.417    0.330   23.319
  251.774  221.046   16.107    0.413    0.329   22.487
  252.024  220.452   16.800    0.404    0.330   21.882
  252.274  220.697   15.911    0.396    0.336   21.487
  252.524  221.577   15.623    0.401    0.339   21.100
  252.774  222.541   17.483    0.406    0.338   20.907
  253.024  223.927   21.115    0.416    0.337   20.717
  253.274  225.000   20.896    0.423    0.340   20.529
  253.524  225.864   18.590    0.427    0.338   20.158
  253.774  226.012   20.763    0.424    0.330   19.439
  254.024  226.564   20.901    0.418    0.326   19.089
  254.274  226.298   20.004    0.416    0.324   18.744
  254.524  226.234   18.800    0.415    0.324   18.406
  254.774  226.056   19.930    0.408    0.334   18.074
  255.024  226.095   23.441    0.393    0.328   17.748
  255.274  226.447   25.546    0.401    0.291   17.428
  255.524  226.387   24.097    0.411    0.286   17.114
  255.774  226.633   21.486    0.413    0.302   16.805
  256.024  226.872   24.937    0.417    0.301   16.353
  256.274  227.022   28.026    0.426    0.302   16.204
  256.524  227.264   27.866    0.436    0.302   15.912
  256.774  227.090   26.479    0.440    0.304   15.624
  257.024  226.821   25.394    0.431    0.304   15.482
  257.274  226.439   24.010    0.425    0.300   15.203
  257.524  226.064   23.606    0.414    0.301   14.929
  257.774  226.202   28.525    0.410    0.295   14.927
  258.024  227.903   31.791    0.416    0.287   14.926
  258.274  228.465   33.956    0.425    0.289   15.061
  258.524  228.602   32.388    0.412    0.303   15.196
  258.774  229.259   30.940    0.410    0.293   15.195
  259.024  229.924   33.845    0.410    0.289   15.332
  259.274  229.963   33.190    0.410    0.297   15.331
  259.524  228.546   28.374    0.411    0.293   14.783
  259.774  227.236   27.177    0.412    0.297   13.502
  260.024  226.966   29.401    0.412    0.281   12.111
  260.274  226.276   30.282    0.410    0.269   10.862
  260.524  225.798   28.037    0.411    0.301    9.568
  260.774  225.113   26.345    0.408    0.298    8.504
  261.024  224.216   28.754    0.413    0.296    7.697
  261.274  222.492   26.817    0.433    0.297    7.423
  261.524  221.907   22.372    0.465    0.280    7.355
  261.774  221.740   22.333    0.452    0.287    7.626
  262.024  221.678   23.153    0.455    0.295    8.348
  262.274  221.300   22.441    0.460    0.296    9.306
  262.524  221.547   20.748    0.478    0.298   10.280
  262.774  222.199   24.260    0.470    0.301   10.852
  263.024  223.487   25.450    0.454    0.304   10.185
  263.274  224.259   26.020    0.447    0.302    9.218
  263.524  224.396   28.003    0.463    0.287    8.268
  263.774  224.530   25.331    0.455    0.274    7.552
  264.024  225.305   18.983    0.466    0.274    6.652
  264.274  225.961   26.785    0.476    0.271    6.532
  264.524  226.518   27.785    0.457    0.266    6.531
  264.774  227.282   31.543    0.465    0.261    6.771
