~VERSION INFORMATION
 VERS.                 2.0:   CWLS LOG ASCII STANDARD -VERSION 2.0
 WRAP.                  NO:   ONE LINE PER DEPTH STEP
~WELL INFORMATION BLOCK
#MNEM.UNIT           DATA                    DESCRIPTION OF MNEMONIC
#---------    -------------------            -------------------------------
# Generated from Intellog Unique Number	CS_67_68/WELL/769
WELL.         FISHER CREEK                   : Well_name    - WELL
LOC .         00/07-08-068-05W4/0            : Location     - LOCATION
UWI .         00/07-08-068-05W4/0            : Uwi          - UNIQUE WELL ID
ENTR.         SP                             : Entered      - ENTERED BY
SRVC.         SCHLUMBERGER                   : Scn          - SERVICE COMPANY
STRT.M        350                            : top_depth    - START DEPTH
STOP.M        560                            : bot_depth    - STOP DEPTH
STEP.M        0.25                           : increment    - STEP LENGTH
 NULL. -999.2500:NULL Value
~CURVE INFORMATION BLOCK
#MNEM UNIT       ERCB CURVE CODE    CURVE DESCRIPTION
#-----------   ------------------   ----------------------------------
DEPT.M        00 001 00 00         : DEPTH        - DEPTH
ILD .OHMM     00 120 00 00         : RESD         - DEEP RESISTIVITY (DIL)
DPHI.V/V      00 890 00 00         : PHID         - DENSITY POROSITY (LIMESTONE)
NPHI.V/V      00 330 00 00         : PHIN         - NEUTRON POROSITY (LIMESTONE)
GR  .API      00 310 00 00         : GR           - GAMMA RAY
~PARAMETER INFORMATION
#MNEM.UNIT           DATA             DESCRIPTION OF MNEMONIC
#---------         -----------     ------------------------------
GL  .M        690.6                : gl           - GROUND LEVEL ELEVATION
EREF.M        694.1                : kb           - ELEVATION OF DEPTH REFERENCE
DATM.M        690.6                : datum        - DATUM ELEVATION
TDD .M        570                  : tdd          - TOTAL DEPTH DRILLER
RUN .         ONE                  : Run          - RUN NUMBER
ENG .         BILL                 : Engineer     - RECORDING ENGINEER
WIT .         JIM                  : Witness      - WITNESSED BY
MUD .         GEL                  : Mud_type     - MUD TYPE
MATR.         LIMESTONE            : Logunit      - NEUTRON MATRIX
TMAX.C        25                   : BHT          - MAXIMUM RECORDED TEMPERATURE
BHTD.M        570                  : BHTDEP       - MAXIMUM RECORDED TEMPERATURE
MATR.         1                    : LOGUNIT      - NEUTRON MATRIX
RMT .C        25                   : MDTP         - TEMPERATURE OF MUD
NEUT.         1                    : NEUTRON      - NEUTRON TYPE
RESI.         0                    : RESIST       - RESISTIVITY TYPE
RMC .OHMM     0.25                 : RMC          - RESISTIVITY OF MUD CAKE
RMF .OHMM     0.25                 : RMF          - RESISTIVITY OF MUD FILTRATE
SUFT.C        15                   : SUFT         - SURFACE TEMPERATURE
~A  DEPTH     RESD     PHID     PHIN       GR
# ...
  480.500    7.520    0.245    0.470   93.625
  480.750    9.432    0.261    0.461   92.982
  481.000   11.439    0.273    0.461   91.730
  481.250   13.925    0.282    0.463   89.148
  481.500   16.513    0.295    0.465   83.851
  481.750   20.214    0.316    0.465   77.948
  482.000   24.241    0.335    0.461   71.741
  482.250   26.922    0.329    0.460   65.477
  482.500   29.787    0.336    0.478   62.959
  482.750   23.704    0.343    0.478   67.326
  483.000   17.178    0.333    0.466   71.150
  483.250   13.721    0.315    0.458   73.522
  483.500   12.309    0.297    0.471   74.024
  483.750   12.732    0.310    0.488   69.390
  484.000   13.774    0.316    0.485   64.877
  484.250   15.970    0.318    0.465   66.711
  484.500   17.407    0.313    0.442   68.418
  484.750   20.488    0.311    0.453   69.160
  485.000   22.040    0.303    0.475   68.758
  485.250   23.271    0.286    0.460   69.624
  485.500   23.011    0.257    0.439   71.087
  485.750   21.351    0.264    0.438   73.710
  486.000   20.223    0.282    0.459   74.992
  486.250   19.083    0.290    0.469   76.339
  486.500   16.429    0.302    0.465   76.174
  486.750   12.664    0.313    0.457   80.905
  487.000    9.143    0.282    0.431   88.477
  487.250    7.181    0.275    0.410   94.052
  487.500    5.443    0.265    0.449   98.358
  487.750    4.103    0.257    0.482   93.668
  488.000    3.063    0.263    0.507   89.939
  488.250    2.503    0.297    0.519   87.117
  488.500    2.388    0.315    0.530   85.562
  488.750    2.283    0.322    0.543   83.646
  489.000    2.175    0.320    0.562   80.644
  489.250    2.068    0.316    0.555   74.500
  489.500    1.999    0.314    0.541   76.938
  489.750    1.959    0.321    0.552   80.518
  490.000    1.929    0.311    0.564   83.313
  490.250    1.912    0.310    0.569   80.734
  490.500    1.919    0.322    0.568   84.681
  490.750    1.959    0.321    0.562   87.235
  491.000    1.996    0.311    0.565   88.038
  491.250    2.030    0.304    0.580   88.237
  491.500    2.053    0.301    0.574   90.008
  491.750    2.123    0.292    0.563   91.415
  492.000    2.293    0.293    0.565   88.171
  492.250    2.453    0.288    0.555   91.515
  492.500    2.609    0.279    0.526   93.887
  492.750    2.683    0.268    0.499   96.260
  493.000    2.739    0.258    0.506   99.303
  493.250    2.694    0.257    0.521  101.011
  493.500    2.595    0.269    0.533  101.691
  493.750    2.547    0.281    0.546  101.711
  494.000    2.566    0.293    0.541   98.223
  494.250    2.659    0.282    0.517   97.455
  494.500    2.740    0.286    0.517  100.196
  494.750    2.866    0.293    0.530  100.935
  495.000    2.964    0.285    0.549  100.651
  495.250    3.020    0.274    0.561   97.588
  495.500    3.095    0.260    0.561   93.741
  495.750    3.147    0.226    0.548   91.099
  496.000    3.219    0.242    0.541   88.519
  496.250    3.348    0.268    0.521   95.303
  496.500    3.582    0.271    0.488  105.654
  496.750    3.890    0.238    0.459  109.054
  497.000    4.068    0.232    0.447  109.255
  497.250    4.232    0.232    0.452  108.788
  497.500    4.288    0.226    0.468  111.464
  497.750    4.146    0.220    0.471  116.742
  498.000    3.927    0.237    0.453  118.992
  498.250    3.698    0.248    0.476  119.799
  498.500    3.393    0.249    0.504  120.301
  498.750    3.238    0.245    0.514  120.377
  499.000    3.061    0.242    0.511  120.096
  499.250    2.910    0.238    0.510  120.593
  499.500    2.835    0.240    0.512  122.302
  499.750    2.835    0.251    0.508  118.031
  500.000    2.988    0.256    0.506  110.800
  500.250    3.337    0.260    0.510   95.350
  500.500    3.979    0.255    0.434   84.493
  500.750    4.872    0.257    0.400   70.797
  501.000    5.617    0.260    0.400   68.821
  501.250    6.344   -0.012    0.439   61.831
  501.500    7.987   -0.020    0.290   63.239
  501.750    8.497    0.015    0.284   68.815
  502.000    8.561    0.198    0.337   71.251
  502.250    8.497    0.231    0.393   69.157
  502.500    8.513    0.247    0.428   67.178
  502.750    8.691    0.269    0.449   63.630
  503.000    9.927    0.286    0.443   58.696
  503.250   11.949    0.304    0.425   56.417
  503.500   14.464    0.301    0.430   55.165
  503.750   16.960    0.295    0.448   53.796
  504.000   20.262    0.294    0.444   52.060
  504.250   22.971    0.314    0.422   49.541
  504.500   26.684    0.335    0.399   46.599
  504.750   30.997    0.346    0.387   49.458
  505.000   35.010    0.340    0.397   54.127
  505.250   37.453    0.345    0.407   58.978
  505.500   36.828    0.360    0.398   63.527
  505.750   32.915    0.350    0.388   67.410
  506.000   28.981    0.340    0.401   71.357
  506.250   24.258    0.327    0.410   74.758
  506.500   19.929    0.318    0.414   84.019
  506.750   16.250    0.311    0.417   96.060
  507.000   13.885    0.308    0.427   95.353
  507.250   11.865    0.305    0.435   89.270
  507.500   10.805    0.306    0.432   80.890
  507.750   10.176    0.313    0.429   78.370
  508.000    9.913    0.318    0.426   78.269
  508.250    9.585    0.321    0.423   80.399
  508.500    9.147    0.310    0.421   85.371
  508.750    8.330    0.291    0.422   92.459
  509.000    7.685    0.287    0.428   97.430
  509.250    7.158    0.289    0.432   99.384
  509.500    6.895    0.276    0.440   95.111
  509.750    6.742    0.260    0.425   95.129
  510.000    6.780    0.236    0.406   98.653
  510.250    6.895    0.215    0.404  101.449
  510.500    6.960    0.208    0.390  100.923
  510.750    6.909    0.213    0.375   96.654
  511.000    6.781    0.215    0.371   95.581
  511.250    6.693    0.215    0.359   90.886
  511.500    6.630    0.202    0.352   86.011
  511.750    6.731    0.194    0.350   84.704
  512.000    6.807    0.190    0.358   84.417
  512.250    7.107    0.182    0.367   83.044
  512.500    7.350    0.173    0.375   81.249
  512.750    7.337    0.209    0.377   80.243
  513.000    7.242    0.220    0.372   80.440
  513.250    7.134    0.202    0.377   85.291
  513.500    7.041    0.195    0.390   92.982
  513.750    6.937    0.191    0.402   93.181
  514.000    6.834    0.208    0.410   89.943
  514.250    6.720    0.233    0.398   87.841
  514.500    6.657    0.216    0.383   84.897
  514.750    6.683    0.204    0.367   84.675
  515.000    6.796    0.210    0.357   86.747
  515.250    7.056    0.223    0.371   82.777
  515.500    7.562    0.234    0.381   80.076
  515.750    7.955    0.251    0.368   79.128
  516.000    8.120    0.234    0.356   80.233
  516.250    8.274    0.220    0.379   78.982
  516.500    8.274    0.210    0.404   78.033
  516.750    8.228    0.191    0.364   83.553
  517.000    8.121    0.138    0.329   87.011
  517.250    8.106    0.148    0.311   90.654
  517.500    7.956    0.182    0.338   89.409
  517.750    7.564    0.190    0.359   88.213
  518.000    6.992    0.190    0.378   86.480
  518.250    6.761    0.197    0.369   87.949
  518.500    6.648    0.205    0.361   87.906
  518.750    6.660    0.194    0.351   85.627
  519.000    6.761    0.186    0.341   85.225
  519.250    6.863    0.201    0.362   85.240
  519.500    7.072    0.214    0.378   77.041
  519.750    7.738    0.221    0.387   72.468
  520.000    8.497    0.187    0.361   70.371
  520.250    8.955    0.137    0.328   75.041
  520.500    9.159    0.154    0.331   82.067
  520.750    8.839    0.191    0.358   79.910
  521.000    8.110    0.196    0.362   80.171
  521.250    7.595    0.209    0.356   83.272
  521.500    7.221    0.226    0.355   85.523
  521.750    7.194    0.206    0.349   87.112
  522.000    7.303    0.192    0.341   84.895
  522.250    7.610    0.216    0.335   84.794
  522.500    7.901    0.235    0.337   84.992
  522.750    8.066    0.213    0.328   85.674
  523.000    8.188    0.195    0.328   87.444
  523.250    8.172    0.199    0.354   84.682
  523.500    8.188    0.223    0.374   80.049
  523.750    8.453    0.252    0.372   70.823
