~VERSION INFORMATION
 VERS.                 2.0:   CWLS LOG ASCII STANDARD -VERSION 2.0
 WRAP.                  NO:   ONE LINE PER DEPTH STEP
~WELL INFORMATION BLOCK
#MNEM.UNIT           DATA                    DESCRIPTION OF MNEMONIC
#---------    -------------------            -------------------------------
# Generated from Intellog Unique Number	CS_73_76/WELL/2610
WELL.         BOW VALLEY INDUSTRIES LTD      : Well_name    - WELL
LOC .         00/07-30-075-15W4/0            : Location     - LOCATION
UWI .         00/07-30-075-15W4/0            : Uwi          - UNIQUE WELL ID
ENTR.         SP                             : Entered      - ENTERED BY
SRVC.         SCHLUMBERGER                   : Scn          - SERVICE COMPANY
STRT.M        350                            : top_depth    - START DEPTH
STOP.M        565                            : bot_depth    - STOP DEPTH
STEP.M        0.25                           : increment    - STEP LENGTH
 NULL. -999.2500:NULL Value
~CURVE INFORMATION BLOCK
#MNEM UNIT       ERCB CURVE CODE    CURVE DESCRIPTION
#-----------   ------------------   ----------------------------------
DEPT.M        00 001 00 00         : DEPTH        - DEPTH
ILD .OHMM     00 120 00 00         : RESD         - DEEP RESISTIVITY (DIL)
DPHI.V/V      00 890 00 00         : PHID         - DENSITY POROSITY (LIMESTONE)
NPHI.V/V      00 330 00 00         : PHIN         - NEUTRON POROSITY (LIMESTONE)
GR  .API      00 310 00 00         : GR           - GAMMA RAY
~PARAMETER INFORMATION
#MNEM.UNIT           DATA             DESCRIPTION OF MNEMONIC
#---------         -----------     ------------------------------
GL  .M        733.4                : gl           - GROUND LEVEL ELEVATION
EREF.M        736.4                : kb           - ELEVATION OF DEPTH REFERENCE
DATM.M        733.4                : datum        - DATUM ELEVATION
TDD .M        564                  : tdd          - TOTAL DEPTH DRILLER
RUN .         ONE                  : Run          - RUN NUMBER
ENG .         BILL                 : Engineer     - RECORDING ENGINEER
WIT .         JIM                  : Witness      - WITNESSED BY
MUD .         GEL                  : Mud_type     - MUD TYPE
MATR.         LIMESTONE            : Logunit      - NEUTRON MATRIX
TMAX.C        26.6                 : BHT          - MAXIMUM RECORDED TEMPERATURE
BHTD.M        564                  : BHTDEP       - MAXIMUM RECORDED TEMPERATURE
MATR.         1                    : LOGUNIT      - NEUTRON MATRIX
RMT .C        25                   : MDTP         - TEMPERATURE OF MUD
NEUT.         1                    : NEUTRON      - NEUTRON TYPE
RESI.         0                    : RESIST       - RESISTIVITY TYPE
RMC .OHMM     0.25                 : RMC          - RESISTIVITY OF MUD CAKE
RMF .OHMM     0.25                 : RMF          - RESISTIVITY OF MUD FILTRATE
SUFT.C        15                   : SUFT         - SURFACE TEMPERATURE
~A  DEPTH     RESD     PHID     PHIN       GR
# ...
  393.500    6.654    0.248    0.433  111.829
  393.750    5.949    0.243    0.439  103.403
  394.000    5.839    0.124    0.431  106.423
  394.250    5.731    0.159    0.446  114.264
  394.500    6.059    0.197    0.470  120.297
  394.750    6.649    0.224    0.486  125.728
  395.000    7.434    0.250    0.446  119.111
  395.250    7.861    0.270    0.422  104.662
  395.500    8.311    0.282    0.402   93.225
  395.750    8.466    0.291    0.394   95.043
  396.000    8.465    0.291    0.409  102.885
  396.250    8.154    0.288    0.425  105.902
  396.500    7.710    0.277    0.437  111.334
  396.750    7.156    0.262    0.424  112.550
  397.000    6.766    0.255    0.409  115.569
  397.250    6.518    0.265    0.423  121.001
  397.500    6.517    0.265    0.450  125.228
  397.750    6.639    0.251    0.465  128.849
  398.000    6.638    0.245    0.454  131.870
  398.250    6.637    0.252    0.446  131.279
  398.500    6.888    0.240    0.458  124.058
  398.750    7.017    0.251    0.462  107.801
  399.000    7.282    0.257    0.467   94.558
  399.250    7.991    0.305    0.470   87.337
  399.500    8.294    0.309    0.456   81.924
  399.750    8.607    0.327    0.442   77.114
  400.000    8.606    0.340    0.431   72.906
  400.250    7.987    0.349    0.433   70.505
  400.500    7.839    0.332    0.438   71.119
  400.750    7.838    0.322    0.443   72.935
  401.000    7.984    0.337    0.445   75.352
  401.250    8.442    0.351    0.450   74.759
  401.500    8.925    0.355    0.449   71.153
  401.750    9.092    0.354    0.437   66.344
  402.000    9.262    0.346    0.437   63.342
  402.250    9.434    0.337    0.437   63.953
  402.500    9.433    0.332    0.438   64.562
  402.750    9.432    0.322    0.440   65.776
  403.000    9.430    0.320    0.436   68.799
  403.250    9.429    0.314    0.451   70.012
  403.500    9.255    0.305    0.456   69.418
  403.750    8.915    0.314    0.457   72.440
  404.000    8.588    0.328    0.467   74.255
  404.250    7.971    0.335    0.458   74.870
  404.500    7.261    0.341    0.438   73.071
  404.750    6.615    0.340    0.415   71.874
  405.000    6.026    0.332    0.421   74.295
  405.250    5.490    0.328    0.451   77.916
  405.500    5.388    0.328    0.470   79.129
  405.750    5.288    0.315    0.473   82.151
  406.000    5.287    0.297    0.467   91.197
  406.250    5.487    0.275    0.460  102.051
  406.500    5.910    0.255    0.437  106.275
  406.750    6.249    0.267    0.422  109.297
  407.000    6.485    0.278    0.434  105.692
  407.250    6.607    0.273    0.420   96.665
  407.500    6.730    0.271    0.410   91.252
  407.750    6.604    0.267    0.416   92.470
  408.000    6.482    0.263    0.423   94.284
  408.250    6.362    0.260    0.424   96.701
  408.500    6.015    0.261    0.422   99.119
  408.750    5.583    0.256    0.439  100.336
  409.000    5.279    0.237    0.458  102.753
  409.250    5.793    0.227    0.469  103.968
  409.500    6.723    0.220    0.453  104.578
  409.750    7.801    0.229    0.488  102.177
  410.000    8.886    0.260    0.506   82.908
  410.250    9.752    0.276    0.473   66.049
  410.500   10.121    0.289    0.418   53.408
  410.750   10.503    0.302    0.416   48.597
  411.000   10.700    0.315    0.420   48.608
  411.250   10.698    0.329    0.413   49.822
  411.500   10.697    0.340    0.405   49.830
  411.750   10.498    0.346    0.399   48.633
  412.000   10.496    0.347    0.402   47.441
  412.250   10.495    0.348    0.414   47.448
  412.500   10.301    0.348    0.417   46.853
  412.750   10.298    0.343    0.412   46.867
  413.000   10.107    0.337    0.409   46.872
  413.250   10.106    0.337    0.408   47.487
  413.500   10.105    0.344    0.405   48.096
  413.750   10.104    0.345    0.405   48.705
  414.000   10.102    0.347    0.405   49.919
  414.250   10.101    0.348    0.403   50.538
  414.500   10.100    0.350    0.414   50.542
  414.750   10.098    0.353    0.426   49.345
  415.000   10.097    0.359    0.430   48.148
  415.250   10.096    0.362    0.420   49.365
  415.500   10.095    0.362    0.417   49.975
  415.750   10.094    0.359    0.425   49.984
  416.000    9.905    0.356    0.429   49.393
  416.250    9.904    0.357    0.419   51.813
  416.500    9.903    0.361    0.404   53.024
  416.750    9.901    0.362    0.393   54.842
  417.000    9.900    0.366    0.396   54.851
  417.250    9.899    0.367    0.407   54.258
  417.500    9.898    0.368    0.418   53.663
  417.750    9.714    0.369    0.424   51.263
  418.000    9.713    0.368    0.404   51.874
  418.250    9.711    0.358    0.385   56.100
  418.500    9.531    0.362    0.396   54.906
  418.750    9.530    0.367    0.402   52.504
  419.000    9.529    0.372    0.413   51.307
  419.250    9.528    0.368    0.420   51.921
  419.500    9.527    0.366    0.419   51.931
  419.750    9.349    0.364    0.415   51.333
  420.000    9.348    0.366    0.408   53.754
  420.250    9.174    0.368    0.398   55.569
  420.500    9.004    0.369    0.415   56.180
  420.750    8.514    0.376    0.431   54.984
  421.000    8.356    0.384    0.421   54.995
  421.250    8.050    0.391    0.415   56.811
  421.500    8.048    0.399    0.438   59.834
  421.750    8.199    0.406    0.460   60.444
  422.000    8.508    0.396    0.486   59.248
  422.250    8.667    0.369    0.474   58.656
  422.500    8.994    0.354    0.438   58.065
  422.750    9.162    0.347    0.409   58.069
  423.000    9.162    0.348    0.399   57.476
  423.250    9.160    0.351    0.398   56.283
  423.500    8.990    0.357    0.403   55.687
  423.750    8.989    0.362    0.405   55.094
  424.000    8.988    0.370    0.416   58.114
  424.250    9.156    0.368    0.449   60.534
  424.500    9.154    0.360    0.459   59.341
  424.750    9.153    0.366    0.440   59.950
  425.000    9.152    0.378    0.421   59.358
  425.250    9.150    0.383    0.434   58.161
  425.500    9.150    0.384    0.444   55.760
  425.750    9.320    0.380    0.451   53.361
  426.000    9.673    0.377    0.449   52.163
  426.250    9.853    0.370    0.434   53.377
  426.500   10.037    0.363    0.428   55.195
  426.750   10.224    0.357    0.419   54.000
  427.000   10.415    0.353    0.419   52.200
  427.250   10.414    0.353    0.419   50.401
  427.500   10.608    0.353    0.428   49.810
  427.750   10.607    0.354    0.444   49.819
  428.000   10.606    0.353    0.451   50.428
  428.250   10.604    0.350    0.431   49.234
  428.500   10.602    0.350    0.417   47.438
  428.750   10.601    0.350    0.418   46.242
  429.000   10.600    0.348    0.419   45.646
  429.250   10.599    0.347    0.417   46.258
  429.500   10.597    0.346    0.414   48.679
  429.750   10.400    0.345    0.419   50.493
  430.000   10.399    0.345    0.431   51.106
  430.250   10.398    0.350    0.447   49.909
  430.500   10.397    0.358    0.440   47.510
  430.750   10.394    0.357    0.435   46.919
  431.000   10.393    0.353    0.423   46.322
  431.250   10.393    0.351    0.414   45.126
  431.500   10.586    0.355    0.432   45.137
  431.750   10.784    0.357    0.455   44.540
  432.000   10.985    0.359    0.455   43.949
  432.250   11.190    0.354    0.447   43.358
  432.500   11.189    0.353    0.446   42.162
  432.750   11.188    0.349    0.443   40.964
  433.000   10.777    0.346    0.437   40.373
  433.250   10.576    0.350    0.433   40.382
  433.500   10.381    0.358    0.427   40.390
  433.750    9.999    0.367    0.423   41.001
  434.000    9.998    0.374    0.415   41.611
  434.250    9.813    0.374    0.420   42.223
  434.500    9.811    0.373    0.426   42.231
  434.750    9.629    0.372    0.423   44.049
  435.000    9.628    0.370    0.416   44.659
  435.250    9.449    0.369    0.416   45.271
  435.500    9.448    0.366    0.416   44.677
  435.750    9.272    0.363    0.413   42.279
  436.000    9.100    0.364    0.402   41.083
  436.250    9.099    0.369    0.405   39.283
  436.500    8.929    0.368    0.420   38.692
  436.750    8.928    0.367    0.434   39.305
