~VERSION INFORMATION
 VERS.                 2.0:   CWLS LOG ASCII STANDARD -VERSION 2.0
 WRAP.                  NO:   ONE LINE PER DEPTH STEP
~WELL INFORMATION BLOCK
#MNEM.UNIT           DATA                    DESCRIPTION OF MNEMONIC
#---------    -------------------            -------------------------------
# Generated from Intellog Unique Number	CW_73_75/WELL/502
WELL.         MANNVILLE ET AL MARTENH 05-36  : Well_name    - WELL
LOC .         00/05-36-074-23W4/0            : Location     - LOCATION
UWI .         00/05-36-074-23W4/0            : Uwi          - UNIQUE WELL ID
ENTR.         JAYE                           : Entered      - ENTERED BY
SRVC.         SCHLUMBERGER                   : Scn          - SERVICE COMPANY
DATE.         29 MAR 81                      : Date         - LOG DATE
STRT.M        455                            : top_depth    - START DEPTH
STOP.M        660                            : bot_depth    - STOP DEPTH
STEP.M        0.25                           : increment    - STEP LENGTH
 NULL. -999.2500:NULL Value
~CURVE INFORMATION BLOCK
#MNEM UNIT       ERCB CURVE CODE    CURVE DESCRIPTION
#-----------   ------------------   ----------------------------------
DEPT.M        00 001 00 00         : DEPTH        - DEPTH
ILD .OHMM     00 120 00 00         : RESD         - DEEP RESISTIVITY (DIL)
NPHI.V/V      00 330 00 00         : PHIN         - NEUTRON POROSITY (SANDSTONE)
DPHI.V/V      00 890 00 00         : PHID         - DENSITY POROSITY (SANDSTONE)
CALI.MM       00 280 01 00         : CAL          - CALIPER
GR  .API      00 310 00 00         : GR           - GAMMA RAY
~PARAMETER INFORMATION
#MNEM.UNIT           DATA             DESCRIPTION OF MNEMONIC
#---------         -----------     ------------------------------
GL  .M        723.3                : gl           - GROUND LEVEL ELEVATION
EREF.M        726.2                : kb           - ELEVATION OF DEPTH REFERENCE
DATM.M        723.3                : datum        - DATUM ELEVATION
TDD .M        691                  : tdd          - TOTAL DEPTH DRILLER
RUN .         ONE                  : Run          - RUN NUMBER
ENG .         ASHTON               : Engineer     - RECORDING ENGINEER
WIT .         SANOIA               : Witness      - WITNESSED BY
BASE.         EDM                  : Branch       - HOME BASE OF LOGGING UNIT
MUD .         GEL CHEM             : Mud_type     - MUD TYPE
MATR.         SANDSTONE            : Logunit      - NEUTRON MATRIX
TMAX.C        27.2                 : BHT          - MAXIMUM RECORDED TEMPERATURE
BHTD.M        691                  : BHTDEP       - MAXIMUM RECORDED TEMPERATURE
RMT .C        27.2                 : MDTP         - TEMPERATURE OF MUD
MUDD.KG/M     1095                 : MWT          - MUD DENSITY
NEUT.         1                    : NEUTRON      - NEUTRON TYPE
RESI.         0                    : RESIST       - RESISTIVITY TYPE
RM  .OHMM     2.784                : RM           - RESISTIVITY OF MUD
RMC .OHMM     0                    : RMC          - RESISTIVITY OF MUD CAKE
RMF .OHMM     4.4                  : RMF          - RESISTIVITY OF MUD FILTRATE
SUFT.C        0                    : SUFT         - SURFACE TEMPERATURE
~A  DEPTH     RESD     PHIN     PHID      CAL       GR
# ...
  564.500   15.828    0.252    0.123  160.759   73.718
  564.750   22.149    0.226    0.072  160.744   74.920
  565.000   21.932    0.221    0.062  160.311   76.681
  565.250   20.023    0.230    0.096  159.989   82.177
  565.500   13.898    0.293    0.123  159.773   88.433
  565.750    8.324    0.347    0.163  159.541   91.905
  566.000    6.172    0.434    0.229  159.536   97.025
  566.250    5.385    0.439    0.266  159.632  109.798
  566.500    5.067    0.425    0.239  160.135  112.638
  566.750    4.886    0.467    0.221  160.767  111.935
  567.000    4.820    0.493    0.234  161.165  107.879
  567.250    4.828    0.494    0.249  161.169  103.947
  567.500    4.871    0.469    0.260  161.148   99.257
  567.750    4.925    0.448    0.260  160.916   98.555
  568.000    4.970    0.467    0.262  160.695  102.090
  568.250    4.996    0.486    0.276  160.046   99.363
  568.500    5.051    0.485    0.286  158.975   96.256
  568.750    5.155    0.465    0.282  160.340   92.768
  569.000    5.312    0.447    0.266  162.968   99.846
  569.250    5.472    0.427    0.227  166.118   99.586
  569.500    5.660    0.417    0.218  170.421  101.730
  569.750    5.798    0.416    0.211  179.162  104.382
  570.000    5.895    0.438    0.203  184.318  105.765
  570.250    6.005    0.432    0.189  187.899  104.871
  570.500    6.026    0.419    0.188  189.672  102.841
  570.750    5.955    0.427    0.193  191.049  104.605
  571.000    5.875    0.440    0.200  191.564  104.533
  571.250    5.862    0.432    0.212  191.226  107.313
  571.500    5.848    0.430    0.240  190.888  104.140
  571.750    5.824    0.456    0.239  190.359  100.650
  572.000    5.833    0.477    0.229  190.347  102.290
  572.250    5.842    0.495    0.219  190.330  103.361
  572.500    5.839    0.450    0.218  190.102  100.820
  572.750    5.837    0.426    0.220  189.565  103.029
  573.000    5.857    0.424    0.205  188.192  105.998
  573.250    5.832    0.421    0.191  187.014  108.711
  573.500    5.797    0.418    0.198  185.744  111.231
  573.750    5.654    0.441    0.204  184.879  113.753
  574.000    5.525    0.463    0.203  183.602  116.280
  574.250    5.492    0.466    0.207  182.327  120.382
  574.500    5.479    0.447    0.209  180.844  120.628
  574.750    5.467    0.445    0.204  179.771  115.560
  575.000    5.486    0.451    0.201  179.232  115.869
  575.250    5.556    0.451    0.204  178.787  118.393
  575.500    5.607    0.473    0.194  178.470  119.653
  575.750    5.723    0.495    0.188  178.029  116.985
  576.000    5.699    0.487    0.190  177.591  119.446
  576.250    5.302    0.470    0.187  176.743  128.867
  576.500    5.008    0.462    0.182  176.194  129.052
  576.750    3.763    0.455    0.179  175.250  126.700
  577.000    3.608    0.444    0.183  174.589  122.959
  577.250    3.526    0.444    0.180  173.635  118.713
  577.500    3.653    0.465    0.177  172.880  118.769
  577.750    3.939    0.477    0.197  171.915  121.547
  578.000    4.528    0.480    0.222  170.853  116.920
  578.250    4.975    0.471    0.233  169.897  110.837
  578.500    5.030    0.457    0.222  169.454  107.669
  578.750    5.037    0.444    0.213  169.555  101.965
  579.000    5.102    0.433    0.223  170.283  101.709
  579.250    5.208    0.429    0.222  170.892  106.572
  579.500    5.245    0.446    0.215  171.830  112.005
  579.750    5.106    0.462    0.219  172.978  114.784
  580.000    5.182    0.465    0.226  174.765  114.521
  580.250    5.309    0.451    0.236  176.439  113.627
  580.500    5.377    0.440    0.240  178.109  109.379
  580.750    5.335    0.455    0.231  180.950  110.387
  581.000    5.383    0.446    0.219  183.889  114.048
  581.250    5.442    0.444    0.210  187.353  115.434
  581.500    5.544    0.454    0.214  189.773  113.211
  581.750    5.616    0.445    0.219  191.023  112.821
  582.000    5.646    0.439    0.215  192.377  114.966
  582.250    5.644    0.438    0.223  193.316  118.440
  582.500    5.610    0.436    0.225  193.308  116.345
  582.750    5.555    0.447    0.216  193.395  113.872
  583.000    5.510    0.464    0.209  193.176  117.978
  583.250    5.498    0.459    0.212  193.178  119.548
  583.500    5.475    0.454    0.212  193.267  118.595
  583.750    5.442    0.470    0.201  193.040  113.206
  584.000    5.440    0.474    0.200  192.910  112.059
  584.250    5.469    0.465    0.203  192.687  113.200
  584.500    5.467    0.459    0.201  192.465  111.477
  584.750    5.382    0.455    0.200  191.726  109.634
  585.000    5.320    0.445    0.206  190.756  109.374
  585.250    5.288    0.459    0.208  189.053  113.161
  585.500    5.256    0.475    0.206  187.570  124.670
  585.750    5.214    0.474    0.209  186.501  121.503
  586.000    5.192    0.464    0.216  182.903  117.189
  586.250    5.161    0.463    0.214  180.258  110.667
  586.500    5.159    0.458    0.202  178.447  113.444
  586.750    5.147    0.444    0.196  176.957  116.472
  587.000    5.145    0.437    0.191  176.221  118.998
  587.250    5.153    0.442    0.193  175.775  121.201
  587.500    5.180    0.459    0.210  175.147  123.728
  587.750    5.198    0.465    0.219  174.503  124.098
  588.000    5.245    0.475    0.205  173.840  116.944
  588.250    5.333    0.478    0.192  172.890  108.265
  588.500    5.589    0.455    0.180  172.021  127.303
  588.750    6.329    0.472    0.189  171.065  130.902
  589.000    8.196    0.524    0.183  170.425  114.317
  589.250   11.755    0.510    0.143  170.087  102.857
  589.500   19.136    0.483    0.017  169.452   84.436
  589.750   20.787    0.224    0.008  169.117   75.064
  590.000   19.745    0.224    0.040  169.213   79.866
  590.250   17.258    0.234    0.066  169.833   90.931
  590.500   14.581    0.258    0.102  171.613   94.909
  590.750   12.272    0.293    0.124  173.074   96.991
  591.000   10.116    0.320    0.134  175.065  100.024
  591.250    8.960    0.374    0.147  176.315  106.279
  591.500    7.714    0.422    0.176  175.886  112.095
  591.750    6.872    0.422    0.197  176.294  116.453
  592.000    6.156    0.413    0.200  177.867  119.859
  592.250    5.738    0.419    0.186  179.647  116.313
  592.500    5.533    0.416    0.144  181.109  109.532
  592.750    5.417    0.399    0.134  182.359  109.589
  593.000    5.274    0.400    0.176  183.612  115.021
  593.250    5.163    0.420    0.181  185.499  119.001
  593.500    5.181    0.426    0.181  187.181  114.122
  593.750    5.228    0.422    0.199  188.752  109.367
  594.000    5.295    0.428    0.207  190.010  107.907
  594.250    5.334    0.455    0.196  190.745  111.315
  594.500    5.402    0.455    0.182  190.932  115.863
  594.750    5.482    0.438    0.175  191.124  115.988
  595.000    5.543    0.441    0.184  191.112  114.585
  595.250    5.615    0.456    0.186  190.994  121.220
  595.500    5.644    0.453    0.182  190.764  123.745
  595.750    5.653    0.462    0.182  190.757  116.902
  596.000    5.693    0.478    0.175  190.335  123.095
  596.250    5.734    0.465    0.175  189.997  129.862
  596.500    5.732    0.437    0.184  189.460  114.855
  596.750    5.676    0.437    0.193  189.015  110.804
  597.000    5.620    0.457    0.197  188.057  116.930
  597.250    5.640    0.458    0.200  186.993  124.640
  597.500    5.778    0.446    0.199  186.454  119.067
  597.750    6.136    0.457    0.193  186.132  115.261
  598.000    6.754    0.461    0.186  186.223  107.345
  598.250    7.091    0.452    0.166  186.424   95.885
  598.500    7.169    0.328    0.116  186.822   87.524
  598.750    7.045    0.328    0.106  187.560   94.476
  599.000    6.872    0.352    0.146  188.710  110.795
  599.250    6.321    0.383    0.174  189.756  123.444
  599.500    5.970    0.409    0.169  190.466  120.716
  599.750    5.991    0.427    0.167  191.091  112.228
  600.000    5.977    0.430    0.188  191.929  109.883
  600.250    5.841    0.436    0.197  192.435  111.015
  600.500    5.751    0.457    0.194  193.160  116.704
  600.750    5.726    0.447    0.180  193.893  122.324
