~VERSION INFORMATION
 VERS.                 2.0:   CWLS LOG ASCII STANDARD -VERSION 2.0
 WRAP.                  NO:   ONE LINE PER DEPTH STEP
~WELL INFORMATION BLOCK
#MNEM.UNIT           DATA                    DESCRIPTION OF MNEMONIC
#---------    -------------------            -------------------------------
# Generated from Intellog Unique Number	CS_73_76/WELL/1042
WELL.         DOME PETROLEUM                 : Well_name    - WELL
LOC .         00/06-17-076-10W4/0            : Location     - LOCATION
UWI .         00/06-17-076-10W4/0            : Uwi          - UNIQUE WELL ID
ENTR.         SP                             : Entered      - ENTERED BY
SRVC.         SCHLUMBERGER                   : Scn          - SERVICE COMPANY
STRT.M        270.25                         : top_depth    - START DEPTH
STOP.M        505.00                         : bot_depth    - STOP DEPTH
STEP.M        0.25                           : increment    - STEP LENGTH
 NULL. -999.2500:NULL Value
~CURVE INFORMATION BLOCK
#MNEM UNIT       ERCB CURVE CODE    CURVE DESCRIPTION
#-----------   ------------------   ----------------------------------
DEPT.M        00 001 00 00         : DEPTH        - DEPTH
ILD .OHMM     00 120 00 00         : RESD         - DEEP RESISTIVITY (DIL)
DPHI.V/V      00 890 00 00         : PHID         - DENSITY POROSITY (LIMESTONE)
NPHI.V/V      00 330 00 00         : PHIN         - NEUTRON POROSITY (LIMESTONE)
GR  .API      00 310 00 00         : GR           - GAMMA RAY
~PARAMETER INFORMATION
#MNEM.UNIT           DATA             DESCRIPTION OF MNEMONIC
#---------         -----------     ------------------------------
GL  .M        668.26               : gl           - GROUND LEVEL ELEVATION
EREF.M        672.39               : kb           - ELEVATION OF DEPTH REFERENCE
DATM.M        668.26               : datum        - DATUM ELEVATION
TDD .M        517                  : tdd          - TOTAL DEPTH DRILLER
RUN .         ONE                  : Run          - RUN NUMBER
ENG .         BILL                 : Engineer     - RECORDING ENGINEER
WIT .         JIM                  : Witness      - WITNESSED BY
MUD .         GEL                  : Mud_type     - MUD TYPE
MATR.         LIMESTONE            : Logunit      - NEUTRON MATRIX
TMAX.C        23                   : BHT          - MAXIMUM RECORDED TEMPERATURE
BHTD.M        517                  : BHTDEP       - MAXIMUM RECORDED TEMPERATURE
MATR.         1                    : LOGUNIT      - NEUTRON MATRIX
RMT .C        25                   : MDTP         - TEMPERATURE OF MUD
NEUT.         1                    : NEUTRON      - NEUTRON TYPE
RESI.         0                    : RESIST       - RESISTIVITY TYPE
RMC .OHMM     0.25                 : RMC          - RESISTIVITY OF MUD CAKE
RMF .OHMM     0.25                 : RMF          - RESISTIVITY OF MUD FILTRATE
SUFT.C        15                   : SUFT         - SURFACE TEMPERATURE
~A  DEPTH     RESD     PHID     PHIN       GR
# ...
  313.750   10.099    0.277    0.455   94.903
  314.000    9.911    0.275    0.459   97.344
  314.250    9.728    0.267    0.467   98.566
  314.500    9.728    0.272    0.479   97.958
  314.750    9.548    0.276    0.481   95.521
  315.000    9.549    0.278    0.479   97.962
  315.250    9.549    0.291    0.478  102.233
  315.500    9.372    0.293    0.477  105.284
  315.750    9.373    0.292    0.472  107.116
  316.000    9.552    0.291    0.465  107.728
  316.250   10.108    0.281    0.466  102.242
  316.500   10.899    0.266    0.440  101.025
  316.750   11.318    0.255    0.429  102.856
  317.000   11.754    0.268    0.421  103.468
  317.250   11.978    0.268    0.416  101.641
  317.500   11.756    0.256    0.412   99.814
  317.750   11.537    0.251    0.412   96.159
  318.000   11.112    0.250    0.413   93.721
  318.250   10.703    0.268    0.419   90.064
  318.500   10.504    0.266    0.408   94.336
  318.750   10.309    0.262    0.400   95.557
  319.000    9.929    0.254    0.424   96.778
  319.250    9.385    0.262    0.455   95.561
  319.500    8.705    0.252    0.457   94.954
  319.750    8.228    0.211    0.467   97.396
  320.000    7.777    0.212    0.482   99.837
  320.250    7.632    0.229    0.489  104.717
  320.500    9.043    0.221    0.476  107.158
  320.750    9.936    0.212    0.470  106.550
  321.000   11.551    0.263    0.460  101.065
  321.250   12.693    0.284    0.466   91.921
  321.500   13.947    0.304    0.479   83.996
  321.750   14.483    0.335    0.450   68.754
  322.000   14.759    0.383    0.449   59.000
  322.250   14.760    0.436    0.508   64.491
  322.500   16.527    0.508    0.587   69.980
  322.750   19.215    0.574    0.636   76.080
  323.000   20.332    0.613    0.632   64.497
  323.250   22.766    0.616    0.625   51.694
  323.500   23.199    0.508    0.613   33.404
  323.750   25.016    0.386    0.601   40.723
  324.000   25.978    0.329    0.427   48.042
  324.250   26.474    0.324    0.411   57.801
  324.500   27.492    0.305    0.400   58.414
  324.750   27.494    0.299    0.392   58.415
  325.000   27.498    0.304    0.396   58.418
  325.250   27.500    0.314    0.400   57.810
  325.500   27.503    0.309    0.409   57.203
  325.750   27.504    0.306    0.423   55.985
  326.000   27.507    0.314    0.422   58.427
  326.250   28.566    0.311    0.398   60.258
  326.500   29.665    0.317    0.386   61.480
  326.750   31.987    0.331    0.400   61.482
  327.000   33.847    0.340    0.413   60.874
  327.250   34.493    0.336    0.408   60.267
  327.500   35.822    0.338    0.396   60.270
  327.750   35.825    0.337    0.406   60.881
  328.000   35.827    0.331    0.425   61.494
  328.250   33.231    0.333    0.417   61.495
  328.500   31.410    0.331    0.403   60.888
  328.750   30.254    0.325    0.397   61.500
  329.000   30.256    0.330    0.406   62.721
  329.250   30.257    0.333    0.402   61.504
  329.500   29.697    0.337    0.397   59.677
  329.750   29.146    0.332    0.409   60.289
  330.000   28.604    0.335    0.414   62.120
  330.250   28.074    0.340    0.407   65.172
  330.500   28.076    0.343    0.417   65.784
  330.750   28.078    0.344    0.425   65.786
  331.000   28.081    0.348    0.429   64.569
  331.250   27.561    0.353    0.422   62.742
  331.500   27.050    0.338    0.416   60.914
  331.750   26.547    0.332    0.407   60.307
  332.000   26.549    0.317    0.417   61.529
  332.250   25.571    0.330    0.417   64.579
  332.500   25.096    0.332    0.416   67.630
  332.750   24.173    0.324    0.413   70.072
  333.000   24.175    0.309    0.412   70.074
  333.250   24.177    0.328    0.414   68.856
  333.500   23.285    0.335    0.435   68.249
  333.750   23.287    0.338    0.449   68.861
  334.000   23.732    0.342    0.456   71.302
  334.250   24.185    0.333    0.447   68.865
  334.500   23.736    0.338    0.436   63.380
  334.750   23.296    0.346    0.429   60.943
  335.000   22.863    0.348    0.423   63.385
  335.250   22.866    0.346    0.425   64.606
  335.500   23.302    0.355    0.430   64.608
  335.750   23.305    0.357    0.438   64.001
  336.000   23.307    0.351    0.440   62.174
  336.250   23.309    0.344    0.450   62.176
  336.500   22.876    0.347    0.457   62.788
  336.750   22.452    0.353    0.455   62.791
  337.000   22.453    0.341    0.447   61.574
  337.250   22.457    0.324    0.444   60.356
  337.500   22.459    0.327    0.443   60.968
  337.750   22.460    0.342    0.444   63.410
  338.000   22.462    0.346    0.446   64.630
  338.250   22.464    0.347    0.449   64.633
  338.500   22.466    0.347    0.450   63.416
  338.750   22.895    0.348    0.451   62.809
  339.000   22.896    0.353    0.447   62.811
  339.250   22.900    0.352    0.439   62.813
  339.500   22.902    0.348    0.431   62.816
  339.750   22.904    0.341    0.433   64.037
  340.000   22.905    0.337    0.440   64.039
  340.250   22.480    0.347    0.446   64.041
  340.500   22.483    0.353    0.446   64.654
  340.750   22.485    0.352    0.450   64.655
  341.000   22.486    0.354    0.458   64.048
  341.250   22.070    0.348    0.452   62.830
  341.500   22.071    0.347    0.445   61.003
  341.750   22.073    0.336    0.446   61.006
  342.000   22.076    0.342    0.450   60.398
  342.250   22.078    0.350    0.454   58.571
  342.500   22.080    0.352    0.458   57.354
  342.750   21.671    0.352    0.458   59.795
  343.000   21.673    0.350    0.458   61.627
  343.250   21.674    0.353    0.463   62.238
  343.500   21.676    0.347    0.466   61.631
  343.750   21.273    0.341    0.476   59.805
  344.000   21.275    0.333    0.473   59.196
  344.250   21.278    0.336    0.461   58.590
  344.500   21.279    0.341    0.454   58.591
  344.750   21.281    0.342    0.458   57.983
  345.000   21.283    0.343    0.471   56.157
  345.250   20.888    0.342    0.461   58.598
  345.500   20.890    0.333    0.450   59.819
  345.750   20.503    0.326    0.447   57.383
  346.000   20.504    0.336    0.455   61.044
  346.250   20.124    0.346    0.452   61.656
  346.500   19.751    0.339    0.455   59.829
  346.750   19.752    0.343    0.465   59.221
  347.000   19.754    0.348    0.458   60.443
  347.250   19.756    0.330    0.456   61.664
  347.500   19.758    0.321    0.455   64.106
  347.750   19.391    0.330    0.461   65.937
  348.000   19.393    0.333    0.476   65.939
  348.250   18.679    0.341    0.483   65.332
  348.500   18.680    0.350    0.494   65.334
  348.750   18.333    0.347    0.479   66.556
  349.000   18.334    0.326    0.463   67.168
  349.250   17.995    0.321    0.456   69.000
  349.500   17.996    0.337    0.451   70.221
  349.750   17.998    0.350    0.445   70.223
  350.000   17.664    0.352    0.454   69.006
  350.250   17.666    0.343    0.456   69.009
  350.500   17.667    0.331    0.450   69.621
  350.750   18.004    0.312    0.444   69.623
  351.000   20.159    0.303    0.436   70.844
  351.250   24.337    0.294    0.423   72.676
  351.500   26.241    0.282    0.413   73.897
  351.750   29.939    0.256    0.396   70.851
  352.000   25.757    0.184    0.368   68.414
  352.250   19.792    0.041    0.235   61.709
  352.500   12.838    0.041    0.257   61.712
  352.750   10.438    0.063    0.301   64.154
  353.000    8.649    0.105    0.332   65.985
  353.250    7.872    0.260    0.438   75.132
  353.500    6.772    0.274    0.467   81.842
  353.750    5.107    0.271    0.477   86.722
  354.000    3.779    0.260    0.493   92.212
  354.250    3.313    0.257    0.515   95.873
  354.500    2.904    0.258    0.546   99.534
  354.750    2.694    0.269    0.536   95.878
  355.000    2.407    0.280    0.528   96.490
  355.250    2.191    0.266    0.523   97.102
  355.500    2.110    0.258    0.525   94.665
  355.750    2.191    0.252    0.537   91.618
  356.000    2.275    0.262    0.552   94.669
  356.250    2.363    0.268    0.557   95.281
  356.500    2.645    0.261    0.561   96.503
  356.750    2.962    0.258    0.581   99.554
  357.000    3.509    0.250    0.565  100.776
