~VERSION INFORMATION
 VERS.                 2.0:   CWLS LOG ASCII STANDARD -VERSION 2.0
 WRAP.                  NO:   ONE LINE PER DEPTH STEP
~WELL INFORMATION BLOCK
#MNEM.UNIT           DATA                    DESCRIPTION OF MNEMONIC
#---------    -------------------            -------------------------------
# Generated from Intellog Unique Number	CW_82_90/WELL/3416
WELL.         PARA ET AL LIEGE               : Well_name    - WELL
LOC .         00/04-36-090-20W4/0            : Location     - LOCATION
UWI .         00/04-36-090-20W4/0            : Uwi          - UNIQUE WELL ID
ENTR.         MAX                            : Entered      - ENTERED BY
SRVC.         COMPUTALOG                     : Scn          - SERVICE COMPANY
STRT.M        75                             : top_depth    - START DEPTH
STOP.M        237                            : bot_depth    - STOP DEPTH
STEP.M        0.25                           : increment    - STEP LENGTH
 NULL. -999.2500:NULL Value
~CURVE INFORMATION BLOCK
#MNEM UNIT       ERCB CURVE CODE    CURVE DESCRIPTION
#-----------   ------------------   ----------------------------------
DEPT.M        00 001 00 00         : DEPTH        - DEPTH
GR  .API      00 310 00 00         : GR           - GAMMA RAY
CALI.MM       00 280 01 00         : CAL          - CALIPER
DPHI.V/V      00 890 00 00         : PHID         - DENSITY POROSITY (SANDSTONE)
NPHI.V/V      00 330 00 00         : PHIN         - NEUTRON POROSITY (SANDSTONE)
ILD .OHMM     00 120 00 00         : RESD         - DEEP RESISTIVITY (DIL)
~PARAMETER INFORMATION
#MNEM.UNIT           DATA             DESCRIPTION OF MNEMONIC
#---------         -----------     ------------------------------
GL  .M        517.6                : gl           - GROUND LEVEL ELEVATION
EREF.M        520.7                : kb           - ELEVATION OF DEPTH REFERENCE
DATM.M        517.6                : datum        - DATUM ELEVATION
TDD .M        238.1                : tdd          - TOTAL DEPTH DRILLER
RUN .         ONE                  : Run          - RUN NUMBER
ENG .         BILL                 : Engineer     - RECORDING ENGINEER
WIT .         JIM                  : Witness      - WITNESSED BY
MUD .         GEL                  : Mud_type     - MUD TYPE
MATR.         SANDSTONE            : Logunit      - NEUTRON MATRIX
TMAX.C        18                   : BHT          - MAXIMUM RECORDED TEMPERATURE
BHTD.M        238.1                : BHTDEP       - MAXIMUM RECORDED TEMPERATURE
MATR.         1                    : LOGUNIT      - NEUTRON MATRIX
RMT .C        16.7                 : MDTP         - TEMPERATURE OF MUD
NEUT.         1                    : NEUTRON      - NEUTRON TYPE
RESI.         0                    : RESIST       - RESISTIVITY TYPE
RMC .OHMM     3.07                 : RMC          - RESISTIVITY OF MUD CAKE
RMF .OHMM     3.05                 : RMF          - RESISTIVITY OF MUD FILTRATE
SUFT.C        -10                  : SUFT         - SURFACE TEMPERATURE
~A  DEPTH       GR      CAL     PHID     PHIN     RESD
# ...
  111.500   69.097  167.804    0.305    0.411   19.105
  111.750   52.161  165.350    0.330    0.407   22.716
  112.000   44.443  164.381    0.338    0.396   27.762
  112.250   43.861  163.906    0.338    0.378   31.535
  112.500   44.470  162.936    0.332    0.372   32.689
  112.750   43.888  162.465    0.318    0.357   32.667
  113.000   44.494  162.486    0.293    0.335   32.653
  113.250   43.020  163.000    0.295    0.357   32.933
  113.500   41.547  163.024    0.324    0.373   33.519
  113.750   41.560  163.541    0.338    0.367   34.118
  114.000   43.063  163.578    0.333    0.359   34.730
  114.250   44.263  163.586    0.327    0.354   35.350
  114.500   44.276  163.605    0.319    0.344   35.651
  114.750   43.694  163.626    0.308    0.355   36.288
  115.000   43.110  163.154    0.295    0.366   36.266
  115.250   38.663  163.173    0.281    0.363   35.585
  115.500   38.677  162.698    0.292    0.362   35.565
  115.750   39.582  161.731    0.315    0.374   35.220
  116.000   40.190  161.752    0.328    0.374   34.882
  116.250   40.500  162.269    0.325    0.374   34.858
  116.500   39.918  162.293    0.318    0.384   34.840
  116.750   39.336  162.807    0.293    0.387   34.815
  117.000   40.837  161.840    0.287    0.381   34.797
  117.250   42.933  161.368    0.303    0.364   34.777
  117.500   43.839  160.897    0.317    0.346   34.437
  117.750   43.553  160.913    0.334    0.338   34.422
  118.000   42.971  160.438    0.335    0.345   34.084
  118.250   41.794  160.460    0.329    0.366   34.066
  118.500   42.402  160.483    0.335    0.366   34.049
  118.750   41.223  160.502    0.337    0.369   34.026
  119.000   38.861  159.535    0.333    0.376   34.006
  119.250   38.875  159.060    0.332    0.376   33.677
  119.500   38.885  160.070    0.326    0.367   33.657
  119.750   39.791  159.601    0.318    0.371   33.331
  120.000   40.696  159.622    0.317    0.384   33.615
  120.250   41.004  159.646    0.323    0.388   33.287
  120.500   41.612  159.662    0.330    0.390   33.267
  120.750   42.518  159.684    0.337    0.397   33.248
  121.000   41.936  159.710    0.331    0.390   32.631
  121.250   41.354  160.222    0.319    0.381   32.021
  121.500   38.988  161.239    0.316    0.377   31.422
  121.750   39.597  160.762    0.319    0.372   31.113
  122.000   41.392  160.784    0.326    0.369   30.812
  122.250   43.189  160.805    0.331    0.376   30.238
  122.500   41.124  159.835    0.332    0.390   29.945
  122.750   40.243  159.862    0.331    0.388   29.930
  123.000   41.148  160.373    0.334    0.378   29.640
  123.250   44.134  161.391    0.333    0.388   29.622
  123.500   46.527  162.896    0.329    0.384   29.603
  123.750   46.839  163.416    0.332    0.375   29.316
  124.000   46.254  162.944    0.328    0.360   29.299
  124.250   45.673  161.969    0.321    0.358   28.751
  124.500   45.389  161.993    0.328    0.380   27.700
  124.750   45.998  162.507    0.357    0.397   24.359
  125.000   55.227  164.516    0.323    0.402   18.335
  125.250   64.754  165.528    0.304    0.412   13.551
  125.500   87.367  167.033    0.261    0.424   10.677
  125.750   98.679  170.031    0.262    0.434    8.887
  126.000  111.182  171.539    0.248    0.437    7.330
  126.250  124.575  171.560    0.239    0.449    5.882
  126.500  132.914  173.068    0.242    0.460    5.078
  126.750  137.685  173.587    0.244    0.473    4.716
  127.000  140.971  173.116    0.245    0.466    4.628
  127.250  142.766  173.132    0.242    0.452    4.583
  127.500  146.051  172.660    0.232    0.437    4.581
  127.750  150.225  173.179    0.234    0.466    4.620
  128.000  140.425  173.198    0.240    0.485    4.660
  128.250  135.684  172.721    0.229    0.505    4.787
  128.500  134.507  172.750    0.219    0.501    4.828
  128.750  130.653  172.271    0.209    0.496    4.869
  129.000  127.396  172.788    0.209    0.483    4.912
  129.250  128.598  172.814    0.229    0.474    4.999
  129.500  133.369  172.833    0.238    0.488    5.042
  129.750  134.571  172.851    0.241    0.496    5.132
  130.000  129.824  172.873    0.245    0.494    5.176
  130.250  125.377  172.896    0.249    0.464    5.269
  130.500  124.795  172.422    0.248    0.449    5.363
  130.750  123.324  172.939    0.244    0.431    5.409
  131.000  120.362  172.963    0.248    0.447    5.506
  131.250  120.971  172.987    0.250    0.463    5.553
  131.500  124.255  173.003    0.248    0.462    5.601
  131.750  120.400  172.531    0.249    0.452    5.649
  132.000  119.522  171.561    0.247    0.459    5.856
  132.250  121.318  171.089    0.244    0.469    6.531
  132.500  121.033  170.618    0.236    0.463    7.487
  132.750  116.587  170.141    0.214    0.460    8.505
  133.000  107.977  170.159    0.201    0.446   10.112
  133.250  102.935  169.189    0.177    0.430   11.697
  133.500   95.813  168.220    0.192    0.413   12.812
  133.750   95.229  168.246    0.256    0.407   13.038
  134.000   96.137  168.267    0.268    0.398   12.680
  134.250   97.931  169.280    0.253    0.391   11.355
  134.500  103.296  170.292    0.219    0.421    9.804
  134.750  114.312  170.809    0.200    0.449    8.463
  135.000  126.516  170.828    0.160    0.470    7.719
  135.250  131.585  170.854    0.150    0.464    7.303
  135.500  134.867  170.375    0.158    0.459    6.481
  135.750  139.641  169.903    0.170    0.464    5.804
  136.000  140.247  169.431    0.176    0.468    5.391
  136.250  140.261  168.461    0.179    0.470    4.962
  136.500  139.976  167.489    0.160    0.471    4.737
  136.750  138.800  167.017    0.154    0.468    4.606
  137.000  136.729  166.044    0.203    0.469    4.438
  137.250  133.174  166.068    0.251    0.466    4.316
  137.500  128.132  166.092    0.240    0.457    4.121
  137.750  123.684  166.114    0.248    0.509    3.934
  138.000  121.915  165.637    0.272    0.529    3.790
  138.250  124.901  165.663    0.284    0.545    3.686
  138.500  129.374  166.175    0.290    0.526    3.584
  138.750  133.252  166.694    0.289    0.511    3.582
  139.000  134.158  166.715    0.276    0.496    3.887
  139.250  132.980  167.230    0.259    0.488    4.256
  139.500  130.021  167.749    0.244    0.472    4.835
  139.750  124.384  168.761    0.225    0.454    5.749
  140.000  118.153  169.281    0.211    0.431    6.774
  140.250  115.787  167.320    0.200    0.407    7.625
  140.500  113.123  165.359    0.189    0.385    8.901
  140.750  110.164  164.887    0.169    0.389   10.112
  141.000  105.419  164.413    0.169    0.395   11.591
  141.250  101.565  163.446    0.186    0.389   13.168
  141.500   96.820  162.476    0.155    0.377   15.373
  141.750   78.695  161.996    0.070    0.337   17.948
  142.000   78.113  161.522    0.056    0.331   19.299
  142.250   81.397  161.546    0.066    0.320   19.113
  142.500   84.384  162.060    0.071    0.295   17.273
  142.750   85.884  162.084    0.080    0.291   14.777
  143.000   89.169  162.102    0.174    0.328   12.875
  143.250   97.506  163.616    0.205    0.360   11.743
  143.500  105.844  165.124    0.200    0.394   10.808
  143.750  116.563  168.616    0.208    0.398   10.320
  144.000  123.117  169.131    0.209    0.387   10.408
  144.250  121.644  166.671    0.193    0.398   10.989
  144.500   95.192  163.224    0.161    0.397   12.145
  144.750   83.906  163.743    0.137    0.388   13.921
  145.000   75.593  164.755    0.146    0.374   15.669
  145.250   71.742  165.768    0.201    0.363   16.850
  145.500   70.564  166.780    0.229    0.356   17.151
  145.750   70.578  168.288    0.244    0.364   16.676
  146.000   70.591  168.312    0.248    0.381   16.216
  146.250   72.388  167.342    0.252    0.388   16.059
  146.500   76.562  164.883    0.210    0.381   16.646
  146.750   78.657  163.423    0.205    0.374   17.575
  147.000   75.697  163.441    0.167    0.342   18.387
  147.250   71.249  163.465    0.129    0.310   17.395
  147.500   74.533  163.982    0.144    0.311   14.086
  147.750   84.358  165.493    0.195    0.334   12.966
