~VERSION INFORMATION
 VERS.                 2.0:   CWLS LOG ASCII STANDARD -VERSION 2.0
 WRAP.                  NO:   ONE LINE PER DEPTH STEP
~WELL INFORMATION BLOCK
#MNEM.UNIT           DATA                    DESCRIPTION OF MNEMONIC
#---------    -------------------            -------------------------------
# Generated from Intellog Unique Number	CS_77_79/WELL/885
WELL.         PARAMOUNT ET AL PORTAGE        : Well_name    - WELL
LOC .         00/06-28-079-15W4/0            : Location     - LOCATION
UWI .         00/06-28-079-15W4/0            : Uwi          - UNIQUE WELL ID
ENTR.         JHS                            : Entered      - ENTERED BY
SRVC.         SCHLUMBERGER                   : Scn          - SERVICE COMPANY
STRT.M        188.976                        : top_depth    - START DEPTH
STOP.M        447.726                        : bot_depth    - STOP DEPTH
STEP.M        0.25                           : increment    - STEP LENGTH
 NULL. -999.2500:NULL Value
~CURVE INFORMATION BLOCK
#MNEM UNIT       ERCB CURVE CODE    CURVE DESCRIPTION
#-----------   ------------------   ----------------------------------
DEPT.M        00 001 00 00         : DEPTH        - DEPTH
GR  .API      00 310 00 00         : GR           - GAMMA RAY
DPHI.V/V      00 890 00 00         : PHID         - DENSITY POROSITY (SANDSTONE)
NPHI.V/V      00 330 00 00         : PHIN         - NEUTRON POROSITY (SANDSTONE)
ILD .OHMM     00 120 00 00         : RESD         - DEEP RESISTIVITY (DIL)
~PARAMETER INFORMATION
#MNEM.UNIT           DATA             DESCRIPTION OF MNEMONIC
#---------         -----------     ------------------------------
GL  .M        619.354              : gl           - GROUND LEVEL ELEVATION
EREF.M        622.402              : kb           - ELEVATION OF DEPTH REFERENCE
DATM.M        622.402              : datum        - DATUM ELEVATION
TDD .M        449.58               : tdd          - TOTAL DEPTH DRILLER
RUN .         ONE                  : Run          - RUN NUMBER
ENG .         BILL                 : Engineer     - RECORDING ENGINEER
WIT .         JIM                  : Witness      - WITNESSED BY
MUD .         GEL                  : Mud_type     - MUD TYPE
MATR.         SANDSTONE            : Logunit      - NEUTRON MATRIX
TMAX.C        60                   : BHT          - MAXIMUM RECORDED TEMPERATURE
BHTD.M        449.58               : BHTDEP       - MAXIMUM RECORDED TEMPERATURE
MATR.         1                    : LOGUNIT      - NEUTRON MATRIX
RMT .C        25                   : MDTP         - TEMPERATURE OF MUD
NEUT.         1                    : NEUTRON      - NEUTRON TYPE
RESI.         0                    : RESIST       - RESISTIVITY TYPE
RMC .OHMM     0.25                 : RMC          - RESISTIVITY OF MUD CAKE
RMF .OHMM     0.25                 : RMF          - RESISTIVITY OF MUD FILTRATE
SUFT.C        15                   : SUFT         - SURFACE TEMPERATURE
~A  DEPTH       GR     PHID     PHIN     RESD
# ...
  406.476   99.886    0.178    0.354   15.660
  406.726  102.624    0.170    0.343   14.629
  406.976  107.611    0.164    0.346   14.447
  407.226  106.345    0.155    0.342   14.811
  407.476  101.416    0.165    0.344   16.068
  407.726   94.053    0.156    0.352   18.186
  407.976   85.135    0.163    0.353   21.320
  408.226   75.199    0.204    0.356   24.076
  408.476   73.739    0.241    0.371   26.028
  408.726   76.222    0.249    0.351   26.789
  408.976   82.113    0.215    0.332   25.880
  409.226   87.088    0.155    0.327   24.481
  409.476   88.540    0.137    0.353   24.290
  409.726   85.652    0.169    0.376   25.239
  409.976   79.958    0.214    0.353   27.465
  410.226   75.874    0.233    0.359   28.409
  410.476   79.641    0.222    0.351   28.200
  410.726   84.511    0.205    0.337   26.357
  410.976   91.502    0.190    0.328   22.605
  411.226   96.619    0.183    0.330   18.163
  411.476  102.104    0.167    0.346   16.020
  411.726  107.738    0.137    0.359   14.991
  411.976  106.402    0.122    0.371   15.019
  412.226  104.015    0.161    0.360   15.502
  412.476  100.015    0.184    0.352   16.432
  412.726   89.048    0.200    0.364   17.640
  412.976   84.960    0.205    0.378   18.467
  413.226   86.608    0.193    0.393   18.767
  413.476   88.882    0.182    0.384   18.526
  413.726   90.748    0.199    0.373   18.191
  413.976   92.657    0.200    0.368   17.805
  414.226   96.605    0.191    0.368   17.334
  414.476   96.158    0.195    0.367   16.991
  414.726   92.199    0.201    0.366   16.964
  414.976   97.106    0.188    0.358   17.301
  415.226   96.821    0.195    0.351   17.611
  415.476   94.673    0.186    0.352   18.193
  415.726   98.298    0.177    0.357   18.825
  415.976  100.262    0.174    0.366   19.715
  416.226   99.827    0.197    0.370   20.348
  416.476  101.370    0.221    0.365   20.994
  416.726  101.668    0.213    0.371   21.534
  416.976  102.797    0.205    0.374   21.501
  417.226  104.870    0.192    0.371   21.318
  417.476  104.134    0.184    0.366   20.760
  417.726  100.609    0.204    0.366   20.305
  417.976   96.210    0.200    0.368   19.843
  418.226   94.901    0.205    0.367   19.713
  418.476   98.198    0.187    0.362   20.651
  418.726  101.659    0.178    0.356   24.554
  418.976   97.788    0.178    0.361   28.287
  419.226   86.950    0.199    0.377   33.943
  419.476   77.402    0.187    0.359   38.533
  419.726   71.240    0.164    0.345   41.385
  419.976   78.450    0.161    0.363   41.859
  420.226   81.430    0.243    0.402   38.981
  420.476   79.688    0.241    0.393   32.727
  420.726   80.344    0.229    0.388   28.911
  420.976   82.186    0.235    0.363   25.740
  421.226   88.622    0.206    0.346   25.067
  421.476   94.803    0.189    0.350   25.640
  421.726   93.198    0.171    0.364   27.581
  421.976   87.094    0.139    0.348   29.884
  422.226   83.212    0.114    0.316   31.649
  422.476   85.020    0.095    0.341   32.881
  422.726   91.343    0.222    0.401   31.209
  422.976  102.128    0.241    0.390   27.388
  423.226  106.125    0.221    0.390   22.358
  423.476  103.846    0.227    0.384   18.597
  423.726   99.086    0.238    0.373   16.356
  423.976  106.932    0.191    0.356   14.894
  424.226  119.212    0.171    0.346   13.547
  424.476  123.875    0.161    0.356   13.218
  424.726  122.517    0.149    0.352   14.140
  424.976  108.811    0.156    0.337   14.429
  425.226  108.954    0.153    0.346   14.135
  425.476  110.701    0.143    0.363   12.774
  425.726  107.827    0.133    0.380   11.839
  425.976  112.568    0.112    0.396   11.195
  426.226  118.759    0.155    0.397   10.857
  426.476  119.282    0.179    0.376   10.811
  426.726  106.974    0.188    0.352   11.006
  426.976  104.062    0.169    0.331   11.902
  427.226  107.837    0.145    0.336   11.922
  427.476  111.713    0.159    0.356   11.229
  427.726  112.938    0.156    0.366   10.979
  427.976  115.730    0.156    0.376   11.279
  428.226  114.800    0.151    0.387   12.593
  428.476  106.894    0.166    0.397   15.321
  428.726   91.893    0.182    0.387   18.622
  428.976   76.814    0.207    0.360   22.299
  429.226   74.527    0.175    0.306   24.634
  429.476   83.383    0.149    0.297   25.370
  429.726   92.549    0.137    0.332   22.828
  429.976   94.453    0.178    0.344   18.404
  430.226   97.250    0.182    0.331   14.642
  430.476  109.236    0.150    0.327   12.526
  430.726  118.838    0.128    0.355   11.501
  430.976  125.843    0.113    0.367   11.183
  431.226  128.730    0.108    0.359   11.158
  431.476  115.081    0.101    0.360   11.419
  431.726  100.008    0.161    0.343   12.065
  431.976   99.475    0.168    0.325   13.000
  432.226  104.803    0.155    0.322   14.196
  432.476   97.874    0.155    0.334   14.350
  432.726   92.452    0.159    0.352   14.294
  432.976   89.954    0.137    0.341   13.948
  433.226   98.070    0.135    0.335   13.754
  433.476  102.353    0.138    0.331   13.519
  433.726  103.720    0.149    0.325   13.546
  433.976  103.485    0.132    0.321   13.107
  434.226  102.640    0.134    0.335   12.692
  434.476  103.598    0.153    0.350   12.533
  434.726  107.502    0.151    0.349   12.645
  434.976  113.794    0.148    0.342   12.509
  435.226  116.873    0.146    0.337   12.673
  435.476  116.349    0.149    0.334   12.986
  435.726  112.768    0.154    0.331   13.536
  435.976  111.022    0.166    0.340   13.841
  436.226  107.476    0.176    0.353   14.053
  436.476  113.216    0.167    0.345   13.129
  436.726  125.980    0.156    0.344   12.327
  436.976  134.427    0.139    0.364   11.838
  437.226  142.737    0.130    0.372   11.144
  437.476  152.025    0.130    0.386   10.911
  437.726  153.337    0.140    0.394   10.673
  437.976  147.969    0.203    0.384   10.161
  438.226  151.937    0.183    0.373    9.648
  438.476  153.612    0.165    0.416    8.853
  438.726  154.727    0.158    0.418    7.971
  438.976  154.699    0.170    0.405    7.606
  439.226  153.061    0.174    0.415    7.488
  439.476  151.084    0.158    0.422    7.601
  439.726  150.200    0.168    0.400    7.925
  439.976  151.274    0.164    0.341    8.459
  440.226  151.986    0.148    0.343    8.999
  440.476  152.032    0.133    0.392    9.718
  440.726  153.066    0.125    0.402   10.212
  440.976  154.051    0.140    0.391   10.388
  441.226  155.009    0.155    0.384   10.293
  441.476  154.930    0.143    0.390   10.456
  441.726  152.776    0.136    0.422   10.683
  441.976  142.959    0.138    0.410   10.656
  442.226   24.627    0.167    0.397   10.315
  442.476   13.499    0.154    0.405    9.974
  442.726   14.001    0.136    0.399    9.855
  442.976   16.172    0.131    0.395    9.505
  443.226   22.758    0.156    0.404    9.444
  443.476   25.967    0.163    0.419    9.620
  443.726   25.733    0.157    0.418    9.900
  443.976   24.686    0.137    0.376   10.990
  444.226   22.714    0.126    0.338   11.543
  444.476   21.009    0.131    0.299   12.800
  444.726   20.133    0.135    0.301   14.548
  444.976   21.185    0.100    0.166   18.142
  445.226   22.049    0.037    0.092   30.731
  445.476   21.357    0.000    0.033   51.669
  445.726   21.023   -0.000    0.001   57.907
  445.976   19.979   -0.000   -0.000   70.166
  446.226   19.627    0.000    0.000   91.039
  446.476   18.971    0.000    0.000  100.082
  446.726   19.016    0.000    0.000   96.189
  446.976   19.555   -0.000   -0.000   73.862
  447.226   20.332   -0.000   -0.000   67.853
  447.476   20.357   -0.000   -0.000   65.439
  447.726   20.874    0.000    0.000   63.246
