~VERSION INFORMATION
 VERS.                 2.0:   CWLS LOG ASCII STANDARD -VERSION 2.0
 WRAP.                  NO:   ONE LINE PER DEPTH STEP
~WELL INFORMATION BLOCK
#MNEM.UNIT           DATA                    DESCRIPTION OF MNEMONIC
#---------    -------------------            -------------------------------
# Generated from Intellog Unique Number	CS_67_68/WELL/2181
WELL.         07-34-067-08W4                 : Well_name    - WELL
LOC .         00/07-34-067-08W4/0            : Location     - LOCATION
UWI .         00/07-34-067-08W4/0            : Uwi          - UNIQUE WELL ID
ENTR.         SP                             : Entered      - ENTERED BY
SRVC.         SCHLUMBERGER                   : Scn          - SERVICE COMPANY
STRT.M        340                            : top_depth    - START DEPTH
STOP.M        563                            : bot_depth    - STOP DEPTH
STEP.M        0.25                           : increment    - STEP LENGTH
 NULL. -999.2500:NULL Value
~CURVE INFORMATION BLOCK
#MNEM UNIT       ERCB CURVE CODE    CURVE DESCRIPTION
#-----------   ------------------   ----------------------------------
DEPT.M        00 001 00 00         : DEPTH        - DEPTH
ILD .OHMM     00 120 00 00         : RESD         - DEEP RESISTIVITY (DIL)
DPHI.V/V      00 890 00 00         : PHID         - DENSITY POROSITY (LIMESTONE)
NPHI.V/V      00 330 00 00         : PHIN         - NEUTRON POROSITY (LIMESTONE)
GR  .API      00 310 00 00         : GR           - GAMMA RAY
CALI.MM       00 280 01 00         : CAL          - CALIPER
~PARAMETER INFORMATION
#MNEM.UNIT           DATA             DESCRIPTION OF MNEMONIC
#---------         -----------     ------------------------------
GL  .M        644.13               : gl           - GROUND LEVEL ELEVATION
EREF.M        648.68               : kb           - ELEVATION OF DEPTH REFERENCE
DATM.M        648.68               : datum        - DATUM ELEVATION
TDD .M        572                  : tdd          - TOTAL DEPTH DRILLER
RUN .         ONE                  : Run          - RUN NUMBER
ENG .         BILL                 : Engineer     - RECORDING ENGINEER
WIT .         JIM                  : Witness      - WITNESSED BY
MUD .         GEL                  : Mud_type     - MUD TYPE
MATR.         LIMESTONE            : Logunit      - NEUTRON MATRIX
TMAX.C        23                   : BHT          - MAXIMUM RECORDED TEMPERATURE
BHTD.M        571                  : BHTDEP       - MAXIMUM RECORDED TEMPERATURE
MATR.         1                    : LOGUNIT      - NEUTRON MATRIX
RMT .C        25                   : MDTP         - TEMPERATURE OF MUD
NEUT.         1                    : NEUTRON      - NEUTRON TYPE
RESI.         0                    : RESIST       - RESISTIVITY TYPE
RMC .OHMM     0.25                 : RMC          - RESISTIVITY OF MUD CAKE
RMF .OHMM     0.25                 : RMF          - RESISTIVITY OF MUD FILTRATE
SUFT.C        15                   : SUFT         - SURFACE TEMPERATURE
~A  DEPTH     RESD     PHID     PHIN       GR      CAL
# ...
  413.000    3.156    0.312    0.457   64.242  213.241
  413.250    3.133    0.323    0.447   61.535  213.127
  413.500    3.134    0.331    0.454   60.177  212.807
  413.750    3.076    0.326    0.457   65.880  212.795
  414.000    2.968    0.317    0.444   72.688  212.888
  414.250    2.774    0.311    0.519   81.891  213.182
  414.500    2.563    0.305    0.584   88.023  213.275
  414.750    2.307    0.303    0.603   91.823  213.160
  415.000    2.037    0.305    0.607   92.001  213.148
  415.250    1.837    0.307    0.552   82.906  213.543
  415.500    2.096    0.300    0.456   74.611  214.146
  415.750    2.344    0.284    0.442   69.201  214.750
  416.000    2.696    0.269    0.452   67.412  215.042
  416.250    3.178    0.260    0.461   68.633  215.235
  416.500    3.546    0.251    0.457   70.775  215.327
  416.750    3.804    0.240    0.481   73.408  215.317
  417.000    3.943    0.234    0.495   75.918  215.306
  417.250    3.974    0.272    0.505   77.754  215.292
  417.500    3.864    0.294    0.481   75.230  215.588
  417.750    3.680    0.319    0.459   70.126  215.474
  418.000    3.511    0.330    0.442   67.110  215.054
  418.250    3.325    0.332    0.450   66.366  214.325
  418.500    3.257    0.333    0.469   66.604  213.803
  418.750    3.283    0.323    0.469   66.843  213.688
  419.000    3.333    0.306    0.453   67.695  213.573
  419.250    3.247    0.290    0.459   68.179  213.767
  419.500    3.081    0.298    0.466   68.603  213.755
  419.750    2.951    0.306    0.466   69.639  213.537
  420.000    2.902    0.316    0.465   73.378  212.909
  420.250    2.980    0.326    0.459   75.950  212.593
  420.500    3.089    0.334    0.448   76.740  212.480
  420.750    3.370    0.322    0.451   75.137  212.162
  421.000    3.906    0.278    0.473   71.631  212.252
  421.250    4.701    0.190    0.354   64.931  212.750
  421.500    5.853    0.124    0.159   57.986  213.252
  421.750    7.482    0.067    0.153   50.120  213.649
  422.000   10.412    0.008    0.202   44.340  213.943
  422.250   14.409    0.019    0.290   49.183  213.012
  422.500   18.913    0.034    0.376   54.335  212.488
  422.750   18.459    0.055    0.422   62.494  211.862
  423.000   14.017    0.169    0.461   71.512  211.029
  423.250    8.863    0.211    0.471   78.443  210.610
  423.500    6.147    0.251    0.464   83.962  210.189
  423.750    4.977    0.255    0.458   87.025  209.666
  424.000    4.555    0.252    0.460   87.079  209.447
  424.250    4.355    0.251    0.469   81.792  209.539
  424.500    4.307    0.255    0.478   75.399  209.835
  424.750    4.308    0.264    0.466   72.138  210.334
  425.000    4.374    0.270    0.458   74.402  210.554
  425.250    4.484    0.268    0.452   76.299  211.381
  425.500    4.545    0.272    0.444   77.888  211.899
  425.750    4.589    0.265    0.446   78.741  212.622
  426.000    4.668    0.255    0.458   77.812  213.448
  426.250    4.758    0.245    0.468   76.394  213.864
  426.500    4.868    0.238    0.464   75.219  214.177
  426.750    4.972    0.232    0.453   74.968  214.799
  427.000    5.011    0.225    0.450   77.230  215.214
  427.250    5.059    0.240    0.456   78.453  215.220
  427.500    5.042    0.247    0.462   78.998  215.636
  427.750    4.977    0.250    0.445   78.254  215.949
  428.000    4.940    0.250    0.435   79.045  217.082
  428.250    4.812    0.240    0.441   80.144  218.625
  428.500    4.635    0.227    0.453   81.426  221.090
  428.750    4.448    0.223    0.472   81.481  223.248
  429.000    4.300    0.219    0.491   80.613  220.795
  429.250    4.221    0.236    0.493   80.116  217.113
  429.500    4.158    0.258    0.478   79.617  214.865
  429.750    4.152    0.251    0.466   78.996  213.948
  430.000    4.216    0.248    0.454   79.235  214.569
  430.250    4.281    0.245    0.442   82.420  216.625
  430.500    4.397    0.233    0.452   85.544  218.065
  430.750    4.448    0.221    0.482   88.239  219.404
  431.000    4.474    0.214    0.516   89.583  219.819
  431.250    4.517    0.220    0.505   85.093  219.723
  431.500    4.545    0.230    0.484   81.586  219.729
  431.750    4.554    0.235    0.470   79.553  219.120
  432.000    4.555    0.238    0.456   78.748  219.537
  432.250    4.574    0.233    0.471   79.353  220.054
  432.500    4.592    0.221    0.493   80.083  220.163
  432.750    4.584    0.221    0.485   81.122  220.169
  433.000    4.533    0.234    0.463   83.325  220.484
  433.250    4.400    0.243    0.481   80.985  220.795
  433.500    4.401    0.255    0.506   79.381  220.801
  433.750    4.410    0.261    0.509   82.382  221.217
  434.000    4.520    0.256    0.533   84.279  222.454
  434.250    4.669    0.242    0.518   83.842  223.587
  434.500    4.750    0.234    0.507   86.044  224.822
  434.750    4.981    0.227    0.503   88.002  225.956
  435.000    4.879    0.221    0.509   89.347  226.166
  435.250    4.762    0.214    0.519   88.603  225.967
  435.500    4.630    0.217    0.487   87.429  225.768
  435.750    4.494    0.221    0.483   86.746  228.131
  436.000    4.336    0.249    0.495   88.213  232.850
  436.250    4.153    0.286    0.473   89.189  246.893
  436.500    3.985    0.274    0.460   85.190  249.973
  436.750    3.781    0.259    0.470   81.622  254.386
  437.000    3.614    0.252    0.502   81.370  258.182
  437.250    3.449    0.273    0.518   79.889  259.213
  437.500    3.347    0.304    0.523   77.610  254.915
  437.750    3.266    0.317    0.530   75.822  308.508
  438.000    3.176    0.317    0.536   74.403  306.363
  438.250    3.076    0.330    0.543   77.097  284.442
  438.500    3.002    0.366    0.559   78.442  270.001
  438.750    2.941    0.401    0.572   77.698  264.475
  439.000    2.915    0.432    0.549   74.805  274.625
  439.250    3.027    0.461    0.537   71.236  280.163
  439.500    3.192    0.485    0.515   73.132  280.271
  439.750    3.431    0.413    0.483   76.564  268.699
  440.000    3.666    0.350    0.472   80.424  250.467
  440.250    3.822    0.275    0.464   81.646  222.092
  440.500    3.896    0.274    0.465   78.691  215.233
  440.750    3.882    0.281    0.465   75.185  214.830
  441.000    3.854    0.286    0.454   72.967  214.837
  441.250    3.980    0.291    0.463   73.942  214.842
  441.500    4.142    0.274    0.484   74.365  216.487
  441.750    4.198    0.286    0.502   74.051  221.207
  442.000    4.059    0.299    0.421   68.886  219.984
  442.250    3.909    0.174    0.366   62.494  214.559
  442.500    3.695    0.187    0.472   58.558  212.004
  442.750    3.552    0.231    0.495   57.814  211.395
  443.000    3.448    0.271    0.497   57.623  211.914
  443.250    3.371    0.316    0.492   58.229  212.534
  443.500    3.353    0.345    0.486   59.020  212.745
  443.750    3.405    0.336    0.472   58.214  213.570
  444.000    3.451    0.332    0.464   57.470  213.884
  444.250    3.511    0.330    0.454   57.526  214.608
  444.500    3.531    0.331    0.446   56.659  214.614
  444.750    3.512    0.323    0.462   60.827  214.517
  445.000    3.467    0.319    0.483   63.951  214.523
  445.250    3.396    0.321    0.481   66.277  214.632
  445.500    3.321    0.329    0.471   67.130  214.945
  445.750    3.297    0.338    0.461   66.448  215.053
  446.000    3.316    0.336    0.452   67.851  215.162
  446.250    3.380    0.328    0.442   69.073  215.170
  446.500    3.478    0.324    0.442   67.409  215.380
  446.750    3.766    0.320    0.457   64.270  215.693
  447.000    4.140    0.331    0.442   60.947  216.417
  447.250    4.491    0.318    0.451   60.695  217.241
  447.500    4.709    0.259    0.438   62.038  217.965
  447.750    4.956    0.204    0.400   59.575  218.586
  448.000    4.792    0.179    0.344   53.429  219.617
  448.250    4.563    0.265    0.469   58.210  220.545
  448.500    4.329    0.340    0.537   64.282  222.395
  448.750    4.100    0.379    0.576   72.133  227.524
  449.000    3.942    0.387    0.542   75.381  231.833
  449.250    3.811    0.336    0.508   76.111  221.388
