~VERSION INFORMATION
 VERS.                 2.0:   CWLS LOG ASCII STANDARD -VERSION 2.0
 WRAP.                  NO:   ONE LINE PER DEPTH STEP
~WELL INFORMATION BLOCK
#MNEM.UNIT           DATA                    DESCRIPTION OF MNEMONIC
#---------    -------------------            -------------------------------
# Generated from Intellog Unique Number	CS_71_72/WELL/619
WELL.         MAYNARD ENERGY INC.            : Well_name    - WELL
LOC .         00/02-26-072-13W4/0            : Location     - LOCATION
UWI .         00/02-26-072-13W4/0            : Uwi          - UNIQUE WELL ID
ENTR.         SP                             : Entered      - ENTERED BY
SRVC.         SCHLUMBERGER                   : Scn          - SERVICE COMPANY
STRT.M        300                            : top_depth    - START DEPTH
STOP.M        530                            : bot_depth    - STOP DEPTH
STEP.M        0.25                           : increment    - STEP LENGTH
 NULL. -999.2500:NULL Value
~CURVE INFORMATION BLOCK
#MNEM UNIT       ERCB CURVE CODE    CURVE DESCRIPTION
#-----------   ------------------   ----------------------------------
DEPT.M        00 001 00 00         : DEPTH        - DEPTH
ILD .OHMM     00 120 00 00         : RESD         - DEEP RESISTIVITY (DIL)
DPHI.V/V      00 890 00 00         : PHID         - DENSITY POROSITY (LIMESTONE)
NPHI.V/V      00 330 00 00         : PHIN         - NEUTRON POROSITY (LIMESTONE)
GR  .API      00 310 00 00         : GR           - GAMMA RAY
~PARAMETER INFORMATION
#MNEM.UNIT           DATA             DESCRIPTION OF MNEMONIC
#---------         -----------     ------------------------------
GL  .M        653.8                : gl           - GROUND LEVEL ELEVATION
EREF.M        657.5                : kb           - ELEVATION OF DEPTH REFERENCE
DATM.M        653.8                : datum        - DATUM ELEVATION
TDD .M        542                  : tdd          - TOTAL DEPTH DRILLER
RUN .         ONE                  : Run          - RUN NUMBER
ENG .         BILL                 : Engineer     - RECORDING ENGINEER
WIT .         JIM                  : Witness      - WITNESSED BY
MUD .         GEL                  : Mud_type     - MUD TYPE
MATR.         LIMESTONE            : Logunit      - NEUTRON MATRIX
TMAX.C        22                   : BHT          - MAXIMUM RECORDED TEMPERATURE
BHTD.M        542                  : BHTDEP       - MAXIMUM RECORDED TEMPERATURE
MATR.         1                    : LOGUNIT      - NEUTRON MATRIX
RMT .C        144                  : MDTP         - TEMPERATURE OF MUD
NEUT.         1                    : NEUTRON      - NEUTRON TYPE
RESI.         0                    : RESIST       - RESISTIVITY TYPE
RMC .OHMM     0.25                 : RMC          - RESISTIVITY OF MUD CAKE
RMF .OHMM     0.25                 : RMF          - RESISTIVITY OF MUD FILTRATE
SUFT.C        15                   : SUFT         - SURFACE TEMPERATURE
~A  DEPTH     RESD     PHID     PHIN       GR
  300.000    2.903    0.258    0.559  106.456
  300.250    2.987    0.263    0.570  106.460
  300.500    3.070    0.261    0.578  106.465
  300.750    3.154    0.266    0.589  105.263
  301.000    3.158    0.256    0.606  105.266
  301.250    3.161    0.244    0.566  104.064
  301.500    3.163    0.232    0.526  101.046
  301.750    3.085    0.232    0.504   99.842
  302.000    3.007    0.239    0.531   99.244
  302.250    3.009    0.249    0.559   99.853
  302.500    2.931    0.258    0.609  102.282
  302.750    2.854    0.256    0.533  102.891
  303.000    2.857    0.252    0.479  104.106
  303.250    2.861    0.245    0.460  105.929
  303.500    2.863    0.240    0.450  105.932
  303.750    2.946    0.240    0.460  104.729
  304.000    3.110    0.240    0.485  104.737
  304.250    3.194    0.241    0.506  106.555
  304.500    3.358    0.245    0.521  108.982
  304.750    3.521    0.239    0.533  107.172
  305.000    3.686    0.217    0.508  101.131
  305.250    3.850    0.182    0.476   99.323
  305.500    3.933    0.141    0.455   99.327
  305.750    3.936    0.134    0.444  104.779
  306.000    3.859    0.171    0.458  110.227
  306.250    3.701    0.222    0.464  113.862
  306.500    3.622    0.246    0.472  113.264
  306.750    3.544    0.246    0.490  108.430
  307.000    3.385    0.243    0.526  101.783
  307.250    3.389    0.235    0.587   98.765
  307.500    3.311    0.230    0.585   99.980
  307.750    3.396    0.224    0.505  103.010
  308.000    3.478    0.219    0.482  107.251
  308.250    3.561    0.212    0.459  109.072
  308.500    3.645    0.219    0.485  107.869
  308.750    3.729    0.225    0.516  107.270
  309.000    3.731    0.230    0.529  108.484
  309.250    3.734    0.240    0.494  110.306
  309.500    3.736    0.244    0.473  110.915
  309.750    3.740    0.248    0.477  110.317
  310.000    3.823    0.237    0.505  107.298
  310.250    4.311    0.232    0.524   98.233
  310.500    4.635    0.232    0.500   83.117
  310.750    5.203    0.278    0.460   58.325
  311.000    5.608    0.360    0.413   48.049
  311.250    6.337    0.405    0.411   46.240
  311.500    6.823    0.392    0.407   51.089
  311.750    7.148    0.381    0.405   52.909
  312.000    7.070    0.377    0.402   55.333
  312.250    6.832    0.382    0.398   60.179
  312.500    6.594    0.393    0.393   64.419
  312.750    6.595    0.399    0.388   68.659
  313.000    6.599    0.376    0.383   72.898
  313.250    6.601    0.350    0.414   74.716
  313.500    6.767    0.344    0.412   75.328
  313.750    6.850    0.344    0.407   74.124
  314.000    6.933    0.347    0.402   74.129
  314.250    7.017    0.342    0.401   79.580
  314.500    7.100    0.325    0.401   83.820
  314.750    7.184    0.314    0.396   87.455
  315.000    7.267    0.303    0.397   92.906
  315.250    7.269    0.286    0.400   95.935
  315.500    7.434    0.273    0.395   98.359
  315.750    7.435    0.255    0.390  101.391
  316.000    7.520    0.246    0.395  102.000
  316.250    7.522    0.239    0.415  105.033
  316.500    7.525    0.235    0.423  106.246
  316.750    7.286    0.237    0.435  106.858
  317.000    7.046    0.243    0.447  104.446
  317.250    6.646    0.260    0.456  104.449
  317.500    6.327    0.266    0.466  107.481
  317.750    6.330    0.264    0.444  105.067
  318.000    6.576    0.258    0.418   99.025
  318.250    6.738    0.250    0.404   89.959
  318.500    7.064    0.253    0.395   87.545
  318.750    7.470    0.288    0.389   92.392
  319.000    8.038    0.299    0.392   96.026
  319.250    8.282    0.290    0.396   98.449
  319.500    8.688    0.283    0.407   98.456
  319.750    9.175    0.276    0.404   93.018
  320.000    9.823    0.273    0.390   85.161
  320.250   10.389    0.277    0.367   78.514
  320.500   11.118    0.309    0.350   72.472
  320.750   11.282    0.330    0.339   70.058
  321.000   11.447    0.397    0.338   69.460
  321.250   11.207    0.409    0.359   68.863
  321.500   10.485    0.381    0.378   69.472
  321.750    9.761    0.353    0.393   71.292
  322.000    8.797    0.338    0.408   76.746
  322.250    8.397    0.332    0.409   79.171
  322.500    8.077    0.333    0.409   80.992
  322.750    7.757    0.333    0.411   81.600
  323.000    7.518    0.333    0.412   81.000
  323.250    7.682    0.333    0.412   79.193
  323.500    7.846    0.339    0.410   75.569
  323.750    8.011    0.360    0.406   66.502
  324.000    8.012    0.380    0.409   58.042
  324.250    7.855    0.381    0.407   55.626
  324.500    7.696    0.376    0.405   52.609
  324.750    7.537    0.371    0.401   53.825
  325.000    7.300    0.365    0.403   55.648
  325.250    7.222    0.357    0.404   56.258
  325.500    7.143    0.354    0.395   55.053
  325.750    7.066    0.360    0.389   51.431
  326.000    6.987    0.365    0.386   50.832
  326.250    6.991    0.376    0.384   52.652
  326.500    6.994    0.384    0.386   53.868
  326.750    6.996    0.389    0.393   55.082
  327.000    7.000    0.393    0.400   55.091
  327.250    7.003    0.386    0.402   55.094
  327.500    7.005    0.379    0.405   56.916
  327.750    7.007    0.372    0.413   59.342
  328.000    7.009    0.369    0.422   62.372
  328.250    6.932    0.366    0.429   65.403
  328.500    6.935    0.377    0.425   67.225
  328.750    6.937    0.378    0.433   67.832
  329.000    6.940    0.361    0.446   66.628
  329.250    6.943    0.354    0.453   66.029
  329.500    7.109    0.342    0.461   66.642
  329.750    7.191    0.343    0.452   67.255
  330.000    7.516    0.344    0.437   67.259
  330.250    8.245    0.336    0.425   65.451
  330.500    8.973    0.329    0.420   63.643
  330.750    9.863    0.312    0.403   61.834
  331.000   11.640    0.292    0.374   60.629
  331.250   13.497    0.263    0.279   53.982
  331.500   16.000    0.222    0.231   51.569
  331.750   17.535    0.102    0.219   50.969
  332.000   16.731    0.034    0.221   61.864
  332.250   14.556    0.079    0.255   78.199
  332.500   12.382    0.178    0.326   86.674
  332.750   10.369    0.219    0.351   89.704
  333.000    8.920    0.248    0.394   91.525
  333.250    7.714    0.268    0.418   90.323
  333.500    6.991    0.251    0.444   92.745
  333.750    6.349    0.258    0.456  103.639
  334.000    5.868    0.250    0.453  111.508
  334.250    5.628    0.232    0.441  120.588
  334.500    5.309    0.217    0.437  124.222
  334.750    4.990    0.208    0.454  122.413
  335.000    4.912    0.203    0.468  121.210
  335.250    4.833    0.198    0.483  119.400
  335.500    5.482    0.218    0.484  116.989
  335.750    5.645    0.206    0.477  117.598
  336.000    6.213    0.197    0.471  120.629
  336.250    6.942    0.200    0.450  121.847
  336.500    7.347    0.233    0.431  121.852
  336.750    8.076    0.259    0.416  121.857
  337.000    8.401    0.253    0.409  119.444
  337.250    8.808    0.248    0.398  114.611
  337.500    8.972    0.247    0.390  107.965
  337.750    9.055    0.260    0.397  104.341
  338.000    9.058    0.275    0.399  100.719
  338.250    8.899    0.288    0.400   99.513
  338.500    8.580    0.305    0.397   97.705
  338.750    8.340    0.322    0.394   90.457
  339.000    8.021    0.334    0.398   89.251
  339.250    7.862    0.339    0.399   92.885
  339.500    7.624    0.324    0.403  101.358
  339.750    7.465    0.310    0.410  109.835
  340.000    7.386    0.292    0.420  113.468
  340.250    7.471    0.276    0.423  117.103
  340.500    7.554    0.263    0.427  119.527
  340.750    7.799    0.254    0.420  114.695
  341.000    8.125    0.270    0.416  108.048
  341.250    8.207    0.283    0.411  100.797
  341.500    8.534    0.289    0.403   97.173
  341.750    8.617    0.294    0.398   97.180
  342.000    8.619    0.281    0.394   99.604
  342.250    8.542    0.247    0.398  101.424
  342.500    8.464    0.231    0.401  103.245
  342.750    8.385    0.220    0.401  104.463
  343.000    8.147    0.217    0.401  107.493
  343.250    7.908    0.217    0.401  111.733
