~VERSION INFORMATION
 VERS.                 2.0:   CWLS LOG ASCII STANDARD -VERSION 2.0
 WRAP.                  NO:   ONE LINE PER DEPTH STEP
~WELL INFORMATION BLOCK
#MNEM.UNIT           DATA                    DESCRIPTION OF MNEMONIC
#---------    -------------------            -------------------------------
# Generated from Intellog Unique Number	CS_73_76/WELL/2391
WELL.         ALLIED ROXANA MINERALS LT      : Well_name    - WELL
LOC .         00/07-25-075-16W4/0            : Location     - LOCATION
UWI .         00/07-25-075-16W4/0            : Uwi          - UNIQUE WELL ID
ENTR.         SP                             : Entered      - ENTERED BY
SRVC.         SCHLUMBERGER                   : Scn          - SERVICE COMPANY
STRT.M        371.856                        : top_depth    - START DEPTH
STOP.M        581.856                        : bot_depth    - STOP DEPTH
STEP.M        0.25                           : increment    - STEP LENGTH
 NULL. -999.2500:NULL Value
~CURVE INFORMATION BLOCK
#MNEM UNIT       ERCB CURVE CODE    CURVE DESCRIPTION
#-----------   ------------------   ----------------------------------
DEPT.M        00 001 00 00         : DEPTH        - DEPTH
GR  .API      00 310 00 00         : GR           - GAMMA RAY
DPHI.V/V      00 890 00 00         : PHID         - DENSITY POROSITY (SANDSTONE)
NPHI.V/V      00 330 00 00         : PHIN         - NEUTRON POROSITY (SANDSTONE)
ILD .OHMM     00 120 00 00         : RESD         - DEEP RESISTIVITY (DIL)
~PARAMETER INFORMATION
#MNEM.UNIT           DATA             DESCRIPTION OF MNEMONIC
#---------         -----------     ------------------------------
GL  .M        742.493              : gl           - GROUND LEVEL ELEVATION
EREF.M        745.541              : kb           - ELEVATION OF DEPTH REFERENCE
DATM.M        742.493              : datum        - DATUM ELEVATION
TDD .M        600.456              : tdd          - TOTAL DEPTH DRILLER
RUN .         ONE                  : Run          - RUN NUMBER
ENG .         BILL                 : Engineer     - RECORDING ENGINEER
WIT .         JIM                  : Witness      - WITNESSED BY
MUD .         GEL                  : Mud_type     - MUD TYPE
MATR.         SANDSTONE            : Logunit      - NEUTRON MATRIX
TMAX.C        10.5556              : BHT          - MAXIMUM RECORDED TEMPERATURE
BHTD.M        448.056              : BHTDEP       - MAXIMUM RECORDED TEMPERATURE
MATR.         1                    : LOGUNIT      - NEUTRON MATRIX
RMT .C        25                   : MDTP         - TEMPERATURE OF MUD
NEUT.         1                    : NEUTRON      - NEUTRON TYPE
RESI.         0                    : RESIST       - RESISTIVITY TYPE
RMC .OHMM     0.25                 : RMC          - RESISTIVITY OF MUD CAKE
RMF .OHMM     0.25                 : RMF          - RESISTIVITY OF MUD FILTRATE
SUFT.C        15                   : SUFT         - SURFACE TEMPERATURE
~A  DEPTH       GR     PHID     PHIN     RESD
  371.856  107.401    0.249    0.562    2.789
  372.106  105.914    0.245    0.551    2.835
  372.356  103.319    0.238    0.535    2.955
  372.606  102.583    0.235    0.532    2.944
  372.856  100.917    0.227    0.518    3.027
  373.106  100.361    0.227    0.516    3.124
  373.356   99.797    0.207    0.524    3.259
  373.606   99.231    0.211    0.513    3.293
  373.856   99.545    0.226    0.499    3.426
  374.106   99.723    0.216    0.509    3.494
  374.356   97.360    0.214    0.521    3.395
  374.606   96.510    0.209    0.496    3.179
  374.856   96.991    0.200    0.515    3.060
  375.106  100.782    0.200    0.530    2.826
  375.356  103.683    0.224    0.534    2.787
  375.606  104.827    0.221    0.539    2.693
  375.856  105.898    0.209    0.544    2.806
  376.106  103.770    0.198    0.522    2.936
  376.356  103.160    0.201    0.510    3.057
  376.606  101.683    0.200    0.519    3.276
  376.856  100.220    0.190    0.533    3.199
  377.106   99.390    0.199    0.542    3.061
  377.356  100.866    0.203    0.539    3.020
  377.606  102.981    0.218    0.533    2.886
  377.856  103.655    0.223    0.519    2.777
  378.106  101.281    0.207    0.531    2.784
  378.356   99.031    0.214    0.530    2.837
  378.606   98.109    0.218    0.531    2.857
  378.856   97.114    0.226    0.530    2.936
  379.106   95.517    0.218    0.522    3.028
  379.356   92.415    0.219    0.515    3.024
  379.606   88.431    0.231    0.508    3.015
  379.856   82.805    0.218    0.519    3.089
  380.106   75.633    0.209    0.523    3.370
  380.356   70.003    0.201    0.497    3.608
  380.606   60.287    0.182    0.413    4.096
  380.856   53.264    0.260    0.397    4.884
  381.106   55.829    0.264    0.410    6.150
  381.356   55.487    0.272    0.399    7.514
  381.606   55.022    0.296    0.390    8.589
  381.856   55.892    0.337    0.378    8.544
  382.106   58.439    0.321    0.394    8.289
  382.356   59.727    0.308    0.409    8.729
  382.606   61.332    0.298    0.419    8.996
  382.856   62.955    0.290    0.423    9.256
  383.106   64.019    0.284    0.437    9.317
  383.356   62.461    0.281    0.440    9.342
  383.606   61.604    0.294    0.430    9.475
  383.856   62.678    0.309    0.433    9.485
  384.106   63.987    0.305    0.461    9.254
  384.356   67.030    0.313    0.479    8.909
  384.606   70.332    0.320    0.480    8.566
  384.856   70.366    0.323    0.475    8.307
  385.106   70.530    0.327    0.467    8.502
  385.356   71.741    0.334    0.465    8.579
  385.606   74.424    0.324    0.472    8.765
  385.856   77.478    0.329    0.471    8.824
  386.106   79.996    0.326    0.462    8.837
  386.356   83.961    0.314    0.456    8.741
  386.606   88.996    0.308    0.453    8.615
  386.856   92.018    0.286    0.448    8.531
  387.106   95.769    0.273    0.436    8.768
  387.356   93.864    0.268    0.428    9.048
  387.606   91.856    0.295    0.421    9.263
  387.856   91.528    0.310    0.428    9.467
  388.106   91.848    0.301    0.442    9.733
  388.356   92.802    0.276    0.453    9.876
  388.606   95.421    0.280    0.451    9.797
  388.856  100.094    0.278    0.443    9.662
  389.106  103.091    0.265    0.440    9.519
  389.356  103.606    0.253    0.439    9.390
  389.606  102.024    0.260    0.435    9.299
  389.856   95.875    0.269    0.438    9.307
  390.106   90.527    0.289    0.440    9.404
  390.356   85.752    0.302    0.433    9.859
  390.606   79.999    0.286    0.421   10.191
  390.856   74.009    0.280    0.381   10.593
  391.106   68.955    0.262    0.357   10.912
  391.356   64.531    0.259    0.354   11.363
  391.606   62.538    0.274    0.365   11.976
  391.856   59.156    0.245    0.342   12.502
  392.106   55.248    0.227    0.312   13.104
  392.356   53.854    0.234    0.361   13.230
  392.606   59.454    0.236    0.386   12.922
  392.856   64.852    0.263    0.405   12.089
  393.106   70.422    0.246    0.411   10.813
  393.356   73.575    0.242    0.404    9.736
  393.606   75.465    0.255    0.411    8.849
  393.856   72.760    0.272    0.418    8.378
  394.106   69.832    0.276    0.420    8.349
  394.356   71.302    0.272    0.427    8.441
  394.606   79.008    0.261    0.429    8.156
  394.856   92.541    0.245    0.441    7.427
  395.106  104.154    0.216    0.459    6.645
  395.356  112.806    0.196    0.486    5.847
  395.606  120.169    0.174    0.506    5.073
  395.856  124.736    0.163    0.528    4.437
  396.106  126.839    0.158    0.559    4.021
  396.356  126.777    0.159    0.552    3.902
  396.606  126.873    0.182    0.528    3.881
  396.856  125.540    0.199    0.509    3.967
  397.106  123.803    0.196    0.498    3.907
  397.356  121.870    0.177    0.510    3.886
  397.606  121.984    0.141    0.532    3.885
  397.856  124.327    0.164    0.553    3.716
  398.106  128.938    0.205    0.558    3.466
  398.356  129.251    0.221    0.561    3.259
  398.606  130.114    0.217    0.555    3.246
  398.856  130.005    0.212    0.520    3.352
  399.106  123.870    0.215    0.496    3.872
  399.356  118.210    0.224    0.480    4.809
  399.606  113.948    0.233    0.463    5.771
  399.856  112.235    0.228    0.456    7.000
  400.106  116.671    0.218    0.454    7.646
  400.356  119.513    0.222    0.444    7.946
  400.606  119.818    0.230    0.448    7.906
  400.856  117.890    0.209    0.452    7.680
  401.106  113.289    0.220    0.448    7.480
  401.356  105.614    0.235    0.455    7.178
  401.606  100.911    0.219    0.457    6.768
  401.856  101.455    0.179    0.463    6.304
  402.106  107.044    0.151    0.477    6.090
  402.356  108.552    0.203    0.468    6.302
  402.606  104.649    0.218    0.456    6.904
  402.856   98.134    0.241    0.433    7.517
  403.106   93.469    0.273    0.419    8.365
  403.356   91.634    0.295    0.427    8.998
  403.606   95.933    0.287    0.438    9.375
  403.856  101.380    0.274    0.451    8.913
  404.106  102.606    0.265    0.458    8.435
  404.356  104.237    0.256    0.455    7.760
  404.606  107.815    0.247    0.465    7.245
  404.856  111.690    0.237    0.457    6.940
  405.106  116.229    0.230    0.470    6.641
  405.356  119.702    0.221    0.472    6.433
  405.606  122.456    0.215    0.480    6.385
  405.856  119.078    0.242    0.479    6.429
  406.106  108.411    0.242    0.484    6.603
  406.356   99.014    0.234    0.496    6.968
  406.606   88.737    0.259    0.479    7.386
  406.856   80.934    0.245    0.452    7.904
  407.106   72.942    0.258    0.440    8.514
  407.356   73.809    0.292    0.445    9.115
  407.606   73.497    0.328    0.462    9.352
  407.856   72.459    0.344    0.478    9.258
  408.106   71.489    0.342    0.475    9.131
  408.356   69.291    0.330    0.472    9.126
  408.606   67.085    0.318    0.476    9.218
  408.856   65.659    0.328    0.474    9.272
  409.106   63.628    0.332    0.474    9.408
  409.356   62.328    0.335    0.470    9.540
  409.606   61.394    0.336    0.461    9.742
  409.856   59.670    0.333    0.452    9.937
  410.106   59.329    0.317    0.455   10.086
  410.356   61.245    0.315    0.469   10.163
  410.606   63.948    0.309    0.478   10.252
  410.856   64.780    0.316    0.470   10.322
  411.106   64.025    0.334    0.473   10.324
  411.356   64.822    0.340    0.476   10.316
  411.606   66.266    0.337    0.478   10.245
  411.856   67.964    0.321    0.470   10.030
  412.106   70.346    0.321    0.465    9.580
  412.356   73.885    0.311    0.471    8.857
  412.606   77.040    0.299    0.480    8.032
  412.856   79.713    0.293    0.489    7.372
  413.106   80.680    0.292    0.499    6.758
  413.356   81.613    0.294    0.507    6.373
  413.606   83.764    0.305    0.499    6.036
  413.856   88.391    0.297    0.466    5.800
  414.106   93.811    0.284    0.453    5.883
  414.356   98.611    0.273    0.463    6.018
  414.606  103.003    0.271    0.470    6.096
  414.856   99.611    0.271    0.465    6.278
  415.106   94.089    0.271    0.450    6.547
