~VERSION INFORMATION
 VERS.                 2.0:   CWLS LOG ASCII STANDARD -VERSION 2.0
 WRAP.                  NO:   ONE LINE PER DEPTH STEP
~WELL INFORMATION BLOCK
#MNEM.UNIT           DATA                    DESCRIPTION OF MNEMONIC
#---------    -------------------            -------------------------------
# Generated from Intellog Unique Number	CW_82_90/WELL/529
WELL.         ANDEX WABASCA 06-23            : Well_name    - WELL
LOC .         00/06-23-082-22W4/0            : Location     - LOCATION
UWI .         00/06-23-082-22W4/0            : Uwi          - UNIQUE WELL ID
ENTR.         JAYE                           : Entered      - ENTERED BY
SRVC.         SCHLUMBERGER                   : Scn          - SERVICE COMPANY
DATE.         30 JAN 74                      : Date         - LOG DATE
STRT.M        228.6                          : top_depth    - START DEPTH
STOP.M        435.85                         : bot_depth    - STOP DEPTH
STEP.M        0.25                           : increment    - STEP LENGTH
 NULL. -999.2500:NULL Value
~CURVE INFORMATION BLOCK
#MNEM UNIT       ERCB CURVE CODE    CURVE DESCRIPTION
#-----------   ------------------   ----------------------------------
DEPT.M        00 001 00 00         : DEPTH        - DEPTH
GR  .API      00 310 00 00         : GR           - GAMMA RAY
NPHI.V/V      00 330 00 00         : PHIN         - NEUTRON POROSITY (SANDSTONE)
DPHI.V/V      00 890 00 00         : PHID         - DENSITY POROSITY (SANDSTONE)
CALI.MM       00 280 01 00         : CAL          - CALIPER
ILD .OHMM     00 120 00 00         : RESD         - DEEP RESISTIVITY (DIL)
~PARAMETER INFORMATION
#MNEM.UNIT           DATA             DESCRIPTION OF MNEMONIC
#---------         -----------     ------------------------------
GL  .M        622.554              : gl           - GROUND LEVEL ELEVATION
EREF.M        626.364              : kb           - ELEVATION OF DEPTH REFERENCE
DATM.M        622.554              : datum        - DATUM ELEVATION
TDD .M        448.97               : tdd          - TOTAL DEPTH DRILLER
RUN .         ONE                  : Run          - RUN NUMBER
ENG .         HITCHNER             : Engineer     - RECORDING ENGINEER
WIT .         SAYERS               : Witness      - WITNESSED BY
BASE.         EDMONTON             : Branch       - HOME BASE OF LOGGING UNIT
MUD .         GEL CHEM             : Mud_type     - MUD TYPE
MATR.         SANDSTONE            : Logunit      - NEUTRON MATRIX
TMAX.C        21.6667              : BHT          - MAXIMUM RECORDED TEMPERATURE
BHTD.M        448.97               : BHTDEP       - MAXIMUM RECORDED TEMPERATURE
RMT .C        15                   : MDTP         - TEMPERATURE OF MUD
MUDD.KG/M     1000                 : MWT          - MUD DENSITY
NEUT.         1                    : NEUTRON      - NEUTRON TYPE
RESI.         0                    : RESIST       - RESISTIVITY TYPE
RM  .OHMM     7.42                 : RM           - RESISTIVITY OF MUD
RMC .OHMM     0.25                 : RMC          - RESISTIVITY OF MUD CAKE
RMF .OHMM     7.35                 : RMF          - RESISTIVITY OF MUD FILTRATE
SUFT.C        4                    : SUFT         - SURFACE TEMPERATURE
~A  DEPTH       GR     PHIN     PHID      CAL     RESD
# ...
  338.100   73.287    0.504    0.249  148.590    7.510
  338.350   82.870    0.499    0.204  147.898    7.125
  338.600   87.029    0.522    0.187  147.918    6.539
  338.850   90.273    0.566    0.292  148.049    5.620
  339.100   87.422    0.580    0.292  148.484    5.028
  339.350   90.547    0.595    0.303  149.124    4.515
  339.600   91.474    0.600    0.295  150.598    4.106
  339.850   90.272    0.588    0.288  150.930    3.960
  340.100   86.932    0.575    0.294  150.950    3.918
  340.350   84.201    0.561    0.287  150.667    4.296
  340.600   81.350    0.545    0.284  149.666    4.850
  340.850   70.880    0.536    0.285  149.690    6.033
  341.100   64.740    0.468    0.255  149.714    8.316
  341.350   62.802    0.397    0.197  151.079   13.591
  341.600   63.791    0.357    0.168  153.368   16.033
  341.850   67.645    0.407    0.166  153.701   14.135
  342.100   74.851    0.492    0.270  152.695   11.883
  342.350   70.721    0.541    0.292  148.086   11.150
  342.600   72.868    0.579    0.294  146.979   10.404
  342.850   77.209    0.581    0.302  149.269    9.532
  343.100   75.882    0.610    0.293  151.470    8.267
  343.350   74.801    0.592    0.293  151.486    7.478
  343.600   75.849    0.548    0.290  149.554    7.386
  343.850   79.399    0.518    0.274  148.445    7.622
  344.100   82.460    0.515    0.273  151.046    7.924
  344.350   85.644    0.507    0.254  153.642    8.134
  344.600   84.012    0.513    0.262  156.240    8.196
  344.850   82.442    0.522    0.263  158.222    8.051
  345.100   81.236    0.526    0.256  159.383    7.807
  345.350   81.499    0.521    0.248  159.819    7.489
  345.600   83.884    0.519    0.249  159.121    7.437
  345.850   87.556    0.530    0.265  158.843    7.385
  346.100   88.302    0.542    0.267  158.863    7.348
  346.350   84.963    0.554    0.269  158.478    7.244
  346.600   86.744    0.563    0.266  156.855    7.168
  346.850   88.343    0.565    0.254  153.069    7.105
  347.100   85.370    0.555    0.265  150.725    7.031
  347.350   83.679    0.531    0.268  151.374    6.982
  347.600   82.107    0.516    0.263  154.999    6.921
  347.850   80.963    0.517    0.255  158.423    6.988
  348.100   78.539    0.525    0.246  159.694    7.198
  348.350   75.505    0.523    0.248  159.809    7.720
  348.600   73.020    0.509    0.238  153.760    8.234
  348.850   72.059    0.462    0.219  151.006    9.044
  349.100   70.367    0.471    0.284  150.103   10.007
  349.350   68.185    0.463    0.301  145.699   11.194
  349.600   68.384    0.462    0.296  146.139   12.138
  349.850   71.324    0.480    0.251  148.736   12.413
  350.100   71.702    0.493    0.283  147.219   12.305
  350.350   71.472    0.485    0.317  146.109   12.288
  350.600   71.608    0.480    0.314  145.518   12.248
  350.850   70.525    0.475    0.266  146.377   12.320
  351.100   64.139    0.460    0.224  146.907   12.623
  351.350   59.155    0.405    0.207  153.314   12.908
  351.600   54.171    0.322    0.178  157.665   13.617
  351.850   50.284    0.239    0.147  157.905   17.412
  352.100   48.409    0.228    0.105  157.612   23.349
  352.350   48.910    0.230    0.043  156.709   32.780
  352.600   54.166    0.250    0.071  156.942   37.828
  352.850   66.004    0.263    0.073  156.458   35.235
  353.100   75.770    0.365    0.149  156.477   25.583
  353.350   80.356    0.412    0.193  154.545   18.678
  353.600   79.455    0.456    0.219  151.276   15.081
  353.850   76.240    0.459    0.221  154.595   13.667
  354.100   74.973    0.430    0.228  157.193   13.253
  354.350   73.890    0.426    0.223  159.083   12.973
  354.600   72.380    0.431    0.222  158.892   12.904
  354.850   71.723    0.440    0.224  157.271   12.981
  355.100   72.652    0.454    0.222  157.500   13.081
  355.350   72.246    0.459    0.219  157.535   12.992
  355.600   73.899    0.449    0.218  157.762   12.902
  355.850   76.412    0.416    0.214  158.711   12.789
  356.100   76.917    0.426    0.212  158.944   12.518
  356.350   75.953    0.439    0.209  158.762   12.363
  356.600   74.931    0.442    0.206  157.861   12.277
  356.850   74.762    0.430    0.202  157.469   12.215
  357.100   75.811    0.423    0.202  157.494   12.287
  357.350   77.715    0.436    0.216  157.524   12.382
  357.600   79.008    0.457    0.211  157.545   12.501
  357.850   78.231    0.452    0.215  157.158   12.807
  358.100   78.061    0.439    0.223  156.979   13.025
  358.350   78.319    0.434    0.231  157.106   13.199
  358.600   79.796    0.440    0.220  157.131   13.375
  358.850   79.081    0.460    0.210  155.820   13.306
  359.100   76.959    0.507    0.230  153.269   12.739
  359.350   77.156    0.518    0.226  152.266   12.041
  359.600   81.315    0.503    0.229  154.454   11.013
  359.850   83.584    0.492    0.214  154.478   10.601
  360.100   83.905    0.504    0.222  153.783   10.319
  360.350   81.783    0.535    0.242  151.233   10.154
  360.600   82.591    0.514    0.240  150.331   10.083
  360.850   86.260    0.491    0.224  150.670   10.033
  361.100   83.836    0.484    0.222  150.688    9.999
  361.350   81.231    0.504    0.227  151.022   10.152
  361.600   78.379    0.477    0.230  150.848   10.305
  361.850   75.894    0.450    0.217  152.310   10.832
  362.100   73.353    0.474    0.209  158.408   11.532
  362.350   72.326    0.466    0.213  158.947   12.324
  362.600   69.475    0.453    0.204  159.184   13.193
  362.850   70.829    0.426    0.200  158.690   13.995
  363.100   80.291    0.421    0.197  153.773   14.955
  363.350   85.912    0.478    0.204  151.943   14.396
  363.600   87.511    0.516    0.236  153.307   13.069
  363.850   89.903    0.545    0.254  158.790   11.800
  364.100   88.636    0.529    0.245  160.056   10.615
  364.350   90.601    0.513    0.234  159.869    9.744
  364.600   88.603    0.521    0.230  160.411    9.076
  364.850   86.850    0.518    0.246  159.511    8.547
  365.100   85.828    0.517    0.249  159.950    8.442
  365.350   82.551    0.523    0.243  157.912    8.307
  365.600   76.347    0.528    0.239  154.743    8.464
  365.850   69.535    0.503    0.253  152.198    8.881
  366.100   66.196    0.418    0.264  151.810    9.351
  366.350   66.454    0.395    0.266  151.421   10.772
  366.600   64.579    0.374    0.282  151.445   15.976
  366.850   64.348    0.349    0.230  152.611   19.372
  367.100   65.399    0.336    0.115  154.174   24.952
  367.350   68.582    0.332    0.101  156.672   29.706
  367.600   73.228    0.356    0.093  158.347   28.596
  367.850   75.741    0.462    0.126  157.445   22.017
  368.100   73.683    0.480    0.252  149.745   17.842
  368.350   72.722    0.469    0.247  151.216   15.934
  368.600   72.065    0.460    0.223  153.713   15.199
  368.850   76.467    0.458    0.199  155.281   15.122
  369.100   80.931    0.503    0.209  155.197   15.721
  369.350   82.712    0.521    0.229  155.119   14.404
  369.600   80.776    0.555    0.253  151.645   13.790
  369.850   81.218    0.529    0.262  151.153   13.348
  370.100   84.096    0.516    0.245  150.976   12.710
  370.350   86.670    0.506    0.230  151.103   12.302
  370.600   84.977    0.506    0.225  151.231   12.039
  370.850   81.699    0.496    0.245  150.742   11.869
  371.100   81.044    0.481    0.237  150.151   11.702
  371.350   83.191    0.524    0.230  150.382   11.643
  371.600   83.387    0.501    0.218  151.123   11.668
  371.850   81.938    0.486    0.241  151.872   11.846
  372.100   80.002    0.476    0.252  152.203   12.003
  372.350   80.747    0.463    0.248  152.229   12.184
  372.600   84.418    0.466    0.239  151.636   12.392
  372.850   86.870    0.496    0.222  152.279   12.627
  373.100   85.787    0.477    0.220  151.583   12.818
  373.350   80.742    0.488    0.228  150.270   12.990
  373.600   81.122    0.480    0.226  149.574   13.066
  373.850   83.269    0.497    0.237  149.602   13.096
  374.100   83.527    0.502    0.239  150.148   13.052
  374.350   83.239    0.497    0.244  150.686   12.940
