~VERSION INFORMATION
 VERS.                 2.0:   CWLS LOG ASCII STANDARD -VERSION 2.0
 WRAP.                  NO:   ONE LINE PER DEPTH STEP
~WELL INFORMATION BLOCK
#MNEM.UNIT           DATA                    DESCRIPTION OF MNEMONIC
#---------    -------------------            -------------------------------
# Generated from Intellog Unique Number	CS_73_76/WELL/2178
WELL.         ASHLAND OIL CANADA LIMITED     : Well_name    - WELL
LOC .         00/07-32-074-18W4/0            : Location     - LOCATION
UWI .         00/07-32-074-18W4/0            : Uwi          - UNIQUE WELL ID
ENTR.         SP                             : Entered      - ENTERED BY
SRVC.         SCHLUMBERGER                   : Scn          - SERVICE COMPANY
STRT.M        335.280                        : top_depth    - START DEPTH
STOP.M        490.530                        : bot_depth    - STOP DEPTH
STEP.M        0.25                           : increment    - STEP LENGTH
 NULL. -999.2500:NULL Value
~CURVE INFORMATION BLOCK
#MNEM UNIT       ERCB CURVE CODE    CURVE DESCRIPTION
#-----------   ------------------   ----------------------------------
DEPT.M        00 001 00 00         : DEPTH        - DEPTH
GR  .API      00 310 00 00         : GR           - GAMMA RAY
DPHI.V/V      00 890 00 00         : PHID         - DENSITY POROSITY (SANDSTONE)
NPHI.V/V      00 330 00 00         : PHIN         - NEUTRON POROSITY (SANDSTONE)
ILD .OHMM     00 120 00 00         : RESD         - DEEP RESISTIVITY (DIL)
~PARAMETER INFORMATION
#MNEM.UNIT           DATA             DESCRIPTION OF MNEMONIC
#---------         -----------     ------------------------------
GL  .M        583.844              : gl           - GROUND LEVEL ELEVATION
EREF.M        586.892              : kb           - ELEVATION OF DEPTH REFERENCE
DATM.M        583.844              : datum        - DATUM ELEVATION
TDD .M        513.588              : tdd          - TOTAL DEPTH DRILLER
RUN .         ONE                  : Run          - RUN NUMBER
ENG .         BILL                 : Engineer     - RECORDING ENGINEER
WIT .         JIM                  : Witness      - WITNESSED BY
MUD .         GEL                  : Mud_type     - MUD TYPE
MATR.         SANDSTONE            : Logunit      - NEUTRON MATRIX
TMAX.C        60                   : BHT          - MAXIMUM RECORDED TEMPERATURE
BHTD.M        513.588              : BHTDEP       - MAXIMUM RECORDED TEMPERATURE
MATR.         1                    : LOGUNIT      - NEUTRON MATRIX
RMT .C        25                   : MDTP         - TEMPERATURE OF MUD
NEUT.         1                    : NEUTRON      - NEUTRON TYPE
RESI.         0                    : RESIST       - RESISTIVITY TYPE
RMC .OHMM     0.25                 : RMC          - RESISTIVITY OF MUD CAKE
RMF .OHMM     0.25                 : RMF          - RESISTIVITY OF MUD FILTRATE
SUFT.C        15                   : SUFT         - SURFACE TEMPERATURE
~A  DEPTH       GR     PHID     PHIN     RESD
# ...
  378.780   73.264    0.258    0.614    7.099
  379.030   73.944    0.249    0.602    7.173
  379.280   73.316    0.256    0.572    7.292
  379.530   73.338    0.251    0.538    7.434
  379.780   72.700    0.247    0.552    7.561
  380.030   70.942    0.255    0.562    7.498
  380.280   71.686    0.241    0.568    7.143
  380.530   74.157    0.215    0.542    6.908
  380.780   79.685    0.200    0.528    6.838
  381.030   83.420    0.192    0.519    6.629
  381.280   85.460    0.184    0.535    6.637
  381.530   88.127    0.181    0.558    6.687
  381.780   93.306    0.192    0.579    6.746
  382.030   92.611    0.204    0.591    6.836
  382.280   94.319    0.187    0.605    7.045
  382.530   94.882    0.184    0.581    7.258
  382.780   93.494    0.178    0.564    7.391
  383.030   91.535    0.167    0.560    7.378
  383.280   92.314    0.154    0.558    7.381
  383.530   94.680    0.171    0.555    7.253
  383.780   94.996    0.168    0.545    6.930
  384.030   98.012    0.169    0.536    6.739
  384.280  100.303    0.173    0.533    6.521
  384.530   97.976    0.164    0.542    6.461
  384.780   97.556    0.169    0.537    6.347
  385.030   97.766    0.176    0.541    6.352
  385.280   98.090    0.187    0.555    6.354
  385.530   98.714    0.194    0.569    6.456
  385.780   97.751    0.201    0.578    6.593
  386.030   96.783    0.213    0.558    6.573
  386.280   94.272    0.225    0.539    6.706
  386.530   90.905    0.228    0.513    6.721
  386.780   88.501    0.221    0.518    6.811
  387.030   85.890    0.206    0.538    6.795
  387.280   87.996    0.201    0.551    6.942
  387.530   89.306    0.210    0.564    6.914
  387.780   89.991    0.219    0.564    7.050
  388.030   90.671    0.210    0.541    7.183
  388.280   91.819    0.204    0.536    7.279
  388.530   89.857    0.183    0.526    7.303
  388.780   89.870    0.167    0.522    7.303
  389.030   91.177    0.170    0.513    7.438
  389.280   89.680    0.183    0.504    7.391
  389.530   89.134    0.193    0.489    7.289
  389.780   90.432    0.207    0.486    7.205
  390.030   91.550    0.204    0.507    7.160
  390.280   92.545    0.208    0.537    7.036
  390.530   92.505    0.212    0.559    6.823
  390.780   93.308    0.216    0.574    6.618
  391.030   94.294    0.198    0.582    6.350
  391.280   94.002    0.201    0.564    5.769
  391.530   92.910    0.194    0.525    5.389
  391.780   88.992    0.196    0.523    4.930
  392.030   84.697    0.181    0.550    4.543
  392.280   80.978    0.208    0.577    4.938
  392.530   77.141    0.228    0.600    5.431
  392.780   78.508    0.227    0.584    6.042
  393.030   76.916    0.234    0.582    6.598
  393.280   70.892    0.254    0.593    6.801
  393.530   66.845    0.272    0.549    6.808
  393.780   63.239    0.279    0.548    6.498
  394.030   59.909    0.288    0.570    6.100
  394.280   57.352    0.291    0.574    5.973
  394.530   55.698    0.294    0.576    5.301
  394.780   56.521    0.291    0.579    5.284
  395.030   56.758    0.294    0.580    5.390
  395.280   56.159    0.289    0.573    5.657
  395.530   55.313    0.290    0.559    5.821
  395.780   54.313    0.295    0.567    5.996
  396.030   53.316    0.301    0.573    6.171
  396.280   52.430    0.291    0.581    6.337
  396.530   51.856    0.280    0.551    6.427
  396.780   51.509    0.264    0.535    6.885
  397.030   50.391    0.244    0.491    7.367
  397.280   48.313    0.210    0.383    7.716
  397.530   47.204    0.234    0.444    7.676
  397.780   46.916    0.280    0.492    7.264
  398.030   49.886    0.276    0.522    6.717
  398.280   51.528    0.283    0.561    6.119
  398.530   53.917    0.277    0.561    5.858
  398.780   56.523    0.266    0.570    5.603
  399.030   57.581    0.261    0.592    5.520
  399.280   57.997    0.257    0.584    5.436
  399.530   56.023    0.255    0.567    5.434
  399.780   54.056    0.265    0.549    5.433
  400.030   52.044    0.273    0.530    5.430
  400.280   51.182    0.283    0.527    5.431
  400.530   51.897    0.269    0.529    5.435
  400.780   52.846    0.257    0.535    5.527
  401.030   54.032    0.251    0.541    5.520
  401.280   55.317    0.243    0.531    5.517
  401.530   55.877    0.245    0.520    5.589
  401.780   55.924    0.257    0.513    5.603
  402.030   54.017    0.268    0.481    5.714
  402.280   52.014    0.283    0.466    5.711
  402.530   50.973    0.296    0.472    5.710
  402.780   52.620    0.296    0.476    5.707
  403.030   54.880    0.292    0.480    5.702
  403.280   56.978    0.288    0.488    5.686
  403.530   59.955    0.293    0.492    5.592
  403.780   63.276    0.294    0.514    5.592
  404.030   65.798    0.289    0.536    5.591
  404.280   68.213    0.284    0.542    5.588
  404.530   70.961    0.275    0.543    5.585
  404.780   70.225    0.257    0.546    5.583
  405.030   67.820    0.239    0.546    5.578
  405.280   68.192    0.207    0.528    5.556
  405.530   75.214    0.213    0.534    5.376
  405.780   85.034    0.205    0.555    5.324
  406.030   92.054    0.186    0.531    5.159
  406.280   96.592    0.184    0.506    4.982
  406.530   94.568    0.189    0.513    4.915
  406.780   92.355    0.185    0.549    4.632
  407.030   89.279    0.184    0.585    4.628
  407.280   86.935    0.194    0.599    4.620
  407.530   85.269    0.219    0.605    4.715
  407.780   83.607    0.211    0.619    4.914
  408.030   82.419    0.196    0.627    5.204
  408.280   81.646    0.206    0.634    5.749
  408.530   80.550    0.216    0.585    6.053
  408.780   80.279    0.205    0.555    6.474
  409.030   79.198    0.186    0.521    6.881
  409.280   78.221    0.176    0.486    7.032
  409.530   77.302    0.195    0.494    7.026
  409.780   78.838    0.207    0.521    6.913
  410.030   80.802    0.228    0.548    6.637
  410.280   82.015    0.233    0.563    6.512
  410.530   82.887    0.237    0.573    6.293
  410.780   84.374    0.234    0.551    6.236
  411.030   84.220    0.222    0.532    6.159
  411.280   83.828    0.220    0.532    6.077
  411.530   82.874    0.214    0.546    6.044
  411.780   83.482    0.202    0.539    6.039
  412.030   84.435    0.201    0.527    6.102
  412.280   85.455    0.192    0.510    6.135
  412.530   87.442    0.178    0.525    6.246
  412.780   88.345    0.176    0.536    6.315
  413.030   89.981    0.181    0.530    6.391
  413.280   91.529    0.179    0.529    6.612
  413.530   89.863    0.175    0.535    6.649
  413.780   87.240    0.182    0.508    6.713
  414.030   84.658    0.186    0.488    6.723
  414.280   83.855    0.196    0.469    6.551
  414.530   85.497    0.201    0.486    6.231
  414.780   88.909    0.174    0.501    6.008
  415.030   93.204    0.167    0.509    5.419
  415.280   95.406    0.170    0.514    5.287
  415.530   97.145    0.161    0.497    5.181
  415.780   96.561    0.160    0.490    5.069
  416.030   96.591    0.153    0.510    5.163
  416.280   96.459    0.144    0.524    5.188
  416.530   97.879    0.160    0.544    5.589
  416.780   98.965    0.173    0.532    6.083
  417.030   98.208    0.152    0.504    6.820
  417.280   97.575    0.138    0.483    7.603
  417.530   95.724    0.115    0.466    8.229
  417.780   93.220    0.139    0.413    8.511
  418.030   89.874    0.165    0.423    8.613
  418.280   82.270    0.189    0.478    8.276
  418.530   77.262    0.199    0.511    7.803
  418.780   74.379    0.206    0.527    7.576
  419.030   73.036    0.212    0.509    7.263
  419.280   75.615    0.214    0.484    7.121
  419.530   77.632    0.204    0.474    6.888
  419.780   76.737    0.192    0.472    6.742
  420.030   75.772    0.164    0.471    6.749
  420.280   76.794    0.145    0.478    6.717
  420.530   77.899    0.117    0.490    6.736
  420.780   79.238    0.106    0.453    6.874
  421.030   78.943    0.108    0.392    7.028
  421.280   77.471    0.132    0.448    7.281
  421.530   80.698    0.155    0.502    7.643
  421.780   84.664    0.139    0.518    8.268
  422.030   85.466    0.109    0.400    9.391
