~VERSION INFORMATION
 VERS.                 2.0:   CWLS LOG ASCII STANDARD -VERSION 2.0
 WRAP.                  NO:   ONE LINE PER DEPTH STEP
~WELL INFORMATION BLOCK
#MNEM.UNIT           DATA                    DESCRIPTION OF MNEMONIC
#---------    -------------------            -------------------------------
# Generated from Intellog Unique Number	CS_73_76/WELL/3218
WELL.         CANADIAN OCCIDENTAL            : Well_name    - WELL
LOC .         00/08-24-076-02W4/0            : Location     - LOCATION
UWI .         00/08-24-076-02W4/0            : Uwi          - UNIQUE WELL ID
ENTR.         SP                             : Entered      - ENTERED BY
SRVC.         SCHLUMBERGER                   : Scn          - SERVICE COMPANY
STRT.M        237.744                        : top_depth    - START DEPTH
STOP.M        524.244                        : bot_depth    - STOP DEPTH
STEP.M        0.25                           : increment    - STEP LENGTH
 NULL. -999.2500:NULL Value
~CURVE INFORMATION BLOCK
#MNEM UNIT       ERCB CURVE CODE    CURVE DESCRIPTION
#-----------   ------------------   ----------------------------------
DEPT.M        00 001 00 00         : DEPTH        - DEPTH
DPHI.V/V      00 890 00 00         : PHID         - DENSITY POROSITY (SANDSTONE)
NPHI.V/V      00 330 00 00         : PHIN         - NEUTRON POROSITY (SANDSTONE)
ILD .OHMM     00 120 00 00         : RESD         - DEEP RESISTIVITY (DIL)
GR  .API      00 310 00 00         : GR           - GAMMA RAY
~PARAMETER INFORMATION
#MNEM.UNIT           DATA             DESCRIPTION OF MNEMONIC
#---------         -----------     ------------------------------
GL  .M        630.326              : gl           - GROUND LEVEL ELEVATION
EREF.M        633.832              : kb           - ELEVATION OF DEPTH REFERENCE
DATM.M        630.326              : datum        - DATUM ELEVATION
TDD .M        536.143              : tdd          - TOTAL DEPTH DRILLER
RUN .         ONE                  : Run          - RUN NUMBER
ENG .         BILL                 : Engineer     - RECORDING ENGINEER
WIT .         JIM                  : Witness      - WITNESSED BY
MUD .         GEL                  : Mud_type     - MUD TYPE
MATR.         SANDSTONE            : Logunit      - NEUTRON MATRIX
TMAX.C        22.2222              : BHT          - MAXIMUM RECORDED TEMPERATURE
BHTD.M        536.143              : BHTDEP       - MAXIMUM RECORDED TEMPERATURE
MATR.         1                    : LOGUNIT      - NEUTRON MATRIX
RMT .C        25                   : MDTP         - TEMPERATURE OF MUD
NEUT.         1                    : NEUTRON      - NEUTRON TYPE
RESI.         0                    : RESIST       - RESISTIVITY TYPE
RMC .OHMM     0.25                 : RMC          - RESISTIVITY OF MUD CAKE
RMF .OHMM     0.25                 : RMF          - RESISTIVITY OF MUD FILTRATE
SUFT.C        15                   : SUFT         - SURFACE TEMPERATURE
~A  DEPTH     PHID     PHIN     RESD       GR
  237.744    0.224    0.521    2.886   66.403
  237.994    0.238    0.525    2.925   93.767
  238.244    0.232    0.514    2.950   90.482
  238.494    0.223    0.507    3.043   88.919
  238.744    0.221    0.517    3.233   90.346
  238.994    0.236    0.524    3.344   93.902
  239.244    0.223    0.526    3.341   94.350
  239.494    0.203    0.500    3.341   93.458
  239.744    0.219    0.494    3.340   94.913
  239.994    0.222    0.491    3.393   97.269
  240.244    0.218    0.494    3.441  100.653
  240.494    0.229    0.510    3.666  103.130
  240.744    0.232    0.519    3.776  100.175
  240.994    0.224    0.510    3.893   98.930
  241.244    0.221    0.509    3.943   98.948
  241.494    0.218    0.512    3.748   97.926
  241.744    0.204    0.505    3.631   97.774
  241.994    0.213    0.494    3.477   97.247
  242.244    0.216    0.490    3.311   97.107
  242.494    0.229    0.497    3.151   99.417
  242.744    0.238    0.504    3.059  103.159
  242.994    0.223    0.516    3.048  100.996
  243.244    0.224    0.509    3.184   99.403
  243.494    0.223    0.509    3.770   98.635
  243.744    0.214    0.521    4.292   98.166
  243.994    0.203    0.517    5.288   94.726
  244.244    0.198    0.495    7.549   90.056
  244.494    0.192    0.488   11.506   83.410
  244.744    0.201    0.461   17.335   46.181
  244.994    0.247    0.400   13.704   29.446
  245.244    0.254    0.350   13.208   23.913
  245.494    0.243    0.299   12.047   25.855
  245.744    0.234    0.292   10.261   34.520
  245.994    0.225    0.322    7.781   44.073
  246.244    0.216    0.358    5.711   55.843
  246.494    0.207    0.388    4.796   63.900
  246.744    0.236    0.391    4.500   63.483
  246.994    0.218    0.369    5.170   74.489
  247.244    0.195    0.403    6.394   83.979
  247.494    0.194    0.426    8.015   78.883
  247.744    0.194    0.459   10.471   65.905
  247.994    0.217    0.398   12.359   52.867
  248.244    0.204    0.365   11.456   51.979
  248.494    0.177    0.359   10.979   59.056
  248.744    0.199    0.377   10.550   67.098
  248.994    0.188    0.383   12.169   73.711
  249.244    0.193    0.385   14.537   75.865
  249.494    0.201    0.390   18.578   66.820
  249.744    0.240    0.412   23.613   58.715
  249.994    0.271    0.400   30.026   42.464
  250.244    0.278    0.364   34.136   37.652
  250.494    0.286    0.363   38.208   32.422
  250.744    0.299    0.350   39.657   29.709
  250.994    0.309    0.346   40.904   28.795
  251.244    0.307    0.352   40.120   30.131
  251.494    0.295    0.358   38.641   30.483
  251.744    0.303    0.369   36.933   31.535
  251.994    0.304    0.382   33.991   33.252
  252.244    0.309    0.390   32.772   34.198
  252.494    0.300    0.376   32.777   34.930
  252.744    0.295    0.380   33.238   40.245
  252.994    0.289    0.374   36.179   39.916
  253.244    0.278    0.358   38.709   37.180
  253.494    0.277    0.353   37.401   34.220
  253.744    0.270    0.359   34.783   32.869
  253.994    0.281    0.357   31.077   34.835
  254.244    0.275    0.359   31.181   35.651
  254.494    0.293    0.385   35.768   36.799
  254.744    0.286    0.404   41.017   39.727
  254.994    0.283    0.412   41.722   36.957
  255.244    0.291    0.383   41.079   34.061
  255.494    0.295    0.381   40.934   34.623
  255.744    0.296    0.375   41.808   34.546
  255.994    0.288    0.372   43.620   35.442
  256.244    0.300    0.371   46.108   37.215
  256.494    0.294    0.380   47.446   34.522
  256.744    0.296    0.379   46.873   31.765
  256.994    0.297    0.364   45.265   31.149
  257.244    0.296    0.364   43.304   31.607
  257.494    0.300    0.360   45.598   32.214
  257.744    0.302    0.363   47.557   31.876
  257.994    0.295    0.371   45.869   29.895
  258.244    0.289    0.366   44.587   27.932
  258.494    0.299    0.354   42.373   27.554
  258.744    0.305    0.351   39.756   30.068
  258.994    0.297    0.366   38.338   32.243
  259.244    0.295    0.376   35.304   35.173
  259.494    0.299    0.388   33.315   33.666
  259.744    0.309    0.399   31.686   32.874
  259.994    0.315    0.413   31.178   37.469
  260.244    0.332    0.429   31.988   41.017
  260.494    0.349    0.462   33.832   44.105
  260.744    0.360    0.518   41.453   48.257
  260.994    0.318    0.495   43.804   40.798
  261.244    0.305    0.362   41.962   31.751
  261.494    0.304    0.360   30.386   28.508
  261.744    0.294    0.353   20.000   30.514
  261.994    0.275    0.358   15.619   34.972
  262.244    0.267    0.362   13.435   41.445
  262.494    0.271    0.384   11.978   59.555
  262.744    0.251    0.408   11.188   68.538
  262.994    0.240    0.431   10.361   82.056
  263.244    0.235    0.444    9.603   85.806
  263.494    0.238    0.424    9.185   87.100
  263.744    0.248    0.459    8.738   92.058
  263.994    0.242    0.479    8.512   94.225
  264.244    0.229    0.463    8.523   97.711
  264.494    0.218    0.450    8.947   99.482
  264.744    0.212    0.421    9.396   98.856
  264.994    0.193    0.395   10.309   97.828
  265.244    0.161    0.383   11.704   97.924
  265.494    0.137    0.373   13.048   95.046
  265.744    0.136    0.361   14.503   86.372
  265.994    0.124    0.368   16.726   78.564
  266.244    0.163    0.378   19.406   76.496
  266.494    0.199    0.387   22.075   70.256
  266.744    0.237    0.395   28.844   59.184
  266.994    0.270    0.382   34.579   51.290
  267.244    0.268    0.375   36.826   47.537
  267.494    0.274    0.363   31.017   44.772
  267.744    0.264    0.356   25.003   47.463
  267.994    0.253    0.359   21.256   52.761
  268.244    0.248    0.361   17.149   60.358
  268.494    0.238    0.386   14.277   66.743
  268.744    0.220    0.391   11.624   74.013
  268.994    0.193    0.383    9.826   83.202
  269.244    0.174    0.410    8.529   92.172
  269.494    0.141    0.453    7.250  102.992
  269.744    0.128    0.458    6.387  105.995
  269.994    0.111    0.455    5.612  113.426
  270.244    0.173    0.481    5.010  122.114
  270.494    0.174    0.487    4.608  126.186
  270.744    0.167    0.498    4.125  124.512
  270.994    0.157    0.510    3.876  120.658
  271.244    0.180    0.511    3.706  119.813
  271.494    0.207    0.524    3.585  119.057
  271.744    0.216    0.540    3.555  118.370
  271.994    0.225    0.542    3.931  117.202
  272.244    0.229    0.533    4.599  116.913
  272.494    0.235    0.530    5.932  114.266
  272.744    0.244    0.522    7.199  107.409
  272.994    0.247    0.508    8.292   97.710
  273.244    0.247    0.453   10.175   90.666
  273.494    0.239    0.425   12.651   92.586
  273.744    0.266    0.469   15.927   94.208
  273.994    0.291    0.507   20.608   81.361
  274.244    0.317    0.453   25.612   69.966
  274.494    0.308    0.418   30.981   61.646
  274.744    0.316    0.396   34.559   59.823
  274.994    0.314    0.399   35.544   67.571
  275.244    0.301    0.401   35.512   73.888
  275.494    0.309    0.406   34.046   70.414
  275.744    0.327    0.410   32.225   67.427
  275.994    0.333    0.407   30.719   63.268
  276.244    0.325    0.404   29.413   61.422
  276.494    0.332    0.416   28.966   67.145
  276.744    0.315    0.423   28.547   70.608
  276.994    0.307    0.430   27.717   75.686
  277.244    0.313    0.435   26.855   80.531
  277.494    0.320    0.437   25.686   75.652
  277.744    0.300    0.412   24.456   73.141
  277.994    0.297    0.402   23.318   73.927
  278.244    0.293    0.396   22.741   73.084
  278.494    0.286    0.393   21.938   70.075
  278.744    0.284    0.388   21.703   70.368
  278.994    0.268    0.389   21.958   74.041
  279.244    0.265    0.395   22.791   77.280
  279.494    0.279    0.407   25.490   79.193
  279.744    0.288    0.412   27.991   76.032
  279.994    0.279    0.408   29.208   72.254
  280.244    0.284    0.394   29.587   68.392
  280.494    0.298    0.389   29.992   66.567
  280.744    0.302    0.387   29.010   72.524
  280.994    0.299    0.384   28.191   76.750
