~VERSION INFORMATION
 VERS.                 2.0:   CWLS LOG ASCII STANDARD -VERSION 2.0
 WRAP.                  NO:   ONE LINE PER DEPTH STEP
~WELL INFORMATION BLOCK
#MNEM.UNIT           DATA                    DESCRIPTION OF MNEMONIC
#---------    -------------------            -------------------------------
# Generated from Intellog Unique Number	CS_73_76/WELL/2168
WELL.         BOW VALLEY INDUSTRIES          : Well_name    - WELL
LOC .         00/06-25-074-17W4/0            : Location     - LOCATION
UWI .         00/06-25-074-17W4/0            : Uwi          - UNIQUE WELL ID
ENTR.         SP                             : Entered      - ENTERED BY
SRVC.         SCHLUMBERGER                   : Scn          - SERVICE COMPANY
STRT.M        228.600                        : top_depth    - START DEPTH
STOP.M        453.850                        : bot_depth    - STOP DEPTH
STEP.M        0.25                           : increment    - STEP LENGTH
 NULL. -999.2500:NULL Value
~CURVE INFORMATION BLOCK
#MNEM UNIT       ERCB CURVE CODE    CURVE DESCRIPTION
#-----------   ------------------   ----------------------------------
DEPT.M        00 001 00 00         : DEPTH        - DEPTH
GR  .API      00 310 00 00         : GR           - GAMMA RAY
DPHI.V/V      00 890 00 00         : PHID         - DENSITY POROSITY (SANDSTONE)
NPHI.V/V      00 330 00 00         : PHIN         - NEUTRON POROSITY (SANDSTONE)
ILD .OHMM     00 120 00 00         : RESD         - DEEP RESISTIVITY (DIL)
~PARAMETER INFORMATION
#MNEM.UNIT           DATA             DESCRIPTION OF MNEMONIC
#---------         -----------     ------------------------------
GL  .M        614                  : gl           - GROUND LEVEL ELEVATION
EREF.M        616.61               : kb           - ELEVATION OF DEPTH REFERENCE
DATM.M        616                  : datum        - DATUM ELEVATION
TDD .M        484.937              : tdd          - TOTAL DEPTH DRILLER
RUN .         ONE                  : Run          - RUN NUMBER
ENG .         BILL                 : Engineer     - RECORDING ENGINEER
WIT .         JIM                  : Witness      - WITNESSED BY
MUD .         GEL                  : Mud_type     - MUD TYPE
MATR.         SANDSTONE            : Logunit      - NEUTRON MATRIX
TMAX.C        13.8889              : BHT          - MAXIMUM RECORDED TEMPERATURE
BHTD.M        484.937              : BHTDEP       - MAXIMUM RECORDED TEMPERATURE
MATR.         1                    : LOGUNIT      - NEUTRON MATRIX
RMT .C        25                   : MDTP         - TEMPERATURE OF MUD
NEUT.         1                    : NEUTRON      - NEUTRON TYPE
RESI.         0                    : RESIST       - RESISTIVITY TYPE
RMC .OHMM     0.25                 : RMC          - RESISTIVITY OF MUD CAKE
RMF .OHMM     0.25                 : RMF          - RESISTIVITY OF MUD FILTRATE
SUFT.C        15                   : SUFT         - SURFACE TEMPERATURE
~A  DEPTH       GR     PHID     PHIN     RESD
# ...
  315.600   58.016    0.314    0.435    8.914
  315.850   56.363    0.325    0.428    9.106
  316.100   55.439    0.332    0.411    9.089
  316.350   54.464    0.323    0.393    9.087
  316.600   53.625    0.304    0.401    9.086
  316.850   54.350    0.311    0.418    9.085
  317.100   56.442    0.319    0.428    9.084
  317.350   56.829    0.335    0.424    9.082
  317.600   57.290    0.335    0.431    9.081
  317.850   56.656    0.336    0.437    9.086
  318.100   56.905    0.336    0.440    9.124
  318.350   58.361    0.336    0.440    9.094
  318.600   59.486    0.339    0.437    9.082
  318.850   58.385    0.335    0.434    9.075
  319.100   59.327    0.338    0.421    9.074
  319.350   61.968    0.340    0.417    9.069
  319.600   64.557    0.335    0.417    9.061
  319.850   66.272    0.329    0.421    8.896
  320.100   63.889    0.326    0.421    8.903
  320.350   61.370    0.330    0.417    8.903
  320.600   60.403    0.341    0.415    8.902
  320.850   61.987    0.349    0.419    8.901
  321.100   60.238    0.340    0.418    8.900
  321.350   59.550    0.335    0.407    8.894
  321.600   59.662    0.352    0.396    8.868
  321.850   60.167    0.347    0.401    8.730
  322.100   60.191    0.344    0.408    8.728
  322.350   59.440    0.347    0.413    8.717
  322.600   58.481    0.336    0.397    8.551
  322.850   57.840    0.330    0.408    8.746
  323.100   59.612    0.338    0.420    8.729
  323.350   61.840    0.333    0.431    8.727
  323.600   61.885    0.331    0.435    8.727
  323.850   61.889    0.331    0.426    8.725
  324.100   62.260    0.330    0.439    8.724
  324.350   62.420    0.330    0.429    8.723
  324.600   63.021    0.338    0.421    8.722
  324.850   63.109    0.337    0.415    8.721
  325.100   62.424    0.347    0.434    8.720
  325.350   61.901    0.337    0.432    8.718
  325.600   61.281    0.328    0.428    8.717
  325.850   65.189    0.336    0.433    8.716
  326.100   68.574    0.339    0.435    8.715
  326.350   68.749    0.346    0.430    8.718
  326.600   62.889    0.335    0.427    8.716
  326.850   55.633    0.324    0.422    8.866
  327.100   51.642    0.326    0.418    9.045
  327.350   51.537    0.338    0.424    9.191
  327.600   52.550    0.349    0.436    9.470
  327.850   52.659    0.347    0.442    9.759
  328.100   51.641    0.342    0.439   10.056
  328.350   50.886    0.333    0.424   10.354
  328.600   50.879    0.322    0.415   10.647
  328.850   49.922    0.314    0.432   10.951
  329.100   48.453    0.321    0.440   11.235
  329.350   47.871    0.329    0.434   11.457
  329.600   46.944    0.332    0.431   11.588
  329.850   45.170    0.333    0.429   11.963
  330.100   45.484    0.338    0.419   12.095
  330.350   47.475    0.317    0.417   12.240
  330.600   48.400    0.313    0.419   12.312
  330.850   47.331    0.327    0.422   12.302
  331.100   46.632    0.322    0.426   12.560
  331.350   46.729    0.313    0.435   12.536
  331.600   47.765    0.323    0.448   12.550
  331.850   47.287    0.323    0.440   12.195
  332.100   45.893    0.329    0.441   11.838
  332.350   43.227    0.316    0.444   11.481
  332.600   42.071    0.307    0.450   11.072
  332.850   43.059    0.313    0.454   10.622
  333.100   42.821    0.329    0.451   10.482
  333.350   41.555    0.336    0.430   10.379
  333.600   41.769    0.318    0.414   10.233
  333.850   42.084    0.310    0.422   10.120
  334.100   43.135    0.312    0.430   10.053
  334.350   43.574    0.329    0.433   10.046
  334.600   43.453    0.335    0.425   10.045
  334.850   44.904    0.331    0.416   10.044
  335.100   45.759    0.321    0.412   10.041
  335.350   47.397    0.325    0.407   10.025
  335.600   45.209    0.313    0.399   10.237
  335.850   42.784    0.303    0.415   10.073
  336.100   41.645    0.330    0.424    9.932
  336.350   42.304    0.347    0.442    9.499
  336.600   42.614    0.336    0.430    9.197
  336.850   43.497    0.326    0.437    9.117
  337.100   44.041    0.330    0.456    8.985
  337.350   43.746    0.344    0.462    9.002
  337.600   43.655    0.353    0.460    8.807
  337.850   45.225    0.343    0.453    8.823
  338.100   45.302    0.315    0.437    8.835
  338.350   44.604    0.312    0.437    8.648
  338.600   44.644    0.323    0.456    8.655
  338.850   44.643    0.343    0.460    8.597
  339.100   44.639    0.359    0.447    8.500
  339.350   45.507    0.344    0.444    8.381
  339.600   47.919    0.330    0.450    8.298
  339.850   48.783    0.333    0.448    8.190
  340.100   48.457    0.350    0.454    8.025
  340.350   47.469    0.352    0.452    8.037
  340.600   45.906    0.349    0.443    8.037
  340.850   45.126    0.339    0.433    8.035
  341.100   45.109    0.337    0.421    8.035
  341.350   46.544    0.335    0.428    8.033
  341.600   49.586    0.350    0.434    8.032
  341.850   51.839    0.368    0.439    8.031
  342.100   53.441    0.369    0.442    8.030
  342.350   53.490    0.357    0.447    8.029
  342.600   54.121    0.342    0.465    8.028
  342.850   55.383    0.347    0.472    8.026
  343.100   55.285    0.362    0.477    8.017
  343.350   55.820    0.377    0.466    8.166
  343.600   57.715    0.356    0.464    8.170
  343.850   60.414    0.339    0.467    8.178
  344.100   61.715    0.343    0.460    8.039
  344.350   64.511    0.349    0.465    8.026
  344.600   68.129    0.335    0.472    8.024
  344.850   71.028    0.318    0.478    7.901
  345.100   74.036    0.309    0.475    7.880
  345.350   75.614    0.310    0.460    7.877
  345.600   74.776    0.307    0.454    8.008
  345.850   71.517    0.291    0.465    8.171
  346.100   69.048    0.260    0.476    8.307
  346.350   70.854    0.266    0.473    8.559
  346.600   72.477    0.289    0.460    8.819
  346.850   71.843    0.311    0.449    9.094
  347.100   74.543    0.281    0.451    9.561
  347.350   70.315    0.227    0.432   10.042
  347.600   68.433    0.172    0.362   11.048
  347.850   68.844    0.174    0.345   11.897
  348.100   70.168    0.188    0.356   13.452
  348.350   69.736    0.197    0.330   14.693
  348.600   69.006    0.151    0.311   15.936
  348.850   74.391    0.228    0.338   17.264
  349.100   78.525    0.280    0.401   14.622
  349.350   77.178    0.324    0.472   13.204
  349.600   73.808    0.333    0.468   11.566
  349.850   71.412    0.324    0.453   10.465
  350.100   71.311    0.307    0.442    9.521
  350.350   70.772    0.291    0.450    8.961
  350.600   69.825    0.285    0.457    8.672
  350.850   68.994    0.283    0.445    8.603
  351.100   71.952    0.293    0.437    8.599
  351.350   77.441    0.275    0.428    8.595
  351.600   81.572    0.257    0.435    8.591
  351.850   83.387    0.245    0.442    8.375
  352.100   81.300    0.270    0.452    7.612
  352.350   77.252    0.279    0.454    7.294
  352.600   75.932    0.295    0.441    6.937
  352.850   78.219    0.300    0.431    6.737
  353.100   85.844    0.286    0.423    6.539
  353.350   90.350    0.285    0.436    6.412
  353.600   91.745    0.234    0.439    6.293
  353.850   93.757    0.205    0.443    6.504
  354.100   95.535    0.218    0.462    6.686
  354.350   95.746    0.203    0.471    6.261
  354.600   95.806    0.218    0.472    6.092
  354.850   95.060    0.218    0.455    5.910
  355.100   95.121    0.226    0.450    5.733
  355.350   94.349    0.230    0.451    5.674
  355.600   95.807    0.219    0.459    5.519
  355.850   96.265    0.216    0.469    5.526
  356.100   96.946    0.201    0.466    5.526
  356.350   96.964    0.184    0.473    5.529
  356.600   98.526    0.182    0.478    5.433
  356.850  100.752    0.201    0.477    5.426
  357.100  103.767    0.215    0.464    5.425
  357.350  105.779    0.195    0.458    5.340
  357.600  106.761    0.212    0.461    5.325
  357.850  107.040    0.206    0.468    5.321
  358.100  107.092    0.201    0.468    5.318
  358.350  106.229    0.198    0.469    5.284
  358.600  104.635    0.213    0.471    5.223
  358.850  101.997    0.198    0.476    4.971
