~VERSION INFORMATION
 VERS.                 2.0:   CWLS LOG ASCII STANDARD -VERSION 2.0
 WRAP.                  NO:   ONE LINE PER DEPTH STEP
~WELL INFORMATION BLOCK
#MNEM.UNIT           DATA                    DESCRIPTION OF MNEMONIC
#---------    -------------------            -------------------------------
# Generated from Intellog Unique Number	CW_73_75/WELL/3523
WELL.         08-16-075-05W5                 : Well_name    - WELL
LOC .         00/08-16-075-05W5/0            : Location     - LOCATION
UWI .         00/08-16-075-05W5/0            : Uwi          - UNIQUE WELL ID
ENTR.         JOETTE                         : Entered      - ENTERED BY
SRVC.         SCHLUMBERGER                   : Scn          - SERVICE COMPANY
DATE.         05/25/92                       : Date         - LOG DATE
STRT.M        675                            : top_depth    - START DEPTH
STOP.M        925                            : bot_depth    - STOP DEPTH
STEP.M        0.25                           : increment    - STEP LENGTH
 NULL. -999.2500:NULL Value
~CURVE INFORMATION BLOCK
#MNEM UNIT       ERCB CURVE CODE    CURVE DESCRIPTION
#-----------   ------------------   ----------------------------------
DEPT.M        00 001 00 00         : DEPTH        - DEPTH
NPHI.V/V      00 330 00 00         : PHIN         - NEUTRON POROSITY (SANDSTONE)
GR  .API      00 310 00 00         : GR           - GAMMA RAY
DPHI.V/V      00 890 00 00         : PHID         - DENSITY POROSITY (SANDSTONE)
ILD .OHMM     00 120 00 00         : RESD         - DEEP RESISTIVITY (DIL)
~PARAMETER INFORMATION
#MNEM.UNIT           DATA             DESCRIPTION OF MNEMONIC
#---------         -----------     ------------------------------
GL  .M        964.66               : gl           - GROUND LEVEL ELEVATION
EREF.M        968.35               : kb           - ELEVATION OF DEPTH REFERENCE
DATM.M        968.35               : datum        - DATUM ELEVATION
TDD .M        1221.6               : tdd          - TOTAL DEPTH DRILLER
RUN .         ONE                  : Run          - RUN NUMBER
ENG .         BILL                 : Engineer     - RECORDING ENGINEER
WIT .         JIM                  : Witness      - WITNESSED BY
MUD .         GEL                  : Mud_type     - MUD TYPE
MATR.         SANDSTONE            : Logunit      - NEUTRON MATRIX
TMAX.C        49                   : BHT          - MAXIMUM RECORDED TEMPERATURE
BHTD.M        1221.8               : BHTDEP       - MAXIMUM RECORDED TEMPERATURE
RMT .C        19                   : MDTP         - TEMPERATURE OF MUD
MUDD.KG/M     1080                 : MWT          - MUD DENSITY
NEUT.         1                    : NEUTRON      - NEUTRON TYPE
RESI.         0                    : RESIST       - RESISTIVITY TYPE
RM  .OHMM     1.9                  : RM           - RESISTIVITY OF MUD
RMC .OHMM     2.1                  : RMC          - RESISTIVITY OF MUD CAKE
RMF .OHMM     4.3                  : RMF          - RESISTIVITY OF MUD FILTRATE
SUFT.C        4                    : SUFT         - SURFACE TEMPERATURE
~A  DEPTH     PHIN       GR     PHID     RESD
# ...
  892.500    0.386   65.174    0.226    9.644
  892.750    0.357   62.775    0.195    9.805
  893.000    0.338   62.150    0.181    8.414
  893.250    0.358   62.707    0.165    7.650
  893.500    0.364   65.046    0.170    6.450
  893.750    0.376   73.881    0.211    5.749
  894.000    0.389   78.577    0.217    5.526
  894.250    0.402   79.126    0.218    5.213
  894.500    0.413   79.092    0.224    5.102
  894.750    0.419   81.431    0.232    5.088
  895.000    0.424   83.754    0.238    5.080
  895.250    0.425   79.590    0.240    5.159
  895.500    0.417   72.443    0.241    5.251
  895.750    0.409   72.409    0.243    5.342
  896.000    0.405   72.375    0.242    5.533
  896.250    0.411   72.341    0.239    5.623
  896.500    0.415   71.716    0.234    5.720
  896.750    0.417   71.690    0.234    5.598
  897.000    0.416   74.012    0.242    5.486
  897.250    0.415   76.943    0.252    5.273
  897.500    0.412   77.500    0.255    5.068
  897.750    0.411   75.101    0.249    4.778
  898.000    0.411   76.841    0.233    4.590
  898.250    0.410   75.616    0.224    4.169
  898.500    0.411   72.617    0.215    4.009
  898.750    0.415   72.600    0.202    3.782
  899.000    0.419   72.549    0.196    3.567
  899.250    0.443   72.532    0.213    3.367
  899.500    0.465   80.775    0.213    3.175
  899.750    0.468   86.654    0.207    3.051
  900.000    0.473   90.759    0.195    2.988
  900.250    0.490   85.403    0.201    2.980
  900.500    0.507   79.457    0.217    2.974
  900.750    0.515   77.640    0.231    3.081
  901.000    0.501   80.571    0.223    3.191
  901.250    0.477   82.885    0.223    3.432
  901.500    0.465   82.868    0.224    3.762
  901.750    0.445   88.155    0.186    4.280
  902.000    0.426   81.017    0.176    4.605
  902.250    0.392   79.209    0.166    5.141
  902.500    0.370   81.540    0.142    5.526
  902.750    0.369   84.463    0.126    5.517
  903.000    0.389   80.881    0.136    5.102
  903.250    0.400   81.430    0.178    5.097
  903.500    0.406   83.769    0.185    4.989
  903.750    0.414   86.092    0.189    4.883
  904.000    0.418   87.240    0.193    4.872
  904.250    0.413   85.441    0.194    4.864
  904.500    0.411   81.850    0.195    4.851
  904.750    0.406   84.190    0.198    4.935
  905.000    0.404   85.330    0.195    5.017
  905.250    0.401   82.922    0.193    5.004
  905.500    0.399   82.314    0.191    4.995
  905.750    0.399   82.280    0.190    5.076
  906.000    0.399   82.246    0.190    5.068
  906.250    0.408   83.394    0.187    5.147
  906.500    0.414   83.951    0.181    5.138
  906.750    0.424   86.874    0.185    5.127
  907.000    0.422   82.692    0.188    5.019
  907.250    0.421   84.423    0.180    4.917
  907.500    0.421   84.389    0.176    4.818
  907.750    0.421   82.590    0.175    4.626
  908.000    0.420   81.956    0.177    4.449
  908.250    0.420   83.696    0.177    4.197
  908.500    0.425   86.035    0.177    3.814
  908.750    0.437   88.958    0.176    3.401
  909.000    0.466   88.332    0.176    2.866
  909.250    0.488   82.968    0.181    2.326
  909.500    0.504   82.934    0.188    1.926
  909.750    0.560   84.082    0.200    1.623
  910.000    0.576   83.457    0.281    1.475
  910.250    0.592   82.840    0.292    1.315
  910.500    0.569   80.441    0.296    1.195
  910.750    0.600   76.859    0.291    1.127
  911.000    0.615   72.678    0.287    1.084
  911.250    0.613   70.270    0.295    1.144
  911.500    0.610   72.601    0.324    1.253
  911.750    0.608   74.941    0.326    1.373
  912.000    0.612   79.637    0.315    1.918
  912.250    0.609   83.150    0.303    1.988
  912.500    0.497   78.386    0.273    2.260
  912.750    0.465   75.379    0.243    2.434
  913.000    0.446   75.944    0.181    2.928
  913.250    0.434   77.084    0.175    3.458
  913.500    0.427   78.241    0.175    3.449
  913.750    0.426   78.807    0.170    3.439
  914.000    0.427   78.764    0.167    3.434
  914.250    0.434   78.730    0.164    3.428
  914.500    0.440   81.061    0.167    3.419
  914.750    0.449   81.627    0.177    3.411
  915.000    0.456   84.532    0.178    3.279
  915.250    0.467   85.106    0.178    3.090
  915.500    0.477   89.802    0.184    2.973
  915.750    0.481   89.177    0.191    2.805
  916.000    0.488   84.996    0.201    2.646
  916.250    0.492   84.370    0.200    2.494
  916.500    0.497   86.693    0.199    2.443
  916.750    0.503   89.032    0.199    2.348
  917.000    0.511   90.189    0.204    2.257
  917.250    0.520   92.520    0.222    2.128
  917.500    0.531   94.260    0.229    2.122
  917.750    0.537   81.201    0.222    2.120
  918.000    0.528   80.576    0.211    2.114
  918.250    0.521   82.915    0.202    2.230
  918.500    0.516   86.429    0.197    2.270
  918.750    0.520   87.577    0.203    2.351
  919.000    0.520   90.499    0.208    2.480
  919.250    0.519   92.231    0.207    2.571
  919.500    0.514   88.657    0.203    2.761
  919.750    0.512   84.484    0.197    2.809
  920.000    0.508   87.998    0.195    2.965
  920.250    0.506   93.877    0.197    3.131
  920.500    0.503   89.704    0.202    3.431
  920.750    0.473   67.192    0.193    3.832
  921.000    0.152   52.968    0.165    4.878
  921.250    0.129   45.830    0.018   11.520
  921.500    0.122   41.074   -0.014   15.810
  921.750    0.135   30.389    0.014   17.003
  922.000    0.150   18.520    0.022   16.039
  922.250    0.162   22.634    0.031   14.834
  922.500    0.169   27.313    0.034   15.081
  922.750    0.172   29.070    0.039   16.525
  923.000    0.170   31.983    0.048   17.137
  923.250    0.167   33.140    0.052   20.237
  923.500    0.167   33.098    0.054   23.021
  923.750    0.171   30.707    0.059   25.701
  924.000    0.168   27.125    0.061   29.788
  924.250    0.164   25.909    0.055   34.507
  924.500    0.159   26.457    0.046   34.432
  924.750    0.155   26.423    0.041   31.878
  925.000    0.155   26.980    0.040   30.657
