~VERSION INFORMATION
 VERS.                 2.0:   CWLS LOG ASCII STANDARD -VERSION 2.0
 WRAP.                  NO:   ONE LINE PER DEPTH STEP
~WELL INFORMATION BLOCK
#MNEM.UNIT           DATA                    DESCRIPTION OF MNEMONIC
#---------    -------------------            -------------------------------
# Generated from Intellog Unique Number	CN_94_101/WELL/2765
WELL.         PARAMOUNT LTD.                 : Well_name    - WELL
LOC .         00/07-15-094-21W4/0            : Location     - LOCATION
UWI .         00/07-15-094-21W4/0            : Uwi          - UNIQUE WELL ID
ENTR.         JOETTE                         : Entered      - ENTERED BY
SRVC.         COMPUTALOG                     : Scn          - SERVICE COMPANY
DATE.         07\03\92                       : Date         - LOG DATE
STRT.M        210                            : top_depth    - START DEPTH
STOP.M        380                            : bot_depth    - STOP DEPTH
STEP.M        0.25                           : increment    - STEP LENGTH
 NULL. -999.2500:NULL Value
~CURVE INFORMATION BLOCK
#MNEM UNIT       ERCB CURVE CODE    CURVE DESCRIPTION
#-----------   ------------------   ----------------------------------
DEPT.M        00 001 00 00         : DEPTH        - DEPTH
CALI.MM       00 280 01 00         : CAL          - CALIPER
GR  .API      00 310 00 00         : GR           - GAMMA RAY
NPHI.V/V      00 330 00 00         : PHIN         - NEUTRON POROSITY (SANDSTONE)
DPHI.V/V      00 890 00 00         : PHID         - DENSITY POROSITY (SANDSTONE)
ILD .OHMM     00 120 00 00         : RESD         - DEEP RESISTIVITY (DIL)
~PARAMETER INFORMATION
#MNEM.UNIT           DATA             DESCRIPTION OF MNEMONIC
#---------         -----------     ------------------------------
GL  .M        690.4                : gl           - GROUND LEVEL ELEVATION
EREF.M        693.5                : kb           - ELEVATION OF DEPTH REFERENCE
DATM.M        693.5                : datum        - DATUM ELEVATION
TDD .M        383.5                : tdd          - TOTAL DEPTH DRILLER
RUN .         ONE                  : Run          - RUN NUMBER
ENG .         JO                   : Engineer     - RECORDING ENGINEER
WIT .         TIM                  : Witness      - WITNESSED BY
MUD .         GEL                  : Mud_type     - MUD TYPE
MATR.         SANDSTONE            : Logunit      - NEUTRON MATRIX
TMAX.C        35                   : BHT          - MAXIMUM RECORDED TEMPERATURE
BHTD.M        383.5                : BHTDEP       - MAXIMUM RECORDED TEMPERATURE
RMT .C        13                   : MDTP         - TEMPERATURE OF MUD
MUDD.KG/M     1070                 : MWT          - MUD DENSITY
NEUT.         1                    : NEUTRON      - NEUTRON TYPE
RESI.         0                    : RESIST       - RESISTIVITY TYPE
RM  .OHMM     2.6                  : RM           - RESISTIVITY OF MUD
RMC .OHMM     2.6                  : RMC          - RESISTIVITY OF MUD CAKE
RMF .OHMM     3.7                  : RMF          - RESISTIVITY OF MUD FILTRATE
SUFT.C        4                    : SUFT         - SURFACE TEMPERATURE
~A  DEPTH      CAL       GR     PHIN     PHID     RESD
# ...
  356.000  162.159  110.483    0.383    0.187   11.642
  356.250  162.268  110.526    0.393    0.188   12.317
  356.500  162.323  112.394    0.403    0.192   13.282
  356.750  161.401  114.261    0.409    0.196   14.057
  357.000  160.443  113.089    0.412    0.200   14.602
  357.250  158.508  109.475    0.413    0.201   14.886
  357.500  155.541   89.459    0.404    0.189   15.179
  357.750  152.593   86.463    0.390    0.159   15.191
  358.000  151.635  102.931    0.380    0.140   14.914
  358.250  150.676  107.826    0.377    0.135   14.651
  358.500  149.773  113.363    0.374    0.149   14.384
  358.750  149.827  112.191    0.369    0.185   14.130
  359.000  150.895  108.577    0.367    0.207   13.873
  359.250  153.031  106.797    0.377    0.215   13.376
  359.500  153.086  111.704    0.378    0.211   13.134
  359.750  154.154  115.395    0.367    0.200   12.663
  360.000  155.258  119.694    0.371    0.188   12.434
  360.250  155.313  119.130    0.383    0.189   11.983
  360.500  155.386  111.890    0.370    0.193   11.552
  360.750  155.477  111.326    0.362    0.182   11.133
  361.000  154.519  112.585    0.371    0.164   10.732
  361.250  154.610  108.971    0.389    0.152   10.737
  361.500  154.683  109.623    0.402    0.155   10.546
  361.750  155.769  113.325    0.412    0.173   10.750
  362.000  157.887  112.153    0.409    0.190   10.960
  362.250  157.978  112.186    0.401    0.201   10.968
  362.500  158.033  117.103    0.394    0.196   10.977
  362.750  158.087  121.413    0.397    0.186   10.980
  363.000  157.184  119.623    0.396    0.176   10.783
  363.250  157.220  113.588    0.383    0.156   10.204
  363.500  155.285  103.308    0.357    0.124    9.652
  363.750  155.340   97.251    0.367    0.082    8.314
  364.000  155.413   99.727    0.401    0.050    5.833
  364.250  155.504  106.468    0.445    0.047    5.621
  364.500  155.577  113.199    0.483    0.068    5.027
  364.750  156.645  122.361    0.482    0.214    3.871
  365.000  157.750  123.620    0.469    0.231    3.662
  365.250  157.804  116.370    0.458    0.225    4.587
  365.500  157.877  107.295    0.437    0.214    6.076
  365.750  157.987  101.260    0.424    0.204    7.468
  366.000  158.042   93.401    0.419    0.207    9.354
  366.250  157.120   87.974    0.409    0.187   10.872
  366.500  157.193   83.774    0.371    0.168   11.294
  366.750  158.279   94.748    0.379    0.145   11.299
  367.000  158.352  105.126    0.387    0.099    9.920
  367.250  158.425  111.260    0.392    0.163    9.209
  367.500  158.480  110.088    0.391    0.193    8.392
  367.750  158.553  110.132    0.406    0.186    7.506
  368.000  158.644  113.215    0.425    0.178    8.405
  368.250  158.717  116.917    0.428    0.187    8.893
  368.500  158.772  117.569    0.415    0.193    9.958
  368.750  158.881   98.138    0.401    0.191   10.149
  369.000  158.918   90.887    0.388    0.177   10.944
  369.250  156.983  104.924    0.367    0.161   12.257
  369.500  156.042  110.449    0.350    0.143   12.729
  369.750  155.084  112.914    0.349    0.086   13.219
  370.000  155.194  115.997    0.356    0.035   12.509
  370.250  155.230  117.257    0.363    0.129   12.281
  370.500  156.353  117.300    0.369    0.186   10.989
  370.750  156.408  117.355    0.376    0.186   10.589
  371.000  156.499  116.791    0.387    0.184    9.298
  371.250  156.572  115.011    0.392    0.184    9.131
  371.500  156.627  116.879    0.393    0.183    9.483
  371.750  157.731  119.962    0.389    0.178   10.225
  372.000  157.786  114.535    0.380    0.163   11.448
  372.250  157.877  113.363    0.383    0.143   12.815
  372.500  157.932  115.241    0.382    0.128   14.080
  372.750  158.023  113.461    0.368    0.137   14.623
  373.000  158.078  110.455    0.341    0.124   15.479
  373.250  158.169  106.851    0.342    0.117   15.488
  373.500  158.260  105.690    0.359    0.112   15.498
  373.750  158.297  107.558    0.374    0.188   15.505
  374.000  158.388  110.022    0.382    0.174   15.229
  374.250  158.443  115.548    0.381    0.164   14.677
  374.500  158.516  119.239    0.371    0.170   13.889
  374.750  157.576  116.840    0.364    0.172   13.636
  375.000  153.633  113.248    0.359    0.165   13.391
  375.250  152.711  112.684    0.354    0.156   13.910
  375.500  151.734  112.130    0.358    0.146   14.731
  375.750  151.807  111.544    0.364    0.140   15.013
  376.000  151.917  109.765    0.367    0.127   15.308
  376.250  151.953  106.780    0.371    0.116   15.602
  376.500  152.044  105.619    0.374    0.120   15.614
  376.750  152.099  105.033    0.374    0.130   15.624
  377.000  153.240  104.480    0.372    0.144   15.636
  377.250  153.276  103.927    0.360    0.207   15.640
  377.500  154.344  103.970    0.346    0.167   15.360
  377.750  155.430  106.435    0.341    0.149   14.805
  378.000  155.522  107.097    0.354    0.143   14.540
  378.250  156.590  106.533    0.369    0.161   14.551
  378.500  155.686  105.361    0.376    0.178   14.832
  378.750  155.723  104.178    0.386    0.166   15.121
  379.000  151.761   95.712    0.394    0.157   14.577
  379.250  147.782   77.508    0.406    0.144   14.049
  379.500  144.797   98.839    0.413    0.114   13.797
  379.750  146.896  106.785    0.408    0.089   12.576
  380.000  148.996   97.103    0.400    0.068   11.897
