~VERSION INFORMATION
 VERS.                 2.0:   CWLS LOG ASCII STANDARD -VERSION 2.0
 WRAP.                  NO:   ONE LINE PER DEPTH STEP
~WELL INFORMATION BLOCK
#MNEM.UNIT           DATA                    DESCRIPTION OF MNEMONIC
#---------    -------------------            -------------------------------
# Generated from Intellog Unique Number	CS_73_76/WELL/2276
WELL.         BOW VALLEY EXPLORATION         : Well_name    - WELL
LOC .         00/07-22-076-16W4/0            : Location     - LOCATION
UWI .         00/07-22-076-16W4/0            : Uwi          - UNIQUE WELL ID
ENTR.         SP                             : Entered      - ENTERED BY
SRVC.         SCHLUMBERGER                   : Scn          - SERVICE COMPANY
STRT.M        353.568                        : top_depth    - START DEPTH
STOP.M        588.068                        : bot_depth    - STOP DEPTH
STEP.M        0.25                           : increment    - STEP LENGTH
 NULL. -999.2500:NULL Value
~CURVE INFORMATION BLOCK
#MNEM UNIT       ERCB CURVE CODE    CURVE DESCRIPTION
#-----------   ------------------   ----------------------------------
DEPT.M        00 001 00 00         : DEPTH        - DEPTH
GR  .API      00 310 00 00         : GR           - GAMMA RAY
DPHI.V/V      00 890 00 00         : PHID         - DENSITY POROSITY (SANDSTONE)
NPHI.V/V      00 330 00 00         : PHIN         - NEUTRON POROSITY (SANDSTONE)
ILD .OHMM     00 120 00 00         : RESD         - DEEP RESISTIVITY (DIL)
~PARAMETER INFORMATION
#MNEM.UNIT           DATA             DESCRIPTION OF MNEMONIC
#---------         -----------     ------------------------------
GL  .M        714.146              : gl           - GROUND LEVEL ELEVATION
EREF.M        723.595              : kb           - ELEVATION OF DEPTH REFERENCE
DATM.M        714.146              : datum        - DATUM ELEVATION
TDD .M        594.36               : tdd          - TOTAL DEPTH DRILLER
RUN .         ONE                  : Run          - RUN NUMBER
ENG .         BILL                 : Engineer     - RECORDING ENGINEER
WIT .         JIM                  : Witness      - WITNESSED BY
MUD .         GEL                  : Mud_type     - MUD TYPE
MATR.         SANDSTONE            : Logunit      - NEUTRON MATRIX
TMAX.C        25.5556              : BHT          - MAXIMUM RECORDED TEMPERATURE
BHTD.M        594.36               : BHTDEP       - MAXIMUM RECORDED TEMPERATURE
MATR.         1                    : LOGUNIT      - NEUTRON MATRIX
RMT .C        25                   : MDTP         - TEMPERATURE OF MUD
NEUT.         1                    : NEUTRON      - NEUTRON TYPE
RESI.         0                    : RESIST       - RESISTIVITY TYPE
RMC .OHMM     0.25                 : RMC          - RESISTIVITY OF MUD CAKE
RMF .OHMM     0.25                 : RMF          - RESISTIVITY OF MUD FILTRATE
SUFT.C        15                   : SUFT         - SURFACE TEMPERATURE
~A  DEPTH       GR     PHID     PHIN     RESD
  353.568    0.000    0.076    0.494    2.711
  353.818   91.342    0.011    0.500    2.675
  354.068   93.556    0.224    0.515    2.650
  354.318   96.855    0.222    0.536    2.611
  354.568   93.586    0.219    0.533    2.607
  354.818   91.321    0.242    0.533    2.671
  355.068   91.898    0.241    0.544    2.752
  355.318   93.008    0.233    0.558    2.842
  355.568   91.793    0.237    0.565    2.867
  355.818   90.367    0.234    0.543    2.950
  356.068   88.718    0.222    0.533    3.225
  356.318   86.448    0.229    0.539    3.719
  356.568   82.964    0.247    0.548    4.409
  356.818   77.278    0.257    0.521    5.518
  357.068   72.334    0.295    0.496    6.917
  357.318   68.638    0.344    0.506    7.790
  357.568   67.349    0.355    0.486    8.413
  357.818   68.521    0.308    0.438    8.649
  358.068   68.556    0.267    0.438    8.587
  358.318   69.411    0.303    0.429    8.322
  358.568   70.066    0.284    0.441    8.073
  358.818   67.531    0.292    0.442    7.869
  359.068   68.821    0.296    0.449    8.046
  359.318   72.225    0.294    0.451    8.137
  359.568   69.854    0.295    0.455    8.342
  359.818   66.766    0.296    0.456    8.498
  360.068   63.746    0.304    0.464    8.506
  360.318   58.886    0.292    0.474    8.292
  360.568   55.624    0.287    0.474    8.047
  360.818   51.490    0.305    0.460    7.790
  361.068   51.203    0.292    0.449    7.721
  361.318   54.413    0.280    0.464    7.596
  361.568   57.243    0.272    0.470    7.588
  361.818   62.259    0.268    0.463    7.763
  362.068   64.255    0.294    0.472    7.980
  362.318   65.562    0.256    0.483    8.361
  362.568   68.580    0.293    0.490    8.332
  362.818   70.256    0.315    0.491    8.331
  363.068   68.389    0.292    0.463    8.333
  363.318   67.291    0.296    0.462    8.327
  363.568   66.318    0.292    0.466    8.496
  363.818   64.313    0.288    0.472    8.483
  364.068   60.940    0.299    0.487    8.484
  364.318   56.621    0.321    0.498    8.566
  364.568   53.781    0.351    0.499    8.633
  364.818   51.238    0.344    0.491    8.651
  365.068   51.035    0.341    0.487    8.473
  365.318   53.197    0.350    0.483    8.304
  365.568   56.737    0.363    0.481    8.058
  365.818   60.174    0.349    0.480    7.807
  366.068   63.676    0.321    0.477    7.726
  366.318   70.018    0.297    0.474    7.827
  366.568   81.608    0.295    0.480    7.896
  366.818   88.517    0.285    0.485    8.156
  367.068   92.074    0.289    0.486    8.422
  367.318   89.608    0.304    0.476    8.496
  367.568   87.105    0.322    0.469    8.631
  367.818   85.931    0.299    0.466    8.627
  368.068   86.365    0.291    0.461    8.625
  368.318   88.365    0.278    0.462    8.624
  368.568   90.097    0.282    0.463    8.626
  368.818   94.206    0.288    0.463    8.629
  369.068   95.182    0.286    0.468    8.792
  369.318   92.174    0.276    0.473    8.782
  369.568   86.897    0.280    0.471    8.779
  369.818   84.334    0.296    0.466    8.674
  370.068   82.521    0.301    0.460    8.619
  370.318   77.157    0.302    0.451    8.624
  370.568   71.237    0.276    0.438    8.438
  370.818   65.607    0.297    0.446    8.433
  371.068   62.213    0.296    0.454    8.292
  371.318   60.200    0.289    0.455    8.230
  371.568   59.926    0.227    0.445    8.152
  371.818   62.330    0.214    0.424    8.029
  372.068   63.296    0.254    0.443    8.000
  372.318   62.264    0.316    0.445    7.995
  372.568   60.646    0.305    0.450    7.995
  372.818   59.721    0.304    0.455    7.999
  373.068   62.105    0.315    0.445    7.858
  373.318   66.364    0.295    0.441    7.360
  373.568   70.160    0.288    0.440    6.239
  373.818   73.886    0.271    0.445    5.575
  374.068   79.215    0.245    0.449    4.685
  374.318   86.133    0.228    0.466    4.221
  374.568   93.458    0.155    0.480    3.781
  374.818  100.137    0.135    0.506    3.550
  375.068  106.076    0.147    0.525    3.414
  375.318  113.302    0.175    0.564    3.368
  375.568  111.049    0.194    0.578    3.352
  375.818  115.976    0.193    0.564    3.351
  376.068  118.079    0.188    0.563    3.253
  376.318  114.558    0.184    0.563    3.065
  376.568  112.979    0.174    0.566    2.846
  376.818  112.297    0.197    0.582    2.726
  377.068  112.289    0.185    0.601    2.819
  377.318  111.274    0.207    0.599    3.356
  377.568  110.503    0.205    0.599    3.973
  377.818  111.339    0.169    0.607    4.823
  378.068  113.715    0.208    0.598    5.542
  378.318  116.238    0.231    0.570    6.203
  378.568  112.240    0.242    0.540    6.642
  378.818  108.995    0.257    0.517    7.106
  379.068  109.084    0.245    0.498    7.278
  379.318  110.483    0.234    0.486    7.272
  379.568  113.078    0.233    0.481    6.833
  379.818  109.166    0.246    0.494    6.588
  380.068  106.985    0.235    0.499    5.986
  380.318  104.814    0.253    0.497    5.337
  380.568  101.856    0.275    0.507    5.143
  380.818   98.786    0.263    0.504    5.566
  381.068   97.385    0.214    0.508    6.066
  381.318  101.215    0.184    0.530    6.779
  381.568  104.968    0.211    0.531    7.414
  381.818   98.032    0.229    0.502    8.075
  382.068   94.919    0.243    0.479    8.572
  382.318   89.060    0.275    0.468    8.686
  382.568   85.287    0.296    0.470    8.522
  382.818   85.070    0.312    0.481    8.139
  383.068   91.790    0.307    0.476    7.499
  383.318   93.949    0.301    0.472    7.069
  383.568   95.420    0.290    0.485    6.646
  383.818   96.827    0.273    0.488    6.437
  384.068   99.808    0.261    0.492    6.239
  384.318  102.262    0.259    0.491    6.147
  384.568  103.347    0.264    0.486    6.017
  384.818  105.689    0.271    0.481    6.030
  385.068  107.038    0.265    0.478    6.222
  385.318  107.472    0.277    0.479    6.437
  385.568  100.319    0.272    0.479    6.849
  385.818   90.461    0.222    0.487    7.347
  386.068   77.126    0.226    0.495    8.041
  386.318   63.803    0.245    0.504    9.118
  386.568   57.954    0.271    0.510   10.232
  386.818   54.515    0.287    0.494   10.918
  387.068   54.156    0.323    0.474   11.252
  387.318   54.144    0.336    0.477   11.201
  387.568   54.125    0.343    0.480   10.853
  387.818   52.656    0.352    0.481   10.549
  388.068   51.708    0.331    0.479   10.018
  388.318   51.736    0.328    0.473    9.546
  388.568   51.980    0.324    0.473    9.391
  388.818   54.622    0.322    0.490    9.228
  389.068   58.160    0.328    0.498    9.374
  389.318   59.818    0.334    0.510    9.354
  389.568   60.656    0.342    0.503    9.562
  389.818   59.022    0.353    0.505    9.530
  390.068   58.067    0.361    0.508    9.743
  390.318   56.430    0.356    0.501    9.738
  390.568   55.535    0.363    0.514    9.909
  390.818   54.209    0.359    0.504    9.917
  391.068   52.853    0.358    0.489    9.713
  391.318   53.250    0.345    0.467    9.495
  391.568   54.244    0.331    0.469    8.598
  391.818   55.224    0.304    0.469    7.650
  392.068   58.757    0.290    0.473    7.056
  392.318   66.384    0.305    0.490    6.671
  392.568   68.949    0.321    0.508    6.475
  392.818   68.613    0.320    0.520    6.469
  393.068   68.276    0.306    0.523    6.465
  393.318   68.094    0.316    0.511    6.473
  393.568   72.230    0.298    0.503    6.292
  393.818   78.782    0.278    0.500    6.111
  394.068   81.403    0.286    0.501    6.107
  394.318   86.609    0.294    0.496    6.275
  394.568   91.053    0.261    0.487    6.464
  394.818   89.402    0.259    0.472    6.659
  395.068   85.187    0.275    0.462    6.839
  395.318   82.150    0.285    0.460    6.827
  395.568   81.206    0.275    0.456    6.773
  395.818   84.191    0.286    0.449    6.404
  396.068   86.581    0.274    0.463    6.028
  396.318   88.959    0.253    0.480    5.669
  396.568   89.690    0.240    0.479    5.470
  396.818   88.552    0.254    0.481    5.726
