~VERSION INFORMATION
 VERS.                 2.0:   CWLS LOG ASCII STANDARD -VERSION 2.0
 WRAP.                  NO:   ONE LINE PER DEPTH STEP
~WELL INFORMATION BLOCK
#MNEM.UNIT           DATA                    DESCRIPTION OF MNEMONIC
#---------    -------------------            -------------------------------
# Generated from Intellog Unique Number	CN_91_93/WELL/3015
WELL.         PARAMOUNT RESOURCES LTD.       : Well_name    - WELL
LOC .         00/05-31-093-20W4/0            : Location     - LOCATION
UWI .         00/05-31-093-20W4/0            : Uwi          - UNIQUE WELL ID
ENTR.         JOETTE                         : Entered      - ENTERED BY
SRVC.         COMPUTALOG                     : Scn          - SERVICE COMPANY
DATE.         04/09/92                       : Date         - LOG DATE
STRT.M        150                            : top_depth    - START DEPTH
STOP.M        333                            : bot_depth    - STOP DEPTH
STEP.M        0.25                           : increment    - STEP LENGTH
 NULL. -999.2500:NULL Value
~CURVE INFORMATION BLOCK
#MNEM UNIT       ERCB CURVE CODE    CURVE DESCRIPTION
#-----------   ------------------   ----------------------------------
DEPT.M        00 001 00 00         : DEPTH        - DEPTH
CALI.MM       00 280 01 00         : CAL          - CALIPER
GR  .API      00 310 00 00         : GR           - GAMMA RAY
NPHI.V/V      00 330 00 00         : PHIN         - NEUTRON POROSITY (SANDSTONE)
DPHI.V/V      00 890 00 00         : PHID         - DENSITY POROSITY (SANDSTONE)
ILD .OHMM     00 120 00 00         : RESD         - DEEP RESISTIVITY (DIL)
~PARAMETER INFORMATION
#MNEM.UNIT           DATA             DESCRIPTION OF MNEMONIC
#---------         -----------     ------------------------------
GL  .M        638                  : gl           - GROUND LEVEL ELEVATION
EREF.M        641.4                : kb           - ELEVATION OF DEPTH REFERENCE
DATM.M        641.4                : datum        - DATUM ELEVATION
TDD .M        331.6                : tdd          - TOTAL DEPTH DRILLER
RUN .         ONE                  : Run          - RUN NUMBER
ENG .         BILL                 : Engineer     - RECORDING ENGINEER
WIT .         JIM                  : Witness      - WITNESSED BY
MUD .         GEL                  : Mud_type     - MUD TYPE
MATR.         SANDSTONE            : Logunit      - NEUTRON MATRIX
TMAX.C        29                   : BHT          - MAXIMUM RECORDED TEMPERATURE
BHTD.M        331.6                : BHTDEP       - MAXIMUM RECORDED TEMPERATURE
RMT .C        10                   : MDTP         - TEMPERATURE OF MUD
MUDD.KG/M     1150                 : MWT          - MUD DENSITY
NEUT.         1                    : NEUTRON      - NEUTRON TYPE
RESI.         0                    : RESIST       - RESISTIVITY TYPE
RM  .OHMM     4.7                  : RM           - RESISTIVITY OF MUD
RMC .OHMM     4.7                  : RMC          - RESISTIVITY OF MUD CAKE
RMF .OHMM     4.7                  : RMF          - RESISTIVITY OF MUD FILTRATE
SUFT.C        -20                  : SUFT         - SURFACE TEMPERATURE
~A  DEPTH      CAL       GR     PHIN     PHID     RESD
# ...
  259.500  173.694   92.050    0.438    0.147    5.750
  259.750  168.563   82.534    0.415    0.061    6.249
  260.000  171.603   82.827    0.379    0.099    6.244
  260.250  169.029   89.864    0.386    0.150    5.844
  260.500  171.050  107.321    0.413    0.174    5.318
  260.750  173.579  118.647    0.437    0.186    4.930
  261.000  172.024  122.618    0.463    0.192    4.657
  261.250  173.027  119.845    0.468    0.180    4.657
  261.500  171.980  120.752    0.469    0.184    4.478
  261.750  163.276  126.869    0.479    0.198    4.191
  262.000  166.316  131.453    0.456    0.197    4.072
  262.250  165.783  129.294    0.441    0.199    4.031
  262.500  171.890  124.990    0.445    0.222    4.027
  262.750  178.511  121.298    0.465    0.303    4.024
  263.000  180.532  116.688    0.491    0.348    4.022
  263.250  196.345  113.299    0.497    0.296    4.171
  263.500  180.998  115.740    0.495    0.213    4.129
  263.750  176.379  120.630    0.475    0.208    4.012
  264.000  182.994  123.682    0.480    0.214    4.321
  264.250  184.504  108.650    0.456    0.228    5.663
  264.500  180.903   97.297    0.409    0.256    6.512
  264.750  175.268   92.378    0.372    0.265    7.349
  265.000  171.670   90.527    0.363    0.259    8.064
  265.250  170.115   87.754    0.369    0.287    8.684
  265.500  164.981   84.062    0.364    0.297    8.924
  265.750  163.429   80.676    0.359    0.278    9.084
  266.000  163.912   79.130    0.364    0.260    9.162
  266.250  165.425   80.343    0.379    0.257    9.242
  266.500  161.824   81.555    0.379    0.266    9.322
  266.750  160.783   79.703    0.368    0.290    9.490
  267.000  160.755   76.320    0.363    0.296    9.661
  267.250  160.738   69.870    0.366    0.302    9.836
  267.500  162.246   68.324    0.371    0.308   10.014
  267.750  165.802   73.521    0.378    0.298   10.197
  268.000  168.331   82.394    0.374    0.260   10.285
  268.250  166.773   82.381    0.358    0.249   10.277
  268.500  167.778   84.821    0.354    0.255   10.078
  268.750  169.285   94.613    0.354    0.245    9.520
  269.000  170.287  101.038    0.380    0.219    8.744
  269.250  179.460  108.685    0.399    0.212    7.245
  269.500  187.097  112.045    0.404    0.209    6.291
  269.750  188.610  108.353    0.409    0.202    5.832
  270.000  186.030  105.275    0.405    0.205    5.937
  270.250  182.940  102.197    0.390    0.216    6.045
  270.500  177.305   98.505    0.382    0.224    6.040
  270.750  179.834  104.009    0.383    0.227    5.814
  271.000  193.603  108.286    0.394    0.232    5.543
  271.250  201.757  108.273    0.403    0.232    5.187
  271.500  205.310  108.259    0.422    0.228    4.993
  271.750  202.731  108.246    0.423    0.238    5.228
  272.000  186.876   95.360    0.394    0.210    6.012
  272.250  168.975   79.103    0.352    0.165    7.110
  272.500  164.863   72.651    0.325    0.164    8.487
  272.750  164.841   78.768    0.345    0.230    9.667
  273.000  165.327   82.739    0.377    0.249   10.313
  273.250  164.283   83.948    0.397    0.274   10.306
  273.500  164.258   83.630    0.411    0.277    9.918
  273.750  166.792   82.697    0.394    0.275    9.728
  274.000  169.832   79.620    0.386    0.254    8.768
  274.250  170.326   76.542    0.380    0.226    7.905
  274.500  167.747   81.126    0.404    0.209    6.799
  274.750  167.211   93.985    0.424    0.220    5.082
  275.000  167.705  101.942    0.440    0.228    4.455
  275.250  169.723  107.752    0.451    0.219    3.868
  275.500  171.747  103.138    0.455    0.216    3.654
  275.750  180.405  101.593    0.445    0.217    3.898
  276.000  186.005  101.274    0.434    0.211    4.697
  276.250  185.977  100.647    0.432    0.201    5.252
  276.500  183.403  101.552    0.433    0.194    6.387
  276.750  180.827  105.218    0.432    0.194    6.878
  277.000  178.250  107.040    0.402    0.194    7.476
  277.250  177.206  104.271    0.392    0.190    7.476
  277.500  167.992   97.820    0.397    0.197    8.591
  277.750  168.989   99.033    0.394    0.199    9.252
  278.000  167.945   97.488    0.385    0.131   10.057
  278.250  165.368   93.489    0.373    0.093   10.531
  278.500  170.454   97.155    0.372    0.163   11.027
  278.750  171.967   99.594    0.376    0.214   10.712
  279.000  167.342   98.661    0.387    0.232    9.932
  279.250  168.341   96.500    0.393    0.211    9.925
  279.500  168.832   95.876    0.381    0.190   10.198
  279.750  171.875   97.394    0.386    0.198   10.094
  280.000  176.447   99.526    0.391    0.213    9.809
  280.250  169.784   97.981    0.384    0.220    9.800
  280.500  166.183   87.545    0.362    0.185   10.455
  280.750  162.588   70.675    0.332    0.161   11.051
  281.000  162.565   66.677    0.327    0.132   11.464
  281.250  166.121   77.084    0.336    0.161   11.454
  281.500  171.202   89.637    0.358    0.199   11.024
  281.750  172.201   98.205    0.374    0.225   10.316
  282.000  170.649   90.529    0.387    0.238    9.475
  282.250  167.564   83.465    0.399    0.254    9.291
  282.500  166.518   79.161    0.400    0.282   10.007
  282.750  166.495   74.245    0.386    0.274   10.189
  283.000  166.476   68.715    0.374    0.210    9.535
  283.250  166.964   76.057    0.354    0.183    8.357
  283.500  166.939   86.771    0.358    0.196    7.257
  283.750  167.428  104.840    0.378    0.228    5.847
  284.000  167.919  109.424    0.402    0.224    5.221
  284.250  167.894  107.572    0.430    0.227    4.246
  284.500  168.385  112.769    0.469    0.235    3.937
  284.750  168.360  115.819    0.481    0.232    3.861
  285.000  168.340  100.174    0.463    0.232    4.784
  285.250  166.785   93.420    0.443    0.248    5.450
  285.500  162.671   89.422    0.416    0.274    6.882
  285.750  162.141   85.115    0.388    0.268    8.689
  286.000  162.118   83.264    0.377    0.260   10.274
  286.250  162.604   81.408    0.366    0.263   12.497
  286.500  163.092   79.253    0.366    0.268   13.585
  286.750  163.073   74.029    0.366    0.266   14.767
  287.000  163.048   68.805    0.364    0.233   15.904
  287.250  163.539   66.033    0.340    0.191   16.966
  287.500  166.071   69.085    0.312    0.171   14.325
  287.750  163.491   79.797    0.316    0.150   12.094
  288.000  167.558   88.367    0.343    0.163    9.835
  288.250  173.666   95.094    0.361    0.201    8.539
  288.500  168.019   91.098    0.370    0.199    7.916
  288.750  167.999   90.470    0.385    0.191    7.692
  289.000  169.001   92.296    0.378    0.225    8.283
  289.250  166.419   90.752    0.372    0.237    9.261
  289.500  162.824   86.447    0.378    0.215   11.584
  289.750  163.823   82.448    0.377    0.132   12.475
  290.000  165.336   79.370    0.339    0.070   13.562
  290.250  162.246   76.600    0.316    0.045   14.603
  290.500  161.202   77.812    0.310    0.095   15.437
  290.750  162.712   86.074    0.338    0.179   16.012
  291.000  168.312   91.884    0.363    0.201   15.998
  291.250  167.265   96.161    0.363    0.159   15.112
  291.500  164.180   94.307    0.360    0.084   14.144
  291.750  162.626   97.054    0.357    0.134   13.237
  292.000  164.641  101.023    0.357    0.182   12.620
  292.250  168.197  102.237    0.364    0.203   12.378
  292.500  167.147  104.982    0.378    0.201   11.369
  292.750  166.620  105.275    0.387    0.205   10.247
  293.000  168.124  103.115    0.381    0.203    9.679
  293.250  169.640  104.327    0.380    0.199    9.583
  293.500  170.634  107.377    0.378    0.205    9.485
  293.750  168.571  109.206    0.373    0.209    9.215
  294.000  167.019  111.644    0.365    0.199    8.706
  294.250  172.105  111.323    0.370    0.193    7.774
  294.500  175.147  106.406    0.385    0.186    7.481
  294.750  174.103  103.636    0.393    0.183    7.548
  295.000  173.567  102.395    0.387    0.180    7.976
  295.250  173.037  104.833    0.382    0.182    8.430
  295.500  171.482  108.496    0.386    0.187    8.746
  295.750  174.011  111.241    0.383    0.192    9.158
