~VERSION INFORMATION
 VERS.                 2.0:   CWLS LOG ASCII STANDARD -VERSION 2.0
 WRAP.                  NO:   ONE LINE PER DEPTH STEP
~WELL INFORMATION BLOCK
#MNEM.UNIT           DATA                    DESCRIPTION OF MNEMONIC
#---------    -------------------            -------------------------------
# Generated from Intellog Unique Number	CS_69_70/WELL/799
WELL.         AEC FISHER                     : Well_name    - WELL
LOC .         00/06-06-069-04W4/0            : Location     - LOCATION
UWI .         00/06-06-069-04W4/0            : Uwi          - UNIQUE WELL ID
ENTR.         SP                             : Entered      - ENTERED BY
SRVC.         SCHLUMBERGER                   : Scn          - SERVICE COMPANY
STRT.M        340                            : top_depth    - START DEPTH
STOP.M        595                            : bot_depth    - STOP DEPTH
STEP.M        0.25                           : increment    - STEP LENGTH
 NULL. -999.2500:NULL Value
~CURVE INFORMATION BLOCK
#MNEM UNIT       ERCB CURVE CODE    CURVE DESCRIPTION
#-----------   ------------------   ----------------------------------
DEPT.M        00 001 00 00         : DEPTH        - DEPTH
ILD .OHMM     00 120 00 00         : RESD         - DEEP RESISTIVITY (DIL)
DPHI.V/V      00 890 00 00         : PHID         - DENSITY POROSITY (LIMESTONE)
NPHI.V/V      00 330 00 00         : PHIN         - NEUTRON POROSITY (LIMESTONE)
GR  .API      00 310 00 00         : GR           - GAMMA RAY
~PARAMETER INFORMATION
#MNEM.UNIT           DATA             DESCRIPTION OF MNEMONIC
#---------         -----------     ------------------------------
GL  .M        695.6                : gl           - GROUND LEVEL ELEVATION
EREF.M        699.3                : kb           - ELEVATION OF DEPTH REFERENCE
DATM.M        695.6                : datum        - DATUM ELEVATION
TDD .M        600                  : tdd          - TOTAL DEPTH DRILLER
RUN .         ONE                  : Run          - RUN NUMBER
ENG .         BILL                 : Engineer     - RECORDING ENGINEER
WIT .         JIM                  : Witness      - WITNESSED BY
MUD .         GEL                  : Mud_type     - MUD TYPE
MATR.         LIMESTONE            : Logunit      - NEUTRON MATRIX
TMAX.C        22                   : BHT          - MAXIMUM RECORDED TEMPERATURE
BHTD.M        600                  : BHTDEP       - MAXIMUM RECORDED TEMPERATURE
MATR.         1                    : LOGUNIT      - NEUTRON MATRIX
RMT .C        25                   : MDTP         - TEMPERATURE OF MUD
NEUT.         1                    : NEUTRON      - NEUTRON TYPE
RESI.         0                    : RESIST       - RESISTIVITY TYPE
RMC .OHMM     0.25                 : RMC          - RESISTIVITY OF MUD CAKE
RMF .OHMM     0.25                 : RMF          - RESISTIVITY OF MUD FILTRATE
SUFT.C        15                   : SUFT         - SURFACE TEMPERATURE
~A  DEPTH     RESD     PHID     PHIN       GR
  340.000    3.354    0.253    0.515   94.305
  340.250    3.330    0.250    0.501   95.513
  340.500    3.331    0.251    0.491   96.296
  340.750    3.363    0.250    0.490   96.770
  341.000    3.428    0.248    0.491   96.026
  341.250    3.508    0.244    0.475   94.309
  341.500    3.576    0.237    0.468   92.590
  341.750    3.590    0.220    0.483   92.518
  342.000    3.598    0.187    0.481   94.946
  342.250    3.640    0.173    0.473   94.872
  342.500    3.697    0.199    0.474   93.764
  342.750    3.726    0.218    0.465   91.982
  343.000    3.692    0.237    0.458   91.119
  343.250    3.638    0.240    0.482   93.913
  343.500    3.538    0.235    0.500   95.423
  343.750    3.427    0.228    0.531   96.757
  344.000    3.333    0.226    0.563   97.845
  344.250    3.303    0.233    0.536   98.260
  344.500    3.291    0.241    0.523   98.187
  344.750    3.330    0.235    0.513   96.956
  345.000    3.426    0.225    0.505   97.494
  345.250    3.519    0.230    0.515  100.350
  345.500    3.621    0.240    0.531  101.008
  345.750    3.719    0.247    0.541   99.900
  346.000    3.813    0.246    0.526   99.521
  346.250    3.886    0.226    0.510   99.205
  346.500    3.984    0.217    0.498   98.278
  346.750    4.092    0.218    0.496   96.681
  347.000    4.242    0.216    0.474   97.708
  347.250    4.499    0.166    0.423   90.131
  347.500    4.853    0.176    0.412   86.583
  347.750    5.205    0.193    0.416   83.400
  348.000    5.551    0.206    0.424   86.865
  348.250    5.788    0.191    0.426   91.428
  348.500    5.823    0.183    0.421   94.711
  348.750    5.759    0.176    0.418   94.761
  349.000    5.740    0.200    0.433   87.917
  349.250    5.795    0.202    0.453   87.785
  349.500    5.919    0.203    0.474   94.544
  349.750    6.011    0.215    0.485   98.557
  350.000    6.012    0.219    0.469   98.852
  350.250    5.958    0.219    0.457  102.134
  350.500    6.039    0.216    0.462  103.526
  350.750    6.226    0.204    0.439   99.611
  351.000    6.418    0.198    0.418   93.985
  351.250    6.555    0.205    0.415   91.597
  351.500    6.644    0.192    0.428   96.405
  351.750    6.696    0.185    0.452  103.286
  352.000    6.943    0.195    0.469  106.630
  352.250    7.158    0.191    0.489   94.845
  352.500    7.506    0.204    0.338   86.538
  352.750    7.665    0.225    0.313   79.329
  353.000    7.769    0.255    0.341   75.658
  353.250    7.713    0.224    0.391   79.794
  353.500    7.115    0.209    0.409   87.225
  353.750    6.714    0.196    0.425   92.154
  354.000    6.467    0.179    0.444   91.838
  354.250    6.360    0.197    0.443   87.983
  354.500    6.315    0.210    0.436   86.020
  354.750    6.305    0.202    0.433   90.766
  355.000    6.319    0.198    0.451   95.696
  355.250    6.273    0.212    0.462  100.138
  355.500    6.240    0.221    0.473  102.750
  355.750    6.242    0.227    0.465  104.812
  356.000    6.279    0.231    0.432   99.616
  356.250    6.376    0.226    0.427   92.649
  356.500    6.451    0.221    0.437   90.260
  356.750    6.502    0.236    0.443   86.161
  357.000    6.541    0.243    0.430   81.269
  357.250    6.481    0.225    0.424   77.416
  357.500    6.350    0.216    0.426   80.698
  357.750    6.037    0.213    0.435   89.226
  358.000    5.794    0.208    0.456   95.438
  358.250    5.634    0.201    0.471  100.794
  358.500    5.583    0.202    0.448  102.674
  358.750    5.627    0.211    0.453  100.771
  359.000    5.640    0.220    0.465   96.914
  359.250    5.705    0.227    0.471   94.952
  359.500    5.794    0.215    0.468   93.416
  359.750    5.807    0.205    0.467   92.063
  360.000    5.831    0.197    0.461   91.137
  360.250    5.888    0.192    0.448   95.152
  360.500    5.957    0.202    0.434   99.898
  360.750    6.060    0.204    0.429   98.971
  361.000    6.178    0.216    0.449   95.911
  361.250    6.238    0.226    0.461   94.436
  361.500    6.216    0.226    0.460   95.644
  361.750    6.045    0.214    0.456   96.547
  362.000    5.889    0.205    0.441   95.378
  362.250    5.847    0.202    0.431   93.719
  362.500    5.772    0.218    0.442   95.659
  362.750    5.581    0.227    0.461   98.027
  363.000    5.428    0.226    0.481  103.261
  363.250    5.258    0.208    0.496  101.725
  363.500    5.132    0.197    0.465   99.397
  363.750    5.154    0.190    0.455   97.433
  364.000    5.194    0.198    0.473  102.973
  364.250    5.225    0.205    0.489  105.340
  364.500    5.237    0.206    0.445  105.816
  364.750    5.238    0.204    0.412   98.546
  365.000    5.310    0.206    0.409   93.044
  365.250    5.372    0.208    0.432   94.862
  365.500    5.414    0.205    0.451   95.767
  365.750    5.478    0.207    0.470   95.511
  366.000    5.469    0.216    0.483   91.109
  366.250    5.575    0.242    0.483   81.580
  366.500    5.968    0.265    0.478   67.539
  366.750    6.786    0.279    0.450   55.633
  367.000    7.746    0.298    0.397   44.520
  367.250    8.339    0.191    0.389   51.218
  367.500    9.012    0.171    0.393   68.470
  367.750    9.291    0.225    0.387   77.546
  368.000    9.206    0.264    0.370   75.826
  368.250    8.802    0.292    0.387   75.693
  368.500    8.368    0.286    0.406   77.087
  368.750    8.061    0.272    0.385   79.150
  369.000    7.928    0.260    0.382   80.539
  369.250    7.827    0.253    0.395   82.479
  369.500    7.859    0.246    0.394   83.812
  369.750    7.921    0.252    0.390   86.179
  370.000    7.923    0.261    0.387   87.084
  370.250    7.896    0.258    0.386   90.059
  370.500    7.781    0.250    0.407   93.222
  370.750    7.681    0.241    0.422   97.235
  371.000    7.597    0.240    0.423   99.420
  371.250    7.599    0.245    0.417   99.471
  371.500    7.717    0.246    0.406   92.199
  371.750    7.910    0.274    0.400   82.855
  372.000    8.342    0.335    0.480   73.450
  372.250    8.649    0.414    0.508   66.058
  372.500    8.933    0.353    0.483   59.702
  372.750    9.193    0.313    0.470   63.045
  373.000    9.109    0.285    0.468   69.622
  373.250    8.644    0.262    0.446   77.907
  373.500    7.869    0.264    0.425   83.630
  373.750    7.452    0.264    0.436   86.180
  374.000    7.099    0.257    0.449   87.083
  374.250    6.955    0.271    0.462   89.267
  374.500    6.879    0.282    0.475   91.209
  374.750    6.894    0.295    0.487   91.320
  375.000    7.054    0.296    0.469   86.183
  375.250    7.218    0.294    0.454   85.807
  375.500    7.274    0.283    0.495   88.297
  375.750    7.291    0.266    0.532   90.480
  376.000    7.279    0.256    0.518   91.507
  376.250    7.227    0.257    0.501   92.409
  376.500    7.067    0.250    0.487   92.460
  376.750    6.898    0.251    0.492   92.753
  377.000    6.596    0.262    0.494   94.144
  377.250    6.438    0.262    0.471   94.744
  377.500    6.284    0.255    0.448   94.977
  377.750    6.251    0.249    0.450   95.820
  378.000    6.241    0.266    0.477   96.722
  378.250    6.266    0.288    0.511   97.260
  378.500    6.340    0.285    0.497   97.615
  378.750    6.499    0.282    0.475   93.820
  379.000    6.802    0.292    0.464   89.234
  379.250    7.065    0.292    0.434   85.930
  379.500    7.311    0.284    0.439   90.615
  379.750    7.481    0.281    0.436   95.850
  380.000    7.583    0.276    0.432   95.289
  380.250    7.614    0.272    0.436   93.995
  380.500    7.573    0.275    0.436   93.803
  380.750    7.505    0.269    0.431   94.645
  381.000    7.450    0.263    0.427   93.963
  381.250    7.327    0.263    0.433   88.401
  381.500    7.206    0.269    0.439   86.194
  381.750    7.048    0.267    0.439   86.974
  382.000    6.918    0.278    0.438   87.635
  382.250    6.817    0.284    0.439   88.049
  382.500    6.768    0.271    0.448   88.221
  382.750    6.821    0.294    0.467   88.452
  383.000    6.914    0.311    0.491   88.076
  383.250    7.088    0.299    0.508   85.442
