~VERSION INFORMATION
 VERS.                 2.0:   CWLS LOG ASCII STANDARD -VERSION 2.0
 WRAP.                  NO:   ONE LINE PER DEPTH STEP
~WELL INFORMATION BLOCK
#MNEM.UNIT           DATA                    DESCRIPTION OF MNEMONIC
#---------    -------------------            -------------------------------
# Generated from Intellog Unique Number	CS_67_68/WELL/783
WELL.         INTER-CITY MANUFACTURING       : Well_name    - WELL
LOC .         00/07-34-068-13W4/0            : Location     - LOCATION
UWI .         00/07-34-068-13W4/0            : Uwi          - UNIQUE WELL ID
ENTR.         SP                             : Entered      - ENTERED BY
SRVC.         SCHLUMBERGER                   : Scn          - SERVICE COMPANY
STRT.M        301.752                        : top_depth    - START DEPTH
STOP.M        472.252                        : bot_depth    - STOP DEPTH
STEP.M        0.25                           : increment    - STEP LENGTH
 NULL. -999.2500:NULL Value
~CURVE INFORMATION BLOCK
#MNEM UNIT       ERCB CURVE CODE    CURVE DESCRIPTION
#-----------   ------------------   ----------------------------------
DEPT.M        00 001 00 00         : DEPTH        - DEPTH
GR  .API      00 310 00 00         : GR           - GAMMA RAY
DPHI.V/V      00 890 00 00         : PHID         - DENSITY POROSITY (SANDSTONE)
NPHI.V/V      00 330 00 00         : PHIN         - NEUTRON POROSITY (SANDSTONE)
ILD .OHMM     00 120 00 00         : RESD         - DEEP RESISTIVITY (DIL)
~PARAMETER INFORMATION
#MNEM.UNIT           DATA             DESCRIPTION OF MNEMONIC
#---------         -----------     ------------------------------
GL  .M        587.045              : gl           - GROUND LEVEL ELEVATION
EREF.M        589.788              : kb           - ELEVATION OF DEPTH REFERENCE
DATM.M        587.045              : datum        - DATUM ELEVATION
TDD .M        472.745              : tdd          - TOTAL DEPTH DRILLER
RUN .         ONE                  : Run          - RUN NUMBER
ENG .         BILL                 : Engineer     - RECORDING ENGINEER
WIT .         JIM                  : Witness      - WITNESSED BY
MUD .         GEL                  : Mud_type     - MUD TYPE
MATR.         SANDSTONE            : Logunit      - NEUTRON MATRIX
TMAX.C        22.2222              : BHT          - MAXIMUM RECORDED TEMPERATURE
BHTD.M        472.745              : BHTDEP       - MAXIMUM RECORDED TEMPERATURE
MATR.         1                    : LOGUNIT      - NEUTRON MATRIX
RMT .C        25                   : MDTP         - TEMPERATURE OF MUD
NEUT.         1                    : NEUTRON      - NEUTRON TYPE
RESI.         0                    : RESIST       - RESISTIVITY TYPE
RMC .OHMM     0.25                 : RMC          - RESISTIVITY OF MUD CAKE
RMF .OHMM     0.25                 : RMF          - RESISTIVITY OF MUD FILTRATE
SUFT.C        15                   : SUFT         - SURFACE TEMPERATURE
~A  DEPTH       GR     PHID     PHIN     RESD
# ...
  345.252  124.463    0.238    0.451    3.308
  345.502  122.340    0.230    0.428    3.505
  345.752  123.115    0.217    0.416    3.618
  346.002  125.311    0.204    0.413    3.773
  346.252  127.637    0.196    0.421    3.945
  346.502  126.092    0.199    0.430    4.111
  346.752  127.784    0.220    0.437    4.299
  347.002  131.994    0.231    0.443    4.494
  347.252  136.362    0.228    0.442    4.644
  347.502  139.219    0.220    0.444    4.738
  347.752  141.263    0.221    0.459    4.792
  348.002  143.102    0.213    0.461    4.789
  348.252  144.874    0.225    0.459    4.760
  348.502  146.183    0.230    0.472    4.661
  348.752  146.899    0.227    0.480    4.542
  349.002  129.055    0.225    0.491    4.350
  349.252  119.345    0.244    0.501    4.107
  349.502  109.176    0.262    0.509    3.827
  349.752  110.678    0.255    0.490    3.583
  350.002  106.886    0.252    0.476    3.330
  350.252  104.396    0.264    0.465    3.135
  350.502  103.648    0.277    0.478    2.998
  350.752  104.375    0.286    0.488    2.913
  351.002  103.684    0.276    0.481    2.829
  351.252   99.165    0.289    0.486    2.717
  351.502   96.204    0.300    0.489    2.620
  351.752   94.248    0.306    0.488    2.545
  352.002   94.242    0.307    0.481    2.486
  352.252   91.909    0.310    0.470    2.448
  352.502   87.513    0.315    0.481    2.411
  352.752   85.380    0.324    0.472    2.375
  353.002   88.050    0.329    0.462    2.347
  353.252   93.186    0.319    0.455    2.382
  353.502   97.708    0.305    0.452    2.424
  353.752  103.464    0.287    0.449    2.492
  354.002  110.267    0.274    0.450    2.613
  354.252  115.730    0.252    0.457    2.850
  354.502  101.224    0.244    0.458    3.001
  354.752   90.255    0.260    0.445    3.075
  355.002   83.125    0.276    0.433    3.015
  355.252   78.079    0.287    0.427    2.797
  355.502   75.226    0.282    0.431    2.517
  355.752   73.740    0.289    0.430    2.367
  356.002   72.802    0.300    0.428    2.232
  356.252   76.227    0.302    0.431    2.133
  356.502   81.287    0.299    0.436    2.075
  356.752   89.509    0.292    0.425    2.072
  357.002   98.551    0.279    0.412    2.307
  357.252  105.775    0.250    0.405    2.555
  357.502  113.531    0.222    0.411    2.810
  357.752  111.990    0.240    0.423    2.970
  358.002  102.984    0.258    0.427    3.075
  358.252   99.553    0.268    0.424    2.919
  358.502   97.359    0.268    0.419    2.683
  358.752   94.572    0.270    0.424    2.445
  359.002   93.607    0.284    0.432    2.307
  359.252   92.541    0.302    0.441    2.186
  359.502   89.352    0.318    0.435    2.076
  359.752   87.457    0.326    0.423    2.064
  360.002   94.328    0.316    0.425    2.258
  360.252  102.967    0.290    0.430    2.437
  360.502  107.418    0.267    0.426    2.582
  360.752  105.484    0.273    0.445    2.668
  361.002   99.657    0.290    0.473    2.652
  361.252   97.766    0.292    0.481    2.620
  361.502  103.222    0.291    0.469    2.575
  361.752  108.051    0.292    0.491    2.562
  362.002  112.380    0.294    0.511    2.626
  362.252  115.125    0.284    0.518    2.770
  362.502  118.209    0.273    0.521    2.857
  362.752  122.956    0.264    0.513    2.848
  363.002  126.700    0.249    0.531    2.789
  363.252  137.054    0.232    0.558    2.677
  363.502  137.985    0.234    0.574    2.530
  363.752  131.966    0.256    0.535    2.492
  364.002  128.270    0.255    0.496    2.528
  364.252  121.653    0.250    0.477    2.738
  364.502  111.278    0.263    0.477    2.820
  364.752   99.955    0.274    0.484    2.876
  365.002   97.968    0.282    0.481    2.837
  365.252   99.971    0.302    0.485    2.738
  365.502  100.944    0.304    0.498    2.658
  365.752  100.306    0.301    0.497    2.626
  366.002  100.039    0.292    0.477    2.637
  366.252  101.855    0.287    0.470    2.668
  366.502  104.111    0.292    0.482    2.716
  366.752  103.951    0.296    0.488    2.737
  367.002  101.947    0.290    0.488    2.770
  367.252  105.419    0.281    0.482    2.819
  367.502  107.449    0.272    0.471    2.869
  367.752  106.730    0.266    0.461    2.954
  368.002  105.740    0.262    0.449    3.041
  368.252  108.884    0.256    0.439    3.147
  368.502  109.925    0.250    0.448    3.233
  368.752  110.090    0.246    0.458    3.327
  369.002  110.966    0.244    0.465    3.396
  369.252  115.533    0.244    0.467    3.416
  369.502  124.044    0.247    0.475    3.416
  369.752  129.443    0.253    0.507    3.342
  370.002  132.675    0.270    0.563    3.172
  370.252  110.500    0.294    0.538    2.903
  370.502  104.564    0.317    0.494    2.604
  370.752  100.111    0.318    0.486    2.399
  371.002   97.831    0.321    0.492    2.263
  371.252   95.795    0.330    0.502    2.172
  371.502   94.730    0.327    0.511    2.140
  371.752   94.243    0.318    0.522    2.147
  372.002   95.074    0.311    0.513    2.183
  372.252   94.889    0.311    0.499    2.215
  372.502   92.435    0.318    0.487    2.247
  372.752   89.683    0.323    0.480    2.264
  373.002   91.397    0.309    0.490    2.285
  373.252   92.524    0.300    0.482    2.327
  373.502   92.833    0.295    0.489    2.365
  373.752   92.615    0.301    0.488    2.436
  374.002   94.122    0.309    0.492    2.512
  374.252   95.850    0.315    0.495    2.651
  374.502   96.295    0.305    0.480    2.888
  374.752   96.030    0.253    0.475    3.276
  375.002   94.305    0.152    0.353    3.970
  375.252   90.179    0.091    0.296    5.106
  375.502   84.585    0.046    0.237    6.471
  375.752   87.128    0.016    0.213    7.300
  376.002   96.430    0.011    0.375    7.252
  376.252  104.219    0.182    0.447    5.677
  376.502  109.754    0.228    0.477    4.222
  376.752  113.665    0.252    0.485    3.470
  377.002  115.028    0.229    0.484    3.091
  377.252  113.245    0.236    0.482    2.913
  377.502  115.684    0.246    0.459    2.909
  377.752  114.894    0.259    0.419    2.983
  378.002   98.468    0.233    0.372    3.050
  378.252   89.922    0.175    0.332    3.072
  378.502  100.453    0.134    0.370    3.069
  378.752  108.616    0.245    0.473    3.006
  379.002  113.918    0.268    0.493    2.832
  379.252  110.368    0.284    0.502    2.627
  379.502  108.445    0.302    0.510    2.595
  379.752  109.125    0.295    0.517    2.654
  380.002  108.639    0.298    0.512    2.711
  380.252  107.775    0.292    0.504    2.768
  380.502  107.356    0.289    0.504    2.817
  380.752  108.808    0.282    0.492    2.859
  381.002  109.254    0.279    0.485    2.895
  381.252  109.257    0.289    0.485    2.923
  381.502  108.898    0.276    0.499    2.951
  381.752  108.135    0.252    0.503    2.955
  382.002  106.151    0.299    0.504    2.920
  382.252  107.244    0.307    0.507    2.844
  382.502  108.290    0.317    0.501    2.757
  382.752  108.790    0.315    0.502    2.686
  383.002  108.774    0.286    0.510    2.657
  383.252  107.626    0.272    0.510    2.715
  383.502  110.623    0.268    0.503    2.813
  383.752  113.678    0.277    0.492    2.903
  384.002  113.900    0.257    0.484    3.036
  384.252  110.386    0.273    0.492    3.117
  384.502  108.482    0.280    0.494    3.185
  384.752  109.930    0.267    0.494    3.248
  385.002  110.442    0.260    0.494    3.307
  385.252  113.324    0.251    0.497    3.365
  385.502  115.249    0.266    0.484    3.425
  385.752  113.131    0.276    0.474    3.486
  386.002  113.177    0.255    0.472    3.596
  386.252  115.646    0.240    0.484    3.666
  386.502  116.434    0.258    0.477    3.731
  386.752  118.966    0.252    0.468    3.808
  387.002  122.837    0.227    0.471    3.898
  387.252  119.792    0.216    0.481    3.983
  387.502  118.857    0.214    0.479    4.016
  387.752  121.646    0.218    0.476    4.028
  388.002  123.791    0.216    0.486    4.013
  388.252  124.881    0.214    0.498    3.949
  388.502  124.631    0.208    0.503    3.867
