~VERSION INFORMATION
 VERS.                 2.0:   CWLS LOG ASCII STANDARD -VERSION 2.0
 WRAP.                  NO:   ONE LINE PER DEPTH STEP
~WELL INFORMATION BLOCK
#MNEM.UNIT           DATA                    DESCRIPTION OF MNEMONIC
#---------    -------------------            -------------------------------
# Generated from Intellog Unique Number	CW_82_90/WELL/3425
WELL.         SHERRIT LIEGE                  : Well_name    - WELL
LOC .         00/06-36-089-21W4/0            : Location     - LOCATION
UWI .         00/06-36-089-21W4/0            : Uwi          - UNIQUE WELL ID
ENTR.         MAX                            : Entered      - ENTERED BY
SRVC.         SCHLUMBERGER                   : Scn          - SERVICE COMPANY
STRT.M        100                            : top_depth    - START DEPTH
STOP.M        242                            : bot_depth    - STOP DEPTH
STEP.M        0.25                           : increment    - STEP LENGTH
 NULL. -999.2500:NULL Value
~CURVE INFORMATION BLOCK
#MNEM UNIT       ERCB CURVE CODE    CURVE DESCRIPTION
#-----------   ------------------   ----------------------------------
DEPT.M        00 001 00 00         : DEPTH        - DEPTH
ILD .OHMM     00 120 00 00         : RESD         - DEEP RESISTIVITY (DIL)
NPHI.V/V      00 330 00 00         : PHIN         - NEUTRON POROSITY (SANDSTONE)
DPHI.V/V      00 890 00 00         : PHID         - DENSITY POROSITY (SANDSTONE)
CALI.MM       00 280 01 00         : CAL          - CALIPER
GR  .API      00 310 00 00         : GR           - GAMMA RAY
~PARAMETER INFORMATION
#MNEM.UNIT           DATA             DESCRIPTION OF MNEMONIC
#---------         -----------     ------------------------------
GL  .M        513                  : gl           - GROUND LEVEL ELEVATION
EREF.M        516.3                : kb           - ELEVATION OF DEPTH REFERENCE
DATM.M        513                  : datum        - DATUM ELEVATION
TDD .M        243.4                : tdd          - TOTAL DEPTH DRILLER
RUN .         ONE                  : Run          - RUN NUMBER
ENG .         BILL                 : Engineer     - RECORDING ENGINEER
WIT .         JIM                  : Witness      - WITNESSED BY
MUD .         GEL                  : Mud_type     - MUD TYPE
MATR.         SANDSTONE            : Logunit      - NEUTRON MATRIX
TMAX.C        24                   : BHT          - MAXIMUM RECORDED TEMPERATURE
BHTD.M        243.4                : BHTDEP       - MAXIMUM RECORDED TEMPERATURE
MATR.         1                    : LOGUNIT      - NEUTRON MATRIX
RMT .C        19.4                 : MDTP         - TEMPERATURE OF MUD
NEUT.         1                    : NEUTRON      - NEUTRON TYPE
RESI.         0                    : RESIST       - RESISTIVITY TYPE
RMC .OHMM     2.674                : RMC          - RESISTIVITY OF MUD CAKE
RMF .OHMM     2.97                 : RMF          - RESISTIVITY OF MUD FILTRATE
SUFT.C        -12                  : SUFT         - SURFACE TEMPERATURE
~A  DEPTH     RESD     PHIN     PHID      CAL       GR
  100.000   24.065    0.436    0.364  161.756   50.575
  100.250   23.589    0.454    0.360  160.691   51.122
  100.500   22.499    0.446    0.354  160.626   53.459
  100.750   20.870    0.447    0.350  162.020   53.114
  101.000   19.538    0.441    0.349  162.435   53.364
  101.250   17.950    0.447    0.349  163.811   57.183
  101.500   16.963    0.460    0.351  162.766   61.894
  101.750   15.305    0.467    0.353  159.242   59.164
  102.000   14.066    0.467    0.347  160.166   56.440
  102.250   12.809    0.461    0.319  160.571   54.304
  102.500   11.342    0.410    0.207  160.015   61.109
  102.750   10.048    0.369    0.230  159.940   75.046
  103.000    8.344    0.460    0.266  160.355   86.599
  103.250    7.121    0.492    0.275  159.781   94.885
  103.500    6.366    0.492    0.279  159.216   98.400
  103.750    6.417    0.504    0.282  159.131  100.143
  104.000    6.585    0.499    0.285  159.066   99.203
  104.250    6.518    0.486    0.285  157.521   95.289
  104.500    6.159    0.494    0.286  159.405   92.559
  104.750    5.765    0.501    0.286  163.250   91.321
  105.000    5.547    0.499    0.283  160.725   91.274
  105.250    5.696    0.499    0.283  159.670   93.005
  105.500    5.957    0.508    0.284  161.555   93.552
  105.750    6.117    0.512    0.284  161.480   94.397
  106.000    6.223    0.497    0.280  161.895   92.868
  106.250    6.271    0.463    0.278  161.819   90.131
  106.500    6.262    0.464    0.280  162.215   88.591
  106.750    6.489    0.477    0.277  162.159   89.150
  107.000    6.599    0.492    0.277  162.075   90.589
  107.250    6.593    0.506    0.282  162.009   91.131
  107.500    6.403    0.513    0.287  161.934   89.007
  107.750    6.393    0.508    0.293  161.341   86.574
  108.000    6.940    0.489    0.294  161.765   85.925
  108.250    7.323    0.493    0.289  160.719   84.998
  108.500    7.588    0.484    0.279  160.154   83.457
  108.750    7.792    0.451    0.223  160.060   81.327
  109.000    8.223    0.451    0.179  158.525   80.685
  109.250    8.442    0.476    0.229  158.459   89.566
  109.500    7.905    0.488    0.274  158.384   89.215
  109.750    7.001    0.462    0.284  159.270   87.079
  110.000    6.258    0.452    0.281  159.694   85.842
  110.250    5.647    0.495    0.293  160.119   89.667
  110.500    5.142    0.522    0.292  160.524   95.871
  110.750    4.767    0.564    0.289  160.939   91.053
  111.000    4.850    0.543    0.287  162.814   87.139
  111.250    5.216    0.509    0.283  162.249   89.476
  111.500    5.818    0.499    0.277  162.664   92.694
  111.750    6.432    0.493    0.277  163.070   92.653
  112.000    6.915    0.480    0.278  163.013   85.163
  112.250    6.970    0.466    0.279  162.938   80.357
  112.500    6.406    0.479    0.283  163.344   82.094
  112.750    5.368    0.517    0.287  163.268   91.267
  113.000    4.979    0.547    0.286  163.193   96.876
  113.250    4.661    0.540    0.280  163.128   99.202
  113.500    4.485    0.534    0.280  163.053  100.052
  113.750    4.397    0.581    0.285  163.467  105.061
  114.000    4.641    0.599    0.292  163.374  105.311
  114.250    5.037    0.598    0.301  163.308  100.802
  114.500    5.777    0.588    0.313  163.214   90.636
  114.750    9.069    0.563    0.329  163.148   68.864
  115.000   11.303    0.522    0.345  162.583   51.857
  115.250   14.345    0.482    0.360  161.048   39.906
  115.500   16.304    0.459    0.375  159.013   38.955
  115.750   21.677    0.448    0.384  158.438   38.913
  116.000   26.519    0.460    0.379  158.373   38.871
  116.250   27.734    0.463    0.380  159.268   37.628
  116.500   27.691    0.466    0.382  159.683   35.201
  116.750   27.399    0.466    0.381  160.098   36.046
  117.000   27.616    0.454    0.380  160.503   39.270
  117.250   28.357    0.440    0.380  160.438   39.519
  117.500   29.383    0.445    0.383  160.344   38.574
  117.750   30.447    0.459    0.381  160.777   36.747
  118.000   31.835    0.478    0.367  160.702   36.700
  118.250   32.684    0.467    0.348  161.117   38.133
  118.500   33.254    0.419    0.288  161.532   36.896
  118.750   34.776    0.410    0.259  161.447   36.551
  119.000   36.362    0.401    0.336  161.372   39.477
  119.250   36.995    0.408    0.319  159.347   38.841
  119.500   36.270    0.436    0.288  157.793   36.408
  119.750   35.552    0.448    0.329  158.198   33.386
  120.000   34.849    0.455    0.338  159.112   33.636
  120.250   33.863    0.456    0.326  160.997   35.670
  120.500   32.882    0.433    0.350  162.872   38.294
  120.750   32.536    0.428    0.374  163.278   38.252
  121.000   32.804    0.461    0.378  163.711   37.901
  121.250   32.459    0.458    0.372  163.636   38.157
  121.500   31.816    0.427    0.337  163.561   38.109
  121.750   31.187    0.410    0.275  163.477   37.764
  122.000   31.155    0.437    0.320  164.391   35.926
  122.250   32.581    0.331    0.325  163.816   35.581
  122.500   34.389    0.241    0.256  162.281   37.026
  122.750   34.337    0.262    0.194  160.227   36.967
  123.000   33.053    0.310    0.220  162.621   34.540
  123.250   31.807    0.417    0.310  164.006   35.985
  123.500   30.295    0.449    0.365  165.401   38.311
  123.750   30.285    0.467    0.377  166.296   38.567
  124.000   30.249    0.446    0.374  167.201   37.924
  124.250   30.488    0.444    0.375  167.625   37.877
  124.500   30.446    0.444    0.381  165.091   37.234
  124.750   30.687    0.445    0.383  164.045   36.294
  125.000   30.635    0.455    0.382  163.961   35.652
  125.250   30.603    0.461    0.383  164.376   34.706
  125.500   30.845    0.464    0.381  164.301   32.874
  125.750   30.803    0.464    0.375  163.246   32.826
  126.000   30.194    0.453    0.372  162.690   36.948
  126.250   30.158    0.443    0.368  164.075   41.053
  126.500   30.111    0.445    0.364  164.000   39.530
  126.750   30.071    0.451    0.361  166.846   38.287
  127.000   30.313    0.456    0.363  169.249   40.321
  127.250   29.989    0.455    0.369  172.114   38.786
  127.500   29.953    0.444    0.376  167.120   38.144
  127.750   29.907    0.451    0.375  165.095   39.881
  128.000   29.592    0.447    0.369  164.021   40.725
  128.250   29.552    0.433    0.365  162.985   40.678
  128.500   29.512    0.442    0.363  161.430   40.023
  128.750   29.472    0.451    0.363  160.375   39.690
  129.000   29.432    0.452    0.364  159.810   41.124
  129.250   28.854    0.453    0.365  160.715   41.677
  129.500   28.024    0.445    0.365  161.121   41.629
  129.750   27.226    0.434    0.359  161.055   39.797
  130.000   26.687    0.418    0.349  161.460   39.149
  130.250   26.656    0.408    0.326  161.875   39.987
  130.500   26.619    0.413    0.329  162.780   38.750
  130.750   26.339    0.419    0.357  163.694   39.006
  131.000   26.057    0.438    0.377  166.069   40.445
  131.250   26.026    0.466    0.398  172.853   38.910
  131.500   25.991    0.492    0.428  180.627   39.154
  131.750   25.477    0.488    0.397  182.992   39.113
  132.000   25.208    0.477    0.248  180.467   40.249
  132.250   26.358    0.463    0.349  172.063   40.796
  132.500   26.089    0.467    0.370  167.079   40.457
  132.750   22.271    0.470    0.378  165.543   40.409
  133.000   14.955    0.467    0.377  163.980   41.242
  133.250   11.426    0.462    0.374  162.444   43.883
  133.500    9.060    0.435    0.349  161.860   55.733
  133.750    5.598    0.424    0.281  161.804   82.763
  134.000    5.051    0.462    0.250  161.239  101.756
  134.250    4.515    0.518    0.254  161.145  114.504
  134.500    4.112    0.571    0.272  161.070  116.235
  134.750    3.814    0.564    0.263  161.014  114.397
  135.000    3.505    0.556    0.276  160.929  114.058
  135.250    3.436    0.546    0.276  160.854  114.611
  135.500    3.695    0.535    0.266  160.779  114.260
  135.750    3.864    0.531    0.271  161.175  113.017
  136.000    3.930    0.529    0.276  161.609  113.570
  136.250    3.998    0.529    0.272  161.524  113.522
