~VERSION INFORMATION
 VERS.                 2.0:   CWLS LOG ASCII STANDARD -VERSION 2.0
 WRAP.                  NO:   ONE LINE PER DEPTH STEP
~WELL INFORMATION BLOCK
#MNEM.UNIT           DATA                    DESCRIPTION OF MNEMONIC
#---------    -------------------            -------------------------------
# Generated from Intellog Unique Number	CS_73_76/WELL/2811
WELL.         ESSO RESOURCES CANADA LTD.     : Well_name    - WELL
LOC .         00/06-32-075-04W4/0            : Location     - LOCATION
UWI .         00/06-32-075-04W4/0            : Uwi          - UNIQUE WELL ID
ENTR.         JOETTE                         : Entered      - ENTERED BY
SRVC.         COMPUTALOG                     : Scn          - SERVICE COMPANY
DATE.         05/22/92                       : Date         - LOG DATE
STRT.M        200                            : top_depth    - START DEPTH
STOP.M        450                            : bot_depth    - STOP DEPTH
STEP.M        0.25                           : increment    - STEP LENGTH
 NULL. -999.2500:NULL Value
~CURVE INFORMATION BLOCK
#MNEM UNIT       ERCB CURVE CODE    CURVE DESCRIPTION
#-----------   ------------------   ----------------------------------
DEPT.M        00 001 00 00         : DEPTH        - DEPTH
ILD .OHMM     00 120 00 00         : RESD         - DEEP RESISTIVITY (DIL)
RHOB.KG/M3    00 350 00 00         : DENS         - BULK DENSITY
NPHI.V/V      00 330 00 00         : PHIN         - NEUTRON POROSITY (SANDSTONE)
GR  .API      00 310 00 00         : GR           - GAMMA RAY
~PARAMETER INFORMATION
#MNEM.UNIT           DATA             DESCRIPTION OF MNEMONIC
#---------         -----------     ------------------------------
GL  .M        598.7                : gl           - GROUND LEVEL ELEVATION
EREF.M        602.4                : kb           - ELEVATION OF DEPTH REFERENCE
DATM.M        602.4                : datum        - DATUM ELEVATION
TDD .M        456.6                : tdd          - TOTAL DEPTH DRILLER
RUN .         ONE                  : Run          - RUN NUMBER
ENG .         BILL                 : Engineer     - RECORDING ENGINEER
WIT .         JIM                  : Witness      - WITNESSED BY
MUD .         GEL                  : Mud_type     - MUD TYPE
MATR.         SANDSTONE            : Logunit      - NEUTRON MATRIX
TMAX.C        32                   : BHT          - MAXIMUM RECORDED TEMPERATURE
BHTD.M        456.6                : BHTDEP       - MAXIMUM RECORDED TEMPERATURE
MATR.         1                    : LOGUNIT      - NEUTRON MATRIX
RMT .C        19.7                 : MDTP         - TEMPERATURE OF MUD
NEUT.         1                    : NEUTRON      - NEUTRON TYPE
RESI.         0                    : RESIST       - RESISTIVITY TYPE
RMC .OHMM     6.4                  : RMC          - RESISTIVITY OF MUD CAKE
RMF .OHMM     4.2                  : RMF          - RESISTIVITY OF MUD FILTRATE
SUFT.C        5                    : SUFT         - SURFACE TEMPERATURE
~A  DEPTH     RESD     DENS     PHIN       GR
# ...
  374.000    7.940 2138.760    0.401   61.297
  374.250    8.251 2201.160    0.394   62.292
  374.500    8.425 2209.390    0.388   63.758
  374.750    8.430 2225.570    0.382   60.983
  375.000    8.440 2265.880    0.364   60.565
  375.250    8.449 2252.080    0.382   61.089
  375.500    8.307 2218.200    0.430   61.141
  375.750    8.311 2186.380    0.469   57.424
  376.000    7.434 2154.500    0.494   53.235
  376.250    5.015 2158.830    0.509   61.783
  376.500    4.084 2150.980    0.457   68.433
  376.750    4.166 2117.100    0.386   69.428
  377.000    5.035 2071.260    0.399   58.642
  377.250    5.968 2105.510    0.426   53.983
  377.500    7.349 2117.740    0.441   62.046
  377.750    8.713 2136.090    0.423   72.951
  378.000   10.139 2144.260    0.409   70.647
  378.250   12.253 2226.620    0.413   71.642
  378.500   13.225 2290.970    0.408   75.465
  378.750   12.990 2309.210    0.403   75.517
  379.000   10.379 2321.600    0.417   72.271
  379.250    8.774 2319.700    0.419   75.151
  379.500    7.997 2313.910    0.413   78.044
  379.750    7.859 2328.140    0.405   81.880
  380.000    7.866 2340.370    0.393   79.563
  380.250    8.029 2314.550    0.400   73.961
  380.500    8.189 2278.670    0.416   71.173
  380.750    8.198 2272.880    0.404   72.639
  381.000    7.613 2297.230    0.400   75.075
  381.250    7.478 2297.450    0.399   75.127
  381.500    7.631 2303.720    0.389   71.868
  381.750    7.783 2305.830    0.388   68.622
  382.000    8.246 2310.100    0.391   72.444
  382.250    8.415 2316.330    0.387   79.094
  382.500    7.963 2320.550    0.388   79.618
  382.750    7.539 2306.690    0.407   76.856
  383.000    7.544 2298.950    0.420   76.909
  383.250    7.553 2299.160    0.425   80.731
  383.500    7.559 2297.380    0.432   82.211
  383.750    7.568 2311.610    0.436   80.379
  384.000    7.869 2301.810    0.430   77.132
  384.250    7.878 2290.070    0.419   75.758
  384.500    7.888 2288.170    0.412   76.282
  384.750    7.895 2282.490    0.410   78.246
  385.000    7.759 2280.640    0.414   78.743
  385.250    7.766 2278.960    0.426   78.325
  385.500    7.775 2279.120    0.428   76.964
  385.750    7.784 2279.290    0.418   75.603
  386.000    7.943 2275.500    0.409   76.126
  386.250    8.259 2265.750    0.418   73.365
  386.500    8.266 2268.020    0.413   71.532
  386.750    8.278 2272.190    0.414   73.457
  387.000    8.290 2280.360    0.424   76.808
  387.250    8.143 2292.590    0.439   76.861
  387.500    7.999 2302.870    0.438   73.615
  387.750    7.863 2295.020    0.441   72.738
  388.000    7.726 2277.270    0.439   74.675
  388.250    7.730 2267.470    0.442   78.027
  388.500    7.886 2271.640    0.447   80.907
  388.750    7.898 2275.860    0.432   80.017
  389.000    8.057 2278.130    0.394   77.713
  389.250    8.066 2278.340    0.409   80.122
  389.500    8.076 2278.560    0.424   81.601
  389.750    8.083 2282.780    0.424   79.769
  390.000    8.095 2295.060    0.420   79.822
  390.250    8.258 2297.220    0.405   77.518
  390.500    8.270 2295.440    0.398   79.456
  390.750    8.277 2285.640    0.386   79.037
  391.000    8.289 2279.850    0.399   77.676
  391.250    8.296 2278.060    0.417   77.728
  391.500    8.311 2278.330    0.429   79.195
  391.750    8.316 2278.540    0.428   80.190
  392.000    8.325 2274.750    0.431   78.357
  392.250    8.338 2274.970    0.435   76.054
  392.500    8.347 2273.180    0.435   75.164
  392.750    8.359 2265.330    0.428   78.044
  393.000    8.367 2261.540    0.425   79.039
  393.250    8.376 2261.760    0.429   72.966
  393.500    8.389 2274.040    0.426   72.076
  393.750    8.558 2292.330    0.427   74.956
  394.000    8.568 2296.490    0.439   80.663
  394.250    8.575 2266.670    0.445   78.831
  394.500    8.593 2262.880    0.439   74.642
  394.750    8.440 2285.120    0.431   69.040
  395.000    8.445 2311.420    0.410   68.621
  395.250    8.300 2323.650    0.406   73.386
  395.500    8.160 2313.860    0.411   73.439
  395.750    8.164 2302.060    0.395   70.677
  396.000    8.174 2292.310    0.423   73.073
  396.250    8.181 2292.530    0.445   79.749
  396.500    8.193 2292.800    0.457   79.330
  396.750    8.200 2294.910    0.445   78.912
  397.000    8.212 2303.180    0.440   78.951
  397.250    8.224 2315.470    0.440   79.946
  397.500    8.229 2321.580    0.436   81.884
  397.750    8.243 2343.880    0.425   84.319
  398.000    8.253 2364.120    0.408   83.429
  398.250    8.260 2348.310    0.396   80.157
  398.500    8.118 2328.500    0.393   73.141
  398.750    8.125 2308.690    0.391   72.722
  399.000    7.983 2296.840    0.391   73.743
  399.250    7.992 2297.050    0.394   75.183
  399.500    8.153 2289.370    0.400   79.019
  399.750    8.318 2285.470    0.412   82.370
  400.000    8.180 2289.740    0.428   81.022
  400.250    8.187 2299.970    0.426   78.248
  400.500    8.194 2264.140    0.394   75.957
  400.750    8.203 2280.430    0.384   74.570
  401.000    8.211 2262.510    0.394   73.222
  401.250    8.220 2216.670    0.424   66.664
  401.500    8.232 2244.920    0.447   70.486
  401.750    8.242 2279.230    0.441   75.722
  402.000    8.251 2315.490    0.445   74.833
  402.250    8.263 2277.660    0.440   76.783
  402.500    8.273 2273.920    0.429   77.294
  402.750    8.285 2272.140    0.420   76.417
  403.000    8.136 2284.310    0.423   80.724
  403.250    8.147 2286.580    0.421   82.177
  403.500    8.003 2284.790    0.416   80.816
  403.750    8.014 2282.950    0.414   76.628
  404.000    7.872 2261.140    0.412   72.439
  404.250    7.881 2253.400    0.410   71.549
  404.500    7.746 2259.570    0.409   73.487
  404.750    7.610 2275.860    0.414   75.424
  405.000    7.617 2288.140    0.426   77.362
  405.250    7.773 2288.350    0.419   79.299
  405.500    8.082 2290.520    0.421   77.938
  405.750    8.726 2292.730    0.432   77.991
  406.000    9.237 2200.790    0.443   74.274
  406.250   11.588 2112.840    0.437   64.430
  406.500   13.739 2099.040    0.414   57.401
  406.750   17.235 2129.290    0.413   31.064
  407.000   17.593 2201.640    0.401   40.528
  407.250   14.864 2237.960    0.387   63.227
  407.500   12.569 2250.190    0.402   51.014
  407.750   16.682 2162.240    0.403   36.916
  408.000   24.322 2146.440    0.389   29.900
  408.250   37.517 2118.560    0.397   26.654
  408.500   39.011 2120.890    0.406   29.534
  408.750   42.118 2086.950    0.403   29.115
  409.000   40.611 2083.160    0.401   24.940
  409.250   36.323 2099.400    0.406   26.864
  409.500   31.873 2115.690    0.411   32.585
  409.750   28.524 2109.890    0.414   35.936
  410.000   27.488 2092.090    0.424   36.931
  410.250   29.141 2074.280    0.416   30.858
  410.500   29.711 2076.440    0.403   27.625
  410.750   32.068 2100.740    0.385   30.034
  411.000   30.912 2122.980    0.378   32.901
  411.250   28.173 2169.310    0.381   35.781
  411.500   25.676 2145.490    0.389   42.915
  411.750   22.550 2165.730    0.398   44.852
  412.000   21.731 2246.150    0.393   42.562
  412.250   19.074 2296.430    0.383   45.900
  412.500   17.384 2314.660    0.370   49.723
  412.750   15.548 2328.890    0.387   46.477
  413.000   11.309 2365.260    0.407   53.611
  413.250    9.742 2317.360    0.415   59.319
  413.500    8.396 2299.500    0.400   68.809
  413.750    8.247 2279.690    0.403   84.426
  414.000    7.952 2293.920    0.406   79.766
  414.250    8.269 2312.210    0.402   74.622
  414.500    8.431 2296.360    0.411   71.376
  414.750    8.930 2246.510    0.427   70.486
  415.000    9.638 2212.630    0.405   60.171
  415.250   10.212 2295.050    0.386   57.409
  415.500   10.415 2303.280    0.386   59.805
  415.750   10.830 2191.250    0.381   63.627
  416.000   11.045 2007.130    0.376   58.025
  416.250   11.271 2105.520    0.390   50.054
  416.500   11.502 2213.970    0.400   42.566
  416.750   11.515 2288.330    0.400   54.413
  417.000   11.310 2312.570    0.394   60.592
  417.250   10.906 2222.630    0.387   67.255
