~VERSION INFORMATION
 VERS.                 2.0:   CWLS LOG ASCII STANDARD -VERSION 2.0
 WRAP.                  NO:   ONE LINE PER DEPTH STEP
~WELL INFORMATION BLOCK
#MNEM.UNIT           DATA                    DESCRIPTION OF MNEMONIC
#---------    -------------------            -------------------------------
# Generated from Intellog Unique Number	CC_80_83/WELL/1181
NULL.         -999.25                        : NULL_VALUE
WELL.         CAN SUP PONY                   : Well_name    - WELL
LOC .         07-11-082-07W4                 : Location     - LOCATION          
UWI .         00/07-11-082-07W4/0            : Uwi          - UNIQUE WELL ID    
ENTR.         DW                             : Entered      - ENTERED BY        
SRVC.         SCHLUMBERGER                   : Scn          - SERVICE COMPANY   
DATE.         14 FEB 77                      : Date         - LOG DATE
STRT.M        228.6                          : top_depth    - START DEPTH       
STOP.M        478.542                        : bot_depth    - STOP DEPTH        
STEP.M        0.305                          : increment    - STEP LENGTH       
~CURVE INFORMATION BLOCK
#MNEM UNIT       ERCB CURVE CODE    CURVE DESCRIPTION
#-----------   ------------------   ----------------------------------
DEPT.M        00 001 00 00         : DEPTH        - DEPTH                       
DPHI.V/V      00 890 00 00         : PHID         - DENSITY POROSITY (LIMESTONE)
NPHI.V/V      00 330 00 00         : PHIN         - NEUTRON POROSITY (LIMESTONE)
GR  .API      00 310 00 00         : GR           - GAMMA RAY                   
ILD .OHMM     00 120 00 00         : RESD         - DEEP RESISTIVITY (DIL)      
~PARAMETER INFORMATION       
#MNEM.UNIT           DATA             DESCRIPTION OF MNEMONIC
#---------         -----------     ------------------------------
GL  .M        0                    : gl           - GROUND LEVEL ELEVATION      
EREF.M        0                    : kb           - ELEVATION OF DEPTH REFERENCE
DATM.M        0                    : datum        - DATUM ELEVATION             
TDD .M        487.68               : tdd          - TOTAL DEPTH DRILLER         
RUN .         ONE                  : Run          - RUN NUMBER                  
ENG .         BILL                 : Engineer     - RECORDING ENGINEER          
WIT .         JIM                  : Witness      - WITNESSED BY                
MUD .         GEL                  : Mud_type     - MUD TYPE                    
MATR.         LIMESTONE            : Logunit      - NEUTRON MATRIX              
TMAX.C        21.6667              : BHT          - MAXIMUM RECORDED TEMPERATURE
BHTD.M        487.68               : BHTDEP       - MAXIMUM RECORDED TEMPERATURE
MATR.         1                    : LOGUNIT      - NEUTRON MATRIX              
RMT .C        25                   : MDTP         - TEMPERATURE OF MUD          
NEUT.         1                    : NEUTRON      - NEUTRON TYPE                
RESI.         0                    : RESIST       - RESISTIVITY TYPE            
RMC .OHMM     0.25                 : RMC          - RESISTIVITY OF MUD CAKE     
RMF .OHMM     0.25                 : RMF          - RESISTIVITY OF MUD FILTRATE 
SUFT.C        4                    : SUFT         - SURFACE TEMPERATURE         
~A  DEPTH     PHID     PHIN       GR     RESD
# ...
  334.672    0.269    0.518   93.273    4.614
  334.977    0.282    0.530   96.315    4.784
  335.282    0.276    0.562   98.750    4.693
  335.587    0.259    0.570  101.790    4.274
  335.892    0.263    0.575  104.227    3.965
  336.196    0.244    0.587  104.236    3.679
  336.501    0.238    0.578  101.227    3.413
  336.806    0.234    0.591  101.242    3.286
  337.111    0.232    0.586  101.860    3.284
  337.416    0.249    0.561  100.057    3.280
  337.720    0.249    0.540   86.151    3.464
  338.025    0.253    0.545   95.243    3.659
  338.330    0.248    0.546   95.863    3.866
  338.635    0.245    0.545   96.482    4.083
  338.940    0.231    0.554   98.313    4.078
  339.245    0.251    0.566  100.747    4.001
  339.549    0.278    0.554   97.735    3.851
  339.854    0.293    0.541   98.354    3.778
  340.159    0.274    0.542  100.184    3.845
  340.464    0.282    0.559  100.199    4.137
  340.769    0.292    0.519   93.556    4.450
  341.073    0.291    0.505   92.360    4.615
  341.378    0.271    0.519   93.583    4.786
  341.683    0.286    0.580   91.781    4.870
  341.988    0.297    0.595   94.823    4.866
  342.293    0.279    0.560   96.652    4.861
  342.597    0.303    0.497   87.589    5.041
  342.902    0.296    0.460   79.734    5.324
  343.207    0.237    0.477   79.753    5.944
  343.512    0.262    0.465   80.368    7.017
  343.817    0.271    0.453   79.776    8.281
  344.121    0.289    0.544   84.631    8.587
  344.426    0.323    0.527   90.698    8.267
  344.731    0.325    0.504   80.424    7.670
  345.036    0.302    0.532   82.860    6.986
  345.341    0.296    0.505   81.665    6.725
  345.646    0.280    0.462   81.678    6.720
  345.950    0.259    0.476   82.298    7.231
  346.255    0.248    0.461   82.917    8.224
  346.560    0.244    0.466   81.719    8.686
  346.865    0.280    0.509   86.576    8.519
  347.170    0.274    0.541   89.615    7.904
  347.474    0.313    0.568   90.237    7.198
  347.779    0.293    0.557   91.463    6.556
  348.084    0.308    0.544   92.685    5.755
  348.389    0.306    0.540   92.698    4.867
  348.694    0.300    0.578   90.898    4.116
  348.998    0.293    0.603   92.125    3.546
  349.303    0.298    0.597   92.745    3.170
  349.608    0.282    0.580   91.543    2.996
  349.913    0.276    0.564   88.531    2.939
  350.218    0.285    0.539   86.126    2.936
  350.522    0.290    0.508   84.322    3.101
  350.827    0.274    0.508   84.943    3.463
  351.132    0.261    0.532   87.380    3.795
  351.437    0.260    0.531   89.209    3.935
  351.742    0.295    0.507   88.011    3.860
  352.047    0.302    0.508   81.973    3.786
  352.351    0.294    0.571   78.356    3.645
  352.656    0.295    0.586   77.764    3.642
  352.961    0.308    0.547   74.147    3.918
  353.266    0.323    0.440   60.241    4.457
  353.571    0.317    0.445   56.020    5.989
  353.875    0.318    0.431   55.429   12.786
  354.180    0.325    0.421   56.656   15.661
  354.485    0.328    0.420   57.877   17.484
  354.790    0.322    0.425   57.286   17.794
  355.095    0.313    0.430   57.302   17.782
  355.399    0.303    0.433   57.919   17.440
  355.704    0.314    0.437   59.750   16.787
  356.009    0.334    0.441   59.158   16.466
  356.314    0.329    0.443   59.173   16.451
  356.619    0.319    0.442   61.002   16.435
  356.923    0.303    0.447   61.020   17.043
  357.228    0.298    0.428   60.425   18.000
  357.533    0.290    0.408   54.994   19.012
  357.838    0.252    0.371   51.980   19.716
  358.143    0.191    0.315   54.417   20.434
  358.448    0.180    0.383   55.641   20.806
  358.752    0.305    0.443   55.654   20.406
  359.057    0.328    0.423   56.273   18.928
  359.362    0.325    0.411   58.707   18.228
  359.667    0.317    0.421   63.564   16.906
  359.972    0.309    0.427   57.529   16.278
  360.276    0.305    0.434   55.724   16.567
  360.581    0.299    0.456   56.950   16.863
  360.886    0.305    0.460   58.778   17.164
  361.191    0.322    0.448   61.215   17.149
  361.496    0.328    0.446   62.438   16.512
  361.800    0.331    0.446   67.298   15.900
  362.105    0.321    0.445   70.335   14.480
  362.410    0.287    0.451   75.795   12.708
  362.715    0.254    0.525   87.308   10.358
  363.020    0.220    0.514   90.954    6.759
  363.324    0.219    0.491   93.390    5.824
  363.629    0.248    0.496   94.613    5.403
  363.934    0.242    0.537   94.626    4.569
  364.239    0.239    0.564   96.461    3.937
  364.544    0.256    0.610   98.892    3.268
  364.849    0.260    0.594  102.537    2.816
  365.153    0.265    0.566  102.553    2.564
  365.458    0.266    0.568  103.175    2.515
  365.763    0.280    0.597  103.184    2.608
  366.068    0.290    0.598  101.384    2.858
  366.373    0.291    0.558   95.950    3.191
  366.677    0.292    0.529   86.888    3.498
  366.982    0.280    0.515   89.930    4.206
  367.287    0.264    0.508   94.178    5.152
  367.592    0.290    0.476   94.797    6.195
  367.897    0.291    0.451   92.996    6.917
  368.201    0.250    0.464   93.614    7.582
  368.506    0.230    0.482   94.235    7.861
  368.811    0.246    0.525   90.616    7.708
  369.116    0.270    0.520   91.843    7.561
  369.421    0.259    0.471   93.066    7.696
  369.725    0.253    0.487   92.478    7.979
  370.030    0.268    0.488   90.675    8.427
  370.335    0.293    0.458   88.873    8.579
  370.640    0.298    0.448   88.886    8.730
  370.945    0.284    0.445   93.742    8.724
  371.250    0.268    0.438   97.993    9.385
  371.554    0.219    0.422  101.035   10.287
  371.859    0.230    0.421  101.651   10.664
  372.164    0.212    0.416  100.458   10.854
  372.469    0.209    0.415   99.865   10.645
  372.774    0.223    0.439  101.696   10.249
  373.078    0.249    0.462  101.707    9.509
  373.383    0.227    0.477   99.302    8.824
  373.688    0.231    0.479   95.684    8.188
  373.993    0.248    0.477   90.251    7.456
  374.298    0.230    0.482   84.819    7.449
  374.602    0.211    0.482   95.122    7.582
  374.907    0.228    0.447   96.345    8.158
  375.212    0.267    0.421   93.337    9.109
  375.517    0.254    0.432   89.718    9.622
  375.822    0.272    0.433   91.546    9.976
  376.126    0.262    0.438   93.376    9.785
  376.431    0.267    0.451   95.206    8.911
  376.736    0.253    0.464   98.855    8.116
  377.041    0.216    0.480  101.286    7.123
  377.346    0.262    0.492  100.090    6.023
  377.651    0.277    0.491   96.473    5.587
  377.955    0.279    0.486   94.067    5.381
  378.260    0.266    0.487   94.687    5.179
  378.565    0.260    0.493   92.883    5.272
  378.870    0.256    0.516   91.082    5.367
  379.175    0.262    0.504   86.862    5.669
  379.479    0.284    0.458   82.032    6.448
  379.784    0.316    0.469   75.996    8.348
  380.089    0.303    0.470   77.823   10.415
  380.394    0.292    0.452   77.233   10.602
  380.699    0.284    0.440   74.829   10.021
  381.003    0.272    0.440   76.052    9.127
  381.308    0.255    0.476   80.907    6.414
  381.613    0.224    0.519   87.577    4.264
  381.918    0.242    0.505   90.619    3.956
  382.223    0.248    0.487   86.399    4.177
  382.527    0.267    0.478   82.779    4.496
  382.832    0.289    0.472   80.373    5.507
  383.137    0.267    0.469   79.781    7.969
  383.442    0.253    0.475   77.374    9.064
  383.747    0.267    0.460   73.757   10.697
  384.052    0.254    0.413   60.456   13.102
  384.356    0.230    0.371   56.234   15.183
  384.661    0.158    0.313   55.038   14.892
  384.966    0.107    0.395   60.499   13.313
  385.271    0.216    0.443   70.803   12.123
  385.576    0.266    0.468   70.820   11.248
  385.880    0.266    0.483   70.830   11.034
  386.185    0.265    0.466   69.030   10.621
  386.490    0.266    0.466   71.462   10.611
  386.795    0.267    0.462   75.719   10.804
  387.100    0.266    0.450   76.336   11.198
  387.404    0.280    0.443   76.952   11.397
