~VERSION INFORMATION
 VERS.                 2.0:   CWLS LOG ASCII STANDARD -VERSION 2.0
 WRAP.                  NO:   ONE LINE PER DEPTH STEP
~WELL INFORMATION BLOCK
#MNEM.UNIT           DATA                    DESCRIPTION OF MNEMONIC
#---------    -------------------            -------------------------------
# Generated from Intellog Unique Number	CW_82_90/WELL/619
WELL.         07-11-082-25W4                 : Well_name    - WELL
LOC .         00/07-11-082-25W4/0            : Location     - LOCATION
UWI .         00/07-11-082-25W4/0            : Uwi          - UNIQUE WELL ID
ENTR.         JAYE                           : Entered      - ENTERED BY
SRVC.         SCHLUMBERGER                   : Scn          - SERVICE COMPANY
DATE.         10 MAR 77                      : Date         - LOG DATE
STRT.M        225.552                        : top_depth    - START DEPTH
STOP.M        450.802                        : bot_depth    - STOP DEPTH
STEP.M        0.25                           : increment    - STEP LENGTH
 NULL. -999.2500:NULL Value
~CURVE INFORMATION BLOCK
#MNEM UNIT       ERCB CURVE CODE    CURVE DESCRIPTION
#-----------   ------------------   ----------------------------------
DEPT.M        00 001 00 00         : DEPTH        - DEPTH
CALI.MM       00 280 01 00         : CAL          - CALIPER
GR  .API      00 310 00 00         : GR           - GAMMA RAY
NPHI.V/V      00 330 00 00         : PHIN         - NEUTRON POROSITY (SANDSTONE)
DPHI.V/V      00 890 00 00         : PHID         - DENSITY POROSITY (SANDSTONE)
ILD .OHMM     00 120 00 00         : RESD         - DEEP RESISTIVITY (DIL)
~PARAMETER INFORMATION
#MNEM.UNIT           DATA             DESCRIPTION OF MNEMONIC
#---------         -----------     ------------------------------
GL  .M        580.339              : gl           - GROUND LEVEL ELEVATION
EREF.M        583.387              : kb           - ELEVATION OF DEPTH REFERENCE
DATM.M        580.339              : datum        - DATUM ELEVATION
TDD .M        452.933              : tdd          - TOTAL DEPTH DRILLER
RUN .         ONE                  : Run          - RUN NUMBER
BASE.         EDMONTON             : Branch       - HOME BASE OF LOGGING UNIT
MATR.         SANDSTONE            : Logunit      - NEUTRON MATRIX
TMAX.C        17.2222              : BHT          - MAXIMUM RECORDED TEMPERATURE
BHTD.M        452.933              : BHTDEP       - MAXIMUM RECORDED TEMPERATURE
RMT .C        9.44444              : MDTP         - TEMPERATURE OF MUD
MUDD.KG/M     1100                 : MWT          - MUD DENSITY
NEUT.         1                    : NEUTRON      - NEUTRON TYPE
RESI.         0                    : RESIST       - RESISTIVITY TYPE
RM  .OHMM     6.3                  : RM           - RESISTIVITY OF MUD
RMC .OHMM     0.25                 : RMC          - RESISTIVITY OF MUD CAKE
RMF .OHMM     0.25                 : RMF          - RESISTIVITY OF MUD FILTRATE
SUFT.C        4                    : SUFT         - SURFACE TEMPERATURE
~A  DEPTH      CAL       GR     PHIN     PHID     RESD
  225.552  179.631  133.364    0.536    0.239    5.129
  225.802  180.292  125.340    0.548    0.241    6.102
  226.052  180.527  109.091    0.552    0.254    7.522
  226.302  178.637   90.708    0.539    0.265   10.886
  226.552  176.957   72.952    0.520    0.322   13.991
  226.802  174.859   61.225    0.522    0.363   21.234
  227.052  174.453   56.280    0.517    0.338   29.421
  227.302  176.921   60.312    0.438    0.296   32.337
  227.552  178.646   62.396    0.451    0.299   33.163
  227.802  179.524   64.043    0.463    0.300   34.761
  228.052  178.693   63.303    0.459    0.304   37.162
  228.302  176.801   65.200    0.445    0.315   38.489
  228.552  176.294   67.161    0.444    0.320   39.394
  228.802  178.125   68.241    0.451    0.313   40.643
  229.052  179.316   68.505    0.453    0.317   42.263
  229.302  178.488   66.698    0.444    0.313   43.174
  229.552  179.682   64.892    0.447    0.299   44.452
  229.802  182.258   64.405    0.456    0.287   46.042
  230.052  183.876   64.480    0.468    0.296   47.496
  230.302  183.153   64.493    0.469    0.321   48.906
  230.552  183.391   66.766    0.455    0.332   50.257
  230.802  182.246   68.665    0.453    0.318   50.932
  231.052  179.819   67.360    0.461    0.333   51.004
  231.302  174.530   65.427    0.454    0.321   51.689
  231.552  174.124   64.687    0.448    0.324   51.867
  231.802  174.892   66.395    0.443    0.316   51.640
  232.052  174.384   69.109    0.440    0.326   51.921
  232.302  172.918   69.122    0.444    0.330   52.308
  232.552  170.497   65.620    0.431    0.321   53.010
  232.802  169.991   64.377    0.432    0.326   53.721
  233.052  169.693   62.006    0.444    0.323   53.913
  233.302  169.400   59.885    0.445    0.323   56.506
  233.552  168.890   58.141    0.442    0.319   60.056
  233.802  168.488   56.402    0.439    0.292   65.877
  234.052  168.402   56.660    0.432    0.295   71.126
  234.302  168.640   57.868    0.432    0.305   78.019
  234.552  168.980   59.827    0.441    0.301   85.419
  234.802  169.110   60.910    0.459    0.321   91.325
  235.052  169.240   58.536    0.457    0.328   94.769
  235.302  169.582   57.733    0.450    0.327   94.165
  235.552  168.966   58.312    0.443    0.297   91.370
  235.802  167.714   57.196    0.444    0.280   89.175
  236.052  168.800   62.609    0.457    0.289   92.544
  236.302  171.269   65.322    0.463    0.300  101.325
  236.552  172.248   66.717    0.458    0.315  111.147
  236.802  172.164   70.624    0.460    0.328  119.297
  237.052  171.975   69.822    0.448    0.311  124.534
  237.302  171.787   71.090    0.442    0.311  123.259
  237.552  171.490   77.195    0.446    0.304  118.409
  237.802  171.300   79.470    0.458    0.302  113.535
  238.052  171.750   79.796    0.455    0.268  107.357
  238.302  172.835   79.056    0.447    0.238   98.940
  238.552  173.603   77.814    0.448    0.275  102.475
  238.802  172.137   74.626    0.451    0.312   99.828
  239.052  170.673   75.644    0.447    0.306   90.558
  239.302  169.953   77.353    0.460    0.312   86.310
  239.552  169.974   75.483    0.453    0.325   76.155
  239.802  170.105   69.030    0.459    0.315   70.182
  240.052  170.127   63.643    0.473    0.309   67.828
  240.302  170.043   57.504    0.465    0.324   68.198
  240.552  170.066   53.562    0.438    0.320   70.636
  240.802  170.089   49.934    0.440    0.310   76.567
  241.052  170.221   49.948    0.427    0.281   83.158
  241.302  170.351   49.145    0.422    0.237   87.170
  241.552  170.370   44.700    0.410    0.147   93.562
  241.802  171.246   42.203    0.391    0.148  102.419
  242.052  171.269   41.715    0.394    0.197   99.184
  242.302  172.141   42.922    0.391    0.243   96.237
  242.552  174.719   45.823    0.402    0.276   87.992
  242.802  176.336   48.849    0.430    0.303   76.114
  243.052  177.314   52.694    0.461    0.322   66.892
  243.302  178.400   54.403    0.466    0.321   57.066
  243.552  179.700   55.295    0.461    0.309   53.326
  243.802  180.362   56.501    0.461    0.306   51.638
  244.052  178.363   53.878    0.465    0.309   52.642
  244.302  174.880   50.879    0.463    0.306   52.199
  244.552  174.584   52.526    0.467    0.315   51.971
  244.802  174.392   54.046    0.465    0.334   50.625
  245.052  174.523   53.305    0.468    0.329   49.408
  245.302  174.226   55.141    0.479    0.327   48.612
  245.552  174.250   55.530    0.478    0.325   47.633
  245.802  174.273   57.302    0.468    0.329   46.770
  246.052  174.295   61.335    0.469    0.320   45.380
  246.302  173.999   62.416    0.463    0.319   44.380
  246.552  174.768   63.246    0.459    0.341   43.748
  246.802  175.428   64.327    0.452    0.342   42.443
  247.052  176.194   64.780    0.454    0.342   41.263
  247.302  178.240   64.228    0.448    0.334   39.879
  247.552  179.009   61.667    0.447    0.333   38.011
  247.802  179.137   59.735    0.450    0.339   37.172
  248.052  176.926   61.444    0.449    0.342   35.997
  248.302  176.630   65.162    0.447    0.347   32.913
  248.552  176.125   67.372    0.450    0.342   29.797
  248.802  175.828   67.701    0.456    0.329   25.981
  249.052  175.637   70.477    0.465    0.329   22.121
  249.302  175.235   73.944    0.487    0.325   17.643
  249.552  175.044   77.662    0.499    0.298   15.292
  249.802  174.326   79.748    0.488    0.271   14.149
  250.052  173.921   79.824    0.476    0.265   13.486
  250.302  173.731   81.721    0.472    0.290   13.033
  250.552  174.076   87.448    0.462    0.280   12.620
  250.802  174.523   95.750    0.464    0.290   11.934
  251.052  174.544   97.271    0.469    0.302   10.364
  251.302  175.100  101.743    0.458    0.267    9.163
  251.552  176.398  130.073    0.452    0.231    7.649
  251.802  180.889  137.999    0.488    0.244    6.397
  252.052  182.399  137.572    0.520    0.251    5.319
  252.302  182.316  133.442    0.518    0.249    4.749
  252.552  182.126  126.675    0.509    0.248    4.429
  252.802  181.193  129.892    0.521    0.256    4.383
  253.052  180.897  126.011    0.547    0.256    4.567
  253.302  178.795  115.728    0.556    0.272    5.327
  253.552  175.839  104.879    0.516    0.292    6.515
  253.802  173.205   95.349    0.493    0.297    7.436
  254.052  171.314   85.567    0.458    0.299    8.690
  254.302  169.848   80.558    0.447    0.285   11.102
  254.552  169.766   84.465    0.450    0.306   13.823
  254.802  170.112   81.967    0.444    0.293   14.205
  255.052  170.343   73.504    0.429    0.302   14.339
  255.302  170.898   66.925    0.412    0.298   15.791
  255.552  170.602   62.983    0.407    0.322   17.425
  255.802  170.838   62.934    0.426    0.320   18.964
  256.052  171.710   61.000    0.428    0.324   20.194
  256.302  169.395   61.203    0.422    0.335   21.125
  256.552  169.102   64.418    0.438    0.318   21.790
  256.802  168.382   67.133    0.454    0.305   21.867
  257.052  167.553   68.213    0.449    0.314   21.900
  257.302  167.042   68.038    0.432    0.319   22.064
  257.552  166.432   68.931    0.422    0.318   22.627
  257.802  165.918   69.636    0.426    0.310   23.206
  258.052  165.942   68.959    0.432    0.326   23.942
  258.302  166.285   66.083    0.422    0.343   25.045
  258.552  166.839   65.218    0.447    0.349   26.562
  258.802  168.137   71.448    0.459    0.343   27.730
  259.052  168.697   76.171    0.443    0.338   28.611
  259.302  168.716   75.682    0.443    0.335   29.809
  259.552  167.357   74.440    0.448    0.347   30.572
  259.802  166.212   73.764    0.445    0.352   31.044
  260.052  166.445   72.962    0.441    0.347   31.462
  260.302  166.686   70.401    0.419    0.347   31.508
  260.552  166.918   69.283    0.430    0.352   31.244
  260.802  167.152   68.983    0.446    0.342   31.226
  261.052  168.132   69.624    0.451    0.335   31.088
  261.302  169.435   68.697    0.436    0.344   31.198
  261.552  169.989   67.580    0.433    0.341   31.181
  261.802  170.330   69.290    0.459    0.341   31.043
