~VERSION INFORMATION
 VERS.                 2.0:   CWLS LOG ASCII STANDARD -VERSION 2.0
 WRAP.                  NO:   ONE LINE PER DEPTH STEP
~WELL INFORMATION BLOCK
#MNEM.UNIT           DATA                    DESCRIPTION OF MNEMONIC
#---------    -------------------            -------------------------------
# Generated from Intellog Unique Number	CS_71_72/WELL/783
WELL.         BRENDA IPIATIK                 : Well_name    - WELL
LOC .         00/06-30-071-09W4/0            : Location     - LOCATION
UWI .         00/06-30-071-09W4/0            : Uwi          - UNIQUE WELL ID
ENTR.         SP                             : Entered      - ENTERED BY
SRVC.         SCHLUMBERGER                   : Scn          - SERVICE COMPANY
STRT.M        320                            : top_depth    - START DEPTH
STOP.M        525                            : bot_depth    - STOP DEPTH
STEP.M        0.25                           : increment    - STEP LENGTH
 NULL. -999.2500:NULL Value
~CURVE INFORMATION BLOCK
#MNEM UNIT       ERCB CURVE CODE    CURVE DESCRIPTION
#-----------   ------------------   ----------------------------------
DEPT.M        00 001 00 00         : DEPTH        - DEPTH
ILD .OHMM     00 120 00 00         : RESD         - DEEP RESISTIVITY (DIL)
DPHI.V/V      00 890 00 00         : PHID         - DENSITY POROSITY (LIMESTONE)
NPHI.V/V      00 330 00 00         : PHIN         - NEUTRON POROSITY (LIMESTONE)
GR  .API      00 310 00 00         : GR           - GAMMA RAY
~PARAMETER INFORMATION
#MNEM.UNIT           DATA             DESCRIPTION OF MNEMONIC
#---------         -----------     ------------------------------
GL  .M        678.5                : gl           - GROUND LEVEL ELEVATION
EREF.M        6810.4               : kb           - ELEVATION OF DEPTH REFERENCE
DATM.M        678.5                : datum        - DATUM ELEVATION
TDD .M        539                  : tdd          - TOTAL DEPTH DRILLER
RUN .         ONE                  : Run          - RUN NUMBER
ENG .         BILL                 : Engineer     - RECORDING ENGINEER
WIT .         JIM                  : Witness      - WITNESSED BY
MUD .         GEL                  : Mud_type     - MUD TYPE
MATR.         LIMESTONE            : Logunit      - NEUTRON MATRIX
TMAX.C        22                   : BHT          - MAXIMUM RECORDED TEMPERATURE
BHTD.M        539                  : BHTDEP       - MAXIMUM RECORDED TEMPERATURE
MATR.         1                    : LOGUNIT      - NEUTRON MATRIX
RMT .C        25                   : MDTP         - TEMPERATURE OF MUD
NEUT.         1                    : NEUTRON      - NEUTRON TYPE
RESI.         0                    : RESIST       - RESISTIVITY TYPE
RMC .OHMM     0.25                 : RMC          - RESISTIVITY OF MUD CAKE
RMF .OHMM     0.25                 : RMF          - RESISTIVITY OF MUD FILTRATE
SUFT.C        15                   : SUFT         - SURFACE TEMPERATURE
~A  DEPTH     RESD     PHID     PHIN       GR
# ...
  363.500   16.361    0.307    0.393   40.046
  363.750   16.150    0.310    0.396   41.642
  364.000   15.913    0.313    0.392   43.726
  364.250   15.739    0.306    0.393   44.284
  364.500   15.802    0.303    0.398   40.935
  364.750   15.835    0.311    0.406   42.348
  365.000   15.779    0.322    0.419   44.248
  365.250   15.694    0.325    0.427   45.599
  365.500   15.376    0.317    0.417   44.325
  365.750   14.617    0.316    0.411   46.593
  366.000   13.638    0.308    0.419   52.463
  366.250   12.439    0.283    0.423   60.590
  366.500   11.135    0.265    0.428   71.221
  366.750    9.911    0.259    0.448   80.509
  367.000    9.422    0.262    0.468   88.028
  367.250    9.162    0.265    0.470   94.263
  367.500    9.374    0.267    0.459   98.239
  367.750   10.052    0.264    0.450   92.326
  368.000   10.985    0.174    0.429   89.098
  368.250   11.824    0.149    0.409   87.092
  368.500   12.585    0.133    0.380   87.590
  368.750   12.899    0.130    0.362   89.065
  369.000   13.222    0.181    0.389   90.232
  369.250   13.027    0.230    0.425   92.134
  369.500   12.620    0.273    0.447   94.097
  369.750   11.863    0.268    0.442   95.936
  370.000   10.740    0.247    0.429   97.774
  370.250    9.815    0.235    0.424  100.102
  370.500    9.243    0.246    0.428  102.003
  370.750    8.837    0.254    0.432  103.476
  371.000    8.707    0.251    0.433  104.156
  371.250    8.759    0.245    0.425  102.030
  371.500    8.646    0.241    0.412  100.572
  371.750    8.344    0.234    0.408  100.825
  372.000    8.099    0.224    0.409  101.871
  372.250    8.177    0.216    0.412  103.344
  372.500    8.622    0.228    0.417  103.963
  372.750    9.005    0.222    0.426   97.683
  373.000    9.388    0.215    0.435   93.479
  373.250    9.751    0.242    0.446   90.130
  373.500    9.920    0.247    0.454   92.765
  373.750   10.035    0.258    0.460   93.871
  374.000   10.094    0.267    0.463   94.062
  374.250   10.096    0.269    0.463   92.361
  374.500    9.948    0.268    0.473   89.866
  374.750    9.160    0.267    0.482   89.875
  375.000    8.107    0.269    0.488   93.486
  375.250    7.257    0.248    0.494   96.424
  375.500    6.951    0.226    0.479   99.609
  375.750    6.747    0.214    0.464  101.570
  376.000    7.317    0.209    0.454  104.023
  376.250    8.255    0.244    0.444  105.127
  376.500    9.527    0.262    0.434  106.295
  376.750   10.648    0.254    0.444   95.498
  377.000   11.614    0.277    0.452   91.906
  377.250   12.338    0.289    0.433   89.898
  377.500   12.815    0.290    0.418   87.770
  377.750   12.841    0.278    0.432   86.313
  378.000   12.677    0.266    0.441   85.650
  378.250   12.328    0.261    0.443   86.025
  378.500   11.987    0.257    0.440   87.254
  378.750   11.635    0.253    0.438   89.522
  379.000   11.463    0.257    0.435   91.239
  379.250   11.401    0.245    0.450   92.285
  379.500   11.403    0.233    0.455   91.073
  379.750   11.407    0.227    0.448   91.142
  380.000   11.387    0.224    0.443   92.555
  380.250   11.241    0.228    0.454   93.295
  380.500   10.951    0.248    0.459   92.449
  380.750   10.530    0.246    0.451   92.702
  381.000   10.454    0.242    0.446   94.603
  381.250   10.476    0.249    0.438   94.367
  381.500   10.598    0.245    0.433   90.896
  381.750   10.904    0.254    0.424   88.767
  382.000   11.347    0.251    0.411   87.616
  382.250   11.674    0.247    0.407   89.151
  382.500   11.853    0.255    0.417   90.257
  382.750   12.219    0.255    0.415   88.678
  383.000   12.267    0.252    0.421   90.213
  383.250   11.861    0.256    0.435   92.237
  383.500   10.922    0.247    0.443   94.202
  383.750   10.442    0.237    0.434   95.308
  384.000   10.211    0.230    0.423   95.986
  384.250   10.213    0.222    0.415   96.604
  384.500   10.332    0.216    0.411   96.003
  384.750   10.161    0.239    0.418   97.720
  385.000    9.678    0.226    0.428  100.598
  385.250    8.979    0.216    0.438  104.820
  385.500    8.568    0.207    0.440  108.735
  385.750    8.207    0.194    0.436  112.650
  386.000    8.056    0.205    0.433  113.269
  386.250    8.058    0.223    0.430  106.318
  386.500    8.306    0.247    0.443  100.954
  386.750    8.841    0.279    0.457   97.360
  387.000    9.148    0.271    0.466   94.377
  387.250    9.773    0.275    0.479   89.747
  387.500   10.460    0.292    0.433   87.068
  387.750   11.387    0.297    0.400   74.133
  388.000   12.212    0.297    0.394   66.084
  388.250   12.540    0.291    0.401   70.915
  388.500   13.448    0.279    0.412   76.296
  388.750   13.835    0.273    0.424   80.394
  389.000   14.023    0.282    0.435   78.633
  389.250   14.078    0.306    0.442   71.437
  389.500   14.622    0.305    0.429   65.706
  389.750   14.960    0.319    0.418   60.647
  390.000   15.076    0.330    0.420   58.275
  390.250   14.940    0.321    0.420   60.726
  390.500   14.691    0.317    0.412   64.459
  390.750   13.275    0.302    0.409   67.520
  391.000   11.316    0.289    0.421   71.132
  391.250    9.978    0.274    0.428   74.068
  391.500    9.118    0.252    0.435   80.303
  391.750    8.701    0.233    0.429   89.286
  392.000    8.272    0.214    0.413   99.552
  392.250    8.837    0.226    0.411   98.339
  392.500   10.294    0.243    0.421   92.914
  392.750   12.060    0.257    0.427   86.512
  393.000   14.023    0.282    0.438   78.156
  393.250   15.674    0.314    0.458   67.847
  393.500   17.031    0.307    0.466   61.201
  393.750   17.956    0.309    0.421   56.936
  394.000   18.614    0.303    0.374   51.696
  394.250   19.008    0.315    0.380   50.054
  394.500   19.228    0.312    0.391   51.588
  394.750   19.418    0.306    0.398   53.245
  395.000   19.460    0.306    0.404   52.521
  395.250   19.026    0.305    0.404   51.980
  395.500   19.104    0.303    0.405   52.294
  395.750   19.215    0.307    0.408   53.830
  396.000   19.329    0.316    0.413   55.060
  396.250   19.444    0.325    0.419   55.615
  396.500   19.522    0.326    0.413   56.603
  396.750   19.526    0.317    0.407   57.161
  397.000   19.457    0.310    0.399   56.986
  397.250   19.425    0.307    0.398   56.689
  397.500   19.504    0.315    0.406   57.185
  397.750   19.472    0.320    0.406   58.903
  398.000   19.477    0.318    0.408   60.437
  398.250   19.481    0.324    0.412   61.788
  398.500   19.485    0.332    0.415   63.202
  398.750   19.526    0.337    0.418   64.431
  399.000   19.495    0.337    0.410   64.194
  399.250   19.499    0.329    0.421   59.258
  399.500   19.361    0.323    0.428   56.213
  399.750   19.253    0.323    0.433   58.298
  400.000   19.042    0.329    0.432   61.114
  400.250   18.798    0.333    0.422   63.932
  400.500   18.626    0.327    0.427   65.099
  400.750   18.352    0.322    0.435   64.986
  401.000   18.185    0.318    0.433   63.774
  401.250   18.018    0.319    0.430   61.951
  401.500   17.989    0.325    0.439   60.860
  401.750   17.927    0.333    0.446   60.380
  402.000   17.896    0.338    0.447   59.962
  402.250   17.901    0.330    0.435   59.298
  402.500   17.907    0.326    0.435   58.206
  402.750   17.943    0.328    0.442   56.324
  403.000   17.914    0.327    0.443   55.294
  403.250   17.884    0.329    0.432   54.753
  403.500   17.888    0.330    0.423   56.898
  403.750   17.927    0.332    0.419   59.164
  404.000   17.932    0.323    0.422   60.761
  404.250   17.935    0.324    0.433   59.914
  404.500   17.941    0.324    0.434   57.847
  404.750   17.944    0.321    0.440   56.268
  405.000   17.981    0.317    0.447   54.508
  405.250   18.020    0.328    0.441   53.904
  405.500   18.025    0.332    0.451   54.585
  405.750   18.030    0.325    0.458   56.362
  406.000   18.000    0.325    0.453   58.448
  406.250   18.004    0.332    0.441   59.065
  406.500   18.008    0.336    0.434   58.341
  406.750   18.012    0.339    0.437   56.825
