~VERSION INFORMATION
 VERS.                 2.0:   CWLS LOG ASCII STANDARD -VERSION 2.0
 WRAP.                  NO:   ONE LINE PER DEPTH STEP
~WELL INFORMATION BLOCK
#MNEM.UNIT           DATA                    DESCRIPTION OF MNEMONIC
#---------    -------------------            -------------------------------
# Generated from Intellog Unique Number	CS_69_70/WELL/2885
NULL.         -999.25                        : NULL_VALUE
WELL.         AEC KIRBY                      : Well_name    - WELL              
LOC .         00/08-33-070-04W4/0            : Location     - LOCATION          
UWI .         00/08-33-070-04W4/0            : Uwi          - UNIQUE WELL ID    
ENTR.         TIM                            : Entered      - ENTERED BY        
SRVC.         SCHLUMBERGER                   : Scn          - SERVICE COMPANY   
DATE.         01/30/92                       : Date         - LOG DATE          
STRT.M        285                            : top_depth    - START DEPTH       
STOP.M        485                            : bot_depth    - STOP DEPTH        
STEP.M        0.25                           : increment    - STEP LENGTH       
~CURVE INFORMATION BLOCK
#MNEM UNIT       ERCB CURVE CODE    CURVE DESCRIPTION
#-----------   ------------------   ----------------------------------
DEPT.M        00 001 00 00         : DEPTH        - DEPTH                       
GR  .API      00 310 00 00         : GR           - GAMMA RAY                   
ILD .OHMM     00 120 00 00         : RESD         - DEEP RESISTIVITY (DIL)      
DPHI.V/V      00 890 00 00         : PHID         - DENSITY POROSITY (SANDSTONE)
NPHI.V/V      00 330 00 00         : PHIN         - NEUTRON POROSITY (SANDSTONE)
~PARAMETER INFORMATION       
#MNEM.UNIT           DATA             DESCRIPTION OF MNEMONIC
#---------         -----------     ------------------------------
GL  .M        660.7                : gl           - GROUND LEVEL ELEVATION      
EREF.M        664.3                : kb           - ELEVATION OF DEPTH REFERENCE
DATM.M        664.3                : datum        - DATUM ELEVATION             
TDD .M        497                  : tdd          - TOTAL DEPTH DRILLER         
RUN .         ONE                  : Run          - RUN NUMBER                  
ENG .         JO                   : Engineer     - RECORDING ENGINEER          
WIT .         TIM                  : Witness      - WITNESSED BY                
MUD .         GEL                  : Mud_type     - MUD TYPE                    
MATR.         SANDSTONE            : Logunit      - NEUTRON MATRIX              
TMAX.C        23                   : BHT          - MAXIMUM RECORDED TEMPERATURE
BHTD.M        497                  : BHTDEP       - MAXIMUM RECORDED TEMPERATURE
RMT .C        17                   : MDTP         - TEMPERATURE OF MUD          
MUDD.KG/M     1090                 : MWT          - MUD DENSITY                 
NEUT.         1                    : NEUTRON      - NEUTRON TYPE                
RESI.         0                    : RESIST       - RESISTIVITY TYPE            
RM  .OHMM     6.4                  : RM           - RESISTIVITY OF MUD          
RMC .OHMM     5.6                  : RMC          - RESISTIVITY OF MUD CAKE     
RMF .OHMM     4.9                  : RMF          - RESISTIVITY OF MUD FILTRATE 
SUFT.C        4                    : SUFT         - SURFACE TEMPERATURE         
~A  DEPTH       GR     RESD     PHID     PHIN
# ...
  415.500   93.671    5.893    0.210    0.412
  415.750   90.615    5.894    0.244    0.436
  416.000   86.946    5.678    0.259    0.462
  416.250   84.501    5.267    0.255    0.468
  416.500   82.675    5.170    0.257    0.481
  416.750   82.077    4.795    0.268    0.493
  417.000   83.327    4.533    0.284    0.508
  417.250   83.344    4.204    0.291    0.507
  417.500   80.903    3.827    0.293    0.498
  417.750   78.458    3.617    0.302    0.497
  418.000   79.704    3.355    0.321    0.505
  418.250   84.021    2.997    0.315    0.513
  418.500   85.266    2.886    0.312    0.521
  418.750   84.054    2.728    0.306    0.524
  419.000   80.389    2.730    0.296    0.526
  419.250   82.868    2.945    0.284    0.535
  419.500   85.952    3.177    0.277    0.563
  419.750   85.969    3.427    0.294    0.422
  420.000   85.371    3.913    0.309    0.391
  420.250   84.778    4.383    0.314    0.390
  420.500   81.722    4.911    0.287    0.397
  420.750   79.896    5.399    0.278    0.426
  421.000   86.052    5.504    0.270    0.460
  421.250   84.841    5.203    0.263    0.482
  421.500   80.557    5.107    0.258    0.478
  421.750   75.052    5.207    0.257    0.449
  422.000   76.290    5.307    0.252    0.450
  422.250   78.768    5.410    0.249    0.456
  422.500   81.853    5.516    0.244    0.462
  422.750   85.555    5.517    0.241    0.464
  423.000   87.419    5.215    0.239    0.466
  423.250   88.046    4.746    0.237    0.469
  423.500   89.296    4.160    0.236    0.479
  423.750   88.084    3.858    0.234    0.496
  424.000   85.643    3.447    0.236    0.507
  424.250   88.118    3.514    0.238    0.495
  424.500   91.206    3.581    0.239    0.481
  424.750   94.909    3.721    0.239    0.478
  425.000   96.773    3.793    0.239    0.495
  425.250   97.404    3.866    0.241    0.501
  425.500   94.964    3.941    0.245    0.479
  425.750   91.299    3.869    0.246    0.457
  426.000   90.692    3.589    0.250    0.492
  426.250   90.709    3.392    0.250    0.502
  426.500   92.569    3.267    0.246    0.526
  426.750   94.433    3.394    0.238    0.470
  427.000   91.988    3.732    0.224    0.415
  427.250   84.633    3.950    0.209    0.376
  427.500   78.506    4.426    0.190    0.351
  427.750   71.150    5.348    0.215    0.341
  428.000   67.481    5.991    0.235    0.348
  428.250   69.340    7.661    0.250    0.365
  428.500   74.891    8.914    0.257    0.416
  428.750   78.598    8.425    0.258    0.432
  429.000   78.000    7.965    0.267    0.385
  429.250   76.170    8.118    0.286    0.349
  429.500   72.504    9.268    0.303    0.335
  429.750   68.221   10.783    0.090    0.330
  430.000   65.780   13.029    0.079    0.308
  430.250   62.725   15.742    0.070    0.213
  430.500   59.051   18.315    0.158    0.264
  430.750   59.068   17.312    0.219    0.302
  431.000   64.614   16.679    0.281    0.335
  431.250   65.249   16.066    0.302    0.347
  431.500   65.880   15.768    0.293    0.347
  431.750   66.507   15.479    0.286    0.343
  432.000   67.138   14.912    0.288    0.337
  432.250   67.770   14.636    0.289    0.335
  432.500   67.786   14.098    0.288    0.340
  432.750   67.807   14.102    0.280    0.341
  433.000   67.210   13.845    0.266    0.371
  433.250   69.070   13.589    0.256    0.381
  433.500   72.158   13.852    0.244    0.377
  433.750   71.561   14.122    0.259    0.325
  434.000   69.128   14.397    0.321    0.315
  434.250   66.679   14.674    0.337    0.352
  434.500   61.167   15.243    0.352    0.374
  434.750   58.726   16.445    0.347    0.401
  435.000   59.365   20.248    0.343    0.416
  435.250   59.374   24.007    0.340    0.435
  435.500   60.619   30.123    0.339    0.451
  435.750   62.483   32.505    0.337    0.444
  436.000   64.953   31.306    0.328    0.437
  436.250   70.499   28.497    0.313    0.432
  436.500   77.274   26.430    0.301    0.438
  436.750   82.214   23.607    0.291    0.452
  437.000   84.689   21.487    0.282    0.445
  437.250   86.549   19.930    0.273    0.432
  437.500   86.570   18.140    0.263    0.406
  437.750   86.578   16.204    0.251    0.403
  438.000   87.823   14.749    0.240    0.404
  438.250   89.687   13.425    0.237    0.400
  438.500   90.319   12.688    0.253    0.400
  438.750   90.950   11.770    0.267    0.400
  439.000   91.585   11.124    0.269    0.400
  439.250   91.593   10.716    0.265    0.399
  439.500   91.610   10.323    0.274    0.413
  439.750   92.250   10.133    0.292    0.438
  440.000   92.262   10.136    0.293    0.348
  440.250   91.660   10.530    0.281    0.339
  440.500   83.690   10.938    0.252    0.342
  440.750   78.182   12.255    0.220    0.351
  441.000   85.571   12.730    0.235    0.362
  441.250   85.588   13.995    0.247    0.379
  441.500   77.004   15.386    0.250    0.378
  441.750   70.877   17.237    0.255    0.362
  442.000   69.054   18.596    0.249    0.352
  442.250   70.910   20.448    0.239    0.344
  442.500   75.842   20.841    0.231    0.352
  442.750   82.002   20.849    0.229    0.370
  443.000   83.862   21.252    0.229    0.397
  443.250   81.426   21.666    0.232    0.407
  443.500   80.210   22.084    0.259    0.416
  443.750   80.841   22.944    0.256    0.403
  444.000   86.391   23.835    0.255    0.380
  444.250   88.861   24.763    0.256    0.359
  444.500   96.254   26.212    0.262    0.365
  444.750  101.805   28.278    0.268    0.370
  445.000   95.674   31.089    0.278    0.378
  445.250   72.954   35.494    0.304    0.384
  445.500   57.612   40.520    0.328    0.377
  445.750   40.426   50.847    0.337    0.398
  446.000   29.999   66.256    0.339    0.410
  446.250   25.723   80.053    0.345    0.389
  446.500   27.579   80.093    0.350    0.373
  446.750   31.896   80.112    0.345    0.368
  447.000   34.981   81.660    0.328    0.371
  447.250   36.853   83.251    0.313    0.376
  447.500   35.633   83.271    0.346    0.406
  447.750   32.582   83.305    0.349    0.410
  448.000   31.370   81.767    0.352    0.409
  448.250   29.544   81.794    0.346    0.402
  448.500   27.717   83.395    0.341    0.401
  448.750   27.734   86.619    0.339    0.399
  449.000   28.975   89.982    0.334    0.389
  449.250   34.526   86.676    0.329    0.373
  449.500   36.381   80.403    0.314    0.374
  449.750   36.398   86.740    0.314    0.374
  450.000   33.343   93.569    0.326    0.369
  450.250   30.288  104.829    0.335    0.367
  450.500   28.466  124.290    0.343    0.385
  450.750   27.868  147.363    0.346    0.411
  451.000   26.656  184.904    0.345    0.406
  451.250   26.054  227.668    0.336    0.400
  451.500   26.071  223.483    0.322    0.381
  451.750   25.474  192.211    0.325    0.375
  452.000   26.109  162.222    0.327    0.370
  452.250   27.354  136.912    0.328    0.421
  452.500   27.985  115.551    0.333    0.436
  452.750   28.002  113.436    0.336    0.427
  453.000   27.405  122.367    0.331    0.418
  453.250   26.193  134.528    0.331    0.425
  453.500   26.209  145.131    0.355    0.445
  453.750   26.230  159.555    0.360    0.436
  454.000   26.247  165.750    0.334    0.429
  454.250   26.264  137.285    0.333    0.421
  454.500   26.895  122.609    0.365    0.411
  454.750   27.526  101.552    0.378    0.442
  455.000   28.157   92.425    0.361    0.459
  455.250   28.174   87.363    0.344    0.463
  455.500   26.348   97.877    0.332    0.386
  455.750   23.907  111.746    0.329    0.373
  456.000   23.924  148.398    0.321    0.378
  456.250   23.941  186.202    0.310    0.385
  456.500   25.186  176.004    0.316    0.394
  456.750   26.431  169.551    0.321    0.403
  457.000   27.063  179.493    0.319    0.411
  457.250   27.084  190.033    0.319    0.418
  457.500   27.096  193.687    0.319    0.418
  457.750   27.113  201.225    0.325    0.418
  458.000   25.901  201.292    0.334    0.419
  458.250   24.079  193.895    0.344    0.419
  458.500   22.867  186.755    0.361    0.422
  458.750   22.269  179.892    0.359    0.422
