~VERSION INFORMATION
 VERS.                 2.0:   CWLS LOG ASCII STANDARD -VERSION 2.0
 WRAP.                  NO:   ONE LINE PER DEPTH STEP
~WELL INFORMATION BLOCK
#MNEM.UNIT           DATA                    DESCRIPTION OF MNEMONIC
#---------    -------------------            -------------------------------
# Generated from Intellog Unique Number	CX_WELLS/WELL/2704
WELL.         05-15-080-11W4                 : Well_name    - WELL
LOC .         00/05-15-080-11W4/0            : Location     - LOCATION
UWI .         00/05-15-080-11W400            : Uwi          - UNIQUE WELL ID
ENTR.         T                              : Entered      - ENTERED BY
SRVC.         SCHLUMBERGER                   : Scn          - SERVICE COMPANY
STRT.M        250                            : top_depth    - START DEPTH
STOP.M        480                            : bot_depth    - STOP DEPTH
STEP.M        0.25                           : increment    - STEP LENGTH
 NULL. -999.2500:NULL Value
~CURVE INFORMATION BLOCK
#MNEM UNIT       ERCB CURVE CODE    CURVE DESCRIPTION
#-----------   ------------------   ----------------------------------
DEPT.M        00 001 00 00         : DEPTH        - DEPTH
GR  .API      00 310 00 00         : GR           - GAMMA RAY
NPHI.V/V      00 330 00 00         : PHIN         - NEUTRON POROSITY (SANDSTONE)
DPHI.V/V      00 890 00 00         : PHID         - DENSITY POROSITY (SANDSTONE)
ILD .OHMM     00 120 00 00         : RESD         - DEEP RESISTIVITY (DIL)
~PARAMETER INFORMATION
#MNEM.UNIT           DATA             DESCRIPTION OF MNEMONIC
#---------         -----------     ------------------------------
GL  .M        684                  : gl           - GROUND LEVEL ELEVATION
EREF.M        687                  : kb           - ELEVATION OF DEPTH REFERENCE
DATM.M        687                  : datum        - DATUM ELEVATION
TDD .M        486                  : tdd          - TOTAL DEPTH DRILLER
RUN .         ONE                  : Run          - RUN NUMBER
ENG .         BILL                 : Engineer     - RECORDING ENGINEER
WIT .         JIM                  : Witness      - WITNESSED BY
MUD .         GEL                  : Mud_type     - MUD TYPE
MATR.         SANDSTONE            : Logunit      - NEUTRON MATRIX
TMAX.C        25                   : BHT          - MAXIMUM RECORDED TEMPERATURE
BHTD.M        486                  : BHTDEP       - MAXIMUM RECORDED TEMPERATURE
MATR.         1                    : LOGUNIT      - NEUTRON MATRIX
RMT .C        17                   : MDTP         - TEMPERATURE OF MUD
NEUT.         1                    : NEUTRON      - NEUTRON TYPE
RESI.         6.7                  : RESIST       - RESISTIVITY TYPE
RMC .OHMM     6.3                  : RMC          - RESISTIVITY OF MUD CAKE
RMF .OHMM     6.3                  : RMF          - RESISTIVITY OF MUD FILTRATE
SUFT.C        4                    : SUFT         - SURFACE TEMPERATURE
~A  DEPTH       GR     PHIN     PHID     RESD
  250.000  110.167    0.518    0.269    4.352
  250.250  110.202    0.512    0.272    4.355
  250.500  109.626    0.503    0.276    4.360
  250.750  107.223    0.501    0.281    4.047
  251.000  105.405    0.516    0.288    3.976
  251.250  101.770    0.547    0.293    3.904
  251.500   99.367    0.563    0.298    3.907
  251.750  100.626    0.567    0.296    3.985
  252.000  100.049    0.559    0.287    4.064
  252.250   98.852    0.525    0.279    4.144
  252.500   95.829    0.482    0.277    4.227
  252.750  100.147    0.474    0.274    4.230
  253.000  111.816    0.484    0.273    4.316
  253.250  113.696    0.519    0.273    4.318
  253.500  113.120    0.537    0.275    4.322
  253.750  110.699    0.543    0.278    4.166
  254.000  107.064    0.529    0.276    4.170
  254.250  101.593    0.496    0.270    4.172
  254.500   96.733    0.480    0.269    4.177
  254.750   93.098    0.477    0.274    4.179
  255.000   90.695    0.478    0.279    4.263
  255.250   89.507    0.488    0.283    4.266
  255.500   89.542    0.503    0.287    4.270
  255.750   90.189    0.509    0.287    4.354
  256.000   90.216    0.503    0.284    5.569
  256.250   90.252    0.468    0.284    7.536
  256.500   87.246    0.433    0.285   11.206
  256.750   83.592    0.425    0.302   14.880
  257.000   76.286    0.385    0.354   23.862
  257.250   68.979    0.305    0.364   27.256
  257.500   64.129    0.287    0.372   23.017
  257.750   65.388    0.288    0.380   15.220
  258.000   69.086    0.295    0.380   10.255
  258.250   78.911    0.311    0.378    9.514
  258.500   82.005    0.368    0.361    8.347
  258.750   85.721    0.397    0.315    7.601
  259.000   91.875    0.443    0.296    7.327
  259.250   97.417    0.448    0.290    7.761
  259.500   96.840    0.455    0.289    8.374
  259.750   90.766    0.444    0.284    9.036
  260.000   96.300    0.428    0.282    9.752
  260.250  134.278    0.426    0.321   11.136
  260.500  147.774    0.524    0.469   12.720
  260.750  152.092    0.606    0.519   12.263
  261.000   96.442    0.596    0.550   11.598
  261.250   94.641    0.582    0.545   10.970
  261.500   91.627    0.566    0.494   10.570
  261.750   88.594    0.545    0.330    9.999
  262.000   59.261    0.511    0.304   10.789
  262.250   53.781    0.378    0.332   20.114
  262.500   47.087    0.224    0.351   26.216
  262.750   42.236    0.221    0.371   42.842
  263.000   41.048    0.220    0.375   48.012
  263.250   41.084    0.226    0.372   44.553
  263.500   41.119    0.243    0.374   30.020
  263.750   41.766    0.292    0.385   29.478
  264.000   43.035    0.307    0.392   27.360
  264.250   44.285    0.388    0.388   24.924
  264.500   46.785    0.396    0.372   22.701
  264.750   48.648    0.398    0.358   20.291
  265.000   49.898    0.404    0.343   18.829
  265.250   53.613    0.437    0.341   17.153
  265.500   57.320    0.431    0.337   16.529
  265.750   60.414    0.427    0.327   16.240
  266.000   64.733    0.430    0.288   16.559
  266.250   67.828    0.434    0.272   17.214
  266.500   72.758    0.433    0.302   17.886
  266.750   77.085    0.431    0.331   18.589
  267.000   80.792    0.433    0.339   19.323
  267.250   85.110    0.436    0.333   19.335
  267.500   88.205    0.426    0.321   18.990
  267.750   91.911    0.412    0.311   17.296
  268.000   95.006    0.442    0.284   15.171
  268.250   96.265    0.442    0.265   13.565
  268.500   95.086    0.438    0.262   13.573
  268.750   94.501    0.433    0.261   14.928
  269.000   92.709    0.433    0.267   21.790
  269.250   89.686    0.434    0.291   22.641
  269.500   86.041    0.435    0.306   23.531
  269.750   77.511    0.438    0.329   23.994
  270.000   76.944    0.444    0.343   23.994
  270.250   75.755    0.449    0.357   25.442
  270.500   73.955    0.437    0.366   24.983
  270.750   73.370    0.420    0.363   24.983
  271.000   74.017    0.443    0.358   25.516
  271.250   76.500    0.449    0.355   25.527
  271.500   79.613    0.440    0.353   25.066
  271.750   80.242    0.436    0.351   24.163
  272.000   81.510    0.428    0.349   23.289
  272.250   82.761    0.424    0.346   22.873
  272.500   84.632    0.417    0.340   22.460
  272.750   87.744    0.413    0.332   22.063
  273.000   90.227    0.416    0.321   21.665
  273.250   93.925    0.417    0.312   21.687
  273.500  100.088    0.424    0.306   21.304
  273.750   99.511    0.432    0.300   21.313
  274.000   96.479    0.440    0.296   20.550
  274.250   90.396    0.439    0.290   20.179
  274.500   88.596    0.433    0.284   18.383
  274.750   95.361    0.431    0.279   15.820
  275.000  102.127    0.426    0.273   12.392
  275.250  104.628    0.429    0.255   10.271
  275.500  104.654    0.433    0.253    9.009
  275.750  102.243    0.439    0.245    8.054
  276.000   98.004    0.443    0.236    7.764
  276.250   99.263    0.460    0.225    7.482
  276.500  103.573    0.472    0.195    7.209
  276.750  108.503    0.451    0.206    7.080
  277.000  114.045    0.449    0.213    6.826
  277.250  118.372    0.456    0.155    6.702
  277.500  115.340    0.473    0.134    6.461
  277.750  114.772    0.501    0.149    6.344
  278.000  118.470    0.505    0.189    6.116
  278.250  117.902    0.518    0.224    5.896
  278.500  114.879    0.530    0.231    5.788
  278.750  114.914    0.544    0.231    5.579
  279.000  115.562    0.551    0.237    5.277
  279.250  119.268    0.560    0.247    5.183
  279.500  121.148    0.563    0.254    4.903
  279.750  120.572    0.534    0.260    4.725
  280.000  119.383    0.523    0.270    4.640
  280.250  108.397    0.459    0.287    4.308
  280.500  102.935    0.432    0.295    4.151
  280.750  100.523    0.416    0.305    3.927
  281.000   99.335    0.394    0.321    3.856
  281.250   98.749    0.402    0.325    4.321
  281.500   96.950    0.413    0.309    6.305
  281.750   96.382    0.424    0.298   10.500
  282.000   97.650    0.421    0.297   13.176
  282.250  100.124    0.397    0.302   15.625
  282.500   98.324    0.385    0.315   15.939
  282.750   94.697    0.386    0.329   15.952
  283.000   93.500    0.387    0.321   15.962
  283.250   99.645    0.394    0.293   15.979
  283.500  105.799    0.424    0.267   15.400
  283.750  114.409    0.450    0.238   14.294
  284.000  121.787    0.460    0.221   13.267
  284.250  124.891    0.476    0.213   11.636
  284.500  113.301    0.458    0.237   10.800
  284.750  112.716    0.451    0.257    9.124
  285.000  110.304    0.444    0.263    7.705
  285.250  107.280    0.439    0.284    6.758
  285.500  103.645    0.443    0.298    7.158
  285.750   98.785    0.440    0.320    8.023
  286.000   93.314    0.434    0.337    8.822
  286.250   86.620    0.428    0.351   10.461
  286.500   82.984    0.423    0.342   11.947
  286.750   84.243    0.425    0.309   14.176
  287.000   81.832    0.425    0.293   14.727
  287.250   77.584    0.417    0.301   15.603
  287.500   74.552    0.349    0.324   15.910
  287.750   72.140    0.321    0.335   16.226
  288.000   69.728    0.325    0.346   16.545
  288.250   66.704    0.337    0.240   17.195
  288.500   64.292    0.325    0.213   18.215
  288.750   64.346    0.288    0.147   19.657
  289.000   64.984    0.286    0.112   20.430
  289.250   66.864    0.314    0.155   21.232
  289.500   69.950    0.329    0.302   22.066
  289.750   75.492    0.383    0.290   22.510
  290.000   81.043    0.444    0.291   22.524
  290.250   84.749    0.496    0.295   22.542
  290.500   84.776    0.488    0.306   21.731
  290.750   86.044    0.470    0.317   20.940
  291.000   86.079    0.465    0.320   19.813
  291.250   86.745    0.465    0.319   19.088
  291.500   87.374    0.466    0.318   16.746
  291.750   87.418    0.466    0.315   15.543
  292.000   87.463    0.468    0.313   15.855
  292.250   87.481    0.473    0.310   15.868
  292.500   87.525    0.469    0.308   15.881
  292.750   88.163    0.463    0.308   15.894
  293.000   88.226    0.463    0.312   15.904
  293.250   88.252    0.464    0.316   15.623
