~VERSION INFORMATION
 VERS.                 2.0:   CWLS LOG ASCII STANDARD -VERSION 2.0
 WRAP.                  NO:   ONE LINE PER DEPTH STEP
~WELL INFORMATION BLOCK
#MNEM.UNIT           DATA                    DESCRIPTION OF MNEMONIC
#---------    -------------------            -------------------------------
# Generated from Intellog Unique Number	CS_69_70/WELL/905
NULL.         -999.25                        : NULL_VALUE
WELL.         HUSKY OIL OPERATIONS LTD.      : Well_name    - WELL              
LOC .         00/09-35-070-06W4/0            : Location     - LOCATION          
UWI .         00/09-35-070-06W4/0            : Uwi          - UNIQUE WELL ID    
ENTR.         SP                             : Entered      - ENTERED BY        
SRVC.         SCHLUMBERGER                   : Scn          - SERVICE COMPANY   
STRT.M        310                            : top_depth    - START DEPTH       
STOP.M        560                            : bot_depth    - STOP DEPTH        
STEP.M        0.25                           : increment    - STEP LENGTH       
~CURVE INFORMATION BLOCK
#MNEM UNIT       ERCB CURVE CODE    CURVE DESCRIPTION
#-----------   ------------------   ----------------------------------
DEPT.M        00 001 00 00         : DEPTH        - DEPTH                       
ILD .OHMM     00 120 00 00         : RESD         - DEEP RESISTIVITY (DIL)      
DPHI.V/V      00 890 00 00         : PHID         - DENSITY POROSITY (LIMESTONE)
NPHI.V/V      00 330 00 00         : PHIN         - NEUTRON POROSITY (LIMESTONE)
GR  .API      00 310 00 00         : GR           - GAMMA RAY                   
~PARAMETER INFORMATION       
#MNEM.UNIT           DATA             DESCRIPTION OF MNEMONIC
#---------         -----------     ------------------------------
GL  .M        664.6                : gl           - GROUND LEVEL ELEVATION      
EREF.M        668.7                : kb           - ELEVATION OF DEPTH REFERENCE
DATM.M        664.6                : datum        - DATUM ELEVATION             
TDD .M        566                  : tdd          - TOTAL DEPTH DRILLER         
RUN .         ONE                  : Run          - RUN NUMBER                  
ENG .         BILL                 : Engineer     - RECORDING ENGINEER          
WIT .         JIM                  : Witness      - WITNESSED BY                
MUD .         GEL                  : Mud_type     - MUD TYPE                    
MATR.         LIMESTONE            : Logunit      - NEUTRON MATRIX              
TMAX.C        25                   : BHT          - MAXIMUM RECORDED TEMPERATURE
BHTD.M        566                  : BHTDEP       - MAXIMUM RECORDED TEMPERATURE
MATR.         1                    : LOGUNIT      - NEUTRON MATRIX              
RMT .C        25                   : MDTP         - TEMPERATURE OF MUD          
NEUT.         1                    : NEUTRON      - NEUTRON TYPE                
RESI.         0                    : RESIST       - RESISTIVITY TYPE            
RMC .OHMM     0.25                 : RMC          - RESISTIVITY OF MUD CAKE     
RMF .OHMM     0.25                 : RMF          - RESISTIVITY OF MUD FILTRATE 
SUFT.C        15                   : SUFT         - SURFACE TEMPERATURE         
~A  DEPTH     RESD     PHID     PHIN       GR
# ...
  353.500    7.033    0.247    0.468   99.721
  353.750    7.662    0.243    0.475   97.492
  354.000    8.086    0.251    0.457   99.736
  354.250    8.471    0.264    0.436  100.831
  354.500    8.792    0.270    0.422   96.487
  354.750    8.989    0.273    0.420   91.901
  355.000    9.073    0.280    0.423   88.283
  355.250    9.277    0.285    0.434   87.080
  355.500    9.791    0.275    0.437   88.478
  355.750   10.237    0.268    0.433   86.491
  356.000   10.448    0.267    0.434   82.509
  356.250   10.545    0.270    0.432   82.879
  356.500   10.543    0.270    0.431   87.178
  356.750   10.406    0.261    0.447   86.097
  357.000    9.931    0.255    0.449   80.423
  357.250    9.408    0.267    0.443   80.370
  357.500    8.797    0.277    0.439   90.954
  357.750    8.271    0.283    0.444   97.307
  358.000    7.806    0.272    0.460   98.644
  358.250    7.395    0.224    0.468   96.113
  358.500    7.163    0.218    0.461   95.576
  358.750    7.203    0.232    0.455   95.886
  359.000    7.365    0.241    0.450   92.629
  359.250    7.759    0.247    0.446   86.594
  359.500    8.083    0.259    0.457   83.034
  359.750    8.610    0.275    0.461   78.449
  360.000    8.936    0.289    0.454   77.428
  360.250    9.188    0.278    0.441   78.947
  360.500    9.325    0.270    0.426   81.976
  360.750    9.412    0.265    0.418   79.928
  361.000    9.552    0.261    0.441   76.309
  361.250    9.748    0.264    0.456   72.812
  361.500    9.968    0.282    0.440   69.917
  361.750   10.173    0.307    0.425   65.634
  362.000   10.578    0.327    0.432   62.982
  362.250   11.164    0.344    0.450   61.962
  362.500   11.893    0.357    0.459   64.448
  362.750   13.174    0.341    0.469   65.361
  363.000   14.540    0.311    0.468   65.187
  363.250   16.502    0.280    0.376   62.837
  363.500   17.678    0.236    0.175   58.071
  363.750   18.245   -0.012    0.164   53.907
  364.000   17.445   -0.013    0.183   49.624
  364.250   15.569    0.012    0.213   46.005
  364.500   13.437    0.150    0.252   45.468
  364.750   12.264    0.223    0.284   48.497
  365.000   11.382    0.297    0.297   52.736
  365.250   10.349    0.323    0.329   55.885
  365.500    9.840    0.335    0.406   58.974
  365.750    9.694    0.341    0.430   60.009
  366.000    9.657    0.334    0.444   58.626
  366.250    9.620    0.328    0.438   60.568
  366.500    9.637    0.336    0.424   62.449
  366.750    9.618    0.340    0.439   63.786
  367.000    9.599    0.339    0.454   63.248
  367.250    9.562    0.335    0.436   61.866
  367.500    9.615    0.332    0.425   64.291
  367.750    9.614    0.331    0.421   68.589
  368.000    9.667    0.331    0.425   73.975
  368.250    9.702    0.329    0.423   78.515
  368.500    9.755    0.319    0.419   79.610
  368.750    9.864    0.315    0.425   70.915
  369.000    9.936    0.316    0.431   64.697
  369.250   10.047    0.321    0.415   64.281
  369.500   10.139    0.318    0.402   69.547
  369.750   10.139    0.309    0.396   73.361
  370.000   10.194    0.302    0.415   75.786
  370.250   10.231    0.298    0.435   76.216
  370.500   10.249    0.308    0.433   77.856
  370.750   10.229    0.320    0.427   77.923
  371.000   10.228    0.324    0.427   74.728
  371.250   10.265    0.311    0.425   81.625
  371.500   10.226    0.280    0.417   87.254
  371.750   10.339    0.254    0.411   89.556
  372.000   10.358    0.234    0.407   89.443
  372.250   10.415    0.242    0.432   85.461
  372.500   10.491    0.276    0.462   79.183
  372.750   10.491    0.308    0.447   69.279
  373.000   10.529    0.324    0.435   60.341
  373.250   10.646    0.330    0.444   58.717
  373.500   10.744    0.335    0.435   58.361
  373.750   10.824    0.338    0.442   57.766
  374.000   10.944    0.331    0.447   56.261
  374.250   11.004    0.327    0.426   52.581
  374.500   11.378    0.331    0.415   49.688
  374.750   11.743    0.340    0.426   48.909
  375.000   11.963    0.344    0.438   51.153
  375.250   12.006    0.343    0.444   52.491
  375.500   11.960    0.343    0.437   52.498
  375.750   11.937    0.341    0.440   53.290
  376.000   11.912    0.341    0.435   54.688
  376.250   11.911    0.341    0.430   53.124
  376.500   11.866    0.343    0.432   56.757
  376.750   11.865    0.339    0.434   60.149
  377.000   11.908    0.320    0.427   62.815
  377.250   11.951    0.306    0.420   63.669
  377.500   11.993    0.313    0.401   60.836
  377.750   11.992    0.329    0.391   57.519
  378.000   11.992    0.332    0.405   54.384
  378.250   12.080    0.331    0.423   51.913
  378.500   12.169    0.338    0.414   49.684
  378.750   12.489    0.348    0.406   48.362
  379.000   12.866    0.355    0.406   48.369
  379.250   13.478    0.316    0.401   48.135
  379.500   14.146    0.285    0.383   47.598
  379.750   14.736    0.271    0.363   46.700
  380.000   14.956    0.277    0.364   45.740
  380.250   15.038    0.281    0.377   44.962
  380.500   14.622    0.262    0.379   45.210
  380.750   13.981    0.251    0.377   48.118
  381.000   12.976    0.290    0.379   51.691
  381.250   12.042    0.320    0.386   58.711
  381.500   11.753    0.302    0.395   62.705
  381.750   11.386    0.275    0.409   69.178
  382.000   11.132    0.259    0.423   75.653
  382.250   11.132    0.256    0.418   79.468
  382.500   11.151    0.258    0.408   80.865
  382.750   11.233    0.266    0.401   82.807
  383.000   11.295    0.277    0.398   84.868
  383.250   11.336    0.284    0.405   86.145
  383.500   11.355    0.293    0.407   83.253
  383.750   11.355    0.298    0.402   81.325
  384.000   11.353    0.291    0.397   81.514
  384.250   11.374    0.284    0.415   81.097
  384.500   11.373    0.300    0.417   79.835
  384.750   11.393    0.309    0.404   77.729
  385.000   11.370    0.304    0.407   76.949
  385.250   11.137    0.293    0.408   79.434
  385.500   11.116    0.281    0.405   85.124
  385.750   10.648    0.264    0.404   87.849
  386.000   10.588    0.249    0.404   85.318
  386.250   10.372    0.241    0.407   77.167
  386.500   10.256    0.269    0.418   68.109
  386.750   10.122    0.299    0.431   62.798
  387.000    9.971    0.307    0.438   63.894
  387.250    9.951    0.305    0.434   64.445
  387.500   10.063    0.321    0.429   63.907
  387.750   10.061    0.334    0.432   62.041
  388.000   10.005    0.338    0.431   57.637
  388.250    9.638    0.335    0.427   55.166
  388.500    9.113    0.329    0.435   57.228
  388.750    8.395    0.314    0.447   59.411
  389.000    7.777    0.291    0.427   60.566
  389.250    6.966    0.282    0.403   65.712
  389.500    6.358    0.289    0.419   74.663
  389.750    5.674    0.295    0.460   79.686
  390.000    5.188    0.289    0.478   83.441
  390.250    4.806    0.284    0.475   84.899
  390.500    4.570    0.287    0.477   84.544
  390.750    4.494    0.280    0.482   84.127
  391.000    4.578    0.280    0.484   84.498
  391.250    4.795    0.278    0.488   84.323
  391.500    5.243    0.269    0.499   80.946
  391.750    5.896    0.266    0.483   77.025
  392.000    6.363    0.272    0.468   72.742
  392.250    6.842    0.286    0.462   69.305
  392.500    7.302    0.303    0.457   67.257
  392.750    7.536    0.314    0.446   65.753
  393.000    7.592    0.322    0.439   67.332
  393.250    7.437    0.316    0.448   70.844
  393.500    7.299    0.304    0.468   72.966
  393.750    7.244    0.296    0.484   73.155
  394.000    7.257    0.303    0.476   70.322
  394.250    7.448    0.317    0.472   67.247
  394.500    7.629    0.319    0.474   66.952
  394.750    7.816    0.319    0.470   66.174
  395.000    7.947    0.328    0.466   64.852
  395.250    7.976    0.329    0.468   64.980
  395.500    7.945    0.329    0.470   63.476
  395.750    7.725    0.336    0.459   61.308
  396.000    7.512    0.338    0.450   61.798
  396.250    7.290    0.329    0.438   64.344
  396.500    7.062    0.322    0.440   65.802
  396.750    6.892    0.328    0.481   65.749
