~VERSION INFORMATION
 VERS.                 2.0:   CWLS LOG ASCII STANDARD -VERSION 2.0
 WRAP.                  NO:   ONE LINE PER DEPTH STEP
~WELL INFORMATION BLOCK
#MNEM.UNIT           DATA                    DESCRIPTION OF MNEMONIC
#---------    -------------------            -------------------------------
# Generated from Intellog Unique Number	CW_70_72/WELL/554
NULL.         -999.25                        : NULL_VALUE
WELL.         BOWRIO ET AL SMITH 06-06       : Well_name    - WELL              
LOC .         06-06-071-25W4                 : Location     - LOCATION          
UWI .         00/06-06-071-25W4/0            : Uwi          - UNIQUE WELL ID    
ENTR.         JAYE                           : Entered      - ENTERED BY        
SRVC.         SCHLUMBERGER                   : Scn          - SERVICE COMPANY   
DATE.         25 MAY 80                      : Date         - LOG DATE          
STRT.M        463                            : top_depth    - START DEPTH       
STOP.M        680                            : bot_depth    - STOP DEPTH        
STEP.M        0.25                           : increment    - STEP LENGTH       
~CURVE INFORMATION BLOCK
#MNEM UNIT       ERCB CURVE CODE    CURVE DESCRIPTION
#-----------   ------------------   ----------------------------------
DEPT.M        00 001 00 00         : DEPTH        - DEPTH                       
DPHI.V/V      00 890 00 00         : PHID         - DENSITY POROSITY (SANDSTONE)
NPHI.V/V      00 330 00 00         : PHIN         - NEUTRON POROSITY (SANDSTONE)
GR  .API      00 310 00 00         : GR           - GAMMA RAY                   
CALI.MM       00 280 01 00         : CAL          - CALIPER                     
ILD .OHMM     00 120 00 00         : RESD         - DEEP RESISTIVITY (DIL)      
~PARAMETER INFORMATION       
#MNEM.UNIT           DATA             DESCRIPTION OF MNEMONIC
#---------         -----------     ------------------------------
GL  .M        647.5                : gl           - GROUND LEVEL ELEVATION      
EREF.M        651                  : kb           - ELEVATION OF DEPTH REFERENCE
DATM.M        647.5                : datum        - DATUM ELEVATION             
TDD .M        690                  : tdd          - TOTAL DEPTH DRILLER         
RUN .         ONE                  : Run          - RUN NUMBER                  
ENG .         BRANDSTROM           : Engineer     - RECORDING ENGINEER          
WIT .         GRANT                : Witness      - WITNESSED BY                
BASE.         EDM                  : Branch       - HOME BASE OF LOGGING UNIT   
MUD .         GEL CHEM             : Mud_type     - MUD TYPE                    
MATR.         SANDSTONE            : Logunit      - NEUTRON MATRIX              
TMAX.C        25.4                 : BHT          - MAXIMUM RECORDED TEMPERATURE
BHTD.M        692                  : BHTDEP       - MAXIMUM RECORDED TEMPERATURE
RMT .C        15                   : MDTP         - TEMPERATURE OF MUD          
MUDD.KG/M     1160                 : MWT          - MUD DENSITY                 
NEUT.         1                    : NEUTRON      - NEUTRON TYPE                
RESI.         0                    : RESIST       - RESISTIVITY TYPE            
RM  .OHMM     3.13                 : RM           - RESISTIVITY OF MUD          
RMC .OHMM     0                    : RMC          - RESISTIVITY OF MUD CAKE     
RMF .OHMM     2.62                 : RMF          - RESISTIVITY OF MUD FILTRATE 
SUFT.C        32                   : SUFT         - SURFACE TEMPERATURE         
~A  DEPTH     PHID     PHIN       GR      CAL     RESD
  463.000    0.184    0.535   98.986  213.352    2.261
  463.250    0.206    0.525  103.480  213.167    2.180
  463.500    0.216    0.509  109.096  213.090    2.173
  463.750    0.223    0.523  109.484  213.223    2.191
  464.000    0.217    0.523  104.588  213.248    2.256
  464.250    0.199    0.501  103.357  213.905    2.292
  464.500    0.189    0.498  109.718  214.126    2.276
  464.750    0.183    0.490  106.064  213.945    2.253
  465.000    0.178    0.484  103.343  213.454    2.213
  465.250    0.195    0.496  104.603  213.064    2.190
  465.500    0.199    0.511  105.925  211.743    2.208
  465.750    0.183    0.525   99.781  210.737    2.299
  466.000    0.226    0.549   96.313  210.762    2.366
  466.250    0.234    0.528   95.022  211.928    2.495
  466.500    0.209    0.491   90.993  214.961    2.583
  466.750    0.209    0.469   85.847  228.053    2.537
  467.000    0.218    0.466   82.439  236.166    2.378
  467.250    0.192    0.500   78.722  215.659    2.306
  467.500    0.210    0.527   85.210  216.412    2.360
  467.750    0.246    0.543   85.224  228.984    2.456
  468.000    0.247    0.557   74.165  243.219    2.685
  468.250    0.266    0.390   72.190  214.106    2.967
  468.500    0.223    0.399   69.779  203.556    3.236
  468.750    0.170    0.431   74.337  210.324    3.610
  469.000    0.215    0.457   68.629  207.860    4.005
  469.250    0.206    0.466   67.027  206.641    4.215
  469.500    0.148    0.479   68.723  206.773    4.125
  469.750    0.082    0.475   70.232  205.034    3.985
  470.000    0.202    0.456   66.452  203.299    3.899
  470.250    0.248    0.446   60.186  202.602    3.880
  470.500    0.258    0.452   64.431  201.486    3.855
  470.750    0.250    0.441   70.357  202.653    3.682
  471.000    0.230    0.425   76.471  206.413    3.542
  471.250    0.180    0.462   80.405  212.038    3.327
  471.500    0.166    0.469   76.814  215.588    3.178
  471.750    0.148    0.460   77.763  211.572    3.001
  472.000    0.117    0.437   84.249  205.897    2.866
  472.250    0.194    0.438   88.183  204.468    2.667
  472.500    0.187    0.460   91.123  208.853    2.571
  472.750    0.207    0.473   90.579  214.164    2.597
  473.000    0.202    0.451   99.305  210.250    2.714
  473.250    0.266    0.475  103.365  216.912    2.841
  473.500    0.294    0.482   86.022  214.352    2.979
  473.750    0.340    0.468   77.826  209.499    3.055
  474.000    0.362    0.496   74.046  199.572    3.115
  474.250    0.359    0.513   75.060  197.007    3.135
  474.500    0.317    0.477   77.749  197.238    3.114
  474.750    0.274    0.442   78.510  197.577    3.076
  475.000    0.244    0.450   78.216  197.397    3.056
  475.250    0.231    0.455   75.993  196.286    3.093
  475.500    0.248    0.442   72.151  195.271    3.196
  475.750    0.258    0.430   67.749  195.716    3.289
  476.000    0.253    0.438   63.596  196.464    3.304
  476.250    0.242    0.437   61.247  197.322    3.258
  476.500    0.220    0.426   58.899  197.863    3.141
  476.750    0.241    0.422   60.721  198.408    3.062
  477.000    0.244    0.412   64.717  198.956    2.991
  477.250    0.238    0.425   70.643  199.086    3.004
  477.500    0.227    0.427   71.157  199.425    3.128
  477.750    0.235    0.417   69.991  199.555    3.219
  478.000    0.246    0.408   71.187  199.269    3.338
  478.250    0.241    0.418   73.631  199.399    3.391
  478.500    0.233    0.427   76.134  199.535    3.388
  478.750    0.225    0.434   77.955  199.451    3.359
  479.000    0.211    0.441   77.411  199.684    3.318
  479.250    0.221    0.450   74.253  199.708    3.321
  479.500    0.232    0.436   72.403  199.009    3.343
  479.750    0.217    0.415   75.965  199.034    3.408
  480.000    0.205    0.437   79.340  199.687    3.411
  480.250    0.198    0.435   82.156  201.265    3.326
  480.500    0.193    0.419   83.417  207.310    3.230
  480.750    0.186    0.416   83.743  216.250    3.132
  481.000    0.178    0.423   83.386  213.580    3.053
  481.250    0.207    0.409   82.530  201.474    3.022
  481.500    0.204    0.415   80.056  199.532    3.211
  481.750    0.186    0.435   77.210  199.660    3.431
  482.000    0.216    0.410   79.652  200.414    3.799
  482.250    0.212    0.379   84.148  201.897    4.175
  482.500    0.190    0.362   89.205  203.472    4.337
  482.750    0.171    0.379   93.014  209.828    3.779
  483.000    0.158    0.394   84.506  214.516    3.239
  483.250    0.180    0.384   73.385  211.845    2.801
  483.500    0.203    0.365   66.495  204.199    2.468
  483.750    0.223    0.354   60.726  200.702    2.155
  484.000    0.255    0.359   55.701  200.209    1.939
  484.250    0.264    0.352   52.546  199.617    1.831
  484.500    0.257    0.334   54.489  199.540    1.745
  484.750    0.243    0.346   50.833  199.561    1.683
  485.000    0.249    0.374   43.134  199.695    1.619
  485.250    0.289    0.355   35.499  199.619    1.570
  485.500    0.287    0.346   33.212  199.956    1.545
  485.750    0.282    0.361   37.149  199.979    1.584
  486.000    0.265    0.378   46.433  200.318    1.640
  486.250    0.274    0.392   56.280  200.342    1.663
  486.500    0.248    0.398   61.271  200.264    1.643
  486.750    0.240    0.400   50.587  199.771    1.644
  487.000    0.267    0.402   40.896  199.076    1.686
  487.250    0.273    0.400   34.193  198.683    1.849
  487.500    0.300    0.384   40.492  198.505    2.090
  487.750    0.275    0.374   57.804  198.843    2.371
  488.000    0.251    0.357   70.698  198.765    2.695
  488.250    0.228    0.367   84.465  199.106    2.995
  488.500    0.199    0.380   91.573  199.231    3.255
  488.750    0.182    0.388   97.809  199.776    3.497
  489.000    0.185    0.371  100.999  202.497    3.765
  489.250    0.169    0.404  103.878  207.192    3.993
  489.500    0.151    0.441  106.940  211.679    4.079
  489.750    0.159    0.453  107.952  212.841    3.690
  490.000    0.166    0.410  100.625  208.934    3.295
  490.250    0.172    0.387   96.411  207.296    2.904
  490.500    0.182    0.405   99.974  207.322    2.597
  490.750    0.183    0.461  103.972  207.864    2.319
  491.000    0.174    0.492  108.217  202.089    2.032
  491.250    0.137    0.516  102.945  199.830    1.959
  491.500    0.194    0.534  105.387  204.627    2.013
  491.750    0.235    0.550  111.810  208.282    2.340
  492.000    0.213    0.553  117.613  208.517    2.610
  492.250    0.214    0.499  111.842  207.615    2.923
  492.500    0.198    0.443  105.014  207.433    3.164
  492.750    0.182    0.422  100.738  207.040    3.138
  493.000    0.186    0.440   95.279  206.442    3.014
  493.250    0.197    0.450   91.063  205.433    2.851
  493.500    0.185    0.457   85.604  204.214    2.728
  493.750    0.180    0.463   80.021  202.583    2.736
  494.000    0.209    0.464   74.998  201.368    2.843
  494.250    0.231    0.454   69.164  200.561    2.920
  494.500    0.234    0.401   60.096  200.586    3.034
  494.750    0.197    0.350   65.090  200.200    3.152
  495.000    0.163    0.340   73.132  200.223    3.196
  495.250    0.168    0.374   81.733  200.356    3.217
  495.500    0.182    0.425   90.707  200.588    3.268
  495.750    0.194    0.459   92.155  204.763    3.339
  496.000    0.192    0.482   88.499  210.697    3.398
  496.250    0.239    0.502   80.924  205.954    3.505
  496.500    0.241    0.438   76.461  201.213    3.710
  496.750    0.227    0.430   73.057  198.857    4.024
  497.000    0.241    0.428   70.957  198.161    4.308
  497.250    0.217    0.394   68.421  197.874    4.560
  497.500    0.179    0.380   66.694  197.900    4.446
  497.750    0.134    0.398   62.790  198.035    4.045
  498.000    0.195    0.443   58.762  198.157    3.618
  498.250    0.272    0.434   59.462  198.493    3.171
  498.500    0.281    0.419   64.207  199.139    2.727
  498.750    0.289    0.409   70.010  199.894    2.495
  499.000    0.282    0.427   74.440  200.125    2.295
  499.250    0.258    0.453   81.238  199.950    2.192
