~VERSION INFORMATION
 VERS.                 2.0:   CWLS LOG ASCII STANDARD -VERSION 2.0
 WRAP.                  NO:   ONE LINE PER DEPTH STEP
~WELL INFORMATION BLOCK
#MNEM.UNIT           DATA                    DESCRIPTION OF MNEMONIC
#---------    -------------------            -------------------------------
# Generated from Intellog Unique Number	CS_77_79/WELL/880
WELL.         CWWE HARDY                     : Well_name    - WELL
LOC .         00/06-22-078-04W4/0            : Location     - LOCATION
UWI .         00/06-22-078-04W4/0            : Uwi          - UNIQUE WELL ID
ENTR.         JHS                            : Entered      - ENTERED BY
SRVC.         SCHLUMBERGER                   : Scn          - SERVICE COMPANY
STRT.M        140                            : top_depth    - START DEPTH
STOP.M        400                            : bot_depth    - STOP DEPTH
STEP.M        0.25                           : increment    - STEP LENGTH
 NULL. -999.2500:NULL Value
~CURVE INFORMATION BLOCK
#MNEM UNIT       ERCB CURVE CODE    CURVE DESCRIPTION
#-----------   ------------------   ----------------------------------
DEPT.M        00 001 00 00         : DEPTH        - DEPTH
DPHI.V/V      00 890 00 00         : PHID         - DENSITY POROSITY (LIMESTONE)
NPHI.V/V      00 330 00 00         : PHIN         - NEUTRON POROSITY (LIMESTONE)
GR  .API      00 310 00 00         : GR           - GAMMA RAY
ILD .OHMM     00 120 00 00         : RESD         - DEEP RESISTIVITY (DIL)
RHOB.KG/M3    00 350 00 00         : DENS         - BULK DENSITY
~PARAMETER INFORMATION
#MNEM.UNIT           DATA             DESCRIPTION OF MNEMONIC
#---------         -----------     ------------------------------
GL  .M        554.5                : gl           - GROUND LEVEL ELEVATION
EREF.M        558.4                : kb           - ELEVATION OF DEPTH REFERENCE
DATM.M        558.4                : datum        - DATUM ELEVATION
TDD .M        410                  : tdd          - TOTAL DEPTH DRILLER
RUN .         ONE                  : Run          - RUN NUMBER
ENG .         BILL                 : Engineer     - RECORDING ENGINEER
WIT .         JIM                  : Witness      - WITNESSED BY
MUD .         GEL                  : Mud_type     - MUD TYPE
MATR.         LIMESTONE            : Logunit      - NEUTRON MATRIX
TMAX.C        26                   : BHT          - MAXIMUM RECORDED TEMPERATURE
BHTD.M        410                  : BHTDEP       - MAXIMUM RECORDED TEMPERATURE
MATR.         1                    : LOGUNIT      - NEUTRON MATRIX
RMT .C        25                   : MDTP         - TEMPERATURE OF MUD
NEUT.         1                    : NEUTRON      - NEUTRON TYPE
RESI.         0                    : RESIST       - RESISTIVITY TYPE
RMC .OHMM     0.25                 : RMC          - RESISTIVITY OF MUD CAKE
RMF .OHMM     0.25                 : RMF          - RESISTIVITY OF MUD FILTRATE
SUFT.C        15                   : SUFT         - SURFACE TEMPERATURE
~A  DEPTH     PHID     PHIN       GR     RESD     DENS
# ...
  249.500    0.326    0.453   88.455    5.264    0.000
  249.750    0.353    0.471   82.193    5.895    0.000
  250.000    0.353    0.446   69.028    6.602    0.000
  250.250    0.349    0.423   60.889    6.987    0.000
  250.500    0.345    0.414   62.159    7.678    0.000
  250.750    0.339    0.429   63.429    8.438    0.000
  251.000    0.332    0.440   63.446    8.438    0.000
  251.250    0.330    0.428   63.459    9.099    0.000
  251.500    0.341    0.423   65.985    9.099    0.000
  251.750    0.349    0.430   69.138    9.099    0.000
  252.000    0.350    0.417   64.135    8.929    0.000
  252.250    0.349    0.407   62.894    8.929    0.000
  252.500    0.346    0.408   68.558    8.762    0.000
  252.750    0.342    0.423   66.067    8.599    0.000
  253.000    0.337    0.441   66.078    8.599    0.000
  253.250    0.334    0.441   65.468    8.599    0.000
  253.500    0.335    0.437   63.601    8.599    0.000
  253.750    0.341    0.462   65.500    8.762    0.000
  254.000    0.350    0.467   66.774    8.762    0.000
  254.250    0.350    0.459   71.177    8.762    0.000
  254.500    0.342    0.452   70.568    8.929    0.000
  254.750    0.340    0.429   64.933    9.099    0.000
  255.000    0.342    0.428   61.811    9.273    0.000
  255.250    0.347    0.442   67.477    9.273    0.000
  255.500    0.352    0.443   68.121    9.273    0.000
  255.750    0.344    0.444   68.135    9.450    0.000
  256.000    0.338    0.452   67.523    9.450    0.000
  256.250    0.330    0.453   66.916    9.630    0.000
  256.500    0.327    0.444   68.811    9.630    0.000
  256.750    0.327    0.450   68.826    9.630    0.000
  257.000    0.328    0.459   63.823    9.630    0.000
  257.250    0.328    0.463   65.721    9.450    0.000
  257.500    0.326    0.455   65.108    9.273    0.000
  257.750    0.324    0.429   65.121    9.099    0.000
  258.000    0.318    0.401   69.534    8.929    0.000
  258.250    0.311    0.398   73.316    8.762    0.000
  258.500    0.305    0.405   74.586    8.599    0.000
  258.750    0.302    0.430   73.975    8.599    0.000
  259.000    0.298    0.439   74.617    8.762    0.000
  259.250    0.292    0.427   78.400    9.099    0.000
  259.500    0.286    0.418   77.783    9.099    0.000
  259.750    0.287    0.411   78.428    8.762    0.000
  260.000    0.283    0.423   84.093    8.280    0.000
  260.250    0.273    0.430   89.128    7.824    0.000
  260.500    0.254    0.431   94.790    6.987    0.000
  260.750    0.231    0.433  101.712    6.479    0.000
  261.000    0.221    0.436  105.491    5.571    0.000
  261.250    0.223    0.462  108.649    5.069    0.000
  261.500    0.218    0.450  110.546    4.442    0.000
  261.750    0.216    0.440  109.304    4.197    0.000
  262.000    0.229    0.447  104.300    4.042    0.000
  262.250    0.332    0.511  100.548    3.966    0.000
  262.500    0.394    0.524   98.689    3.819    0.000
  262.750    0.380    0.520  100.580    3.346    0.000
  263.000    0.376    0.527  107.502    3.103    0.000
  263.250    0.399    0.592  108.773    2.878    0.000
  263.500    0.367    0.564  106.281    2.719    0.000
  263.750    0.336    0.525  105.663    2.618    0.000
  264.000    0.316    0.494  105.679    2.719    0.000
  264.250    0.303    0.485  101.930    2.771    0.000
  264.500    0.291    0.488   98.808    2.824    0.000
  264.750    0.264    0.537  103.845    2.878    0.000
  265.000    0.254    0.572  108.254    2.988    0.000
  265.250    0.288    0.531  108.898    2.988    0.000
  265.500    0.311    0.488  106.401    2.932    0.000
  265.750    0.313    0.476  105.162    3.045    0.000
  266.000    0.300    0.464  105.177    3.223    0.000
  266.250    0.263    0.445  102.683    3.541    0.000
  266.500    0.234    0.457  105.839    4.042    0.000
  266.750    0.227    0.464  107.111    4.526    0.000
  267.000    0.222    0.463  103.987    4.974    0.000
  267.250    0.235    0.450   97.725    5.364    0.000
  267.500    0.264    0.463   95.858    5.895    0.000
  267.750    0.272    0.475   96.503    6.357    0.000
  268.000    0.275    0.434   92.123    6.602    0.000
  268.250    0.280    0.404   84.607    7.120    0.000
  268.500    0.265    0.399   80.232    7.678    0.000
  268.750    0.250    0.420   75.852    8.280    0.000
  269.000    0.239    0.420   72.103    9.099    0.000
  269.250    0.259    0.401   76.514    9.450    0.000
  269.500    0.294    0.405   79.669    9.630    0.000
  269.750    0.297    0.404   79.058   10.000    0.000
  270.000    0.273    0.344   75.932   11.412    0.000
  270.250    0.219    0.298   67.791   13.024    0.000
  270.500    0.050    0.268   62.156   15.436    0.000
  270.750    0.012    0.241   53.386   17.951    0.000
  271.000    0.000    0.177   52.775   20.104    0.000
  271.250    0.000    0.192   60.947   22.514    0.000
  271.500    0.183    0.221   72.260   22.514    0.000
  271.750    0.272    0.289   74.790   17.616    0.000
  272.000    0.289    0.398   77.942   14.046    0.000
  272.250    0.295    0.417   82.978   11.199    0.000
  272.500    0.285    0.414   84.250   10.385    0.000
  272.750    0.285    0.410   80.500   10.000    0.000
  273.000    0.295    0.420   84.283    9.450    0.000
  273.250    0.301    0.437   86.805    9.273    0.000
  273.500    0.293    0.421   88.704    8.929    0.000
  273.750    0.291    0.407   89.972    8.762    0.000
  274.000    0.300    0.431   85.596    8.929    0.000
  274.250    0.297    0.411   84.356    8.929    0.000
  274.500    0.278    0.388   88.766    8.929    0.000
  274.750    0.262    0.387   89.412    9.273    0.000
  275.000    0.260    0.407   82.522    9.450    0.000
  275.250    0.278    0.421   83.163    9.450    0.000
  275.500    0.282    0.422   81.926    9.273    0.000
  275.750    0.258    0.410   78.801    9.273    0.000
  276.000    0.247    0.395   81.959    9.099    0.000
  276.250    0.259    0.403   88.248    8.762    0.000
  276.500    0.254    0.419   93.285    8.280    0.000
  276.750    0.235    0.403   95.816    7.824    0.000
  277.000    0.221    0.401   97.718    7.534    0.000
  277.250    0.212    0.414   98.980    6.987    0.000
  277.500    0.209    0.444  103.389    6.602    0.000
  277.750    0.214    0.439  105.288    6.479    0.000
  278.000    0.223    0.410  105.302    6.856    0.000
  278.250    0.226    0.392  105.322    7.534    0.000
  278.500    0.228    0.402  102.825    8.125    0.000
  278.750    0.230    0.414   97.191    8.280    0.000
  279.000    0.242    0.403   95.326    8.125    0.000
  279.250    0.251    0.399   99.114    7.534    0.000
  279.500    0.255    0.405  100.375    6.856    0.000
  279.750    0.271    0.430   97.882    6.357    0.000
  280.000    0.377    0.455   95.388    5.895    0.000
  280.250    0.394    0.461   96.034    5.677    0.000
  280.500    0.347    0.437   98.555    5.571    0.000
  280.750    0.276    0.427   97.945    5.571    0.000
  281.000    0.221    0.416   97.336    5.571    0.000
  281.250    0.213    0.442   99.235    5.785    0.000
  281.500    0.209    0.461  100.500    5.785    0.000
  281.750    0.205    0.449  100.519    5.466    0.000
  282.000    0.198    0.442  103.672    5.166    0.000
  282.250    0.205    0.474  106.197    4.881    0.000
  282.500    0.228    0.499  103.075    4.526    0.000
  282.750    0.283    0.496  104.976    4.277    0.000
  283.000    0.288    0.552  106.246    3.892    0.000
  283.250    0.280    0.526  107.514    3.609    0.000
  283.500    0.291    0.518  108.790    3.284    0.000
  283.750    0.343    0.517  105.663    3.103    0.000
  284.000    0.386    0.486  101.915    2.988 2049.620
  284.250    0.413    0.458  101.931    3.103 2003.240
  284.500    0.394    0.443   92.530    3.284 2037.080
  284.750    0.361    0.432   91.920    3.748 2092.020
  285.000    0.282    0.426   96.327    4.359 2227.180
  285.250    0.255    0.418  101.993    5.069 2273.690
  285.500    0.245    0.402  100.124    5.571 2290.630
  285.750    0.272    0.387   86.963    6.479 2244.250
