~VERSION INFORMATION
 VERS.                 2.0:   CWLS LOG ASCII STANDARD -VERSION 2.0
 WRAP.                  NO:   ONE LINE PER DEPTH STEP
~WELL INFORMATION BLOCK
#MNEM.UNIT           DATA                    DESCRIPTION OF MNEMONIC
#---------    -------------------            -------------------------------
# Generated from Intellog Unique Number	CW_82_90/WELL/3425
WELL.         SHERRIT LIEGE                  : Well_name    - WELL
LOC .         00/06-36-089-21W4/0            : Location     - LOCATION
UWI .         00/06-36-089-21W4/0            : Uwi          - UNIQUE WELL ID
ENTR.         MAX                            : Entered      - ENTERED BY
SRVC.         SCHLUMBERGER                   : Scn          - SERVICE COMPANY
STRT.M        100                            : top_depth    - START DEPTH
STOP.M        242                            : bot_depth    - STOP DEPTH
STEP.M        0.25                           : increment    - STEP LENGTH
 NULL. -999.2500:NULL Value
~CURVE INFORMATION BLOCK
#MNEM UNIT       ERCB CURVE CODE    CURVE DESCRIPTION
#-----------   ------------------   ----------------------------------
DEPT.M        00 001 00 00         : DEPTH        - DEPTH
ILD .OHMM     00 120 00 00         : RESD         - DEEP RESISTIVITY (DIL)
NPHI.V/V      00 330 00 00         : PHIN         - NEUTRON POROSITY (SANDSTONE)
DPHI.V/V      00 890 00 00         : PHID         - DENSITY POROSITY (SANDSTONE)
CALI.MM       00 280 01 00         : CAL          - CALIPER
GR  .API      00 310 00 00         : GR           - GAMMA RAY
~PARAMETER INFORMATION
#MNEM.UNIT           DATA             DESCRIPTION OF MNEMONIC
#---------         -----------     ------------------------------
GL  .M        513                  : gl           - GROUND LEVEL ELEVATION
EREF.M        516.3                : kb           - ELEVATION OF DEPTH REFERENCE
DATM.M        513                  : datum        - DATUM ELEVATION
TDD .M        243.4                : tdd          - TOTAL DEPTH DRILLER
RUN .         ONE                  : Run          - RUN NUMBER
ENG .         BILL                 : Engineer     - RECORDING ENGINEER
WIT .         JIM                  : Witness      - WITNESSED BY
MUD .         GEL                  : Mud_type     - MUD TYPE
MATR.         SANDSTONE            : Logunit      - NEUTRON MATRIX
TMAX.C        24                   : BHT          - MAXIMUM RECORDED TEMPERATURE
BHTD.M        243.4                : BHTDEP       - MAXIMUM RECORDED TEMPERATURE
MATR.         1                    : LOGUNIT      - NEUTRON MATRIX
RMT .C        19.4                 : MDTP         - TEMPERATURE OF MUD
NEUT.         1                    : NEUTRON      - NEUTRON TYPE
RESI.         0                    : RESIST       - RESISTIVITY TYPE
RMC .OHMM     2.674                : RMC          - RESISTIVITY OF MUD CAKE
RMF .OHMM     2.97                 : RMF          - RESISTIVITY OF MUD FILTRATE
SUFT.C        -12                  : SUFT         - SURFACE TEMPERATURE
~A  DEPTH     RESD     PHIN     PHID      CAL       GR
# ...
  136.500    4.030    0.554    0.272  161.939  114.070
  136.750    4.061    0.569    0.274  162.363  116.098
  137.000    4.131    0.561    0.273  162.279  119.316
  137.250    4.164    0.542    0.270  162.213  119.863
  137.500    4.235    0.550    0.269  162.138  118.340
  137.750    4.348    0.556    0.271  162.063  110.857
  138.000    4.464    0.541    0.274  161.978  105.450
  138.250    4.584    0.517    0.278  161.903   97.961
  138.500    4.662    0.494    0.287  161.838   95.534
  138.750    4.655    0.481    0.287  161.753   97.270
  139.000    4.649    0.489    0.286  161.678  106.152
  139.250    4.643    0.508    0.286  161.594  107.585
  139.500    4.680    0.526    0.285  161.509  104.266
  139.750    4.761    0.516    0.285  161.443  103.629
  140.000    5.026    0.520    0.284  161.368  100.899
  140.250    5.352    0.529    0.288  161.793   97.276
  140.500    5.651    0.526    0.286  162.207   92.476
  140.750    6.421    0.519    0.284  164.563   84.094
  141.000    7.783    0.505    0.275  164.997   76.010
  141.250    9.264    0.474    0.253  162.463   74.773
  141.500   11.022    0.461    0.257  158.459   73.535
  141.750   11.527    0.470    0.272  156.923   77.051
  142.000   10.793    0.463    0.281  157.338   79.383
  142.250    8.880    0.466    0.287  158.733   82.018
  142.500    6.244    0.469    0.303  159.637   85.539
  142.750    5.329    0.462    0.301  162.493   90.554
  143.000    4.898    0.481    0.284  166.827  101.214
  143.250    4.757    0.508    0.208  164.312   91.054
  143.500    4.663    0.534    0.125  158.357   92.790
  143.750    4.658    0.482    0.145  156.322  115.353
  144.000    4.566    0.540    0.246  156.238  116.198
  144.250    4.435    0.590    0.254  155.183  117.340
  144.500    4.388    0.595    0.244  154.128  117.887
  144.750    4.343    0.590    0.252  153.063  117.536
  145.000    4.337    0.577    0.237  152.018  115.710
  145.250    4.331    0.541    0.223  151.933  113.574
  145.500    4.168    0.510    0.232  151.858  113.223
  145.750    3.975    0.535    0.262  151.774  112.581
  146.000    3.653    0.598    0.284  152.207  111.350
  146.250    3.420    0.597    0.279  154.073  110.404
  146.500    3.231    0.597    0.277  155.477  110.065
  146.750    2.997    0.598    0.288  157.372  109.422
  147.000    2.832    0.598    0.297  160.726  109.375
  147.250    3.278    0.579    0.303  160.651  109.624
  147.500    3.973    0.560    0.308  159.587  101.540
  147.750    4.558    0.542    0.300  158.042   97.329
  148.000    5.474    0.515    0.291  156.497   99.066
  148.250    6.395    0.515    0.277  156.412   96.335
  148.500    6.937    0.521    0.272  157.327   93.307
  148.750    7.188    0.508    0.265  156.262   90.279
  149.000    7.660    0.488    0.260  156.658   89.649
  149.250    8.234    0.482    0.264  157.092   89.304
  149.500    8.532    0.480    0.272  157.017   87.751
  149.750    8.762    0.465    0.275  156.942   86.520
  150.000    8.830    0.451    0.265  156.867   85.580
  150.250    8.658    0.443    0.233  156.791   87.311
  150.500    8.487    0.431    0.237  156.707   88.750
  150.750    8.167    0.420    0.237  155.652   89.012
  151.000    8.082    0.413    0.211  153.127   89.851
  151.250    8.071    0.433    0.212  151.592   88.911
  151.500    8.060    0.428    0.245  150.537   83.807
  151.750    7.545    0.419    0.250  149.463   81.380
  152.000    7.130    0.420    0.252  148.898   82.516
  152.250    6.553    0.460    0.261  149.331   88.423
  152.500    5.911    0.476    0.282  151.207   94.032
  152.750    5.432    0.463    0.279  153.581  103.199
  153.000    5.228    0.468    0.263  158.905  101.069
  153.250    5.174    0.463    0.254  158.821   97.459
  153.500    5.666    0.469    0.250  156.286   88.780
  153.750    7.062    0.485    0.246  154.261   74.152
  154.000    9.046    0.483    0.249  152.716   72.022
  154.250    9.999    0.477    0.238  152.151   70.482
  154.500   10.752    0.485    0.225  152.547   69.238
  154.750   11.669    0.493    0.234  154.940   68.305
  155.000   12.431    0.472    0.282  157.805   66.770
  155.250   12.762    0.441    0.309  156.750   65.532
  155.500   12.628    0.418    0.307  154.206   68.156
  155.750   11.081    0.436    0.291  152.181   72.278
  156.000    8.161    0.444    0.270  149.647   75.793
  156.250    6.293    0.442    0.288  148.582   78.726
  156.500    5.323    0.387    0.251  148.036   82.254
  156.750    4.501    0.399    0.178  147.471   89.047
  157.000    4.253    0.475    0.221  146.407   94.948
  157.250    4.208    0.520    0.253  145.842   98.172
  157.500    4.482    0.543    0.280  144.787   98.422
  157.750    5.001    0.553    0.278  144.231   98.076
  158.000    5.529    0.536    0.264  144.156   97.731
  158.250    6.055    0.502    0.242  145.033   97.684
  158.500    6.817    0.469    0.222  146.927  100.610
  158.750    7.130    0.483    0.228  151.280  100.557
  159.000    7.052    0.475    0.246  158.554  102.300
  159.250    6.790    0.476    0.245  161.419  106.113
  159.500    6.069    0.482    0.242  159.874  106.957
  159.750    5.277    0.476    0.238  158.809  103.347
  160.000    4.985    0.469    0.199  158.734   95.554
  160.250    5.311    0.473    0.176  158.640   96.993
  160.500    5.870    0.489    0.234  158.575   99.331
  160.750    6.611    0.493    0.265  157.030   98.379
  161.000    8.014    0.489    0.278  153.044   96.559
  161.250    9.107    0.493    0.285  150.020   94.430
  161.500    9.973    0.477    0.296  151.914   93.781
  161.750   10.527    0.453    0.289  154.270   93.144
  162.000   11.318    0.450    0.247  157.154   93.983
  162.250   11.621    0.457    0.230  160.508   93.347
  162.500   11.390    0.455    0.234  161.404   90.021
  162.750   11.065    0.448    0.230  159.868   86.405
  163.000   10.650    0.445    0.241  155.374   84.870
  163.250   10.061    0.438    0.266  153.339   86.309
  163.500    9.685    0.432    0.258  151.794   83.876
  163.750    8.819    0.445    0.272  151.220   80.855
  164.000    7.956    0.454    0.271  155.564   79.016
  164.250    6.792    0.461    0.262  159.399   79.266
  164.500    6.909    0.468    0.257  157.354   77.731
  164.750    8.221    0.518    0.255  153.850   81.259
  165.000    8.520    0.538    0.251  152.323   82.401
  165.250    7.546    0.529    0.165  151.250   74.912
  165.500    6.323    0.426    0.131  152.644   78.737
  165.750    5.705    0.300    0.141  152.579   88.504
  166.000    5.490    0.409    0.199  152.504   96.195
  166.250    5.332    0.446    0.277  152.429  105.065
  166.500    5.526    0.481    0.286  151.364  102.638
  166.750    6.825    0.487    0.295  150.319   99.318
  167.000    8.663    0.480    0.317  149.754   95.107
  167.250   10.311    0.456    0.323  149.678   72.449
  167.500   10.387    0.451    0.315  150.093   68.523
  167.750    9.638    0.466    0.297  150.508   67.285
  168.000    8.304    0.452    0.249  152.393   68.725
  168.250    7.286    0.445    0.227  155.257   89.212
  168.500    6.949    0.462    0.254  157.123   96.606
  168.750    6.626    0.479    0.274  157.067   95.362
  169.000    6.260    0.493    0.272  157.473   91.151
  169.250    5.969    0.493    0.262  158.377   86.642
  169.500    5.641    0.499    0.225  158.293   86.285
  169.750    5.090    0.493    0.205  157.247   88.926
  170.000    4.943    0.465    0.234  155.702   96.016
  170.250    4.586    0.493    0.257  156.607  101.328
  170.500    4.496    0.545    0.263  157.503  102.470
  170.750    4.490    0.557    0.267  156.928   97.361
  171.000    4.483    0.546    0.272  155.892   95.231
  171.250    5.639    0.507    0.257  153.348   94.291
  171.500    7.707    0.498    0.211  154.752   86.802
  171.750   10.632    0.485    0.195  157.127   76.636
  172.000   12.421    0.446    0.170  159.021   70.639
  172.250   15.339    0.375    0.116  159.436   65.220
  172.500   20.391    0.303    0.113  159.823   67.552
  172.750   17.895    0.357    0.156  159.757   70.794
