~VERSION INFORMATION
 VERS.                 2.0:   CWLS LOG ASCII STANDARD -VERSION 2.0
 WRAP.                  NO:   ONE LINE PER DEPTH STEP
~WELL INFORMATION BLOCK
#MNEM.UNIT           DATA                    DESCRIPTION OF MNEMONIC
#---------    -------------------            -------------------------------
# Generated from Intellog Unique Number	CW_79_81/WELL/2444
WELL.         04-12-081-23W4                 : Well_name    - WELL
LOC .         00/04-12-081-23W4/0            : Location     - LOCATION
UWI .         00/04-12-081-23W4/0            : Uwi          - UNIQUE WELL ID
ENTR.         MAX                            : Entered      - ENTERED BY
SRVC.         SCHLUMBERGER                   : Scn          - SERVICE COMPANY
STRT.M        240                            : top_depth    - START DEPTH
STOP.M        454.75                         : bot_depth    - STOP DEPTH
STEP.M        0.25                           : increment    - STEP LENGTH
 NULL. -999.2500:NULL Value
~CURVE INFORMATION BLOCK
#MNEM UNIT       ERCB CURVE CODE    CURVE DESCRIPTION
#-----------   ------------------   ----------------------------------
DEPT.M        00 001 00 00         : DEPTH        - DEPTH
ILD .OHMM     00 120 00 00         : RESD         - DEEP RESISTIVITY (DIL)
NPHI.V/V      00 330 00 00         : PHIN         - NEUTRON POROSITY (SANDSTONE)
DPHI.V/V      00 890 00 00         : PHID         - DENSITY POROSITY (SANDSTONE)
GR  .API      00 310 00 00         : GR           - GAMMA RAY
CALI.MM       00 280 01 00         : CAL          - CALIPER
~PARAMETER INFORMATION
#MNEM.UNIT           DATA             DESCRIPTION OF MNEMONIC
#---------         -----------     ------------------------------
GL  .M        601                  : gl           - GROUND LEVEL ELEVATION
EREF.M        604.6                : kb           - ELEVATION OF DEPTH REFERENCE
DATM.M        601                  : datum        - DATUM ELEVATION
TDD .M        459.2                : tdd          - TOTAL DEPTH DRILLER
RUN .         ONE                  : Run          - RUN NUMBER
ENG .         BILL                 : Engineer     - RECORDING ENGINEER
WIT .         JIM                  : Witness      - WITNESSED BY
MUD .         GEL                  : Mud_type     - MUD TYPE
MATR.         SANDSTONE            : Logunit      - NEUTRON MATRIX
TMAX.C        24                   : BHT          - MAXIMUM RECORDED TEMPERATURE
BHTD.M        459.2                : BHTDEP       - MAXIMUM RECORDED TEMPERATURE
MATR.         1                    : LOGUNIT      - NEUTRON MATRIX
RMT .C        21                   : MDTP         - TEMPERATURE OF MUD
NEUT.         1                    : NEUTRON      - NEUTRON TYPE
RESI.         0                    : RESIST       - RESISTIVITY TYPE
RMC .OHMM     5.18                 : RMC          - RESISTIVITY OF MUD CAKE
RMF .OHMM     5.48                 : RMF          - RESISTIVITY OF MUD FILTRATE
SUFT.C        -10                  : SUFT         - SURFACE TEMPERATURE
~A  DEPTH     RESD     PHIN     PHID       GR      CAL
  240.000    3.143    0.499    0.259   62.671  267.573
  240.250    2.958    0.484    0.266   61.226  256.079
  240.500    3.023    0.535    0.284   62.569  248.781
  240.750    3.495    0.566    0.306   61.537  244.100
  241.000    4.572    0.547    0.326   57.178  241.793
  241.250    6.040    0.485    0.338   52.226  240.582
  241.500    7.824    0.451    0.344   51.028  240.243
  241.750   12.996    0.444    0.344   49.642  240.313
  242.000   22.629    0.443    0.351   46.829  240.369
  242.250   36.552    0.443    0.357   45.678  240.232
  242.500   45.489    0.443    0.361   46.069  239.901
  242.750   46.971    0.445    0.365   44.438  239.570
  243.000   47.371    0.441    0.366   43.241  239.636
  243.250   46.043    0.444    0.367   43.758  240.498
  243.500   43.508    0.464    0.372   44.095  240.460
  243.750   41.236    0.482    0.380   44.248  241.115
  244.000   40.095    0.485    0.386   44.519  242.661
  244.250   41.152    0.468    0.381   45.519  244.002
  244.500   43.455    0.455    0.374   45.559  244.481
  244.750   46.435    0.468    0.373   45.831  248.504
  245.000   48.055    0.486    0.376   46.284  252.824
  245.250   48.098    0.500    0.382   46.679  254.277
  245.500   46.652    0.509    0.392   46.480  252.364
  245.750   43.511    0.516    0.412   45.015  248.194
  246.000   40.986    0.506    0.415   45.789  242.893
  246.250   42.234    0.490    0.397   46.540  243.755
  246.500   43.292    0.484    0.399   46.041  246.982
  246.750   43.170    0.492    0.404   46.198  248.237
  247.000   42.118    0.503    0.399   47.307  246.724
  247.250   41.678    0.493    0.383   48.211  245.207
  247.500   42.347    0.488    0.377   48.998  245.287
  247.750   43.962    0.488    0.374   49.032  244.936
  248.000   44.903    0.490    0.364   48.535  244.307
  248.250   44.941    0.492    0.341   47.744  243.783
  248.500   44.076    0.492    0.323   46.953  243.453
  248.750   42.738    0.489    0.353   46.421  243.040
  249.000   43.763    0.505    0.376   45.966  242.701
  249.250   47.437    0.485    0.384   45.522  242.356
  249.500   49.556    0.471    0.384   45.264  242.026
  249.750   49.788    0.457    0.381   46.134  241.492
  250.000   48.662    0.452    0.376   47.535  240.953
  250.250   47.313    0.485    0.372   47.394  241.030
  250.500   47.361    0.503    0.377   47.685  241.096
  250.750   48.794    0.510    0.380   46.777  241.160
  251.000   51.652    0.502    0.381   46.395  240.932
  251.250   54.644    0.487    0.381   46.309  240.402
  251.500   56.544    0.475    0.379   45.572  240.067
  251.750   56.436    0.476    0.377   42.332  241.104
  252.000   55.633    0.498    0.379   41.378  241.982
  252.250   54.097    0.503    0.381   42.608  241.261
  252.500   52.268    0.493    0.381   44.725  240.822
  252.750   50.037    0.475    0.381   46.070  240.483
  253.000   48.125    0.464    0.382   45.751  240.349
  253.250   48.109    0.475    0.381   43.854  240.824
  253.500   49.651    0.451    0.380   44.883  240.897
  253.750   51.535    0.465    0.379   46.343  240.960
  254.000   52.636    0.473    0.377   47.449  240.723
  254.250   52.099    0.475    0.375   48.082  240.189
  254.500   49.297    0.476    0.372   47.705  239.262
  254.750   43.145    0.488    0.348   45.379  237.750
  255.000   38.272    0.473    0.262   45.415  237.824
  255.250   29.647    0.464    0.305   46.875  237.894
  255.500   27.315    0.466    0.350   48.874  238.543
  255.750   27.240    0.478    0.377   51.764  239.393
  256.000   28.884    0.497    0.385   54.176  239.950
  256.250   33.663    0.506    0.384   52.546  239.626
  256.500   32.935    0.484    0.374   50.103  239.699
  256.750   30.159    0.474    0.360   49.904  239.763
  257.000   27.630    0.478    0.354   48.814  240.119
  257.250   25.325    0.483    0.351   48.613  240.374
  257.500   23.317    0.479    0.345   49.599  240.534
  257.750   21.401    0.455    0.334   50.451  241.096
  258.000   20.008    0.446    0.349   49.749  241.575
  258.250   18.878    0.459    0.363   49.783  242.028
  258.500   17.816    0.455    0.362   46.433  241.888
  258.750   17.136    0.452    0.344   44.450  241.750
  259.000   16.901    0.456    0.328   45.023  241.816
  259.250   17.223    0.461    0.353   45.783  241.733
  259.500   18.187    0.449    0.370   45.827  240.968
  259.750   18.742    0.449    0.372   46.570  241.026
  260.000   18.899    0.465    0.364   48.037  240.796
  260.250   18.077    0.470    0.354   49.265  240.467
  260.500   16.204    0.465    0.345   50.072  240.532
  260.750   12.485    0.483    0.336   51.510  242.543
  261.000    8.549    0.521    0.317   53.781  246.308
  261.250    4.899    0.547    0.314   57.379  248.754
  261.500    3.544    0.542    0.318   59.735  250.600
  261.750    2.909    0.531    0.321   60.488  252.047
  262.000    2.598    0.529    0.319   60.168  253.292
  262.250    2.494    0.539    0.311   60.504  254.799
  262.500    2.613    0.533    0.311   62.028  256.110
  262.750    2.733    0.549    0.305   61.829  257.355
  263.000    2.781    0.553    0.297   62.167  258.313
  263.250    2.783    0.545    0.294   62.918  258.574
  263.500    2.770    0.533    0.300   63.368  258.335
  263.750    2.777    0.537    0.312   61.977  258.160
  264.000    2.801    0.567    0.312   60.788  256.995
  264.250    2.929    0.544    0.305   60.347  256.663
  264.500    3.212    0.539    0.298   58.657  256.030
  264.750    3.637    0.535    0.298   54.653  254.902
  265.000    4.077    0.528    0.305   50.890  253.480
  265.250    4.113    0.544    0.308   53.748  252.117
  265.500    3.846    0.587    0.303   54.777  250.953
  265.750    3.738    0.564    0.308   54.578  250.231
  266.000    3.714    0.550    0.319   54.910  249.792
  266.250    3.758    0.537    0.327   55.305  249.451
  266.500    3.865    0.519    0.332   55.523  249.015
  266.750    4.074    0.496    0.346   55.567  247.808
  267.000    4.238    0.489    0.356   55.611  245.413
  267.250    4.241    0.488    0.326   57.070  245.458
  267.500    4.175    0.487    0.306   58.889  243.142
  267.750    3.996    0.482    0.313   58.688  240.239
  268.000    3.796    0.475    0.337   56.704  238.624
  268.250    3.727    0.489    0.334   56.395  240.524
  268.500    3.646    0.537    0.319   59.408  241.821
  268.750    3.492    0.510    0.313   61.113  240.704
  269.000    3.269    0.505    0.314   61.562  240.477
  269.250    3.064    0.519    0.316   60.886  240.736
  269.500    2.909    0.541    0.315   59.619  241.186
  269.750    2.833    0.544    0.313   58.213  241.908
  270.000    2.969    0.516    0.310   55.778  243.218
  270.250    3.504    0.493    0.310   52.962  246.443
  270.500    4.542    0.480    0.308   51.761  249.078
  270.750    5.843    0.477    0.313   51.799  251.518
  271.000    6.623    0.477    0.322   52.779  253.955
  271.250    6.220    0.483    0.313   54.786  255.742
  271.500    5.317    0.539    0.302   56.319  252.509
  271.750    4.379    0.557    0.299   57.062  251.385
  272.000    3.856    0.547    0.306   58.346  251.751
  272.250    3.594    0.531    0.310   59.451  252.012
  272.500    3.475    0.519    0.306   59.844  251.872
  272.750    3.399    0.506    0.301   58.935  252.422
  273.000    3.507    0.499    0.295   57.741  252.908
  273.250    3.857    0.506    0.294   55.630  252.959
  273.500    4.624    0.507    0.301   51.390  250.352
  273.750    5.768    0.485    0.310   47.986  246.661
  274.000    7.173    0.452    0.319   46.303  243.462
  274.250    8.987    0.447    0.331   44.907  242.260
  274.500   10.585    0.453    0.337   43.714  241.901
  274.750   12.757    0.455    0.342   43.990  241.192
  275.000   13.826    0.445    0.340   44.619  241.350
  275.250   13.994    0.428    0.339   45.012  241.800
  275.500   13.646    0.410    0.341   45.168  242.354
  275.750   12.729    0.400    0.339   45.685  243.224
  276.000   11.988    0.421    0.335   45.725  243.298
  276.250   11.650    0.428    0.339   45.764  243.349
