~VERSION INFORMATION
 VERS.                 2.0:   CWLS LOG ASCII STANDARD -VERSION 2.0
 WRAP.                  NO:   ONE LINE PER DEPTH STEP
~WELL INFORMATION BLOCK
#MNEM.UNIT           DATA                    DESCRIPTION OF MNEMONIC
#---------    -------------------            -------------------------------
# Generated from Intellog Unique Number	CS_67_68/WELL/2185
WELL.         CHIEFCO et al TWEEDIE          : Well_name    - WELL
LOC .         00/08-22-067-12W4/2            : Location     - LOCATION
UWI .         00/08-22-067-12W4/2            : Uwi          - UNIQUE WELL ID
ENTR.         SP                             : Entered      - ENTERED BY
SRVC.         SCHLUMBERGER                   : Scn          - SERVICE COMPANY
STRT.M        285                            : top_depth    - START DEPTH
STOP.M        455                            : bot_depth    - STOP DEPTH
STEP.M        0.25                           : increment    - STEP LENGTH
 NULL. -999.2500:NULL Value
~CURVE INFORMATION BLOCK
#MNEM UNIT       ERCB CURVE CODE    CURVE DESCRIPTION
#-----------   ------------------   ----------------------------------
DEPT.M        00 001 00 00         : DEPTH        - DEPTH
ILD .OHMM     00 120 00 00         : RESD         - DEEP RESISTIVITY (DIL)
DPHI.V/V      00 890 00 00         : PHID         - DENSITY POROSITY (LIMESTONE)
NPHI.V/V      00 330 00 00         : PHIN         - NEUTRON POROSITY (LIMESTONE)
GR  .API      00 310 00 00         : GR           - GAMMA RAY
CALI.MM       00 280 01 00         : CAL          - CALIPER
~PARAMETER INFORMATION
#MNEM.UNIT           DATA             DESCRIPTION OF MNEMONIC
#---------         -----------     ------------------------------
GL  .M        668.6                : gl           - GROUND LEVEL ELEVATION
EREF.M        671.6                : kb           - ELEVATION OF DEPTH REFERENCE
DATM.M        671.6                : datum        - DATUM ELEVATION
TDD .M        456.4                : tdd          - TOTAL DEPTH DRILLER
RUN .         ONE                  : Run          - RUN NUMBER
ENG .         BILL                 : Engineer     - RECORDING ENGINEER
WIT .         JIM                  : Witness      - WITNESSED BY
MUD .         GEL                  : Mud_type     - MUD TYPE
MATR.         LIMESTONE            : Logunit      - NEUTRON MATRIX
TMAX.C        11.7                 : BHT          - MAXIMUM RECORDED TEMPERATURE
BHTD.M        455.5                : BHTDEP       - MAXIMUM RECORDED TEMPERATURE
MATR.         1                    : LOGUNIT      - NEUTRON MATRIX
RMT .C        25                   : MDTP         - TEMPERATURE OF MUD
NEUT.         1                    : NEUTRON      - NEUTRON TYPE
RESI.         0                    : RESIST       - RESISTIVITY TYPE
RMC .OHMM     0.25                 : RMC          - RESISTIVITY OF MUD CAKE
RMF .OHMM     0.25                 : RMF          - RESISTIVITY OF MUD FILTRATE
SUFT.C        15                   : SUFT         - SURFACE TEMPERATURE
~A  DEPTH     RESD     PHID     PHIN       GR      CAL
# ...
  394.500    2.937    0.271    0.516   65.925  158.614
  394.750    3.047    0.286    0.485   65.800  158.506
  395.000    3.115    0.288    0.472   64.402  158.296
  395.250    3.080    0.274    0.455   66.216  158.088
  395.500    2.996    0.267    0.421   68.272  157.677
  395.750    2.908    0.263    0.440   67.965  157.468
  396.000    2.802    0.262    0.449   65.597  157.259
  396.250    2.694    0.260    0.434   64.200  157.251
  396.500    2.635    0.255    0.447   65.105  157.447
  396.750    2.601    0.246    0.464   68.009  157.440
  397.000    2.571    0.259    0.459   70.308  157.635
  397.250    2.566    0.265    0.452   71.819  157.830
  397.500    2.566    0.262    0.446   73.330  158.429
  397.750    2.570    0.272    0.444   74.840  159.230
  398.000    2.608    0.264    0.443   76.109  159.426
  398.250    2.671    0.261    0.442   77.559  159.823
  398.500    2.740    0.258    0.454   79.010  161.129
  398.750    2.822    0.246    0.466   80.400  162.637
  399.000    2.966    0.227    0.464   82.578  163.741
  399.250    3.140    0.208    0.460   85.482  164.845
  399.500    3.270    0.194    0.458   88.084  166.556
  399.750    3.399    0.182    0.470   90.201  168.265
  400.000    3.599    0.191    0.492   88.379  169.168
  400.250    3.727    0.191    0.492   86.314  169.564
  400.500    3.845    0.197    0.474   85.158  169.558
  400.750    3.880    0.198    0.463   85.881  168.743
  401.000    3.759    0.209    0.453   87.695  167.120
  401.250    3.656    0.220    0.446   88.419  166.102
  401.500    3.575    0.234    0.440   88.778  166.095
  401.750    3.548    0.225    0.435   89.198  166.188
  402.000    3.627    0.209    0.443   89.133  166.385
  402.250    3.776    0.201    0.454   86.826  167.186
  402.500    3.947    0.195    0.466   87.670  167.583
  402.750    4.125    0.191    0.473   88.939  168.283
  403.000    4.328    0.188    0.457   89.662  168.680
  403.250    4.449    0.184    0.442   88.567  168.774
  403.500    4.607    0.173    0.434   86.684  168.666
  403.750    4.753    0.172    0.440   87.407  168.255
  404.000    4.814    0.179    0.437   88.554  168.148
  404.250    4.587    0.168    0.430   89.217  167.735
  404.500    4.323    0.166    0.440   88.728  167.526
  404.750    4.181    0.182    0.449   87.936  167.520
  405.000    4.051    0.197    0.456   87.325  167.816
  405.250    3.961    0.205    0.455   87.261  168.213
  405.500    3.817    0.190    0.449   87.984  168.609
  405.750    3.610    0.194    0.443   89.434  168.907
  406.000    3.377    0.183    0.441   91.915  169.506
  406.250    3.147    0.191    0.444   95.365  170.307
  406.500    2.837    0.199    0.450   99.300  171.108
  406.750    2.596    0.217    0.475  101.114  171.404
  407.000    2.460    0.215    0.522  100.383  171.902
  407.250    2.375    0.204    0.549  101.227  172.500
  407.500    2.353    0.214    0.564  102.011  172.898
  407.750    2.292    0.222    0.570  100.188  173.497
  408.000    2.188    0.233    0.564   97.457  173.590
  408.250    2.058    0.220    0.572   95.938  173.786
  408.500    2.009    0.214    0.550   96.540  173.778
  408.750    1.972    0.225    0.550   94.717  173.570
  409.000    2.008    0.232    0.570   91.077  172.957
  409.250    2.099    0.236    0.581   92.224  172.243
  409.500    2.260    0.243    0.565   93.129  171.630
  409.750    2.424    0.234    0.540   93.367  171.018
  410.000    2.576    0.220    0.524   93.545  169.899
  410.250    2.697    0.210    0.511   94.692  169.186
  410.500    2.808    0.201    0.502   96.022  168.572
  410.750    2.706    0.200    0.499   97.714  167.655
  411.000    2.716    0.207    0.506   98.801  166.942
  411.250    2.812    0.181    0.514   98.312  165.924
  411.500    2.972    0.170    0.519   90.247  165.211
  411.750    3.369    0.184    0.475   80.364  164.497
  412.000    3.482    0.103    0.437   77.815  163.985
  412.250    3.647    0.086    0.422   86.659  163.574
  412.500    3.854    0.193    0.434   91.624  163.365
  412.750    3.976    0.199    0.428   87.014  163.357
  413.000    4.312    0.195    0.435   82.767  163.351
  413.250    4.817    0.191    0.443   77.975  163.243
  413.500    5.636    0.183    0.438   72.516  163.438
  413.750    6.461    0.139    0.408   67.907  163.532
  414.000    7.916    0.083    0.354   64.024  163.525
  414.250    9.296    0.054    0.314   61.111  163.820
  414.500    9.328    0.034    0.267   61.288  163.915
  414.750    7.956    0.027    0.249   71.465  164.110
  415.000    6.612    0.071    0.356   78.006  164.406
  415.250    5.414    0.178    0.421   82.669  164.803
  415.500    4.618    0.191    0.432   84.665  165.099
  415.750    4.217    0.195    0.441   85.934  165.294
  416.000    4.048    0.194    0.446   85.808  165.591
  416.250    3.937    0.186    0.451   86.289  165.786
  416.500    3.878    0.178    0.447   88.224  166.080
  416.750    3.842    0.175    0.440   90.705  166.378
  417.000    3.856    0.168    0.431   92.882  166.472
  417.250    3.891    0.161    0.438   94.575  166.566
  417.500    3.883    0.171    0.448   94.329  166.558
  417.750    3.811    0.181    0.453   99.234  166.552
  418.000    3.665    0.186    0.448  101.775  166.343
  418.250    3.611    0.196    0.442   98.679  166.033
  418.500    3.617    0.193    0.452   96.251  166.026
  418.750    3.650    0.190    0.451   99.520  166.120
  419.000    3.663    0.197    0.448  102.970  166.416
  419.250    3.835    0.204    0.452  102.542  166.712
  419.500    4.008    0.192    0.459   99.083  166.908
  419.750    4.067    0.181    0.438   94.533  167.607
  420.000    4.082    0.166    0.419   92.407  168.308
  420.250    3.977    0.163    0.436   96.282  168.906
  420.500    3.874    0.179    0.450   98.460  169.405
  420.750    3.881    0.184    0.460   98.880  169.802
  421.000    3.945    0.191    0.462   96.210  170.501
  421.250    4.063    0.179    0.449   92.629  170.998
  421.500    4.231    0.164    0.423   89.716  171.094
  421.750    4.538    0.148    0.419   90.924  171.390
  422.000    4.876    0.160    0.432   90.920  171.584
  422.250    5.163    0.184    0.444   89.401  171.477
  422.500    5.268    0.189    0.399   85.396  171.470
  422.750    5.218    0.179    0.374   83.877  171.564
  423.000    5.093    0.190    0.399   90.903  171.658
  423.250    4.881    0.186    0.408   96.475  171.348
  423.500    4.755    0.157    0.414  102.349  171.239
  423.750    4.789    0.135    0.406  101.860  170.930
  424.000    4.941    0.131    0.410   97.856  170.922
  424.250    5.500    0.157    0.425   90.397  170.412
  424.500    6.132    0.172    0.439   85.363  169.595
  424.750    6.737    0.153    0.403   80.208  169.084
  425.000    6.221    0.138    0.371   76.506  168.673
  425.250    5.336    0.140    0.373   78.381  168.262
  425.500    4.418    0.198    0.405   83.952  168.052
  425.750    3.604    0.224    0.439   86.736  167.844
  426.000    2.808    0.223    0.472   89.580  168.140
  426.250    2.308    0.215    0.503   91.031  168.739
  426.500    1.979    0.230    0.552   90.966  169.338
  426.750    1.879    0.249    0.576   91.021  170.138
  427.000    1.960    0.242    0.551   90.957  170.839
  427.250    2.049    0.213    0.531   90.528  171.439
  427.500    2.145    0.191    0.513   90.282  171.533
  427.750    2.177    0.169    0.496   90.157  171.222
  428.000    2.205    0.156    0.478   90.759  170.811
  428.250    2.237    0.158    0.501   95.300  170.198
  428.500    2.283    0.187    0.539   99.781  170.091
  428.750    2.329    0.217    0.546  100.262  169.680
  429.000    2.359    0.213    0.532  100.076  169.470
  429.250    2.434    0.203    0.516  101.829  168.959
  429.500    2.461    0.190    0.507  100.310  168.648
  429.750    2.525    0.180    0.522   98.427  168.237
  430.000    2.581    0.176    0.530   96.786  167.523
  430.250    2.658    0.181    0.515   95.449  167.111
  430.500    2.737    0.170    0.503   97.323  166.904
  430.750    2.829    0.157    0.494  100.592  166.594
