~VERSION INFORMATION
 VERS.                 2.0:   CWLS LOG ASCII STANDARD -VERSION 2.0
 WRAP.                  NO:   ONE LINE PER DEPTH STEP
~WELL INFORMATION BLOCK
#MNEM.UNIT           DATA                    DESCRIPTION OF MNEMONIC
#---------    -------------------            -------------------------------
# Generated from Intellog Unique Number	CW_79_81/WELL/2446
WELL.         AMOCO PELICAN                  : Well_name    - WELL
LOC .         00/05-01-081-23W4/0            : Location     - LOCATION
UWI .         00/05-01-081-23W4/0            : Uwi          - UNIQUE WELL ID
ENTR.         MAX                            : Entered      - ENTERED BY
SRVC.         COMPUTALOG                     : Scn          - SERVICE COMPANY
STRT.M        200                            : top_depth    - START DEPTH
STOP.M        459.75                         : bot_depth    - STOP DEPTH
STEP.M        0.25                           : increment    - STEP LENGTH
 NULL. -999.2500:NULL Value
~CURVE INFORMATION BLOCK
#MNEM UNIT       ERCB CURVE CODE    CURVE DESCRIPTION
#-----------   ------------------   ----------------------------------
DEPT.M        00 001 00 00         : DEPTH        - DEPTH
ILD .OHMM     00 120 00 00         : RESD         - DEEP RESISTIVITY (DIL)
NPHI.V/V      00 330 00 00         : PHIN         - NEUTRON POROSITY (SANDSTONE)
DPHI.V/V      00 890 00 00         : PHID         - DENSITY POROSITY (SANDSTONE)
GR  .API      00 310 00 00         : GR           - GAMMA RAY
CALI.MM       00 280 01 00         : CAL          - CALIPER
~PARAMETER INFORMATION
#MNEM.UNIT           DATA             DESCRIPTION OF MNEMONIC
#---------         -----------     ------------------------------
GL  .M        593.34               : gl           - GROUND LEVEL ELEVATION
EREF.M        597.04               : kb           - ELEVATION OF DEPTH REFERENCE
DATM.M        593.34               : datum        - DATUM ELEVATION
TDD .M        456                  : tdd          - TOTAL DEPTH DRILLER
RUN .         ONE                  : Run          - RUN NUMBER
ENG .         BILL                 : Engineer     - RECORDING ENGINEER
WIT .         JIM                  : Witness      - WITNESSED BY
MUD .         GEL                  : Mud_type     - MUD TYPE
MATR.         SANDSTONE            : Logunit      - NEUTRON MATRIX
TMAX.C        31                   : BHT          - MAXIMUM RECORDED TEMPERATURE
BHTD.M        456                  : BHTDEP       - MAXIMUM RECORDED TEMPERATURE
MATR.         1                    : LOGUNIT      - NEUTRON MATRIX
RMT .C        21                   : MDTP         - TEMPERATURE OF MUD
NEUT.         1                    : NEUTRON      - NEUTRON TYPE
RESI.         0                    : RESIST       - RESISTIVITY TYPE
RMC .OHMM     4.9                  : RMC          - RESISTIVITY OF MUD CAKE
RMF .OHMM     5.6                  : RMF          - RESISTIVITY OF MUD FILTRATE
SUFT.C        -10                  : SUFT         - SURFACE TEMPERATURE
~A  DEPTH     RESD     PHIN     PHID       GR      CAL
# ...
  346.000    7.050    0.425    0.249   87.487  204.068
  346.250    7.292    0.430    0.248   85.718  202.713
  346.500    7.671    0.434    0.254   82.993  201.562
  346.750    8.397    0.440    0.274   80.289  200.351
  347.000    9.455    0.451    0.289   78.565  199.992
  347.250   10.796    0.439    0.290   73.802  200.440
  347.500   12.150    0.438    0.283   68.497  201.189
  347.750   13.411    0.435    0.276   67.211  202.046
  348.000   14.624    0.409    0.270   68.984  202.705
  348.250   16.458    0.317    0.226   66.042  203.011
  348.500   18.236    0.244    0.079   59.579  204.323
  348.750   21.277    0.192    0.046   52.179  206.775
  349.000   26.027    0.166    0.030   47.113  208.329
  349.250   32.288    0.149    0.017   44.628  209.183
  349.500   39.264    0.139    0.005   44.064  209.635
  349.750   46.314    0.143    0.005   43.913  210.096
  350.000   47.438    0.149    0.010   44.190  210.153
  350.250   44.011    0.146    0.007   45.185  210.202
  350.500   32.924    0.157    0.012   47.074  209.959
  350.750   23.614    0.225    0.033   51.542  209.212
  351.000   18.142    0.333    0.095   58.469  207.462
  351.250   15.268    0.406    0.247   66.147  203.102
  351.500   13.106    0.424    0.280   67.174  198.984
  351.750   11.977    0.418    0.282   67.926  197.440
  352.000   11.207    0.436    0.274   69.939  198.902
  352.250   10.437    0.452    0.262   72.372  201.757
  352.500    9.562    0.458    0.248   74.622  204.903
  352.750    8.547    0.454    0.228   76.736  208.010
  353.000    8.163    0.434    0.205   78.765  209.310
  353.250    8.413    0.427    0.207   80.479  209.370
  353.500    8.769    0.419    0.225   81.112  208.223
  353.750    8.976    0.415    0.246   80.306  207.878
  354.000    8.962    0.412    0.258   79.798  208.933
  354.250    8.901    0.411    0.249   84.530  210.421
  354.500    8.906    0.438    0.238   90.060  209.651
  354.750    8.913    0.449    0.237   88.894  208.502
  355.000    8.866    0.433    0.240   85.927  204.359
  355.250    8.769    0.417    0.241   83.680  199.215
  355.500    8.659    0.414    0.239   82.934  195.073
  355.750    8.600    0.425    0.234   82.686  194.116
  356.000    8.604    0.437    0.230   82.463  195.000
  356.250    8.608    0.431    0.230   82.739  196.642
  356.500    8.612    0.427    0.230   84.094  198.297
  356.750    8.552    0.428    0.228   85.204  199.950
  357.000    8.414    0.434    0.224   85.651  201.400
  357.250    8.180    0.443    0.229   85.579  202.520
  357.500    7.933    0.455    0.230   83.871  203.820
  357.750    7.703    0.454    0.233   84.137  205.484
  358.000    7.521    0.442    0.238   86.209  206.229
  358.250    7.359    0.433    0.242   88.760  206.678
  358.500    7.227    0.431    0.242   91.008  206.834
  358.750    7.177    0.436    0.240   92.626  206.006
  359.000    7.181    0.445    0.241   92.161  205.647
  359.250    7.292    0.451    0.257   91.238  205.701
  359.500    7.695    0.452    0.275   90.847  206.959
  359.750    8.437    0.445    0.285   90.995  209.017
  360.000    9.674    0.434    0.285   92.224  211.170
  360.250   12.122    0.441    0.270   95.471  212.420
  360.500   13.979    0.456    0.242   94.755  212.482
  360.750   14.409    0.442    0.219   85.674  210.939
  361.000   14.202    0.422    0.203   76.232  209.690
  361.250   13.947    0.419    0.187   71.468  208.943
  361.500   14.103    0.433    0.169   70.964  208.699
  361.750   15.438    0.437    0.154   69.046  208.521
  362.000   17.381    0.416    0.152   70.079  207.329
  362.250   18.590    0.400    0.179   72.752  206.568
  362.500   18.714    0.388    0.201   73.620  205.520
  362.750   18.095    0.387    0.216   73.648  204.780
  363.000   17.115    0.397    0.228   73.500  204.542
  363.250   15.841    0.419    0.244   73.696  204.434
  363.500   15.014    0.421    0.263   74.476  203.647
  363.750   14.798    0.440    0.263   74.745  203.707
  364.000   14.915    0.443    0.252   74.840  205.266
  364.250   15.425    0.429    0.237   74.511  207.519
  364.500   16.378    0.391    0.215   73.279  209.467
  364.750   18.227    0.318    0.163   69.439  209.850
  365.000   20.687    0.289    0.098   64.478  209.490
  365.250   23.792    0.241    0.059   62.836  207.542
  365.500   25.425    0.230    0.059   65.144  205.297
  365.750   24.453    0.258    0.099   69.973  203.953
  366.000   21.514    0.311    0.158   74.923  203.705
  366.250   17.813    0.359    0.198   76.687  203.760
  366.500   16.123    0.376    0.213   76.968  203.817
  366.750   14.733    0.397    0.219   78.918  204.277
  367.000   13.627    0.418    0.222   80.874  205.931
  367.250   12.950    0.437    0.222   81.988  208.778
  367.500   12.598    0.450    0.221   82.078  212.422
  367.750   12.307    0.452    0.224   81.238  216.258
  368.000   12.219    0.447    0.233   79.271  217.154
  368.250   12.316    0.432    0.242   77.142  215.999
  368.500   12.345    0.426    0.242   76.635  213.961
  368.750   12.351    0.434    0.240   77.626  212.616
  369.000   12.311    0.448    0.239   79.876  212.462
  369.250   12.098    0.439    0.239   83.779  213.005
  369.500   11.916    0.419    0.225   87.560  213.478
  369.750   11.744    0.412    0.213   87.117  213.528
  370.000   11.575    0.414    0.210   85.592  213.581
  370.250   11.409    0.426    0.212   84.184  213.236
  370.500   11.288    0.439    0.216   83.495  212.393
  370.750   11.346    0.429    0.215   83.085  210.930
  371.000   11.622    0.414    0.212   80.867  209.310
  371.250   11.978    0.399    0.205   82.338  207.373
  371.500   12.279    0.397    0.197   84.350  206.629
  371.750   12.286    0.408    0.201   87.019  206.684
  372.000   11.996    0.427    0.216   89.687  207.436
  372.250   11.520    0.439    0.227   90.579  209.180
  372.500   10.917    0.426    0.227   88.861  209.659
  372.750   10.520    0.418    0.223   89.856  208.504
  373.000   10.312    0.417    0.218   90.851  206.766
  373.250   10.203    0.422    0.214   91.242  206.221
  373.500   10.151    0.428    0.212   90.850  207.366
  373.750   10.157    0.422    0.211   89.727  209.099
  374.000   10.162    0.416    0.209   88.762  207.496
  374.250   10.243    0.416    0.204   88.312  205.941
  374.500   10.382    0.414    0.203   87.325  205.893
  374.750   10.698    0.415    0.208   85.801  206.550
  375.000   11.275    0.418    0.212   84.636  207.106
  375.250   12.277    0.419    0.196   84.582  207.262
  375.500   12.873    0.397    0.176   79.368  209.822
  375.750   12.976    0.362    0.161   76.284  211.065
  376.000   12.789    0.369    0.184   80.752  209.323
  376.250   12.511    0.399    0.208   86.540  209.380
  376.500   12.263    0.429    0.215   89.510  212.230
  376.750   12.050    0.433    0.210   87.581  215.089
  377.000   11.870    0.418    0.210   87.361  215.146
  377.250   11.787    0.411    0.218   90.035  213.602
  377.500   11.705    0.413    0.220   91.625  212.054
  377.750   11.667    0.416    0.216   91.296  210.512
  378.000   11.672    0.418    0.211   89.410  209.273
  378.250   11.679    0.416    0.209   87.579  208.839
  378.500   11.685    0.417    0.205   87.866  208.480
  378.750   11.691    0.422    0.199   89.581  208.540
  379.000   11.696    0.414    0.202   91.468  208.900
  379.250   11.702    0.408    0.206   93.294  209.149
  379.500   11.707    0.409    0.206   94.284  209.291
  379.750   11.715    0.418    0.201   92.729  209.923
  380.000   11.722    0.427    0.195   90.765  210.813
  380.250   11.725    0.424    0.198   91.037  211.672
  380.500   11.665    0.422    0.203   91.305  213.123
  380.750   11.585    0.418    0.201   91.098  214.776
  381.000   11.438    0.412    0.194   90.475  215.831
  381.250   11.056    0.402    0.197   90.282  214.506
  381.500   10.807    0.403    0.206   91.565  211.654
  381.750   10.731    0.411    0.203   94.232  210.504
  382.000   10.897    0.415    0.202   95.103  209.962
  382.250   11.108    0.423    0.199   94.895  210.214
