~VERSION INFORMATION
 VERS.                 2.0:   CWLS LOG ASCII STANDARD -VERSION 2.0
 WRAP.                  NO:   ONE LINE PER DEPTH STEP
~WELL INFORMATION BLOCK
#MNEM.UNIT           DATA                    DESCRIPTION OF MNEMONIC
#---------    -------------------            -------------------------------
# Generated from Intellog Unique Number	CW_76_78/WELL/637
WELL.         GULF POC DROWNED 07-23         : Well_name    - WELL
LOC .         00/07-23-076-22W4/0            : Location     - LOCATION
UWI .         00/07-23-076-22W4/0            : Uwi          - UNIQUE WELL ID
ENTR.         JAYE                           : Entered      - ENTERED BY
SRVC.         WESTERN ATLAS                  : Scn          - SERVICE COMPANY
DATE.         5 JAN 77                       : Date         - LOG DATE
STRT.M        435.864                        : top_depth    - START DEPTH
STOP.M        649.114                        : bot_depth    - STOP DEPTH
STEP.M        0.25                           : increment    - STEP LENGTH
 NULL. -999.2500:NULL Value
~CURVE INFORMATION BLOCK
#MNEM UNIT       ERCB CURVE CODE    CURVE DESCRIPTION
#-----------   ------------------   ----------------------------------
DEPT.M        00 001 00 00         : DEPTH        - DEPTH
ILD .OHMM     00 120 00 00         : RESD         - DEEP RESISTIVITY (DIL)
NPHI.V/V      00 330 00 00         : PHIN         - NEUTRON POROSITY (SANDSTONE)
DPHI.V/V      00 890 00 00         : PHID         - DENSITY POROSITY (SANDSTONE)
GR  .API      00 310 00 00         : GR           - GAMMA RAY
CALI.MM       00 280 01 00         : CAL          - CALIPER
~PARAMETER INFORMATION
#MNEM.UNIT           DATA             DESCRIPTION OF MNEMONIC
#---------         -----------     ------------------------------
GL  .M        749.198              : gl           - GROUND LEVEL ELEVATION
EREF.M        752.551              : kb           - ELEVATION OF DEPTH REFERENCE
DATM.M        749.198              : datum        - DATUM ELEVATION
TDD .M        647.7                : tdd          - TOTAL DEPTH DRILLER
RUN .         ONE                  : Run          - RUN NUMBER
ENG .         CROCKFORD            : Engineer     - RECORDING ENGINEER
WIT .         HUGHES               : Witness      - WITNESSED BY
BASE.         EDM                  : Branch       - HOME BASE OF LOGGING UNIT
MATR.         SANDSTONE            : Logunit      - NEUTRON MATRIX
TMAX.C        30.5556              : BHT          - MAXIMUM RECORDED TEMPERATURE
BHTD.M        648.31               : BHTDEP       - MAXIMUM RECORDED TEMPERATURE
RMT .C        14.4444              : MDTP         - TEMPERATURE OF MUD
MUDD.KG/M     1080                 : MWT          - MUD DENSITY
NEUT.         1                    : NEUTRON      - NEUTRON TYPE
RESI.         0                    : RESIST       - RESISTIVITY TYPE
RM  .OHMM     3.89                 : RM           - RESISTIVITY OF MUD
RMC .OHMM     0                    : RMC          - RESISTIVITY OF MUD CAKE
RMF .OHMM     5.84                 : RMF          - RESISTIVITY OF MUD FILTRATE
SUFT.C        -17.7778             : SUFT         - SURFACE TEMPERATURE
~A  DEPTH     RESD     PHIN     PHID       GR      CAL
  435.864    2.506    0.529    0.217  110.195  197.683
  436.114    2.550    0.520    0.225  107.653  194.099
  436.364    2.548    0.497    0.221  100.791  188.765
  436.614    2.501    0.479    0.217   97.641  180.340
  436.864    2.433    0.458    0.204  101.305  176.243
  437.114    2.324    0.480    0.185   99.676  176.885
  437.364    2.200    0.506    0.272  105.348  180.928
  437.614    2.121    0.531    0.290  104.328  189.397
  437.864    2.158    0.528    0.308  100.386  199.414
  438.114    2.425    0.483    0.317   95.898  208.404
  438.364    2.876    0.456    0.345   93.295  212.341
  438.614    3.869    0.415    0.304   88.745  179.703
  438.864    5.347    0.424    0.275   90.585  166.335
  439.114    6.754    0.434    0.276   88.590  163.575
  439.364    6.997    0.438    0.269   84.894  166.794
  439.614    6.684    0.427    0.271   81.802  169.493
  439.864    6.501    0.421    0.278   81.818  167.973
  440.114    6.324    0.422    0.281   85.481  163.873
  440.364    6.096    0.407    0.278   84.887  160.907
  440.614    5.719    0.406    0.267   86.239  159.796
  440.864    5.513    0.425    0.257   88.991  159.409
  441.114    5.315    0.436    0.255   92.352  160.156
  441.364    5.216    0.414    0.262   94.678  162.548
  441.614    5.260    0.414    0.248   96.578  164.012
  441.864    5.856    0.433    0.237   90.932  163.832
  442.114    6.122    0.446    0.226   86.017  162.824
  442.364    6.229    0.449    0.251   84.023  161.095
  442.614    6.059    0.446    0.295   87.019  159.265
  442.864    5.685    0.433    0.306   88.310  160.216
  443.114    5.191    0.429    0.264   88.871  164.667
  443.364    4.574    0.427    0.270   90.833  170.358
  443.614    3.852    0.408    0.281   93.280  168.731
  443.864    3.423    0.419    0.275  107.776  164.530
  444.114    3.360    0.499    0.234  122.088  166.101
  444.364    3.879    0.513    0.213  125.449  171.377
  444.614    4.518    0.500    0.225  111.954  179.130
  444.864    5.121    0.467    0.254   86.838  180.904
  445.114    5.911    0.431    0.291   77.907  174.334
  445.364    6.069    0.429    0.299   73.905  168.586
  445.614    6.119    0.427    0.299   76.659  165.211
  445.864    6.061    0.424    0.304   84.399  164.723
  446.114    6.057    0.426    0.305   88.428  164.124
  446.364    6.275    0.426    0.287   84.732  163.017
  446.614    6.801    0.411    0.278   79.451  161.393
  446.864    7.572    0.401    0.289   71.190  160.793
  447.114    8.279    0.396    0.304   65.179  160.097
  447.364    8.578    0.396    0.290   69.270  159.813
  447.614    8.727    0.416    0.288   73.725  159.532
  447.864    8.960    0.427    0.292   71.548  159.134
  448.114    9.037    0.409    0.283   66.573  158.849
  448.364    9.194    0.406    0.284   66.466  159.496
  448.614    8.943    0.407    0.275   72.929  160.441
  448.864    8.621    0.394    0.251   79.148  162.320
  449.114    8.460    0.364    0.201   81.232  165.227
  449.364    8.532    0.337    0.171   79.480  167.003
  449.614    8.603    0.361    0.166   81.198  166.407
  449.864    8.293    0.391    0.228   79.082  162.928
  450.114    7.711    0.414    0.287   80.921  160.171
  450.364    7.300    0.412    0.300   85.498  159.471
  450.614    6.912    0.401    0.294   92.329  160.320
  450.864    6.603    0.388    0.278   97.575  160.858
  451.114    6.423    0.389    0.262  105.741  161.601
  451.364    6.419    0.399    0.242  109.954  162.347
  451.614    6.531    0.407    0.248  105.282  162.576
  451.864    6.888    0.417    0.264   99.395  161.984
  452.114    7.136    0.430    0.290   95.331  161.286
  452.364    7.262    0.435    0.287   91.512  160.587
  452.614    7.454    0.424    0.278   87.267  160.302
  452.864    7.450    0.407    0.277   83.811  160.528
  453.114    7.311    0.394    0.279   81.573  160.555
  453.364    7.242    0.387    0.294   85.238  160.680
  453.614    6.917    0.390    0.298   93.407  162.350
  453.864    6.790    0.405    0.274  101.086  167.117
  454.114    6.972    0.433    0.288  108.401  171.672
  454.364    7.223    0.390    0.259  113.222  174.372
  454.614    7.618    0.370    0.244  112.932  168.730
  454.864    7.893    0.372    0.220  110.148  170.194
  455.114    8.251    0.390    0.243  106.935  176.092
  455.364    8.625    0.383    0.258  102.142  178.998
  455.614    9.017    0.383    0.234   96.619  175.621
  455.864    9.596    0.395    0.239   89.575  169.361
  456.114   10.123    0.389    0.243   79.488  167.738
  456.364   10.583    0.363    0.267   69.279  167.244
  456.614   11.164    0.356    0.270   59.618  166.546
  456.864   11.566    0.347    0.270   54.096  165.542
  457.114   11.661    0.337    0.293   51.492  164.739
  457.364   11.550    0.348    0.304   51.993  164.245
  457.614   11.132    0.365    0.301   55.597  163.551
  457.864   10.829    0.375    0.311   57.923  162.954
  458.114   10.628    0.378    0.308   57.146  162.152
  458.364   10.336    0.378    0.318   53.934  161.351
  458.614   10.147    0.365    0.319   56.138  160.969
  458.864    9.607    0.356    0.309   65.827  160.577
  459.114    9.013    0.346    0.283   77.159  161.013
  459.364    8.230    0.372    0.261   88.612  161.547
  459.614    7.654    0.390    0.260   92.277  162.396
  459.864    7.312    0.377    0.246   96.793  163.350
  460.114    6.923    0.371    0.226  104.595  164.196
  460.364    6.554    0.376    0.218  111.423  164.938
  460.614    6.491    0.378    0.236  114.845  165.785
  460.864    6.314    0.401    0.224  118.570  168.178
  461.114    5.612    0.417    0.212  125.520  171.500
  461.364    5.079    0.427    0.221  118.781  174.305
  461.614    4.556    0.453    0.217  109.119  182.469
  461.864    3.977    0.436    0.256  109.437  178.781
  462.114    3.201    0.446    0.249  130.808  166.648
  462.364    2.696    0.489    0.214  139.584  169.348
  462.614    2.462    0.523    0.206  143.796  175.039
  462.864    2.395    0.530    0.206  143.140  180.011
  463.114    2.372    0.516    0.203  138.044  182.405
  463.364    2.349    0.516    0.183  133.554  182.840
  463.614    2.326    0.523    0.178  138.923  182.859
  463.864    2.325    0.527    0.250  143.500  183.303
  464.114    2.365    0.523    0.238  148.503  183.836
  464.364    2.429    0.509    0.226  148.517  184.684
  464.614    2.609    0.517    0.220  145.002  185.326
  464.864    2.931    0.524    0.234  143.252  185.553
  465.114    3.293    0.528    0.239  141.439  185.576
  465.364    3.801    0.454    0.208  137.681  185.499
  465.614    4.193    0.446    0.206  133.130  185.728
  465.864    4.424    0.450    0.210  128.582  188.016
  466.114    4.501    0.453    0.222  126.224  193.499
  466.364    4.704    0.447    0.239  124.532  193.215
  466.614    4.875    0.445    0.255  121.503  190.664
  466.864    5.235    0.476    0.262  120.300  187.388
  467.114    5.572    0.492    0.278  113.560  182.980
  467.364    5.984    0.457    0.298   93.798  174.143
  467.614    6.200    0.433    0.319   84.137  166.851
  467.864    6.481    0.431    0.323   84.579  163.785
  468.114    6.536    0.444    0.295   87.755  162.264
  468.364    6.414    0.449    0.302   88.377  162.078
  468.614    6.296    0.427    0.303   92.164  161.998
  468.864    6.179    0.422    0.288   98.688  162.128
  469.114    6.064    0.431    0.291   99.007  162.354
  469.364    5.952    0.430    0.289   99.324  162.896
  469.614    5.949    0.424    0.268  101.042  163.846
  469.864    5.944    0.413    0.258  103.489  165.000
  470.114    5.941    0.421    0.269  106.667  167.600
  470.364    5.989    0.410    0.285   97.128  168.757
  470.614    6.041    0.442    0.314   90.206  165.998
  470.864    6.201    0.445    0.330   84.621  164.165
  471.114    6.310    0.436    0.326   81.532  163.676
  471.364    6.421    0.441    0.316   84.892  164.631
  471.614    6.475    0.444    0.309   90.017  164.958
  471.864    6.470    0.444    0.297   91.065  165.807
  472.114    6.125    0.443    0.305   90.897  166.140
