~VERSION INFORMATION
 VERS.                 2.0:   CWLS LOG ASCII STANDARD -VERSION 2.0
 WRAP.                  NO:   ONE LINE PER DEPTH STEP
~WELL INFORMATION BLOCK
#MNEM.UNIT           DATA                    DESCRIPTION OF MNEMONIC
#---------    -------------------            -------------------------------
# Generated from Intellog Unique Number	CX_WELLS/WELL/3196
WELL.         HB HORSER                      : Well_name    - WELL
LOC .         00/06-16-083-13W4/0            : Location     - LOCATION
UWI .         00/06-16-083-13W400            : Uwi          - UNIQUE WELL ID
ENTR.         T                              : Entered      - ENTERED BY
SRVC.         SCHLUMBERGER                   : Scn          - SERVICE COMPANY
STRT.F        400                            : top_depth    - START DEPTH
STOP.F        1199.7                         : bot_depth    - STOP DEPTH
STEP.F        0.82                           : increment    - STEP LENGTH
 NULL. -999.2500:NULL Value
~CURVE INFORMATION BLOCK
#MNEM UNIT       ERCB CURVE CODE    CURVE DESCRIPTION
#-----------   ------------------   ----------------------------------
DEPT.F        00 001 00 00         : DEPTH        - DEPTH
GR  .API      00 310 00 00         : GR           - GAMMA RAY
NPHI.V/V      00 330 00 00         : PHIN         - NEUTRON POROSITY (SANDSTONE)
DPHI.V/V      00 890 00 00         : PHID         - DENSITY POROSITY (SANDSTONE)
ILD .OHMM     00 120 00 00         : RESD         - DEEP RESISTIVITY (DIL)
~PARAMETER INFORMATION
#MNEM.UNIT           DATA             DESCRIPTION OF MNEMONIC
#---------         -----------     ------------------------------
GL  .F        1876                 : gl           - GROUND LEVEL ELEVATION
EREF.F        1884                 : kb           - ELEVATION OF DEPTH REFERENCE
DATM.F        1884                 : datum        - DATUM ELEVATION
TDD .F        1204                 : tdd          - TOTAL DEPTH DRILLER
RUN .         ONE                  : Run          - RUN NUMBER
ENG .         BILL                 : Engineer     - RECORDING ENGINEER
WIT .         JIM                  : Witness      - WITNESSED BY
MUD .         GEL                  : Mud_type     - MUD TYPE
MATR.         SANDSTONE            : Logunit      - NEUTRON MATRIX
TMAX.F        78                   : BHT          - MAXIMUM RECORDED TEMPERATURE
BHTD.F        1204                 : BHTDEP       - MAXIMUM RECORDED TEMPERATURE
MATR.         1                    : LOGUNIT      - NEUTRON MATRIX
RMT .F        77                   : MDTP         - TEMPERATURE OF MUD
NEUT.         1                    : NEUTRON      - NEUTRON TYPE
RESI.         5.25                 : RESIST       - RESISTIVITY TYPE
RMC .OHMM     2.8                  : RMC          - RESISTIVITY OF MUD CAKE
RMF .OHMM     3.02                 : RMF          - RESISTIVITY OF MUD FILTRATE
SUFT.F        32                   : SUFT         - SURFACE TEMPERATURE
~A  DEPTH       GR     PHIN     PHID     RESD
# ...
  542.717   68.613    0.435    0.307   12.648
  543.537   69.339    0.436    0.302   12.934
  544.357   70.669    0.441    0.301   12.976
  545.177   72.603    0.448    0.303   12.782
  545.997   73.255    0.451    0.303   12.824
  546.818   77.628    0.449    0.297   12.632
  547.638   80.745    0.445    0.287   12.443
  548.458   83.233    0.438    0.276   12.034
  549.278   91.807    0.434    0.258   11.658
  550.098   96.156    0.432    0.252   11.677
  550.919   95.650    0.438    0.244   11.503
  551.739   93.358    0.443    0.242   11.331
  552.559   92.248    0.437    0.241   10.959
  553.379   94.785    0.434    0.234   10.406
  554.199   97.298    0.426    0.229    9.726
  555.020  100.390    0.422    0.235    9.228
  555.840  104.714    0.418    0.240    9.076
  556.660  104.282    0.418    0.235    8.625
  557.480  104.331    0.427    0.210    8.342
  558.301  106.264    0.444    0.213    7.922
  559.121  107.545    0.454    0.226    7.662
  559.941  110.107    0.453    0.232    7.281
  560.761  111.412    0.452    0.224    7.042
  561.581  111.510    0.457    0.224    6.937
  562.402  109.797    0.457    0.227    6.954
  563.222  108.084    0.454    0.230    6.850
  564.042  108.182    0.454    0.235    6.883
  564.862  109.512    0.456    0.237    6.895
  565.682  109.610    0.461    0.231    6.803
  566.503  109.683    0.460    0.210    6.701
  567.323  109.202    0.459    0.204    6.728
  568.143  108.696    0.458    0.195    6.745
  568.963  108.794    0.456    0.195    6.772
  569.783  108.892    0.456    0.203    6.909
  570.604  108.990    0.455    0.214    6.937
  571.424  109.088    0.454    0.218    7.088
  572.244  109.814    0.454    0.225    7.249
  573.064  111.119    0.454    0.238    7.538
  573.885  112.425    0.454    0.264    7.851
  574.705  113.730    0.457    0.285    8.029
  575.525  115.036    0.457    0.285    8.197
  576.345  115.762    0.456    0.277    8.390
  577.165  114.652    0.451    0.271    8.559
  577.986  109.341    0.445    0.262    8.767
  578.806  107.579    0.446    0.253    8.951
  579.626  104.055    0.448    0.250    9.139
  580.446   99.323    0.455    0.249    9.168
  581.266   95.195    0.478    0.260    9.206
  582.087   88.653    0.483    0.300    9.068
  582.907   79.091    0.481    0.308    8.618
  583.727   71.920    0.480    0.304    8.342
  584.547   67.817    0.479    0.302    8.204
  585.367   67.287    0.478    0.303    8.545
  586.188   66.781    0.475    0.310    9.057
  587.008   68.739    0.469    0.318    9.778
  587.828   71.251    0.462    0.319   10.556
  588.648   74.368    0.461    0.315   11.405
  589.469   78.716    0.466    0.308   11.644
  590.289   80.601    0.465    0.303   11.917
  591.109   86.785    0.471    0.295   12.402
  591.929   89.877    0.476    0.287   12.227
  592.749   93.597    0.466    0.282   12.247
  593.570   98.574    0.456    0.277   11.854
  594.390  102.922    0.464    0.279   11.668
  595.210  106.618    0.471    0.287   11.303
  596.030  110.966    0.474    0.275   10.724
  596.850  114.711    0.499    0.259    9.825
  597.671  117.224    0.528    0.263    9.153
  598.491  117.322    0.544    0.290    8.386
  599.311  116.212    0.531    0.296    7.951
  600.131  116.938    0.534    0.280    7.146
  600.951  117.615    0.517    0.268    6.663
  601.772  119.549    0.486    0.261    6.217
  602.592  122.062    0.465    0.239    6.008
  603.412  124.575    0.473    0.236    5.710
  604.232  126.508    0.502    0.237    5.625
  605.052  127.210    0.527    0.240    5.449
  605.873  126.704    0.536    0.237    5.363
  606.693  124.412    0.547    0.233    5.278
  607.513  122.070    0.516    0.228    5.208
  608.333  120.357    0.505    0.222    5.122
  609.154  120.480    0.489    0.218    5.053
  609.974  120.553    0.494    0.209    5.062
  610.794  121.279    0.497    0.201    4.998
  611.614  120.170    0.508    0.201    5.006
  612.434  117.877    0.523    0.204    5.023
  613.255  117.323    0.519    0.204    5.039
  614.075  116.262    0.511    0.204    5.059
  614.895  116.964    0.507    0.205    5.076
  615.715  120.105    0.510    0.199    5.000
  616.535  121.965    0.512    0.195    4.929
  617.356  126.338    0.515    0.190    4.767
  618.176  126.411    0.546    0.197    4.692
  618.996  122.936    0.551    0.198    4.538
  619.816  121.778    0.551    0.200    4.393
  620.636  118.253    0.538    0.226    4.327
  621.457  114.125    0.529    0.233    4.259
  622.277  106.979    0.507    0.231    4.352
  623.097   94.978    0.493    0.224    4.968
  623.917   81.770    0.474    0.211    6.102
  624.738   75.227    0.424    0.163    7.353
  625.558   66.874    0.390    0.187    8.706
  626.378   66.996    0.388    0.245    9.750
  627.198   66.490    0.416    0.309   11.147
  628.018   66.033    0.480    0.344   11.381
  628.839   66.686    0.477    0.335   11.639
  629.659   67.388    0.472    0.325   11.667
  630.479   68.693    0.469    0.312   11.705
  631.299   71.230    0.472    0.301   11.743
  632.119   72.511    0.480    0.302   11.568
  632.940   76.280    0.486    0.307   11.606
  633.760   76.378    0.486    0.312   11.432
  634.580   76.452    0.485    0.308   11.479
  635.400   77.178    0.482    0.303   11.307
  636.220   77.880    0.483    0.303   11.353
  637.041   78.581    0.486    0.308   11.174
  637.861   78.679    0.487    0.309   11.220
  638.681   77.570    0.483    0.305   11.043
  639.501   75.253    0.483    0.304   10.887
  640.322   72.357    0.485    0.303   10.914
  641.142   71.851    0.486    0.306   10.976
  641.962   71.925    0.485    0.303   11.003
  642.782   71.443    0.483    0.302   11.030
  643.602   71.566    0.484    0.304   11.084
  644.423   71.639    0.476    0.307   11.111
  645.243   71.762    0.466    0.305   10.945
  646.063   71.860    0.465    0.298   10.972
  646.883   72.586    0.469    0.297   11.025
  647.703   72.659    0.481    0.299   11.079
  648.524   73.385    0.483    0.300   11.097
  649.344   74.063    0.479    0.298   11.124
  650.164   74.764    0.477    0.297   11.124
  650.984   74.911    0.477    0.297   11.432
  651.804   75.637    0.482    0.297   11.672
  652.625   75.686    0.487    0.298   11.936
  653.445   74.577    0.496    0.299   12.187
  654.265   73.467    0.503    0.298   12.463
  655.085   72.986    0.503    0.294   12.483
  655.906   73.688    0.499    0.295   12.544
  656.726   74.414    0.494    0.303   12.347
  657.546   74.487    0.489    0.312   12.162
  658.366   72.823    0.487    0.311   11.990
  659.186   72.269    0.485    0.302   12.029
  660.007   71.184    0.486    0.305   11.849
  660.827   71.257    0.487    0.313   11.672
  661.647   71.983    0.485    0.312   11.710
  662.467   72.130    0.484    0.305   11.748
  663.287   72.179    0.486    0.303   11.572
  664.108   74.692    0.486    0.295   11.399
  664.928   88.096    0.489    0.288   11.229
  665.748   87.615    0.490    0.287   10.869
  666.568   84.090    0.491    0.286   10.715
  667.388   83.005    0.489    0.292   10.733
  668.209   84.914    0.488    0.299   10.589
  669.029   86.848    0.495    0.308   10.440
  669.849   86.897    0.499    0.310   10.457
  670.669   85.812    0.494    0.304   10.300
  671.490   84.099    0.489    0.298   10.155
  672.310   82.386    0.486    0.292   10.003
  673.130   86.130    0.484    0.283   10.027
  673.950   89.851    0.485    0.274    9.714
  674.770   90.552    0.493    0.262    9.745
  675.591   85.241    0.502    0.270    9.600
  676.411   82.900    0.507    0.274    9.464
  677.231   82.998    0.505    0.279    9.307
  678.051   83.096    0.501    0.283    9.337
  678.871   81.987    0.502    0.289    8.867
  679.692   86.914    0.512    0.291    7.825
  680.512   88.268    0.522    0.284    7.163
  681.332   85.951    0.520    0.273    6.808
  682.152   83.610    0.518    0.275    6.590
  682.972   82.525    0.513    0.286    6.600
  683.793   82.623    0.508    0.294    6.638
  684.613   82.697    0.505    0.293    6.772
