~VERSION INFORMATION
 VERS.                 2.0:   CWLS LOG ASCII STANDARD -VERSION 2.0
 WRAP.                  NO:   ONE LINE PER DEPTH STEP
~WELL INFORMATION BLOCK
#MNEM.UNIT           DATA                    DESCRIPTION OF MNEMONIC
#---------    -------------------            -------------------------------
# Generated from Intellog Unique Number	CX_WELLS/WELL/1070
WELL.         07-19-088-18W4                 : Well_name    - WELL
LOC .         00/07-19-088-18W4/0            : Location     - LOCATION
UWI .         00/07-19-088-18W400            : Uwi          - UNIQUE WELL ID
ENTR.         DW                             : Entered      - ENTERED BY
SRVC.         SCHLUMBERGER                   : Scn          - SERVICE COMPANY
STRT.M        25                             : top_depth    - START DEPTH
STOP.M        173                            : bot_depth    - STOP DEPTH
STEP.M        0.25                           : increment    - STEP LENGTH
 NULL. -999.2500:NULL Value
~CURVE INFORMATION BLOCK
#MNEM UNIT       ERCB CURVE CODE    CURVE DESCRIPTION
#-----------   ------------------   ----------------------------------
DEPT.M        00 001 00 00         : DEPTH        - DEPTH
GR  .API      00 310 00 00         : GR           - GAMMA RAY
NPHI.V/V      00 330 00 00         : PHIN         - NEUTRON POROSITY (SANDSTONE)
DPHI.V/V      00 890 00 00         : PHID         - DENSITY POROSITY (SANDSTONE)
ILD .OHMM     00 120 00 00         : RESD         - DEEP RESISTIVITY (DIL)
~PARAMETER INFORMATION
#MNEM.UNIT           DATA             DESCRIPTION OF MNEMONIC
#---------         -----------     ------------------------------
GL  .M        512.14               : gl           - GROUND LEVEL ELEVATION
EREF.M        515.64               : kb           - ELEVATION OF DEPTH REFERENCE
DATM.M        515.64               : datum        - DATUM ELEVATION
TDD .M        175                  : tdd          - TOTAL DEPTH DRILLER
RUN .         ONE                  : Run          - RUN NUMBER
ENG .         BILL                 : Engineer     - RECORDING ENGINEER
WIT .         JIM                  : Witness      - WITNESSED BY
MUD .         GEL                  : Mud_type     - MUD TYPE
MATR.         SANDSTONE            : Logunit      - NEUTRON MATRIX
TMAX.C        17                   : BHT          - MAXIMUM RECORDED TEMPERATURE
BHTD.M        234                  : BHTDEP       - MAXIMUM RECORDED TEMPERATURE
MATR.         1                    : LOGUNIT      - NEUTRON MATRIX
RMT .C        25                   : MDTP         - TEMPERATURE OF MUD
NEUT.         1                    : NEUTRON      - NEUTRON TYPE
RESI.         0                    : RESIST       - RESISTIVITY TYPE
RMC .OHMM     0.25                 : RMC          - RESISTIVITY OF MUD CAKE
RMF .OHMM     0.25                 : RMF          - RESISTIVITY OF MUD FILTRATE
SUFT.C        15                   : SUFT         - SURFACE TEMPERATURE
~A  DEPTH       GR     PHIN     PHID     RESD
   25.000   70.560    0.469    0.301   12.174
   25.250   63.467    0.485    0.306   13.651
   25.500   53.985    0.506    0.319   18.479
   25.750   43.886    0.488    0.342   28.515
   26.000   30.820    0.447    0.377   42.399
   26.250   24.305    0.409    0.388   44.105
   26.500   17.231    0.371    0.391   45.026
   26.750   16.111    0.366    0.398   46.838
   27.000   15.608    0.392    0.424   49.670
   27.250   15.645    0.432    0.415   53.672
   27.500   15.160    0.410    0.350   54.767
   27.750   15.216    0.388    0.316   55.912
   28.000   15.273    0.372    0.319   56.045
   28.250   14.788    0.362    0.327   56.124
   28.500   14.844    0.358    0.347   55.212
   28.750   15.516    0.362    0.363   52.287
   29.000   16.823    0.365    0.341   49.517
   29.250   17.477    0.376    0.329   46.021
   29.500   18.728    0.390    0.311   42.017
   29.750   21.827    0.360    0.317   40.526
   30.000   23.656    0.342    0.326   38.397
   30.250   28.529    0.366    0.330   37.017
   30.500   33.980    0.416    0.332   33.764
   30.750   37.041    0.433    0.333   31.380
   31.000   41.316    0.447    0.328   28.622
   31.250   44.994    0.423    0.320   25.621
   31.500   47.439    0.444    0.309   22.111
   31.750   46.936    0.449    0.290   20.919
   32.000   46.395    0.451    0.282   19.811
   32.250   45.294    0.456    0.292   20.225
   32.500   42.363    0.463    0.308   21.039
   32.750   40.646    0.461    0.332   21.499
   33.000   40.721    0.443    0.350   21.520
   33.250   39.601    0.417    0.338   20.785
   33.500   33.722    0.371    0.332   20.428
   33.750   35.589    0.361    0.334   19.346
   34.000   38.669    0.372    0.335   17.980
   34.250   38.744    0.425    0.339   15.803
   34.500   39.397    0.465    0.341   14.687
   34.750   43.075    0.451    0.339   14.166
   35.000   46.118    0.396    0.336   13.683
   35.250   49.217    0.375    0.330   13.448
   35.500   49.870    0.371    0.327   12.735
   35.750   51.737    0.381    0.321   12.295
   36.000   53.007    0.417    0.312   11.853
   36.250   53.698    0.449    0.304   11.438
   36.500   54.370    0.473    0.298   10.832
   36.750   54.445    0.482    0.293   10.453
   37.000   54.520    0.470    0.289    9.904
   37.250   55.790    0.439    0.279    9.552
   37.500   57.078    0.408    0.272    9.055
   37.750   58.945    0.449    0.277    8.899
   38.000   60.831    0.475    0.285    8.746
   38.250   62.063    0.486    0.296    8.443
   38.500   62.735    0.453    0.301    8.152
   38.750   63.445    0.466    0.304    8.011
   39.000   63.520    0.490    0.294    7.734
   39.250   62.997    0.491    0.267    7.601
   39.500   60.683    0.445    0.248    7.206
   39.750   57.771    0.454    0.227    7.078
   40.000   60.236    0.519    0.210    6.830
   40.250   62.700    0.553    0.231    6.594
   40.500   65.145    0.566    0.248    6.251
   40.750   70.615    0.544    0.262    6.137
   41.000   73.079    0.481    0.262    6.035
   41.250   73.751    0.422    0.262    5.934
   41.500   73.826    0.392    0.262    5.729
   41.750   73.920    0.401    0.268    5.633
   42.000   73.976    0.409    0.275    5.435
   42.250   74.649    0.419    0.276    5.152
   42.500   76.534    0.437    0.278    5.064
   42.750   77.823    0.453    0.279    4.884
   43.000   79.092    0.463    0.280    4.541
   43.250   80.381    0.452    0.280    4.223
   43.500   81.015    0.472    0.280    4.071
   43.750   82.882    0.496    0.279    3.785
   44.000   87.176    0.531    0.282    3.585
   44.250   89.043    0.496    0.285    3.525
   44.500   87.307    0.482    0.288    3.533
   44.750   84.395    0.492    0.292    3.604
   45.000   76.705    0.517    0.294    3.825
   45.250   73.775    0.525    0.294    3.975
   45.500   73.850    0.480    0.292    4.214
   45.750   79.319    0.461    0.291    4.385
   46.000   81.205    0.450    0.287    4.394
   46.250   81.896    0.452    0.285    4.240
   46.500   81.952    0.455    0.284    4.091
   46.750   81.411    0.471    0.284    3.948
   47.000   81.505    0.495    0.283    3.810
   47.250   80.982    0.483    0.283    3.608
   47.500   81.095    0.467    0.281    3.482
   47.750   81.748    0.443    0.278    3.427
   48.000   83.036    0.448    0.277    3.430
   48.250   83.671    0.473    0.276    3.436
   48.500   84.344    0.486    0.276    3.445
   48.750   83.821    0.518    0.275    3.453
   49.000   83.896    0.505    0.272    3.456
   49.250   85.184    0.502    0.268    3.528
   49.500   86.454    0.502    0.263    3.538
   49.750   86.566    0.477    0.257    3.545
   50.000   86.604    0.489    0.250    3.550
   50.250   86.100    0.488    0.248    3.491
   50.500   86.791    0.493    0.251    3.497
   50.750   86.847    0.500    0.259    3.504
   51.000   86.904    0.484    0.259    3.512
   51.250   86.978    0.453    0.257    3.587
   51.500   86.456    0.460    0.252    3.662
   51.750   85.953    0.492    0.242    3.669
   52.000   86.009    0.525    0.224    3.675
   52.250   86.084    0.536    0.215    3.549
   52.500   86.775    0.557    0.227    3.554
   52.750   86.850    0.554    0.251    3.559
   53.000   86.943    0.539    0.271    3.635
   53.250   87.018    0.520    0.267    3.855
   53.500   86.477    0.509    0.264    4.008
   53.750   85.992    0.494    0.270    4.333
   54.000   86.029    0.478    0.273    4.506
   54.250   84.312    0.469    0.278    4.600
   54.500   81.998    0.475    0.267    4.783
   54.750   76.100    0.478    0.254    5.170
   55.000   71.415    0.466    0.243    5.278
   55.250   69.698    0.438    0.233    5.595
   55.500   68.578    0.415    0.233    5.930
   55.750   68.055    0.443    0.235    6.283
   56.000   65.741    0.458    0.244    7.461
   56.250   62.213    0.509    0.265    8.687
   56.500   58.088    0.518    0.287    9.921
   56.750   53.384    0.446    0.298   11.557
   57.000   48.699    0.421    0.296   11.579
   57.250   48.158    0.412    0.262   11.612
   57.500   48.252    0.421    0.264   11.412
   57.750   50.138    0.439    0.274   11.428
   58.000   52.583    0.448    0.288   11.461
   58.250   54.450    0.453    0.301   11.477
   58.500   55.738    0.460    0.308   11.499
   58.750   57.008    0.462    0.309   11.521
   59.000   58.296    0.456    0.306   11.767
   59.250   58.950    0.470    0.301   12.013
   59.500   58.409    0.491    0.296   12.975
   59.750   56.113    0.489    0.293   13.753
   60.000   54.415    0.438    0.294   13.779
   60.250   55.684    0.421    0.297   13.555
   60.500   57.570    0.408    0.300   13.322
   60.750   58.205    0.437    0.302   13.099
   61.000   59.474    0.460    0.301   12.652
   61.250   61.360    0.472    0.298   12.428
   61.500   62.630    0.493    0.294   12.220
   61.750   63.937    0.471    0.291   11.804
   62.000   64.572    0.420    0.285   11.595
   62.250   63.452    0.392    0.268   11.617
   62.500   59.943    0.411    0.254   12.319
   62.750   55.855    0.438    0.256   12.577
   63.000   55.333    0.432    0.273   12.366
   63.250   58.394    0.431    0.280   11.280
   63.500   62.035    0.438    0.275   10.682
   63.750   66.888    0.443    0.268    9.567
   64.000   68.195    0.453    0.260   10.135
   64.250   65.862    0.456    0.255   11.366
   64.500   62.334    0.453    0.256   13.739
   64.750   50.462    0.451    0.270   18.253
   65.000   46.953    0.456    0.285   27.140
   65.250   41.652    0.457    0.293   33.446
   65.500   38.124    0.465    0.303   38.922
   65.750   35.829    0.476    0.310   47.096
   66.000   36.520    0.467    0.317   47.208
   66.250   38.387    0.453    0.323   46.374
   66.500   40.254    0.444    0.326   45.619
   66.750   41.523    0.450    0.331   44.835
   67.000   41.580    0.456    0.335   42.500
   67.250   41.076    0.469    0.332   41.789
   67.500   39.937    0.486    0.325   41.070
   67.750   37.660    0.504    0.316   40.363
   68.000   37.119    0.511    0.309   39.688
   68.250   35.402    0.483    0.316   38.298
