~VERSION INFORMATION
 VERS.                 2.0:   CWLS LOG ASCII STANDARD -VERSION 2.0
 WRAP.                  NO:   ONE LINE PER DEPTH STEP
~WELL INFORMATION BLOCK
#MNEM.UNIT           DATA                    DESCRIPTION OF MNEMONIC
#---------    -------------------            -------------------------------
# Generated from Intellog Unique Number	CW_73_75/WELL/529
WELL.         CZAR ET AL CHERPETA 06-06      : Well_name    - WELL
LOC .         00/06-06-074-19W4/0            : Location     - LOCATION
UWI .         00/06-06-074-19W4/0            : Uwi          - UNIQUE WELL ID
ENTR.         JAYE                           : Entered      - ENTERED BY
SRVC.         SCHLUMBERGER                   : Scn          - SERVICE COMPANY
DATE.         32 JAN 80                      : Date         - LOG DATE
STRT.M        370                            : top_depth    - START DEPTH
STOP.M        570                            : bot_depth    - STOP DEPTH
STEP.M        0.25                           : increment    - STEP LENGTH
 NULL. -999.2500:NULL Value
~CURVE INFORMATION BLOCK
#MNEM UNIT       ERCB CURVE CODE    CURVE DESCRIPTION
#-----------   ------------------   ----------------------------------
DEPT.M        00 001 00 00         : DEPTH        - DEPTH
GR  .API      00 310 00 00         : GR           - GAMMA RAY
CALI.MM       00 280 01 00         : CAL          - CALIPER
DPHI.V/V      00 890 00 00         : PHID         - DENSITY POROSITY (SANDSTONE)
NPHI.V/V      00 330 00 00         : PHIN         - NEUTRON POROSITY (SANDSTONE)
ILD .OHMM     00 120 00 00         : RESD         - DEEP RESISTIVITY (DIL)
~PARAMETER INFORMATION
#MNEM.UNIT           DATA             DESCRIPTION OF MNEMONIC
#---------         -----------     ------------------------------
GL  .M        687.19               : gl           - GROUND LEVEL ELEVATION
EREF.M        690.09               : kb           - ELEVATION OF DEPTH REFERENCE
DATM.M        687.19               : datum        - DATUM ELEVATION
TDD .M        605                  : tdd          - TOTAL DEPTH DRILLER
RUN .         ONE                  : Run          - RUN NUMBER
ENG .         SARK                 : Engineer     - RECORDING ENGINEER
WIT .         EARLE                : Witness      - WITNESSED BY
BASE.         EDMONTON             : Branch       - HOME BASE OF LOGGING UNIT
MUD .         GEL CHEM             : Mud_type     - MUD TYPE
MATR.         SANDSTONE            : Logunit      - NEUTRON MATRIX
TMAX.C        25                   : BHT          - MAXIMUM RECORDED TEMPERATURE
BHTD.M        604.5                : BHTDEP       - MAXIMUM RECORDED TEMPERATURE
RMT .C        20                   : MDTP         - TEMPERATURE OF MUD
MUDD.KG/M     1110                 : MWT          - MUD DENSITY
NEUT.         1                    : NEUTRON      - NEUTRON TYPE
RESI.         0                    : RESIST       - RESISTIVITY TYPE
RM  .OHMM     2.68                 : RM           - RESISTIVITY OF MUD
RMC .OHMM     0                    : RMC          - RESISTIVITY OF MUD CAKE
RMF .OHMM     3.14                 : RMF          - RESISTIVITY OF MUD FILTRATE
SUFT.C        4.5                  : SUFT         - SURFACE TEMPERATURE
~A  DEPTH       GR      CAL     PHID     PHIN     RESD
  370.000   89.307  229.007    0.414    0.583    2.738
  370.250   87.334  236.058    0.431    0.578    2.818
  370.500   87.631  242.494    0.430    0.574    2.928
  370.750   88.485  231.220    0.389    0.561    3.025
  371.000   89.215  224.861    0.336    0.555    3.040
  371.250   88.163  217.887    0.420    0.551    2.970
  371.500   85.084  229.033    0.441    0.560    2.902
  371.750   86.183  228.611    0.468    0.566    2.804
  372.000   88.018  252.348    0.498    0.558    2.704
  372.250   88.255  254.076    0.514    0.570    2.612
  372.500   88.248  250.583    0.412    0.584    2.600
  372.750   87.933  246.885    0.387    0.588    2.667
  373.000   87.434  240.321    0.399    0.563    2.782
  373.250   86.935  244.505    0.413    0.544    2.869
  373.500   86.375  233.539    0.412    0.558    2.942
  373.750   86.060  228.817    0.417    0.567    2.940
  374.000   86.606  238.222    0.412    0.546    2.851
  374.250   86.475  240.565    0.408    0.531    2.796
  374.500   86.345  228.163    0.434    0.523    2.778
  374.750   85.968  238.491    0.463    0.531    2.781
  375.000   85.530  241.755    0.454    0.560    2.810
  375.250   86.321  234.883    0.436    0.573    2.828
  375.500   86.990  234.869    0.480    0.584    2.901
  375.750   87.289  249.803    0.521    0.583    3.048
  376.000   85.070  226.963    0.445    0.567    3.477
  376.250   80.702  192.759    0.386    0.548    4.132
  376.500   74.368  174.627    0.328    0.518    5.212
  376.750   66.499  168.572    0.228    0.485    6.478
  377.000   65.017  167.436    0.237    0.379    9.088
  377.250   68.080  167.116    0.324    0.379    9.514
  377.500   75.567  167.820    0.336    0.382    8.595
  377.750   82.315  169.753    0.295    0.387    7.822
  378.000   86.361  172.196    0.258    0.392    7.309
  378.250   85.923  171.773    0.261    0.398    6.829
  378.500   86.223  170.738    0.258    0.403    6.512
  378.750   87.076  170.316    0.248    0.399    6.422
  379.000   90.200  170.199    0.261    0.391    6.357
  379.250   90.684  170.289    0.279    0.388    6.364
  379.500   90.370  170.277    0.303    0.393    6.406
  379.750   89.993  170.368    0.278    0.403    6.436
  380.000   90.231  170.764    0.250    0.396    6.371
  380.250   91.329  171.775    0.231    0.379    6.248
  380.500   93.901  173.912    0.232    0.376    6.015
  380.750   96.903  183.011    0.228    0.380    5.629
  381.000   97.755  188.833    0.314    0.401    5.220
  381.250   97.319  194.654    0.306    0.436    4.850
  381.500   95.038  196.998    0.352    0.458    4.625
  381.750   97.916  190.535    0.226    0.471    4.621
  382.000  101.473  195.743    0.271    0.484    4.784
  382.250  100.605  190.304    0.309    0.484    5.046
  382.500   98.816  183.229    0.337    0.467    5.472
  382.750   97.518  177.689    0.258    0.439    5.707
  383.000   95.054  177.676    0.257    0.420    5.821
  383.250   91.177  175.616    0.273    0.413    5.541
  383.500   89.818  177.239    0.256    0.428    5.284
  383.750   91.101  179.584    0.305    0.455    4.974
  384.000   91.031  186.532    0.297    0.467    4.717
  384.250   91.761  198.803    0.293    0.487    4.456
  384.500   94.517  204.625    0.326    0.499    4.338
  384.750   93.773  202.975    0.286    0.509    4.374
  385.000   89.465  209.208    0.310    0.520    4.588
  385.250   89.273  213.903    0.334    0.534    4.821
  385.500   90.433  215.937    0.367    0.526    5.180
  385.750   94.848  223.604    0.395    0.482    5.745
  386.000   95.331  216.220    0.354    0.427    6.255
  386.250   94.096  189.694    0.331    0.405    6.899
  386.500   92.614  190.806    0.317    0.413    7.581
  386.750   89.535  205.637    0.347    0.419    8.100
  387.000   85.106  208.286    0.312    0.393    8.803
  387.250   81.842  189.540    0.280    0.393   10.211
  387.500   76.000  182.157    0.278    0.399   12.643
  387.750   65.059  177.743    0.294    0.394   17.248
  388.000   52.521  176.093    0.314    0.330   24.155
  388.250   37.650  175.158    0.331    0.317   32.404
  388.500   29.412  175.862    0.341    0.321   37.308
  388.750   27.623  177.181    0.329    0.341   37.000
  389.000   28.843  177.884    0.328    0.362   34.375
  389.250   30.432  175.620    0.331    0.369   29.311
  389.500   31.347  172.843    0.334    0.363   22.555
  389.750   32.322  171.295    0.335    0.351   18.772
  390.000   33.605  170.259    0.336    0.345   15.565
  390.250   36.054  169.631    0.334    0.348   12.881
  390.500   39.547  169.209    0.331    0.344   10.902
  390.750   43.164  169.299    0.323    0.336    9.794
  391.000   49.421  169.491    0.294    0.335    8.897
  391.250   56.722  172.959    0.257    0.354    8.297
  391.500   65.621  174.993    0.261    0.388    7.825
  391.750   71.141  177.335    0.253    0.388    7.420
  392.000   77.890  179.165    0.259    0.379    7.076
  392.250   89.000  180.074    0.235    0.378    6.875
  392.500   88.378  180.880    0.255    0.411    6.717
  392.750   84.869  180.970    0.260    0.410    6.612
  393.000   86.275  180.240    0.276    0.397    6.472
  393.250   93.331  181.149    0.272    0.387    6.196
  393.500   95.964  182.365    0.233    0.383    5.735
  393.750   98.658  185.322    0.230    0.393    4.755
  394.000  103.626  191.041    0.246    0.416    3.920
  394.250  110.437  192.564    0.251    0.437    3.419
  394.500  115.711  194.395    0.228    0.470    3.026
  394.750  116.256  197.351    0.230    0.520    2.790
  395.000  116.556  205.424    0.221    0.535    2.701
  395.250  116.057  208.382    0.226    0.539    2.698
  395.500  112.364  210.109    0.221    0.539    2.731
  395.750  117.638  208.663    0.205    0.539    2.796
  396.000  120.272  202.917    0.217    0.540    2.889
  396.250  120.511  198.298    0.255    0.516    3.013
  396.500  119.029  193.576    0.297    0.525    3.262
  396.750  115.213  194.895    0.322    0.538    3.763
  397.000  109.125  211.056    0.339    0.542    4.599
  397.250  104.081  225.683    0.366    0.539    5.726
  397.500  106.898  231.915    0.360    0.502    6.017
  397.750  110.452  216.035    0.273    0.488    6.000
  398.000  109.094  206.809    0.250    0.488    5.896
  398.250  108.595  213.655    0.247    0.487    5.728
  398.500  111.351  218.966    0.270    0.486    5.472
  398.750  109.931  215.779    0.289    0.488    5.229
  399.000  105.931  212.593    0.319    0.493    4.931
  399.250  101.194  211.353    0.388    0.510    4.945
  399.500   96.396  211.442    0.440    0.527    5.167
  399.750   98.722  209.689    0.475    0.537    5.419
  400.000  103.997  217.150    0.465    0.534    5.631
  400.250  106.323  215.909    0.411    0.516    5.721
  400.500  102.876  199.619    0.317    0.499    5.717
  400.750   99.798  197.559    0.293    0.485    5.723
  401.000   97.026  194.680    0.269    0.453    5.835
  401.250   97.018  197.329    0.288    0.466    5.952
  401.500   98.792  198.442    0.292    0.486    6.093
  401.750   98.600  191.878    0.312    0.480    6.156
  402.000   92.389  191.967    0.271    0.476    6.117
  402.250   89.433  192.261    0.300    0.482    5.932
  402.500   89.610  190.919    0.291    0.475    5.753
  402.750   92.058  191.110    0.307    0.473    5.642
  403.000   93.647  192.325    0.322    0.493    5.574
  403.250   94.377  196.101    0.313    0.502    5.580
  403.500   94.800  200.389    0.340    0.505    5.765
  403.750   88.037  201.093    0.371    0.516    6.277
  404.000   81.272  200.465    0.399    0.528    7.146
  404.250   76.474  209.257    0.439    0.536    8.508
  404.500   70.631  211.292    0.366    0.499   10.055
  404.750   76.643  197.152    0.287    0.467   12.334
  405.000   83.883  190.382    0.306    0.463   15.130
  405.250   86.946  189.755    0.326    0.465   17.387
  405.500   85.894  190.151    0.336    0.453   18.579
  405.750   87.484  190.242    0.325    0.445   19.412
  406.000   88.889  189.818    0.321    0.444   19.835
  406.250   83.354  189.703    0.324    0.465   19.489
