~VERSION INFORMATION
 VERS.                 2.0:   CWLS LOG ASCII STANDARD -VERSION 2.0
 WRAP.                  NO:   ONE LINE PER DEPTH STEP
~WELL INFORMATION BLOCK
#MNEM.UNIT           DATA                    DESCRIPTION OF MNEMONIC
#---------    -------------------            -------------------------------
# Generated from Intellog Unique Number	CW_79_81/WELL/2463
WELL.         HB GODIN                       : Well_name    - WELL
LOC .         00/07-36-081-02W5/0            : Location     - LOCATION
UWI .         00/07-36-081-02W5/0            : Uwi          - UNIQUE WELL ID
ENTR.         MAX                            : Entered      - ENTERED BY
SRVC.         SCHLUMBERGER                   : Scn          - SERVICE COMPANY
STRT.M        243.84                         : top_depth    - START DEPTH
STOP.M        463.09                         : bot_depth    - STOP DEPTH
STEP.M        0.25                           : increment    - STEP LENGTH
 NULL. -999.2500:NULL Value
~CURVE INFORMATION BLOCK
#MNEM UNIT       ERCB CURVE CODE    CURVE DESCRIPTION
#-----------   ------------------   ----------------------------------
DEPT.M        00 001 00 00         : DEPTH        - DEPTH
ILD .OHMM     00 120 00 00         : RESD         - DEEP RESISTIVITY (DIL)
NPHI.V/V      00 330 00 00         : PHIN         - NEUTRON POROSITY (SANDSTONE)
DPHI.V/V      00 890 00 00         : PHID         - DENSITY POROSITY (SANDSTONE)
GR  .API      00 310 00 00         : GR           - GAMMA RAY
CALI.MM       00 280 01 00         : CAL          - CALIPER
~PARAMETER INFORMATION
#MNEM.UNIT           DATA             DESCRIPTION OF MNEMONIC
#---------         -----------     ------------------------------
GL  .M        578.206              : gl           - GROUND LEVEL ELEVATION
EREF.M        581.863              : kb           - ELEVATION OF DEPTH REFERENCE
DATM.M        578.206              : datum        - DATUM ELEVATION
TDD .M        457.81               : tdd          - TOTAL DEPTH DRILLER
RUN .         ONE                  : Run          - RUN NUMBER
ENG .         BILL                 : Engineer     - RECORDING ENGINEER
WIT .         JIM                  : Witness      - WITNESSED BY
MUD .         GEL                  : Mud_type     - MUD TYPE
MATR.         SANDSTONE            : Logunit      - NEUTRON MATRIX
TMAX.C        23.3333              : BHT          - MAXIMUM RECORDED TEMPERATURE
BHTD.M        457.81               : BHTDEP       - MAXIMUM RECORDED TEMPERATURE
MATR.         1                    : LOGUNIT      - NEUTRON MATRIX
RMT .C        15.5556              : MDTP         - TEMPERATURE OF MUD
NEUT.         1                    : NEUTRON      - NEUTRON TYPE
RESI.         0                    : RESIST       - RESISTIVITY TYPE
RMC .OHMM     6.42                 : RMC          - RESISTIVITY OF MUD CAKE
RMF .OHMM     6.17                 : RMF          - RESISTIVITY OF MUD FILTRATE
SUFT.C        -15                  : SUFT         - SURFACE TEMPERATURE
~A  DEPTH     RESD     PHIN     PHID       GR      CAL
# ...
  389.840   15.134    0.451    0.187   74.038  195.838
  390.090   16.676    0.467    0.194   72.793  195.331
  390.340   18.127    0.476    0.202   71.548  194.623
  390.590   20.121    0.462    0.212   70.841  193.760
  390.840   21.745    0.441    0.229   68.184  193.024
  391.090   23.232    0.425    0.218   66.588  192.727
  391.340   25.225    0.411    0.201   64.462  193.007
  391.590   27.469    0.400    0.180   63.099  193.689
  391.840   30.005    0.388    0.159   61.792  194.485
  392.090   34.348    0.349    0.123   56.814  194.929
  392.340   38.889    0.274    0.037   51.718  194.600
  392.590   44.602    0.240    0.006   49.409  194.283
  392.840   50.966    0.246    0.009   48.515  193.675
  393.090   57.418    0.282    0.045   49.274  193.368
  393.340   62.631    0.325    0.091   51.156  193.258
  393.590   63.969    0.333    0.083   52.824  192.562
  393.840   61.191    0.274    0.003   52.641  192.658
  394.090   56.496    0.236    0.017   54.813  192.741
  394.340   51.575    0.267    0.074   57.868  193.444
  394.590   46.217    0.331    0.135   61.696  194.330
  394.840   40.908    0.394    0.185   65.703  195.103
  395.090   35.389    0.422    0.232   68.736  195.704
  395.340   31.649    0.431    0.224   68.295  196.207
  395.590   28.150    0.452    0.211   70.000  195.909
  395.840   26.372    0.456    0.197   69.764  195.604
  396.090   25.370    0.448    0.191   69.462  195.098
  396.340   24.668    0.437    0.199   70.098  194.489
  396.590   23.535    0.437    0.226   72.502  194.111
  396.840   21.521    0.436    0.229   75.998  193.801
  397.090   16.309    0.427    0.211   79.589  194.682
  397.340   13.420    0.426    0.198   84.777  195.864
  397.590   11.460    0.440    0.189   91.437  196.745
  397.840    9.947    0.463    0.180   97.209  197.132
  398.090    8.570    0.471    0.173   96.677  197.253
  398.340    8.016    0.473    0.164   92.564  197.349
  398.590    7.850    0.472    0.142   92.377  197.433
  398.840    7.774    0.474    0.126   90.594  197.216
  399.090    7.866    0.473    0.129   89.465  196.900
  399.340    8.151    0.465    0.152   89.460  196.688
  399.590    8.682    0.445    0.179   88.307  196.724
  399.840    9.168    0.437    0.177   83.445  196.395
  400.090   10.223    0.448    0.166   79.015  196.487
  400.340   11.645    0.437    0.140   73.703  196.287
  400.590   13.653    0.418    0.097   69.510  196.179
  400.840   16.337    0.395    0.066   68.146  196.167
  401.090   19.378    0.363    0.118   72.123  195.885
  401.340   20.780    0.381    0.170   77.590  195.962
  401.590   19.759    0.409    0.183   83.303  195.646
  401.840   17.544    0.425    0.177   87.602  195.650
  402.090   14.358    0.430    0.168   90.374  195.942
  402.340   11.434    0.429    0.164   91.731  196.519
  402.590    9.363    0.433    0.171   91.333  197.428
  402.840    8.957    0.439    0.177   87.945  197.514
  403.090    8.900    0.445    0.164   89.891  197.616
  403.340    9.040    0.443    0.164   92.183  197.404
  403.590    9.217    0.444    0.171   93.058  197.088
  403.840    9.345    0.452    0.178   92.579  196.876
  404.090    9.452    0.462    0.176   92.601  197.082
  404.340    9.608    0.460    0.169   92.412  197.604
  404.590    9.689    0.463    0.165   92.703  197.297
  404.840    9.823    0.472    0.161   91.397  196.983
  405.090   10.014    0.474    0.156   90.621  196.662
  405.340   10.265    0.467    0.152   90.729  196.344
  405.590   10.615    0.452    0.158   89.827  195.897
  405.840   10.790    0.442    0.168   87.427  195.152
  406.090   10.568    0.447    0.166   89.373  194.845
  406.340   10.350    0.452    0.173   91.842  194.837
  406.590   10.249    0.448    0.174   93.545  194.920
  406.840   10.278    0.436    0.165   93.776  195.198
  407.090   10.367    0.426    0.154   92.280  196.196
  407.340   10.377    0.425    0.146   91.600  196.727
  407.590   10.239    0.427    0.155   92.367  196.819
  407.840   10.211    0.421    0.154   93.130  196.905
  408.090   10.184    0.415    0.154   95.186  196.988
  408.340   10.103    0.420    0.155   97.832  197.071
  408.590    9.939    0.450    0.153   98.224  197.173
  408.840    9.800    0.452    0.157   97.527  197.270
  409.090    9.739    0.454    0.151   96.880  197.752
  409.340    9.785    0.458    0.147   96.931  197.942
  409.590    9.867    0.445    0.145   96.038  197.835
  409.840    9.932    0.420    0.141   95.087  197.430
  410.090   10.005    0.408    0.121   97.073  196.584
  410.340   10.326    0.408    0.123   94.914  195.839
  410.590   10.952    0.410    0.168   90.247  195.142
  410.840   11.991    0.403    0.172   85.584  195.030
  411.090   13.339    0.388    0.157   82.222  195.113
  411.340   15.257    0.370    0.135   80.333  195.196
  411.590   19.823    0.355    0.100   78.580  195.298
  411.840   24.273    0.350    0.070   76.672  195.394
  412.090   25.748    0.350    0.062   75.306  196.694
  412.340   25.168    0.331    0.038   75.363  197.680
  412.590   21.824    0.318    0.047   76.950  198.566
  412.840   18.064    0.329    0.095   80.124  199.258
  413.090   15.516    0.393    0.153   85.342  199.367
  413.340   13.878    0.456    0.170   87.610  199.454
  413.590   11.976    0.451    0.154   87.434  199.546
  413.840   11.148    0.451    0.152   88.488  199.339
  414.090   10.844    0.451    0.157   90.546  199.032
  414.340   10.815    0.449    0.164   93.257  198.823
  414.590   10.941    0.442    0.170   96.640  198.844
  414.840   11.120    0.437    0.172   99.164  198.534
  415.090   11.132    0.449    0.179   99.444  198.607
  415.340   11.022    0.460    0.189   99.909  198.403
  415.590   10.835    0.462    0.190  100.788  198.291
  415.840   10.671    0.454    0.183  101.549  198.369
  416.090   10.682    0.442    0.175  101.148  198.566
  416.340   10.696    0.436    0.165  102.432  199.088
  416.590   10.787    0.425    0.151  105.788  199.171
  416.840   10.816    0.417    0.133  105.961  199.553
  417.090   10.748    0.413    0.127  103.184  200.254
  417.340   10.585    0.412    0.133   99.520  200.961
  417.590   10.337    0.413    0.146   99.123  201.052
  417.840   10.193    0.432    0.159  100.402  201.139
  418.090   10.054    0.445    0.163   99.283  201.222
  418.340   10.083    0.448    0.161   97.975  201.020
  418.590   10.168    0.446    0.157   97.552  200.717
  418.840   10.271    0.447    0.156   98.433  200.410
  419.090   10.467    0.452    0.157  100.392  199.954
  419.340   10.640    0.448    0.153  100.455  199.209
  419.590   10.497    0.429    0.146  100.734  198.893
  419.840   10.298    0.425    0.163  101.194  198.598
  420.090   10.123    0.434    0.172  101.718  198.291
  420.340    9.969    0.447    0.164  102.306  198.067
  420.590    9.751    0.447    0.159  103.088  198.086
  420.840    9.689    0.454    0.156  103.133  197.767
  421.090    9.768    0.462    0.149  103.188  197.850
  421.340   10.228    0.461    0.146  102.362  197.940
  421.590   10.893    0.451    0.137  100.289  198.241
  421.840   11.485    0.432    0.121   97.679  198.944
  422.090   11.530    0.414    0.106   97.213  200.410
  422.340   11.283    0.408    0.117  101.691  201.338
  422.590   10.809    0.428    0.121  104.811  201.412
  422.840   10.355    0.443    0.124  103.334  201.208
  423.090    9.885    0.456    0.128  100.323  200.905
  423.340    9.493    0.464    0.131   97.548  200.696
  423.590    9.352    0.453    0.131   95.392  200.713
  423.840    9.293    0.444    0.118   94.952  200.384
  424.090    9.302    0.438    0.099   97.128  200.494
  424.340    9.413    0.428    0.104   99.482  200.278
  424.590    9.492    0.421    0.116  101.656  200.162
  424.840    9.485    0.421    0.130  103.653  200.252
  425.090    9.429    0.431    0.150  105.652  200.354
  425.340    9.439    0.446    0.131  104.731  200.450
  425.590    9.588    0.440    0.124  104.534  200.561
  425.840    9.685    0.431    0.114  105.763  200.658
  426.090    9.836    0.432    0.124  104.639  200.746
