~VERSION INFORMATION
 VERS.                 2.0:   CWLS LOG ASCII STANDARD -VERSION 2.0
 WRAP.                  NO:   ONE LINE PER DEPTH STEP
~WELL INFORMATION BLOCK
#MNEM.UNIT           DATA                    DESCRIPTION OF MNEMONIC
#---------    -------------------            -------------------------------
# Generated from Intellog Unique Number	CS_67_68/WELL/2185
WELL.         CHIEFCO et al TWEEDIE          : Well_name    - WELL
LOC .         00/08-22-067-12W4/2            : Location     - LOCATION
UWI .         00/08-22-067-12W4/2            : Uwi          - UNIQUE WELL ID
ENTR.         SP                             : Entered      - ENTERED BY
SRVC.         SCHLUMBERGER                   : Scn          - SERVICE COMPANY
STRT.M        285                            : top_depth    - START DEPTH
STOP.M        455                            : bot_depth    - STOP DEPTH
STEP.M        0.25                           : increment    - STEP LENGTH
 NULL. -999.2500:NULL Value
~CURVE INFORMATION BLOCK
#MNEM UNIT       ERCB CURVE CODE    CURVE DESCRIPTION
#-----------   ------------------   ----------------------------------
DEPT.M        00 001 00 00         : DEPTH        - DEPTH
ILD .OHMM     00 120 00 00         : RESD         - DEEP RESISTIVITY (DIL)
DPHI.V/V      00 890 00 00         : PHID         - DENSITY POROSITY (LIMESTONE)
NPHI.V/V      00 330 00 00         : PHIN         - NEUTRON POROSITY (LIMESTONE)
GR  .API      00 310 00 00         : GR           - GAMMA RAY
CALI.MM       00 280 01 00         : CAL          - CALIPER
~PARAMETER INFORMATION
#MNEM.UNIT           DATA             DESCRIPTION OF MNEMONIC
#---------         -----------     ------------------------------
GL  .M        668.6                : gl           - GROUND LEVEL ELEVATION
EREF.M        671.6                : kb           - ELEVATION OF DEPTH REFERENCE
DATM.M        671.6                : datum        - DATUM ELEVATION
TDD .M        456.4                : tdd          - TOTAL DEPTH DRILLER
RUN .         ONE                  : Run          - RUN NUMBER
ENG .         BILL                 : Engineer     - RECORDING ENGINEER
WIT .         JIM                  : Witness      - WITNESSED BY
MUD .         GEL                  : Mud_type     - MUD TYPE
MATR.         LIMESTONE            : Logunit      - NEUTRON MATRIX
TMAX.C        11.7                 : BHT          - MAXIMUM RECORDED TEMPERATURE
BHTD.M        455.5                : BHTDEP       - MAXIMUM RECORDED TEMPERATURE
MATR.         1                    : LOGUNIT      - NEUTRON MATRIX
RMT .C        25                   : MDTP         - TEMPERATURE OF MUD
NEUT.         1                    : NEUTRON      - NEUTRON TYPE
RESI.         0                    : RESIST       - RESISTIVITY TYPE
RMC .OHMM     0.25                 : RMC          - RESISTIVITY OF MUD CAKE
RMF .OHMM     0.25                 : RMF          - RESISTIVITY OF MUD FILTRATE
SUFT.C        15                   : SUFT         - SURFACE TEMPERATURE
~A  DEPTH     RESD     PHID     PHIN       GR      CAL
# ...
  431.000    2.887    0.172    0.484   99.921  166.385
  431.250    2.886    0.208    0.488  100.159  166.377
  431.500    2.838    0.206    0.505  103.246  166.371
  431.750    2.859    0.195    0.512  105.545  166.262
  432.000    2.944    0.188    0.509  106.449  166.357
  432.250    3.026    0.182    0.497  105.657  166.350
  432.500    3.117    0.177    0.499  102.623  166.847
  432.750    3.263    0.172    0.508   99.164  167.043
  433.000    3.468    0.173    0.481  100.554  167.339
  433.250    3.796    0.191    0.454  103.399  167.837
  433.500    4.049    0.199    0.472   99.030  168.234
  433.750    4.327    0.141    0.453   89.875  168.732
  434.000    4.556    0.100    0.419   82.235  169.230
  434.250    4.406    0.091    0.402   86.352  169.829
  434.500    3.994    0.190    0.442   91.862  170.024
  434.750    3.785    0.207    0.469   95.797  170.017
  435.000    3.580    0.200    0.465   98.460  170.314
  435.250    3.412    0.191    0.457  104.456  170.206
  435.500    3.355    0.175    0.452  110.451  170.300
  435.750    3.317    0.161    0.460  109.538  170.191
  436.000    3.310    0.183    0.458  102.806  169.680
  436.250    3.267    0.164    0.459   99.893  168.460
  436.500    3.108    0.166    0.482  104.071  167.242
  436.750    2.907    0.156    0.515  106.976  165.921
  437.000    2.734    0.161    0.542  108.427  164.803
  437.250    2.664    0.158    0.524  109.816  163.785
  437.500    2.620    0.154    0.528  109.449  163.476
  437.750    2.590    0.172    0.536  106.050  163.368
  438.000    2.609    0.184    0.536  108.410  163.361
  438.250    2.672    0.176    0.522  110.042  163.656
  438.500    2.696    0.182    0.513  110.583  163.954
  438.750    2.711    0.182    0.518  109.307  164.754
  439.000    2.730    0.181    0.521  109.060  165.555
  439.250    2.750    0.183    0.523  110.631  166.558
  439.500    2.730    0.177    0.520  110.748  167.259
  439.750    2.729    0.172    0.513  110.199  167.959
  440.000    2.713    0.181    0.503  109.952  168.659
  440.250    2.658    0.178    0.497  112.554  169.662
  440.500    2.653    0.185    0.507  114.611  170.463
  440.750    2.692    0.200    0.516  111.394  171.163
  441.000    2.777    0.205    0.522  103.572  171.561
  441.250    2.973    0.204    0.530  100.235  172.564
  441.500    3.297    0.194    0.517   98.049  173.465
  441.750    3.697    0.173    0.504   93.681  174.065
  442.000    4.062    0.169    0.504   89.737  174.966
  442.250    4.479    0.158    0.464   86.945  175.465
  442.500    4.912    0.163    0.427   84.820  175.761
  442.750    5.346    0.144    0.407   79.664  176.158
  443.000    5.766    0.121    0.396   72.812  176.454
  443.250    6.208    0.100    0.375   66.201  176.245
  443.500    6.597    0.076    0.349   64.379  176.036
  443.750    6.819    0.089    0.334   67.526  176.029
  444.000    6.355    0.119    0.340   71.098  176.123
  444.250    6.273    0.137    0.344   75.094  176.218
  444.500    6.295    0.177    0.349   79.634  176.211
  444.750    6.364    0.143    0.353   82.782  175.092
  445.000    6.457    0.146    0.368   85.202  173.570
  445.250    6.824    0.158    0.377   81.683  172.653
  445.500    7.429    0.199    0.384   75.678  172.142
  445.750    8.252    0.217    0.394   68.584  171.529
  446.000    8.609    0.229    0.403   58.883  171.118
  446.250    8.736    0.241    0.375   57.181  170.706
  446.500    7.717    0.240    0.351   66.935  170.699
  446.750    6.880    0.212    0.357   79.961  170.592
  447.000    6.032    0.192    0.371   86.926  170.585
  447.250    5.888    0.164    0.381   90.740  170.679
  447.500    5.695    0.148    0.391   89.402  170.672
  447.750    5.652    0.126    0.402   87.762  170.766
  448.000    5.248    0.108    0.403   86.061  170.961
  448.250    4.250    0.149    0.392   77.511  171.357
  448.500    3.903    0.185    0.397   44.296  171.451
  448.750    3.624    0.216    0.382   22.595  171.546
  449.000    3.531    0.258    0.370   18.227  171.641
  449.250    3.745    0.280    0.361   18.586  171.330
  449.500    4.054    0.250    0.356   17.976  171.121
  449.750    4.521    0.213    0.345   19.548  170.711
  450.000    4.778    0.166    0.334   21.241  170.601
  450.250    5.115    0.153    0.324   23.600  170.494
  450.500    5.346    0.165    0.333   22.747  170.488
  450.750    5.495    0.177    0.346   20.076  170.581
  451.000    5.659    0.188    0.362   18.072  170.575
  451.250    5.669    0.181    0.378   18.796  170.669
  451.500    5.720    0.165    0.433   34.730  167.632
  451.750    5.783    0.155    0.442   72.665  167.726
  452.000    5.857    0.154    0.439   72.903  167.920
  452.250    5.835    0.165    0.445   72.778  168.015
  452.500    5.780    0.178    0.449   72.591  168.311
  452.750    5.447    0.161    0.448   72.406  168.505
  453.000    4.892    0.125    0.448   71.795  168.499
  453.250    4.468    0.132    0.452   71.670  168.591
  453.500    4.234    0.229    0.447   71.484  168.485
  453.750    4.264    0.245    0.448   71.418  168.276
  454.000    4.343    0.232    0.453   71.233  168.067
  454.250    4.399    0.212    0.457   71.048  167.554
  454.500    4.406    0.220    0.450   70.801  167.042
  454.750    4.309    0.226    0.448   70.492  166.632
  455.000    4.245    0.232    0.449   70.185  165.716
