~VERSION INFORMATION
 VERS.                 2.0:   CWLS LOG ASCII STANDARD -VERSION 2.0
 WRAP.                  NO:   ONE LINE PER DEPTH STEP
~WELL INFORMATION BLOCK
#MNEM.UNIT           DATA                    DESCRIPTION OF MNEMONIC
#---------    -------------------            -------------------------------
# Generated from Intellog Unique Number	CW_70_72/WELL/3004
NULL.         -999.25                        : NULL_VALUE
WELL.         SULPETRO BREND MITSUE 05-20    : Well_name    - WELL              
LOC .         05-20-070-05W5                 : Location     - LOCATION          
UWI .         00/05-20-070-05W5/0            : Uwi          - UNIQUE WELL ID    
ENTR.         JAYE                           : Entered      - ENTERED BY        
SRVC.         SCHLUMBERGER                   : Scn          - SERVICE COMPANY   
DATE.         5 FEB 80                       : Date         - LOG DATE          
STRT.M        635                            : top_depth    - START DEPTH       
STOP.M        885                            : bot_depth    - STOP DEPTH        
STEP.M        0.25                           : increment    - STEP LENGTH       
~CURVE INFORMATION BLOCK
#MNEM UNIT       ERCB CURVE CODE    CURVE DESCRIPTION
#-----------   ------------------   ----------------------------------
DEPT.M        00 001 00 00         : DEPTH        - DEPTH                       
ILD .OHMM     00 120 00 00         : RESD         - DEEP RESISTIVITY (DIL)      
CALI.MM       00 280 01 00         : CAL          - CALIPER                     
GR  .API      00 310 00 00         : GR           - GAMMA RAY                   
NPHI.V/V      00 330 00 00         : PHIN         - NEUTRON POROSITY (SANDSTONE)
DPHI.V/V      00 890 00 00         : PHID         - DENSITY POROSITY (SANDSTONE)
~PARAMETER INFORMATION       
#MNEM.UNIT           DATA             DESCRIPTION OF MNEMONIC
#---------         -----------     ------------------------------
GL  .M        738.2                : gl           - GROUND LEVEL ELEVATION      
EREF.M        742                  : kb           - ELEVATION OF DEPTH REFERENCE
DATM.M        738.2                : datum        - DATUM ELEVATION             
TDD .M        898                  : tdd          - TOTAL DEPTH DRILLER         
RUN .         ONE                  : Run          - RUN NUMBER                  
ENG .         DECKER               : Engineer     - RECORDING ENGINEER          
WIT .         CIAVARELLA           : Witness      - WITNESSED BY                
BASE.         EDM                  : Branch       - HOME BASE OF LOGGING UNIT   
MUD .         GEL CHEM             : Mud_type     - MUD TYPE                    
MATR.         SANDSTONE            : Logunit      - NEUTRON MATRIX              
TMAX.C        31.1                 : BHT          - MAXIMUM RECORDED TEMPERATURE
BHTD.M        899.5                : BHTDEP       - MAXIMUM RECORDED TEMPERATURE
RMT .C        12.7                 : MDTP         - TEMPERATURE OF MUD          
MUDD.KG/M     1000                 : MWT          - MUD DENSITY                 
NEUT.         1                    : NEUTRON      - NEUTRON TYPE                
RESI.         0                    : RESIST       - RESISTIVITY TYPE            
RM  .OHMM     0.25                 : RM           - RESISTIVITY OF MUD          
RMC .OHMM     0.25                 : RMC          - RESISTIVITY OF MUD CAKE     
RMF .OHMM     5                    : RMF          - RESISTIVITY OF MUD FILTRATE 
SUFT.C        0                    : SUFT         - SURFACE TEMPERATURE         
~A  DEPTH     RESD      CAL       GR     PHIN     PHID
# ...
  817.500    4.251  160.178  102.185    0.352    0.140
  817.750    4.017  158.972   97.694    0.374    0.154
  818.000    3.866  157.760   94.254    0.391    0.167
  818.250    3.735  156.757   92.540    0.381    0.180
  818.500    3.562  156.068   90.086    0.378    0.187
  818.750    3.416  155.890   85.842    0.388    0.193
  819.000    3.338  155.918   90.180    0.390    0.194
  819.250    3.286  155.740   95.015    0.381    0.182
  819.500    3.328  155.665   94.968    0.387    0.175
  819.750    3.416  155.481   93.750    0.395    0.173
  820.000    3.505  155.714   96.545    0.385    0.173
  820.250    3.582  155.847   94.896    0.378    0.162
  820.500    3.642  155.979   96.271    0.388    0.148
  820.750    3.667  156.111  100.239    0.388    0.141
  821.000    3.693  156.340   99.143    0.364    0.176
  821.250    3.726  156.574   97.742    0.345    0.162
  821.500    3.753  157.218   99.239    0.341    0.152
  821.750    3.778  157.968   99.935    0.347    0.129
  822.000    3.805  160.056  101.681    0.358    0.145
  822.250    3.853  161.112  105.032    0.362    0.157
  822.500    3.888  162.583  107.518    0.381    0.151
  822.750    3.873  163.634  108.461    0.400    0.159
  823.000    3.847  164.796  108.045    0.422    0.156
  823.250    3.802  164.000  106.764    0.422    0.161
  823.500    3.674  162.483  105.732    0.411    0.170
  823.750    3.471  160.554  104.884    0.422    0.162
  824.000    3.041  160.067  101.628    0.405    0.180
  824.250    2.600  161.022   98.371    0.403    0.201
  824.500    2.074  164.651   93.139    0.441    0.275
  824.750    1.549  173.529   88.585    0.531    0.312
  825.000    1.259  182.615   90.022    0.523    0.284
  825.250    1.087  179.041   95.534    0.533    0.310
  825.500    1.036  172.074   93.823    0.527    0.267
  825.750    1.044  170.143   91.680    0.506    0.250
  826.000    1.091  173.361   94.905    0.511    0.223
  826.250    1.139  179.871   93.996    0.520    0.254
  826.500    1.214  182.573   95.617    0.530    0.246
  826.750    1.325  178.383   89.213    0.538    0.169
  827.000    1.477  171.721   83.054    0.434    0.130
  827.250    1.728  165.057   77.698    0.365    0.095
  827.500    2.081  161.482   79.999    0.351    0.074
  827.750    2.842  161.205   87.303    0.368    0.098
  828.000    3.389  161.541   90.406    0.385    0.117
  828.250    3.349  162.183   92.831    0.398    0.136
  828.500    3.071  163.454   94.578    0.412    0.154
  828.750    2.945  163.990   96.507    0.427    0.165
  829.000    2.893  164.634   97.511    0.424    0.172
  829.250    2.947  164.869   91.723    0.411    0.155
  829.500    3.013  164.900   90.691    0.403    0.157
  829.750    3.081  165.026   89.411    0.398    0.157
  830.000    3.113  164.950   98.072    0.395    0.147
  830.250    3.146  165.081   96.918    0.389    0.140
  830.500    3.157  166.032   94.340    0.378    0.135
  830.750    3.173  166.888   92.936    0.382    0.142
  831.000    3.177  167.429   92.580    0.401    0.146
  831.250    3.230  167.250   93.523    0.400    0.120
  831.500    3.296  167.072   96.133    0.394    0.123
  831.750    3.344  166.795   96.152    0.386    0.140
  832.000    3.419  166.614   93.883    0.377    0.146
  832.250    3.417  166.233   94.948    0.364    0.149
  832.500    3.345  165.948  100.398    0.363    0.156
  832.750    3.226  165.869  102.207    0.375    0.164
  833.000    3.135  165.591  102.657    0.390    0.154
  833.250    3.092  164.795  102.609    0.390    0.148
  833.500    3.138  163.999  101.083    0.397    0.134
  833.750    3.171  163.410   99.123    0.396    0.151
  834.000    3.254  163.951   97.040    0.382    0.139
  834.250    3.353  164.595   98.971    0.367    0.128
  834.500    3.446  164.830  100.469    0.355    0.140
  834.750    3.563  165.370  101.041    0.353    0.134
  835.000    3.677  165.602   96.674    0.342    0.127
  835.250    3.801  163.990   95.269    0.355    0.108
  835.500    3.908  165.864   93.125    0.375    0.129
  835.750    4.024  165.171   88.510    0.339    0.089
  836.000    4.114  163.037   96.678    0.342    0.111
  836.250    4.081  165.638  102.993    0.374    0.155
  836.500    3.693  170.095  103.503    0.408    0.164
  836.750    3.152  172.798  103.520    0.419    0.143
  837.000    2.895  173.853  102.921    0.407    0.154
  837.250    2.734  173.571   99.231    0.390    0.142
  837.500    2.692  172.264  100.976    0.401    0.140
  837.750    2.788  171.155  100.685    0.409    0.141
  838.000    2.960  169.433   98.106    0.406    0.118
  838.250    3.178  166.378   99.729    0.391    0.132
  838.500    3.490  164.650   95.794    0.364    0.096
  838.750    3.738  162.930   88.153    0.345    0.042
  839.000    4.066  162.957   92.677    0.340    0.062
  839.250    4.349  165.250   97.758    0.385    0.103
  839.500    4.379  167.233  101.294    0.421    0.127
  839.750    3.955  167.875  106.682    0.420    0.157
  840.000    3.124  166.058  104.106    0.406    0.135
  840.250    2.682  165.054   99.368    0.388    0.126
  840.500    2.645  163.949   96.730    0.366    0.117
  840.750    3.050  162.839  101.191    0.342    0.102
  841.000    3.438  161.531  106.457    0.330    0.086
  841.250    3.847  160.844  108.943    0.351    0.092
  841.500    4.038  160.969  109.083    0.366    0.120
  841.750    4.013  161.716  106.507    0.365    0.116
  842.000    3.996  162.875  108.190    0.356    0.110
  842.250    3.934  162.800  110.988    0.368    0.111
  842.500    3.880  162.313  109.645    0.376    0.118
  842.750    3.799  161.725  103.423    0.364    0.126
  843.000    3.678  161.547  101.711    0.355    0.124
  843.250    3.573  161.265  101.357    0.363    0.116
  843.500    3.427  161.190  101.929    0.372    0.111
  843.750    3.337  161.320  104.664    0.379    0.139
  844.000    3.211  161.243  108.261    0.398    0.142
  844.250    3.062  162.095  112.044    0.410    0.144
  844.500    2.920  163.049  116.878    0.417    0.150
  844.750    2.682  164.519  123.069    0.425    0.158
  845.000    2.592  165.984  118.702    0.438    0.148
  845.250    2.624  168.277  110.011    0.407    0.129
  845.500    2.775  165.734  101.629    0.381    0.110
  845.750    3.076  160.516   92.692    0.361    0.141
  846.000    3.455  159.100   74.182    0.342    0.156
  846.250    3.729  158.817   67.036    0.328    0.175
  846.500    3.686  158.433   64.767    0.326    0.213
  846.750    3.561  158.051   67.254    0.328    0.209
  847.000    3.586  157.664   68.197    0.325    0.189
  847.250    3.793  157.587   67.041    0.317    0.156
  847.500    3.995  157.518   64.093    0.275    0.084
  847.750    4.676  157.644   72.446    0.247    0.054
  848.000    5.271  158.186   89.876    0.289    0.126
  848.250    3.112  159.035  101.564    0.334    0.153
  848.500    2.096  169.766  114.178    0.418    0.170
  848.750    1.691  179.778  116.234    0.524    0.190
  849.000    1.687  175.380  115.261    0.519    0.188
  849.250    1.751  172.217  114.289    0.520    0.171
  849.500    1.834  169.569  109.614    0.493    0.180
  849.750    1.914  169.190  109.691    0.472    0.172
  850.000    2.058  169.624  112.116    0.462    0.184
  850.250    2.193  167.800  108.674    0.478    0.175
  850.500    2.285  167.209  103.937    0.494    0.168
  850.750    2.211  169.294  104.941    0.507    0.174
  851.000    2.073  172.721  107.427    0.529    0.159
  851.250    2.068  171.102  105.407    0.522    0.166
  851.500    2.453  165.981   93.381    0.481    0.191
  851.750    3.511  161.686   79.564    0.391    0.132
  852.000    4.714  160.172   74.148    0.336    0.072
  852.250    6.235  159.274   74.103    0.313    0.064
  852.500    7.795  159.197   77.330    0.292    0.094
  852.750    9.278  159.326   83.895    0.273    0.126
  853.000    9.905  159.769   87.676    0.294    0.130
  853.250    9.079  159.691   91.644    0.299    0.120
  853.500    7.912  159.720   95.428    0.299    0.114
  853.750    7.238  159.853   99.396    0.299    0.124
