~VERSION INFORMATION
 VERS.                 2.0:   CWLS LOG ASCII STANDARD -VERSION 2.0
 WRAP.                  NO:   ONE LINE PER DEPTH STEP
~WELL INFORMATION BLOCK
#MNEM.UNIT           DATA                    DESCRIPTION OF MNEMONIC
#---------    -------------------            -------------------------------
# Generated from Intellog Unique Number	CS_67_68/WELL/2174
WELL.         CHIEFCO et al TWEEDIE          : Well_name    - WELL
LOC .         00/07-02-067-12W4/0            : Location     - LOCATION
UWI .         00/07-02-067-12W4/0            : Uwi          - UNIQUE WELL ID
ENTR.         SP                             : Entered      - ENTERED BY
SRVC.         SCHLUMBERGER                   : Scn          - SERVICE COMPANY
STRT.M        330                            : top_depth    - START DEPTH
STOP.M        540                            : bot_depth    - STOP DEPTH
STEP.M        0.25                           : increment    - STEP LENGTH
 NULL. -999.2500:NULL Value
~CURVE INFORMATION BLOCK
#MNEM UNIT       ERCB CURVE CODE    CURVE DESCRIPTION
#-----------   ------------------   ----------------------------------
DEPT.M        00 001 00 00         : DEPTH        - DEPTH
ILD .OHMM     00 120 00 00         : RESD         - DEEP RESISTIVITY (DIL)
DPHI.V/V      00 890 00 00         : PHID         - DENSITY POROSITY (LIMESTONE)
NPHI.V/V      00 330 00 00         : PHIN         - NEUTRON POROSITY (LIMESTONE)
GR  .API      00 310 00 00         : GR           - GAMMA RAY
CALI.MM       00 280 01 00         : CAL          - CALIPER
~PARAMETER INFORMATION
#MNEM.UNIT           DATA             DESCRIPTION OF MNEMONIC
#---------         -----------     ------------------------------
GL  .M        607.4                : gl           - GROUND LEVEL ELEVATION
EREF.M        610.8                : kb           - ELEVATION OF DEPTH REFERENCE
DATM.M        610.8                : datum        - DATUM ELEVATION
TDD .M        545                  : tdd          - TOTAL DEPTH DRILLER
RUN .         ONE                  : Run          - RUN NUMBER
ENG .         BILL                 : Engineer     - RECORDING ENGINEER
WIT .         JIM                  : Witness      - WITNESSED BY
MUD .         GEL                  : Mud_type     - MUD TYPE
MATR.         LIMESTONE            : Logunit      - NEUTRON MATRIX
TMAX.C        28                   : BHT          - MAXIMUM RECORDED TEMPERATURE
BHTD.M        544.7                : BHTDEP       - MAXIMUM RECORDED TEMPERATURE
MATR.         1                    : LOGUNIT      - NEUTRON MATRIX
RMT .C        25                   : MDTP         - TEMPERATURE OF MUD
NEUT.         1                    : NEUTRON      - NEUTRON TYPE
RESI.         0                    : RESIST       - RESISTIVITY TYPE
RMC .OHMM     0.25                 : RMC          - RESISTIVITY OF MUD CAKE
RMF .OHMM     0.25                 : RMF          - RESISTIVITY OF MUD FILTRATE
SUFT.C        15                   : SUFT         - SURFACE TEMPERATURE
~A  DEPTH     RESD     PHID     PHIN       GR      CAL
# ...
  403.000    2.837    0.213    0.401  109.341  148.972
  403.250    2.914    0.186    0.391  109.407  148.980
  403.500    3.010    0.218    0.380   99.126  149.193
  403.750    3.109    0.236    0.371   91.784  149.302
  404.000    3.181    0.241    0.366   86.341  149.515
  404.250    3.212    0.229    0.364   92.224  149.625
  404.500    3.212    0.221    0.359   95.840  150.551
  404.750    3.232    0.212    0.354  100.681  151.273
  405.000    3.313    0.201    0.352   97.013  153.731
  405.250    3.474    0.190    0.352   94.323  156.799
  405.500    3.602    0.181    0.368   91.207  158.746
  405.750    3.699    0.201    0.379   89.926  158.244
  406.000    3.742    0.226    0.391   90.052  155.295
  406.250    3.673    0.246    0.411   90.792  153.056
  406.500    3.413    0.261    0.442   90.796  152.044
  406.750    3.189    0.247    0.433   92.883  153.072
  407.000    3.025    0.227    0.423  103.418  157.468
  407.250    2.886    0.202    0.519  114.076  171.149
  407.500    2.733    0.210    0.530  116.774  182.279
  407.750    2.539    0.211    0.529  112.985  189.328
  408.000    2.404    0.221    0.530  110.294  191.989
  408.250    2.281    0.249    0.536  107.116  192.100
  408.500    2.168    0.275    0.532  105.222  188.332
  408.750    2.132    0.294    0.505  101.493  170.279
  409.000    2.261    0.278    0.440   97.579  160.390
  409.250    2.476    0.260    0.433   95.748  155.704
  409.500    2.722    0.241    0.424   95.079  155.100
  409.750    2.893    0.225    0.416   96.002  156.128
  410.000    3.056    0.219    0.408   96.680  158.177
  410.250    3.260    0.222    0.437   90.379  159.615
  410.500    3.406    0.216    0.435   90.139  160.233
  410.750    3.498    0.209    0.428   93.878  160.242
  411.000    3.486    0.208    0.420   95.047  159.638
  411.250    3.428    0.213    0.441   94.378  158.931
  411.500    3.364    0.223    0.452   94.627  157.001
  411.750    3.289    0.230    0.460   93.775  155.171
  412.000    3.204    0.242    0.440   91.699  152.220
  412.250    3.127    0.253    0.441   89.928  148.350
  412.500    3.063    0.272    0.450   88.463  145.300
  412.750    2.873    0.285    0.455   87.182  144.388
  413.000    2.566    0.297    0.451   84.677  144.089
  413.250    2.397    0.296    0.446   82.661  144.097
  413.500    2.296    0.301    0.439   79.361  145.023
  413.750    2.236    0.303    0.430   76.242  145.643
  414.000    2.187    0.292    0.428   73.186  144.631
  414.250    2.159    0.280    0.451   70.864  142.394
  414.500    2.159    0.277    0.465   69.277  141.484
  414.750    2.172    0.299    0.452   69.956  142.515
  415.000    2.197    0.313    0.440   70.879  143.541
  415.250    2.206    0.321    0.442   69.230  144.569
  415.500    2.223    0.320    0.445   68.011  144.985
  415.750    2.211    0.318    0.430   69.118  144.893
  416.000    2.174    0.318    0.433   70.591  144.493
  416.250    2.175    0.319    0.441   70.719  144.091
  416.500    2.302    0.294    0.448   68.888  143.794
  416.750    2.644    0.220    0.220   66.443  144.617
  417.000    3.287    0.096    0.196   60.204  146.666
  417.250    4.844    0.010    0.171   56.351  148.511
  417.500    6.797    0.000    0.149   52.192  150.049
  417.750    8.809    0.000    0.135   51.768  150.669
  418.000   11.924    0.027    0.277   55.141  150.372
  418.250   13.953    0.109    0.323   58.941  149.259
  418.500   13.983    0.228    0.355   63.293  148.347
  418.750    8.652    0.267    0.372   68.197  147.029
  419.000    5.058    0.301    0.389   70.955  146.119
  419.250    3.512    0.306    0.406   74.634  145.513
  419.500    2.696    0.296    0.420   78.863  144.705
  419.750    2.349    0.287    0.426   84.623  144.511
  420.000    2.262    0.286    0.437   86.220  144.722
  420.250    2.289    0.286    0.446   82.674  145.138
  420.500    2.298    0.286    0.435   80.903  145.860
  420.750    2.277    0.286    0.445   79.500  146.992
  421.000    2.264    0.296    0.438   77.973  147.611
  421.250    2.265    0.306    0.427   75.897  147.720
  421.500    2.261    0.301    0.420   75.412  147.626
  421.750    2.257    0.288    0.427   77.560  147.124
  422.000    2.262    0.286    0.434   78.054  146.929
  422.250    2.245    0.307    0.442   77.080  147.040
  422.500    2.263    0.304    0.461   77.084  146.638
  422.750    2.285    0.301    0.453   76.966  146.238
  423.000    2.343    0.304    0.439   78.073  145.226
  423.250    2.383    0.287    0.427   79.854  145.030
  423.500    2.466    0.265    0.419   81.817  145.241
  423.750    2.701    0.247    0.413   80.169  145.454
  424.000    3.009    0.256    0.426   78.276  145.565
  424.250    3.290    0.266    0.416   82.934  145.674
  424.500    3.456    0.252    0.406   87.163  145.990
  424.750    3.577    0.246    0.402   89.617  146.098
  425.000    3.667    0.246    0.404   85.275  146.413
  425.250    3.675    0.250    0.405   84.116  146.522
  425.500    3.634    0.248    0.416   87.857  147.142
  425.750    3.506    0.239    0.430   89.575  147.866
  426.000    3.339    0.246    0.444   90.682  148.077
  426.250    3.253    0.237    0.439   93.319  148.289
  426.500    3.204    0.230    0.430   95.405  148.400
  426.750    3.175    0.223    0.431   97.063  149.325
  427.000    3.224    0.223    0.433   97.742  150.456
  427.250    3.324    0.221    0.424   97.930  152.812
  427.500    3.407    0.217    0.411   96.282  154.859
  427.750    3.526    0.220    0.420   97.083  157.012
  428.000    3.635    0.223    0.447   97.761  157.732
  428.250    3.609    0.220    0.474   95.807  156.720
  428.500    3.502    0.214    0.460   95.382  154.177
  428.750    3.490    0.219    0.448   96.001  152.655
  429.000    3.577    0.220    0.436   96.617  151.642
  429.250    3.612    0.219    0.425   97.234  150.938
  429.500    3.640    0.212    0.415   97.239  150.331
  429.750    3.655    0.218    0.408   94.673  149.116
  430.000    3.656    0.223    0.422   93.392  148.206
  430.250    3.629    0.216    0.432   94.008  147.907
  430.500    3.582    0.212    0.434   95.054  148.017
  430.750    3.583    0.215    0.432   96.100  148.946
  431.000    3.557    0.221    0.436   97.207  149.565
  431.250    3.491    0.225    0.438   98.436  150.592
  431.500    3.420    0.225    0.440  100.461  151.315
  431.750    3.401    0.222    0.433  102.670  151.833
  432.000    3.422    0.212    0.436  105.920  151.636
  432.250    3.494    0.209    0.449  108.495  150.216
  432.500    3.630    0.215    0.447  111.684  149.205
  432.750    3.644    0.211    0.452  114.750  148.600
  433.000    3.570    0.200    0.466  115.734  148.302
  433.250    3.432    0.195    0.471  110.658  148.515
  433.500    3.237    0.199    0.463  106.805  148.625
  433.750    3.025    0.207    0.458  102.524  148.735
  434.000    2.947    0.219    0.465  103.570  148.843
  434.250    2.942    0.230    0.470  103.452  149.160
  434.500    2.987    0.244    0.466  100.335  149.268
  434.750    3.045    0.250    0.462   97.156  149.276
  435.000    3.121    0.253    0.454   95.140  149.589
  435.250    3.224    0.256    0.441   94.350  149.598
  435.500    3.318    0.244    0.434   96.130  149.607
  435.750    3.388    0.231    0.435   97.727  149.818
  436.000    3.421    0.229    0.429   98.772  150.745
  436.250    3.435    0.237    0.422  100.063  151.875
  436.500    3.423    0.241    0.415   98.230  153.108
  436.750    3.398    0.242    0.413   95.113  153.829
  437.000    3.379    0.235    0.427   98.547  154.042
  437.250    3.367    0.229    0.446  100.694  153.641
  437.500    3.286    0.227    0.453   95.862  152.322
  437.750    3.189    0.254    0.432   86.316  151.210
  438.000    2.941    0.280    0.407   71.444  150.401
  438.250    2.572    0.321    0.397   67.346  149.286
  438.500    2.301    0.318    0.394   66.678  149.192
  438.750    2.146    0.310    0.410   67.723  149.710
  439.000    2.032    0.300    0.430   69.258  150.942
  439.250    2.006    0.283    0.450   72.080  151.664
