~VERSION INFORMATION
 VERS.                 2.0:   CWLS LOG ASCII STANDARD -VERSION 2.0
 WRAP.                  NO:   ONE LINE PER DEPTH STEP
~WELL INFORMATION BLOCK
#MNEM.UNIT           DATA                    DESCRIPTION OF MNEMONIC
#---------    -------------------            -------------------------------
# Generated from Intellog Unique Number	CS_73_76/WELL/2107
WELL.         W.W. BECKER OIL & GAS LTD      : Well_name    - WELL
LOC .         00/07-12-075-13W4/0            : Location     - LOCATION
UWI .         00/07-12-075-13W4/0            : Uwi          - UNIQUE WELL ID
ENTR.         SP                             : Entered      - ENTERED BY
SRVC.         SCHLUMBERGER                   : Scn          - SERVICE COMPANY
STRT.M        313.944                        : top_depth    - START DEPTH
STOP.M        530.194                        : bot_depth    - STOP DEPTH
STEP.M        0.25                           : increment    - STEP LENGTH
 NULL. -999.2500:NULL Value
~CURVE INFORMATION BLOCK
#MNEM UNIT       ERCB CURVE CODE    CURVE DESCRIPTION
#-----------   ------------------   ----------------------------------
DEPT.M        00 001 00 00         : DEPTH        - DEPTH
GR  .API      00 310 00 00         : GR           - GAMMA RAY
DPHI.V/V      00 890 00 00         : PHID         - DENSITY POROSITY (SANDSTONE)
NPHI.V/V      00 330 00 00         : PHIN         - NEUTRON POROSITY (SANDSTONE)
ILD .OHMM     00 120 00 00         : RESD         - DEEP RESISTIVITY (DIL)
~PARAMETER INFORMATION
#MNEM.UNIT           DATA             DESCRIPTION OF MNEMONIC
#---------         -----------     ------------------------------
GL  .M        682.021              : gl           - GROUND LEVEL ELEVATION
EREF.M        685.19               : kb           - ELEVATION OF DEPTH REFERENCE
DATM.M        682.021              : datum        - DATUM ELEVATION
TDD .M        533.4                : tdd          - TOTAL DEPTH DRILLER
RUN .         ONE                  : Run          - RUN NUMBER
ENG .         BILL                 : Engineer     - RECORDING ENGINEER
WIT .         JIM                  : Witness      - WITNESSED BY
MUD .         GEL                  : Mud_type     - MUD TYPE
MATR.         SANDSTONE            : Logunit      - NEUTRON MATRIX
TMAX.C        18.8889              : BHT          - MAXIMUM RECORDED TEMPERATURE
BHTD.M        554.126              : BHTDEP       - MAXIMUM RECORDED TEMPERATURE
MATR.         1                    : LOGUNIT      - NEUTRON MATRIX
RMT .C        25                   : MDTP         - TEMPERATURE OF MUD
NEUT.         1                    : NEUTRON      - NEUTRON TYPE
RESI.         0                    : RESIST       - RESISTIVITY TYPE
RMC .OHMM     0.25                 : RMC          - RESISTIVITY OF MUD CAKE
RMF .OHMM     0.25                 : RMF          - RESISTIVITY OF MUD FILTRATE
SUFT.C        15                   : SUFT         - SURFACE TEMPERATURE
~A  DEPTH       GR     PHID     PHIN     RESD
# ...
  487.944   61.017    0.112    0.456    4.974
  488.194   61.891    0.094    0.449    4.992
  488.444   61.864    0.159    0.459    5.258
  488.694   60.838    0.171    0.470    5.547
  488.944   59.626    0.167    0.479    6.483
  489.194   57.669    0.178    0.446    7.565
  489.444   56.672    0.192    0.422    9.298
  489.694   56.578    0.202    0.402   11.706
  489.944   58.675    0.216    0.395   14.025
  490.194   59.285    0.227    0.410   16.493
  490.444   58.197    0.240    0.420   18.542
  490.694   55.685    0.239    0.431   19.745
  490.944   53.428    0.231    0.436   19.897
  491.194   51.022    0.232    0.415   19.526
  491.444   54.002    0.219    0.400   17.947
  491.694   58.795    0.205    0.392   15.734
  491.944   61.833    0.191    0.399   13.066
  492.194   66.873    0.188    0.387   10.653
  492.444   69.750    0.180    0.377    8.905
  492.694   71.586    0.164    0.392    7.653
  492.944   72.609    0.176    0.415    6.811
  493.194   69.762    0.185    0.425    6.381
  493.444   68.390    0.182    0.431    6.506
  493.694   66.467    0.180    0.421    6.948
  493.944   63.095    0.191    0.411    8.874
  494.194   57.788    0.205    0.423   11.267
  494.444   52.146    0.232    0.430   15.440
  494.694   46.296    0.268    0.414   21.933
  494.944   42.585    0.285    0.390   27.730
  495.194   41.507    0.295    0.370   31.279
  495.444   42.589    0.309    0.379   31.474
  495.694   43.590    0.293    0.388   30.600
  495.944   44.602    0.287    0.403   28.204
  496.194   45.537    0.270    0.398   23.673
  496.444   46.995    0.246    0.393   21.964
  496.694   47.634    0.236    0.387   19.946
  496.944   48.108    0.229    0.391   17.967
  497.194   48.693    0.240    0.392   15.367
  497.444   46.914    0.235    0.365   13.827
  497.694   44.854    0.227    0.373   12.472
  497.944   44.791    0.234    0.376   11.343
  498.194   47.528    0.218    0.355   11.092
  498.444   48.810    0.199    0.345   11.232
  498.694   51.713    0.187    0.349   11.373
  498.944   53.643    0.179    0.362   12.134
  499.194   53.167    0.181    0.375   12.749
  499.444   51.152    0.190    0.365   13.709
  499.694   49.818    0.204    0.371   14.578
  499.944   46.151    0.210    0.369   15.334
  500.194   43.229    0.224    0.362   16.523
  500.444   39.661    0.234    0.372   18.448
  500.694   37.076    0.249    0.383   19.834
  500.944   35.527    0.264    0.395   22.227
  501.194   35.168    0.269    0.402   24.479
  501.444   35.066    0.251    0.396   25.988
  501.694   36.578    0.245    0.388   19.547
  501.944   43.227    0.253    0.378   13.642
  502.194   49.944    0.258    0.374   10.009
  502.444   56.940    0.238    0.389    7.845
  502.694   60.080    0.182    0.417    7.359
  502.944   55.986    0.123    0.461   10.537
  503.194   50.960    0.150    0.475   14.952
  503.444   49.261    0.198    0.440   17.520
  503.694   52.082    0.235    0.394   19.604
  503.944   54.674    0.230    0.391   16.862
  504.194   56.477    0.241    0.400   14.471
  504.444   58.063    0.219    0.407   12.819
  504.694   59.227    0.191    0.409   11.792
  504.944   57.812    0.166    0.399   11.368
  505.194   55.304    0.197    0.394   11.441
  505.444   53.819    0.242    0.401   12.068
  505.694   53.958    0.256    0.409   14.323
  505.944   54.900    0.279    0.417   19.346
  506.194   57.505    0.288    0.423   23.962
  506.444   60.122    0.296    0.428   29.402
  506.694   61.796    0.297    0.419   31.667
  506.944   59.934    0.294    0.421   33.146
  507.194   57.575    0.286    0.432   29.198
  507.444   57.875    0.275    0.437   26.580
  507.694   59.497    0.263    0.431   23.410
  507.944   59.979    0.250    0.424   22.169
  508.194   61.082    0.230    0.418   20.682
  508.444   61.524    0.207    0.406   18.898
  508.694   64.103    0.166    0.374   17.563
  508.944   68.511    0.136    0.342   15.203
  509.194   73.838    0.140    0.365   13.787
  509.444   79.982    0.205    0.394   12.009
  509.694   84.059    0.209    0.406   10.254
  509.944   88.742    0.188    0.392    8.527
  510.194   92.208    0.170    0.385    7.636
  510.444   94.637    0.166    0.398    7.186
  510.694   97.157    0.166    0.388    7.114
  510.944   89.972    0.162    0.396    7.122
  511.194   79.918    0.167    0.399    7.145
  511.444   74.775    0.172    0.410    7.381
  511.694   73.053    0.177    0.396    7.601
  511.944   72.861    0.184    0.380    8.024
  512.194   71.366    0.205    0.394    8.674
  512.444   66.216    0.183    0.390    9.279
  512.694   43.810    0.169    0.397   11.997
  512.944   33.249    0.186    0.404   15.665
  513.194   28.694    0.225    0.409   17.528
  513.444   29.856    0.245    0.415   18.884
  513.694   33.288    0.273    0.392   19.089
  513.944   36.591    0.270    0.381   17.410
  514.194   40.607    0.263    0.371   15.171
  514.444   44.910    0.253    0.368   13.829
  514.694   43.728    0.243    0.377   12.968
  514.944   43.826    0.252    0.389   12.383
  515.194   44.789    0.263    0.396   12.029
  515.444   45.798    0.230    0.379   11.146
  515.694   48.439    0.208    0.367   10.025
  515.944   50.290    0.188    0.357    9.130
  516.194   53.102    0.175    0.350    8.154
  516.444   58.821    0.199    0.362    7.633
  516.694   61.703    0.222    0.371    7.398
  516.944   66.948    0.234    0.365    7.468
  517.194   68.852    0.202    0.355    7.647
  517.444   70.320    0.177    0.362    8.005
  517.694   68.378    0.150    0.370    8.650
  517.944   62.376    0.154    0.374    9.483
  518.194   53.873    0.183    0.371   10.432
  518.444   47.511    0.196    0.366   12.229
  518.694   43.112    0.211    0.381   13.467
  518.944   43.445    0.227    0.392   14.449
  519.194   44.446    0.234    0.393   14.707
  519.444   45.659    0.223    0.383   14.175
  519.694   47.051    0.232    0.388   12.636
  519.944   46.991    0.236    0.391   11.178
  520.194   37.113    0.218    0.379   10.214
  520.444   22.042    0.205    0.371    9.267
  520.694   11.921    0.211    0.368    8.466
  520.944    7.983    0.211    0.379    7.528
  521.194   12.611    0.213    0.384    6.794
  521.444   20.691    0.249    0.379    5.994
  521.694   29.653    0.263    0.374    5.548
  521.944   32.619    0.271    0.366    5.298
  522.194   32.316    0.273    0.373    5.282
  522.444   31.971    0.273    0.380    5.394
  522.694   32.556    0.269    0.387    5.457
  522.944   33.601    0.278    0.384    5.625
  523.194   35.567    0.283    0.382    6.034
  523.444   43.088    0.291    0.377    6.566
  523.694   54.454    0.250    0.369    6.856
  523.944   62.651    0.201    0.362    7.275
  524.194   62.412    0.160    0.361    7.759
  524.444   51.001    0.143    0.382    7.878
  524.694   38.990    0.146    0.388    8.014
  524.944   28.183    0.159    0.379    7.940
  525.194   24.233    0.169    0.367    7.851
  525.444   24.744    0.171    0.352    7.470
  525.694   24.550    0.155    0.365    7.256
  525.944   23.507    0.152    0.369    7.042
  526.194   19.423    0.165    0.368    6.830
  526.444   12.633    0.176    0.376    6.595
  526.694   11.482    0.192    0.380    6.312
  526.944   38.559    0.201    0.396    6.080
  527.194   45.602    0.223    0.421    5.608
  527.444   44.831    0.249    0.415    5.363
  527.694   43.668    0.243    0.402    5.177
  527.944   40.818    0.228    0.394    5.249
  528.194   35.284    0.251    0.412    5.409
  528.444   30.773    0.274    0.418    5.637
  528.694   26.518    0.267    0.412    6.017
  528.944   23.262    0.262    0.378    6.642
  529.194   21.013    0.253    0.295    7.040
  529.444   20.005    0.239    0.261    7.641
  529.694   19.740    0.221    0.245    8.198
  529.944   18.002    0.206    0.225    9.236
  530.194   16.496    0.184    0.208   10.446
