~VERSION INFORMATION
 VERS.                 2.0:   CWLS LOG ASCII STANDARD -VERSION 2.0
 WRAP.                  NO:   ONE LINE PER DEPTH STEP
~WELL INFORMATION BLOCK
#MNEM.UNIT           DATA                    DESCRIPTION OF MNEMONIC
#---------    -------------------            -------------------------------
# Generated from Intellog Unique Number	CS_73_76/WELL/770
WELL.         ALLIED ROXANA MINERALS LTD     : Well_name    - WELL
LOC .         00/07-20-073-14W4/0            : Location     - LOCATION
UWI .         00/07-20-073-14W4/0            : Uwi          - UNIQUE WELL ID
ENTR.         SP                             : Entered      - ENTERED BY
SRVC.         SCHLUMBERGER                   : Scn          - SERVICE COMPANY
STRT.M        329.184                        : top_depth    - START DEPTH
STOP.M        548.434                        : bot_depth    - STOP DEPTH
STEP.M        0.25                           : increment    - STEP LENGTH
 NULL. -999.2500:NULL Value
~CURVE INFORMATION BLOCK
#MNEM UNIT       ERCB CURVE CODE    CURVE DESCRIPTION
#-----------   ------------------   ----------------------------------
DEPT.M        00 001 00 00         : DEPTH        - DEPTH
GR  .API      00 310 00 00         : GR           - GAMMA RAY
DPHI.V/V      00 890 00 00         : PHID         - DENSITY POROSITY (SANDSTONE)
NPHI.V/V      00 330 00 00         : PHIN         - NEUTRON POROSITY (SANDSTONE)
ILD .OHMM     00 120 00 00         : RESD         - DEEP RESISTIVITY (DIL)
~PARAMETER INFORMATION
#MNEM.UNIT           DATA             DESCRIPTION OF MNEMONIC
#---------         -----------     ------------------------------
GL  .M        670.255              : gl           - GROUND LEVEL ELEVATION
EREF.M        673.303              : kb           - ELEVATION OF DEPTH REFERENCE
DATM.M        670.255              : datum        - DATUM ELEVATION
TDD .M        573.024              : tdd          - TOTAL DEPTH DRILLER
RUN .         ONE                  : Run          - RUN NUMBER
ENG .         BILL                 : Engineer     - RECORDING ENGINEER
WIT .         JIM                  : Witness      - WITNESSED BY
MUD .         GEL                  : Mud_type     - MUD TYPE
MATR.         SANDSTONE            : Logunit      - NEUTRON MATRIX
TMAX.C        18.8889              : BHT          - MAXIMUM RECORDED TEMPERATURE
BHTD.M        573.024              : BHTDEP       - MAXIMUM RECORDED TEMPERATURE
MATR.         1                    : LOGUNIT      - NEUTRON MATRIX
RMT .C        25                   : MDTP         - TEMPERATURE OF MUD
NEUT.         1                    : NEUTRON      - NEUTRON TYPE
RESI.         0                    : RESIST       - RESISTIVITY TYPE
RMC .OHMM     0.25                 : RMC          - RESISTIVITY OF MUD CAKE
RMF .OHMM     0.25                 : RMF          - RESISTIVITY OF MUD FILTRATE
SUFT.C        15                   : SUFT         - SURFACE TEMPERATURE
~A  DEPTH       GR     PHID     PHIN     RESD
  329.184  104.761    0.140    0.612    2.688
  329.434   98.881    0.127    0.624    2.763
  329.684   98.758    0.131    0.615    2.872
  329.934  104.633    0.121    0.642    3.006
  330.184  108.002    0.133    0.669    3.052
  330.434  108.668    0.141    0.665    3.079
  330.684  107.313    0.116    0.656    2.940
  330.934  105.618    0.123    0.620    2.899
  331.184  107.784    0.134    0.633    2.861
  331.434  106.804    0.125    0.592    2.796
  331.684  104.403    0.131    0.594    2.785
  331.934  105.411    0.123    0.625    2.785
  332.184  104.644    0.125    0.628    2.910
  332.434  102.906    0.126    0.630    3.136
  332.684   99.407    0.135    0.541    3.259
  332.934   98.359    0.124    0.501    3.397
  333.184  100.214    0.134    0.525    3.423
  333.434   99.493    0.121    0.583    3.360
  333.684   96.999    0.113    0.630    3.141
  333.934   92.999    0.149    0.657    3.025
  334.184   86.514    0.180    0.649    3.089
  334.434   78.701    0.261    0.671    3.328
  334.684   72.920    0.334    0.720    3.767
  334.934   66.892    0.397    0.499    4.115
  335.184   64.986    0.218    0.404    5.256
  335.434   68.967    0.233    0.364    7.157
  335.684   68.233    0.243    0.358    8.526
  335.934   67.439    0.223    0.388    8.611
  336.184   68.395    0.196    0.410    8.356
  336.434   67.248    0.164    0.415    8.036
  336.684   59.221    0.140    0.391    8.139
  336.934   55.115    0.031    0.355    8.336
  337.184   56.507    0.023    0.342    8.478
  337.434   61.992    0.135    0.371    8.416
  337.684   67.523    0.178    0.435    8.236
  337.934   71.169    0.221    0.444    7.848
  338.184   76.186    0.195    0.454    7.550
  338.434   79.085    0.182    0.457    7.021
  338.684   82.153    0.171    0.448    6.634
  338.934   86.675    0.156    0.448    6.460
  339.184   93.219    0.134    0.431    6.463
  339.434   98.090    0.124    0.440    6.466
  339.684  102.546    0.115    0.465    6.395
  339.934  105.016    0.120    0.485    6.261
  340.184  105.045    0.104    0.501    6.116
  340.434  103.542    0.097    0.512    5.784
  340.684  101.639    0.085    0.525    5.558
  340.934   96.677    0.111    0.519    5.440
  341.184   92.721    0.139    0.504    5.478
  341.434   85.134    0.169    0.487    5.912
  341.684   76.502    0.200    0.440    6.242
  341.934   64.980    0.230    0.403    6.419
  342.184   58.466    0.261    0.429    6.555
  342.434   61.624    0.243    0.457    6.636
  342.684   64.555    0.230    0.481    6.510
  342.934   67.850    0.232    0.474    6.380
  343.184   71.906    0.211    0.478    6.027
  343.434   76.596    0.195    0.478    6.136
  343.684   80.444    0.189    0.467    6.260
  343.934   83.418    0.189    0.460    6.447
  344.184   84.541    0.172    0.455    6.649
  344.434   85.544    0.158    0.426    6.818
  344.684   86.556    0.146    0.395    6.882
  344.934   86.550    0.144    0.383    6.981
  345.184   84.922    0.144    0.392    6.892
  345.434   83.871    0.153    0.407    6.634
  345.684   82.100    0.152    0.417    6.373
  345.934   84.779    0.115    0.438    6.193
  346.184   87.669    0.098    0.455    6.179
  346.434   83.939    0.074    0.458    6.345
  346.684   75.465    0.087    0.451    6.414
  346.934   62.278    0.127    0.434    6.423
  347.184   58.370    0.141    0.423    6.423
  347.434   57.014    0.151    0.420    6.290
  347.684   58.869    0.150    0.419    6.157
  347.934   60.470    0.154    0.406    6.115
  348.184   59.178    0.169    0.394    5.977
  348.434   55.568    0.184    0.403    5.961
  348.684   51.062    0.199    0.406    5.965
  348.934   48.435    0.219    0.402    5.836
  349.184   46.589    0.205    0.400    5.707
  349.434   48.692    0.215    0.385    5.649
  349.684   55.827    0.219    0.377    5.650
  349.934   68.764    0.200    0.370    5.644
  350.184   89.255    0.175    0.402    5.573
  350.434  103.568    0.141    0.441    5.587
  350.684  110.043    0.109    0.480    5.406
  350.934  115.686    0.092    0.527    5.268
  351.184  117.665    0.092    0.590    5.035
  351.434  116.964    0.077    0.602    4.951
  351.684  115.580    0.048    0.585    4.692
  351.934  115.497    0.048    0.580    4.450
  352.184  115.877    0.060    0.595    4.330
  352.434  114.939    0.079    0.591    4.238
  352.684  118.559    0.057    0.574    4.236
  352.934  120.876    0.043    0.591    4.103
  353.184  123.529    0.067    0.606    3.983
  353.434  125.457    0.066    0.618    3.764
  353.684  125.588    0.057    0.628    3.583
  353.934  125.735    0.086    0.642    3.322
  354.184  127.091    0.080    0.640    3.062
  354.434  129.391    0.133    0.628    2.844
  354.684  128.391    0.140    0.615    2.965
  354.934  124.193    0.134    0.605    3.538
  355.184  118.755    0.146    0.585    3.985
  355.434  113.444    0.158    0.561    4.616
  355.684  109.386    0.150    0.514    5.343
  355.934  110.400    0.160    0.485    5.977
  356.184  112.259    0.166    0.488    6.597
  356.434  110.350    0.148    0.488    6.936
  356.684  105.979    0.137    0.488    6.921
  356.934  106.256    0.139    0.495    6.782
  357.184  108.011    0.117    0.506    6.348
  357.434  106.935    0.096    0.528    6.130
  357.684  109.732    0.101    0.546    5.540
  357.934  112.553    0.108    0.568    5.143
  358.184  114.157    0.098    0.586    4.844
  358.434  111.167    0.083    0.602    4.597
  358.684  105.695    0.038    0.574    4.631
  358.934   99.806   -0.000    0.528    4.877
  359.184  101.032   -0.004    0.476    5.336
  359.434  105.065    0.088    0.490    5.783
  359.684  102.201    0.123    0.490    6.218
  359.934   99.688    0.135    0.479    6.662
  360.184   94.216    0.145    0.458    7.030
  360.434   91.263    0.159    0.428    7.463
  360.684   95.519    0.171    0.455    7.582
  360.934   98.964    0.182    0.477    7.698
  361.184  103.044    0.171    0.487    7.696
  361.434  103.036    0.155    0.500    7.617
  361.684   99.815    0.151    0.501    7.518
  361.934   98.839    0.131    0.467    7.392
  362.184  102.900    0.122    0.474    7.272
  362.434  107.746    0.127    0.482    7.050
  362.684  111.122    0.123    0.482    6.921
  362.934  114.007    0.131    0.489    6.881
  363.184  113.118    0.117    0.495    6.838
  363.434  112.897    0.126    0.477    6.838
  363.684  112.278    0.130    0.472    6.840
  363.934  103.632    0.144    0.476    6.841
  364.184   92.947    0.162    0.472    6.780
  364.434   84.654    0.181    0.445    6.849
  364.684   83.930    0.188    0.427    6.921
  364.934   86.031    0.176    0.436    6.964
  365.184   86.647    0.168    0.445    7.105
  365.434   89.715    0.179    0.434    7.163
  365.684   93.710    0.167    0.416    7.287
  365.934   96.318    0.155    0.411    7.416
  366.184  100.445    0.145    0.443    7.553
  366.434  103.935    0.130    0.460    7.561
  366.684  106.089    0.116    0.456    7.654
  366.934  106.565    0.106    0.421    7.362
  367.184  108.345    0.113    0.415    7.112
  367.434  111.931    0.105    0.432    6.787
  367.684  113.916    0.096    0.450    6.203
  367.934  116.112    0.110    0.458    5.868
  368.184  119.023    0.087    0.509    5.400
  368.434  119.397    0.106    0.590    5.001
  368.684  118.994    0.127    0.616    4.687
  368.934  116.531    0.142    0.630    4.353
  369.184  113.245    0.152    0.634    4.497
  369.434  109.339    0.156    0.607    4.666
  369.684  105.978    0.150    0.574    4.805
  369.934  105.266    0.140    0.541    4.823
  370.184  108.998    0.147    0.515    4.741
  370.434  111.490    0.169    0.536    4.895
  370.684  109.902    0.168    0.514    5.183
  370.934  105.496    0.152    0.483    5.519
  371.184  102.379    0.139    0.461    5.941
  371.434  104.164    0.135    0.445    6.380
  371.684  102.431    0.142    0.454    6.634
  371.934  106.880    0.142    0.464    6.660
  372.184  105.826    0.139    0.470    6.473
  372.434  101.973    0.141    0.498    6.410
