~VERSION INFORMATION
 VERS.                 2.0:   CWLS LOG ASCII STANDARD -VERSION 2.0
 WRAP.                  NO:   ONE LINE PER DEPTH STEP
~WELL INFORMATION BLOCK
#MNEM.UNIT           DATA                    DESCRIPTION OF MNEMONIC
#---------    -------------------            -------------------------------
# Generated from Intellog Unique Number	CW_73_75/WELL/416
WELL.         ULSTER MARTEN HILLS 03-09      : Well_name    - WELL
LOC .         00/03-09-075-23W4/0            : Location     - LOCATION
UWI .         00/03-09-075-23W4/0            : Uwi          - UNIQUE WELL ID
ENTR.         JAYE                           : Entered      - ENTERED BY
SRVC.         WESTERN ATLAS                  : Scn          - SERVICE COMPANY
DATE.         22 MAR 88                      : Date         - LOG DATE
STRT.M        400                            : top_depth    - START DEPTH
STOP.M        600                            : bot_depth    - STOP DEPTH
STEP.M        0.25                           : increment    - STEP LENGTH
 NULL. -999.2500:NULL Value
~CURVE INFORMATION BLOCK
#MNEM UNIT       ERCB CURVE CODE    CURVE DESCRIPTION
#-----------   ------------------   ----------------------------------
DEPT.M        00 001 00 00         : DEPTH        - DEPTH
ILD .OHMM     00 120 00 00         : RESD         - DEEP RESISTIVITY (DIL)
NPHI.V/V      00 330 00 00         : PHIN         - NEUTRON POROSITY (SANDSTONE)
DPHI.V/V      00 890 00 00         : PHID         - DENSITY POROSITY (SANDSTONE)
GR  .API      00 310 00 00         : GR           - GAMMA RAY
CALI.MM       00 280 01 00         : CAL          - CALIPER
~PARAMETER INFORMATION
#MNEM.UNIT           DATA             DESCRIPTION OF MNEMONIC
#---------         -----------     ------------------------------
GL  .M        686.6                : gl           - GROUND LEVEL ELEVATION
EREF.M        689.9                : kb           - ELEVATION OF DEPTH REFERENCE
DATM.M        686.6                : datum        - DATUM ELEVATION
TDD .M        609                  : tdd          - TOTAL DEPTH DRILLER
RUN .         ONE                  : Run          - RUN NUMBER
ENG .         SELINGER             : Engineer     - RECORDING ENGINEER
WIT .         OLIVER               : Witness      - WITNESSED BY
BASE.         RDD                  : Branch       - HOME BASE OF LOGGING UNIT
MUD .         GEL CHEM             : Mud_type     - MUD TYPE
MATR.         SANDSTONE            : Logunit      - NEUTRON MATRIX
TMAX.C        27                   : BHT          - MAXIMUM RECORDED TEMPERATURE
BHTD.M        602.6                : BHTDEP       - MAXIMUM RECORDED TEMPERATURE
RMT .C        18                   : MDTP         - TEMPERATURE OF MUD
MUDD.KG/M     1110                 : MWT          - MUD DENSITY
NEUT.         1                    : NEUTRON      - NEUTRON TYPE
RESI.         0                    : RESIST       - RESISTIVITY TYPE
RM  .OHMM     3.18                 : RM           - RESISTIVITY OF MUD
RMC .OHMM     3.98                 : RMC          - RESISTIVITY OF MUD CAKE
RMF .OHMM     3.65                 : RMF          - RESISTIVITY OF MUD FILTRATE
SUFT.C        0                    : SUFT         - SURFACE TEMPERATURE
~A  DEPTH     RESD     PHIN     PHID       GR      CAL
  400.000    2.296    0.545    0.215   87.922  213.956
  400.250    2.324    0.514    0.206   84.563  214.194
  400.500    2.318    0.488    0.216   92.397  214.328
  400.750    2.296    0.462    0.232   98.318  214.672
  401.000    2.290    0.467    0.237   97.233  215.128
  401.250    2.311    0.487    0.229   93.996  215.360
  401.500    2.335    0.519    0.217   95.984  216.014
  401.750    2.413    0.532    0.216  100.680  216.149
  402.000    2.489    0.511    0.223  102.299  216.597
  402.250    2.563    0.482    0.226  102.081  217.758
  402.500    2.624    0.455    0.222  101.792  214.107
  402.750    2.687    0.437    0.216  100.706  210.454
  403.000    2.731    0.460    0.214   98.269  210.901
  403.250    2.750    0.479    0.213   99.212  213.500
  403.500    2.753    0.491    0.211   99.667  216.406
  403.750    2.767    0.507    0.204   99.503  217.261
  404.000    2.760    0.528    0.210  101.060  217.297
  404.250    2.728    0.522    0.218   99.852  216.718
  404.500    2.707    0.494    0.204   92.988  216.240
  404.750    2.720    0.483    0.202   91.598  216.584
  405.000    2.749    0.483    0.209   92.048  216.828
  405.250    2.774    0.486    0.219   90.410  217.069
  405.500    2.787    0.499    0.231   91.479  216.592
  405.750    2.811    0.514    0.240   95.373  212.938
  406.000    2.821    0.514    0.239  100.314  211.950
  406.250    2.840    0.505    0.237  104.269  213.833
  406.500    2.892    0.506    0.241  107.673  214.381
  406.750    2.950    0.491    0.262  101.670  212.776
  407.000    3.106    0.515    0.238   93.822  209.636
  407.250    3.362    0.455    0.203   78.901  207.725
  407.500    3.890    0.397    0.196   69.396  206.432
  407.750    5.024    0.311    0.231   64.007  205.749
  408.000    6.513    0.293    0.296   59.661  200.356
  408.250    9.008    0.296    0.404   52.305  198.548
  408.500   10.821    0.308    0.399   48.822  197.867
  408.750   11.629    0.311    0.379   46.572  197.289
  409.000   12.286    0.299    0.377   45.976  197.324
  409.250   13.228    0.273    0.388   46.616  197.873
  409.500   13.696    0.270    0.404   47.436  198.626
  409.750   13.712    0.288    0.376   47.148  199.074
  410.000   13.555    0.289    0.363   46.371  198.697
  410.250   13.100    0.274    0.373   45.901  198.735
  410.500   12.546    0.301    0.388   45.554  198.671
  410.750   11.926    0.315    0.373   48.957  198.297
  411.000   11.401    0.322    0.371   46.765  197.820
  411.250   10.938    0.332    0.367   40.886  197.650
  411.500   10.612    0.427    0.336   39.556  197.890
  411.750   10.296    0.462    0.335   43.449  198.238
  412.000   10.081    0.463    0.341   45.192  198.784
  412.250    9.872    0.417    0.338   43.862  199.332
  412.500    9.739    0.423    0.327   49.233  199.575
  412.750    9.844    0.445    0.316   50.976  199.510
  413.000   10.267    0.479    0.323   46.264  199.653
  413.250   11.428    0.503    0.335   47.270  199.890
  413.500   12.011    0.506    0.343   50.369  200.135
  413.750   12.228    0.482    0.334   51.185  200.064
  414.000   11.953    0.445    0.278   51.576  200.104
  414.250   11.510    0.451    0.284   48.524  199.937
  414.500   10.963    0.456    0.306   51.312  199.967
  414.750   10.500    0.466    0.306   55.454  200.003
  415.000   10.109    0.490    0.311   58.736  199.634
  415.250    9.557    0.506    0.319   57.527  199.161
  415.500    9.033    0.494    0.331   51.708  198.885
  415.750    8.336    0.467    0.330   49.454  198.409
  416.000    7.536    0.439    0.324   52.304  198.339
  416.250    6.915    0.420    0.328   59.090  198.280
  416.500    6.537    0.416    0.320   68.334  198.516
  416.750    6.180    0.422    0.283   76.164  198.963
  417.000    5.681    0.428    0.251   76.556  199.407
  417.250    5.137    0.406    0.239   74.978  200.883
  417.500    4.705    0.376    0.249   77.828  202.247
  417.750    4.471    0.450    0.265   82.707  204.128
  418.000    4.251    0.491    0.279   87.895  205.804
  418.250    4.116    0.508    0.262   92.159  207.274
  418.500    4.032    0.524    0.253   96.362  208.853
  418.750    4.051    0.531    0.256  100.871  210.114
  419.000    4.172    0.510    0.235   92.839  209.743
  419.250    4.326    0.452    0.250   81.916  205.169
  419.500    4.771    0.436    0.285   75.912  202.539
  419.750    5.301    0.449    0.316   77.041  200.935
  420.000    5.665    0.446    0.245   77.310  200.153
  420.250    5.725    0.391    0.222   75.424  200.393
  420.500    5.659    0.357    0.222   74.524  200.941
  420.750    5.542    0.354    0.233   86.657  201.801
  421.000    5.248    0.407    0.238   91.231  203.269
  421.250    5.035    0.440    0.247   95.618  205.866
  421.500    4.902    0.510    0.226  101.665  214.100
  421.750    4.891    0.522    0.229  102.240  214.546
  422.000    4.990    0.501    0.241   94.207  212.329
  422.250    5.108    0.451    0.253   76.213  209.189
  422.500    5.358    0.421    0.276   67.875  206.048
  422.750    5.725    0.448    0.290   65.928  204.656
  423.000    6.130    0.445    0.184   66.689  203.975
  423.250    6.137    0.393    0.197   78.207  203.596
  423.500    5.664    0.420    0.227   89.111  203.737
  423.750    5.149    0.459    0.249   90.917  204.389
  424.000    4.822    0.475    0.245   87.311  205.754
  424.250    4.749    0.439    0.263   88.316  207.738
  424.500    4.835    0.426    0.268   88.462  241.077
  424.750    4.997    0.428    0.276   77.660  220.622
  425.000    5.182    0.402    0.291   66.431  206.825
  425.250    5.417    0.401    0.288   63.317  202.759
  425.500    5.535    0.453    0.276   63.401  201.566
  425.750    5.626    0.478    0.278   61.272  201.095
  426.000    5.674    0.474    0.285   65.476  201.335
  426.250    5.703    0.458    0.293   68.753  201.473
  426.500    5.690    0.441    0.300   64.103  202.431
  426.750    5.666    0.403    0.293   80.171  204.105
  427.000    5.683    0.414    0.254   91.322  212.134
  427.250    5.680    0.431    0.236   94.297  216.988
  427.500    5.720    0.434    0.235   94.134  226.859
  427.750    5.728    0.416    0.224   89.728  231.404
  428.000    5.734    0.389    0.218   83.786  214.740
  428.250    5.742    0.376    0.232   80.979  208.831
  428.500    5.751    0.381    0.242   79.711  205.485
  428.750    5.779    0.411    0.247   80.284  202.245
  429.000    5.829    0.449    0.240   82.151  201.255
  429.250    5.848    0.441    0.236   82.665  201.908
  429.500    5.845    0.367    0.238   77.891  202.046
  429.750    5.862    0.349    0.242   76.007  201.260
  430.000    5.828    0.369    0.248   72.586  199.868
  430.250    5.770    0.391    0.262   65.784  198.985
  430.500    5.661    0.443    0.277   58.181  198.808
  430.750    5.451    0.440    0.295   51.931  198.949
  431.000    5.172    0.419    0.296   48.510  198.779
  431.250    4.944    0.399    0.296   44.413  198.926
  431.500    4.762    0.349    0.299   41.483  198.953
  431.750    4.620    0.346    0.297   46.056  199.706
  432.000    4.549    0.355    0.293   52.780  200.153
  432.250    4.496    0.357    0.301   57.904  200.498
  432.500    4.503    0.344    0.300   68.069  200.635
  432.750    4.558    0.318    0.246   75.162  200.569
  433.000    4.668    0.341    0.222   84.959  199.379
  433.250    4.735    0.375    0.226   99.614  198.083
  433.500    4.759    0.432    0.238   98.530  199.654
  433.750    4.747    0.439    0.248   92.464  199.999
  434.000    4.632    0.388    0.246   87.998  200.341
  434.250    4.485    0.403    0.239   99.701  203.043
  434.500    4.343    0.439    0.235  104.889  212.609
  434.750    4.175    0.486    0.218  102.204  211.214
  435.000    4.013    0.510    0.209   96.938  207.762
  435.250    3.779    0.530    0.228   97.146  216.304
  435.500    3.539    0.534    0.232  102.948  228.332
  435.750    3.297    0.527    0.249  107.027  237.384
  436.000    3.163    0.509    0.247  107.539  237.318
  436.250    3.063    0.498    0.205  105.286  228.337
