~VERSION INFORMATION
 VERS.                 2.0:   CWLS LOG ASCII STANDARD -VERSION 2.0
 WRAP.                  NO:   ONE LINE PER DEPTH STEP
~WELL INFORMATION BLOCK
#MNEM.UNIT           DATA                    DESCRIPTION OF MNEMONIC
#---------    -------------------            -------------------------------
# Generated from Intellog Unique Number	CW_76_78/WELL/773
WELL.         GULF ET AL MANNY 08-26         : Well_name    - WELL
LOC .         00/08-26-076-21W4/0            : Location     - LOCATION
UWI .         00/08-26-076-21W4/0            : Uwi          - UNIQUE WELL ID
ENTR.         JAYE                           : Entered      - ENTERED BY
SRVC.         SCHLUMBERGER                   : Scn          - SERVICE COMPANY
DATE.         5 MAR 81                       : Date         - LOG DATE
STRT.M        395                            : top_depth    - START DEPTH
STOP.M        587                            : bot_depth    - STOP DEPTH
STEP.M        0.25                           : increment    - STEP LENGTH
 NULL. -999.2500:NULL Value
~CURVE INFORMATION BLOCK
#MNEM UNIT       ERCB CURVE CODE    CURVE DESCRIPTION
#-----------   ------------------   ----------------------------------
DEPT.M        00 001 00 00         : DEPTH        - DEPTH
ILD .OHMM     00 120 00 00         : RESD         - DEEP RESISTIVITY (DIL)
NPHI.V/V      00 330 00 00         : PHIN         - NEUTRON POROSITY (SANDSTONE)
DPHI.V/V      00 890 00 00         : PHID         - DENSITY POROSITY (SANDSTONE)
GR  .API      00 310 00 00         : GR           - GAMMA RAY
CALI.MM       00 280 01 00         : CAL          - CALIPER
~PARAMETER INFORMATION
#MNEM.UNIT           DATA             DESCRIPTION OF MNEMONIC
#---------         -----------     ------------------------------
GL  .M        723.85               : gl           - GROUND LEVEL ELEVATION
EREF.M        728.35               : kb           - ELEVATION OF DEPTH REFERENCE
DATM.M        723.85               : datum        - DATUM ELEVATION
TDD .M        612                  : tdd          - TOTAL DEPTH DRILLER
RUN .         ONE                  : Run          - RUN NUMBER
ENG .         MCEWAN               : Engineer     - RECORDING ENGINEER
WIT .         WOOD                 : Witness      - WITNESSED BY
BASE.         EDM                  : Branch       - HOME BASE OF LOGGING UNIT
MUD .         GEL                  : Mud_type     - MUD TYPE
MATR.         SANDSTONE            : Logunit      - NEUTRON MATRIX
TMAX.C        22.2                 : BHT          - MAXIMUM RECORDED TEMPERATURE
BHTD.M        609                  : BHTDEP       - MAXIMUM RECORDED TEMPERATURE
RMT .C        14.4                 : MDTP         - TEMPERATURE OF MUD
MUDD.KG/M     9.5                  : MWT          - MUD DENSITY
NEUT.         1                    : NEUTRON      - NEUTRON TYPE
RESI.         0                    : RESIST       - RESISTIVITY TYPE
RM  .OHMM     6.35                 : RM           - RESISTIVITY OF MUD
RMC .OHMM     0                    : RMC          - RESISTIVITY OF MUD CAKE
RMF .OHMM     8.17                 : RMF          - RESISTIVITY OF MUD FILTRATE
SUFT.C        0                    : SUFT         - SURFACE TEMPERATURE
~A  DEPTH     RESD     PHIN     PHID       GR      CAL
# ...
  504.500    7.653    0.417    0.251   73.251  158.552
  504.750    8.579    0.389    0.222   76.684  158.686
  505.000    9.490    0.391    0.224   78.071  158.822
  505.250   10.638    0.416    0.206   75.916  158.750
  505.500   11.143    0.390    0.171   69.234  158.786
  505.750   10.546    0.281    0.136   64.289  158.820
  506.000    9.541    0.372    0.151   67.724  158.953
  506.250    9.031    0.421    0.191   71.094  158.885
  506.500    8.421    0.446    0.215   63.666  158.714
  506.750    7.835    0.464    0.221   71.818  158.537
  507.000    7.291    0.437    0.202   82.076  158.263
  507.250    6.672    0.398    0.177   89.977  158.188
  507.500    6.092    0.413    0.214   98.251  158.016
  507.750    5.821    0.415    0.216   88.900  158.260
  508.000    5.698    0.410    0.234   78.060  158.187
  508.250    5.685    0.420    0.248   70.135  158.429
  508.500    5.735    0.431    0.234   82.568  158.778
  508.750    5.798    0.445    0.217   79.360  158.907
  509.000    5.849    0.449    0.186   86.951  158.837
  509.250    5.902    0.418    0.199   89.022  158.039
  509.500    5.910    0.411    0.219   91.709  156.729
  509.750    5.928    0.447    0.216   92.287  157.178
  510.000    5.848    0.444    0.204   90.195  158.864
  510.250    5.867    0.428    0.224   89.348  160.551
  510.500    5.897    0.426    0.209   86.698  162.552
  510.750    5.871    0.430    0.212   89.883  163.927
  511.000    5.825    0.429    0.220   91.889  165.410
  511.250    5.844    0.459    0.203   89.736  166.061
  511.500    5.886    0.474    0.209  100.554  165.996
  511.750    5.915    0.463    0.214   97.781  165.201
  512.000    5.923    0.446    0.210   84.893  164.716
  512.250    5.920    0.464    0.211   90.437  164.644
  512.500    5.883    0.471    0.214   85.927  165.298
  512.750    5.870    0.447    0.210   84.705  165.644
  513.000    5.890    0.415    0.218   85.159  165.880
  513.250    5.864    0.448    0.201   89.585  166.119
  513.500    5.839    0.461    0.202   81.165  166.877
  513.750    5.824    0.436    0.208   84.475  167.014
  514.000    5.853    0.412    0.200   84.121  166.014
  514.250    5.895    0.409    0.185   83.397  163.977
  514.500    5.970    0.434    0.189   81.183  160.598
  514.750    6.080    0.422    0.206   71.150  157.114
  515.000    6.333    0.410    0.215   71.231  156.113
  515.250    6.735    0.475    0.224   74.852  156.662
  515.500    6.885    0.447    0.194   79.029  157.522
  515.750    7.052    0.420    0.121   90.219  159.423
  516.000    6.995    0.287    0.109  100.602  160.899
  516.250    6.683    0.355    0.179   87.032  162.693
  516.500    6.313    0.405    0.211   90.713  163.449
  516.750    6.020    0.435    0.216   97.996  164.003
  517.000    5.905    0.423    0.228   94.910  164.240
  517.250    5.870    0.430    0.219   91.393  164.273
  517.500    5.890    0.440    0.198   88.124  163.583
  517.750    5.920    0.430    0.204   92.302  163.204
  518.000    5.982    0.409    0.213   88.350  163.439
  518.250    6.059    0.398    0.219   81.047  163.787
  518.500    6.148    0.423    0.211   80.758  164.028
  518.750    6.215    0.441    0.198   88.285  164.266
  519.000    6.211    0.435    0.206   80.982  164.092
  519.250    6.242    0.405    0.221   81.313  163.303
  519.500    6.311    0.434    0.225   78.601  163.022
  519.750    6.365    0.427    0.208   79.366  162.844
  520.000    6.375    0.406    0.205   79.573  162.566
  520.250    6.371    0.414    0.209   81.392  162.394
  520.500    6.439    0.415    0.212   87.493  162.324
  520.750    6.683    0.395    0.212   81.059  162.254
  521.000    6.832    0.385    0.205   86.168  162.182
  521.250    6.740    0.379    0.193   84.016  161.905
  521.500    6.722    0.397    0.182   89.558  158.630
  521.750    6.532    0.415    0.195   96.344  156.490
  522.000    6.148    0.404    0.211   98.287  160.971
  522.250    5.862    0.391    0.204   91.791  165.247
  522.500    5.675    0.381    0.195   93.859  166.622
  522.750    5.578    0.410    0.186   94.812  166.552
  523.000    5.481    0.434    0.202   92.161  166.170
  523.250    5.396    0.438    0.206   82.873  165.997
  523.500    5.312    0.444    0.191   87.546  164.688
  523.750    5.391    0.436    0.215   87.567  162.343
  524.000    5.626    0.427    0.229   82.248  160.410
  524.250    5.960    0.410    0.226   83.696  159.822
  524.500    6.326    0.402    0.209   85.206  159.445
  524.750    6.843    0.398    0.209   82.992  159.369
  525.000    7.331    0.403    0.217   69.110  159.819
  525.250    7.914    0.418    0.226   76.328  160.263
  525.500    8.560    0.423    0.204   83.425  160.505
  525.750    8.866    0.379    0.168   85.056  160.434
  526.000    8.455    0.343    0.194   90.352  159.846
  526.250    7.243    0.388    0.238   86.648  155.845
  526.500    6.136    0.430    0.244   80.650  158.259
  526.750    5.438    0.450    0.255   76.139  160.568
  527.000    4.828    0.455    0.260   67.407  161.636
  527.250    4.433    0.479    0.249   68.978  161.670
  527.500    4.149    0.476    0.246   75.204  162.018
  527.750    3.987    0.463    0.245   73.983  162.253
  528.000    3.948    0.454    0.251   79.836  162.903
  528.250    3.967    0.483    0.264   70.609  163.768
  528.500    3.996    0.472    0.256   70.196  163.593
  528.750    4.061    0.452    0.250   70.401  161.142
  529.000    4.215    0.457    0.254   74.888  158.178
  529.250    4.375    0.488    0.260   72.676  156.966
  529.500    4.522    0.471    0.267   66.054  158.242
  529.750    4.623    0.450    0.263   68.618  159.417
  530.000    4.690    0.429    0.274   71.865  159.653
  530.250    4.769    0.469    0.283   64.563  159.480
  530.500    4.857    0.471    0.273   62.786  158.894
  530.750    4.909    0.451    0.270   64.416  158.413
  531.000    4.953    0.439    0.264   67.725  157.720
  531.250    4.988    0.454    0.286   76.248  157.231
  531.500    4.967    0.447    0.281   66.461  156.956
  531.750    4.935    0.453    0.275   67.289  157.094
  532.000    4.934    0.430    0.273   70.227  157.124
  532.250    4.930    0.427    0.284   74.030  156.952
  532.500    4.909    0.473    0.278   78.891  156.986
  532.750    4.861    0.456    0.270   87.350  156.920
  533.000    4.830    0.455    0.271   86.813  156.848
  533.250    4.783    0.465    0.273   88.075  157.088
  533.500    4.772    0.455    0.273   86.913  157.737
  533.750    4.751    0.443    0.270   79.922  158.500
  534.000    4.794    0.446    0.257   80.314  159.046
  534.250    4.864    0.438    0.249   82.381  159.292
  534.500    4.935    0.424    0.246   84.697  159.525
  534.750    5.016    0.448    0.246   89.992  159.767
  535.000    5.099    0.465    0.250   79.214  159.799
  535.250    5.126    0.448    0.248   82.026  159.004
  535.500    5.132    0.433    0.243   73.359  156.245
  535.750    5.130    0.424    0.251   73.316  159.276
  536.000    5.117    0.410    0.253   72.156  161.378
  536.250    5.085    0.430    0.243   70.874  162.239
  536.500    5.083    0.430    0.245   71.887  162.272
  536.750    5.188    0.404    0.240   73.770  162.099
  537.000    5.273    0.416    0.234   73.663  162.030
  537.250    5.391    0.439    0.224   72.071  161.857
  537.500    5.614    0.450    0.232   68.801  161.888
  537.750    6.510    0.417    0.212   69.317  161.719
  538.000    8.045    0.382    0.170   73.558  161.955
  538.250    8.817    0.295    0.125   81.893  162.199
  538.500    8.797    0.319    0.114   80.113  162.434
  538.750    8.309    0.319    0.135   73.306  161.225
  539.000    7.433    0.348    0.186   77.112  157.332
  539.250    6.563    0.391    0.244   79.615  155.193
  539.500    6.282    0.424    0.249   85.716  154.194
  539.750    6.116    0.431    0.235   79.097  154.741
  540.000    5.977    0.443    0.243   76.509  156.738
  540.250    5.885    0.451    0.232   75.352  158.219
  540.500    5.869    0.442    0.228   75.803  158.664
  540.750    5.877    0.422    0.228   81.410  159.635
