~VERSION INFORMATION
 VERS.                 2.0:   CWLS LOG ASCII STANDARD -VERSION 2.0
 WRAP.                  NO:   ONE LINE PER DEPTH STEP
~WELL INFORMATION BLOCK
#MNEM.UNIT           DATA                    DESCRIPTION OF MNEMONIC
#---------    -------------------            -------------------------------
# Generated from Intellog Unique Number	CS_73_76/WELL/2161
WELL.         MANY ISLANDS PIPELINES         : Well_name    - WELL
LOC .         00/06-08-074-11W4/0            : Location     - LOCATION
UWI .         00/06-08-074-11W4/0            : Uwi          - UNIQUE WELL ID
ENTR.         SP                             : Entered      - ENTERED BY
SRVC.         SCHLUMBERGER                   : Scn          - SERVICE COMPANY
STRT.M        298.704                        : top_depth    - START DEPTH
STOP.M        536.204                        : bot_depth    - STOP DEPTH
STEP.M        0.25                           : increment    - STEP LENGTH
 NULL. -999.2500:NULL Value
~CURVE INFORMATION BLOCK
#MNEM UNIT       ERCB CURVE CODE    CURVE DESCRIPTION
#-----------   ------------------   ----------------------------------
DEPT.M        00 001 00 00         : DEPTH        - DEPTH
GR  .API      00 310 00 00         : GR           - GAMMA RAY
DPHI.V/V      00 890 00 00         : PHID         - DENSITY POROSITY (SANDSTONE)
NPHI.V/V      00 330 00 00         : PHIN         - NEUTRON POROSITY (SANDSTONE)
ILD .OHMM     00 120 00 00         : RESD         - DEEP RESISTIVITY (DIL)
~PARAMETER INFORMATION
#MNEM.UNIT           DATA             DESCRIPTION OF MNEMONIC
#---------         -----------     ------------------------------
GL  .M        661.416              : gl           - GROUND LEVEL ELEVATION
EREF.M        664.891              : kb           - ELEVATION OF DEPTH REFERENCE
DATM.M        661.416              : datum        - DATUM ELEVATION
TDD .M        553.517              : tdd          - TOTAL DEPTH DRILLER
RUN .         ONE                  : Run          - RUN NUMBER
ENG .         BILL                 : Engineer     - RECORDING ENGINEER
WIT .         JIM                  : Witness      - WITNESSED BY
MUD .         GEL                  : Mud_type     - MUD TYPE
MATR.         SANDSTONE            : Logunit      - NEUTRON MATRIX
TMAX.C        26.6667              : BHT          - MAXIMUM RECORDED TEMPERATURE
BHTD.M        553.517              : BHTDEP       - MAXIMUM RECORDED TEMPERATURE
MATR.         1                    : LOGUNIT      - NEUTRON MATRIX
RMT .C        25                   : MDTP         - TEMPERATURE OF MUD
NEUT.         1                    : NEUTRON      - NEUTRON TYPE
RESI.         0                    : RESIST       - RESISTIVITY TYPE
RMC .OHMM     0.25                 : RMC          - RESISTIVITY OF MUD CAKE
RMF .OHMM     0.25                 : RMF          - RESISTIVITY OF MUD FILTRATE
SUFT.C        15                   : SUFT         - SURFACE TEMPERATURE
~A  DEPTH       GR     PHID     PHIN     RESD
# ...
  429.204   80.845    0.306    0.474    5.987
  429.454   79.496    0.304    0.489    6.178
  429.704   79.630    0.301    0.495    6.181
  429.954   82.014    0.291    0.486    6.184
  430.204   81.927    0.276    0.476    6.184
  430.454   81.458    0.288    0.471    6.181
  430.704   82.555    0.285    0.482    6.175
  430.954   83.290    0.286    0.495    6.065
  431.204   79.480    0.296    0.495    6.068
  431.454   75.213    0.301    0.468    6.069
  431.704   75.917    0.300    0.451    5.941
  431.954   77.544    0.301    0.460    6.082
  432.204   80.053    0.311    0.468    6.072
  432.454   82.405    0.314    0.478    6.072
  432.704   84.609    0.308    0.471    6.072
  432.954   86.077    0.310    0.469    6.072
  433.204   85.537    0.304    0.462    6.072
  433.454   84.236    0.304    0.468    6.072
  433.704   83.318    0.308    0.467    6.073
  433.954   80.391    0.306    0.473    6.073
  434.204   79.595    0.297    0.478    6.073
  434.454   80.812    0.294    0.467    6.073
  434.704   79.620    0.302    0.470    6.073
  434.954   79.519    0.297    0.466    6.073
  435.204   80.194    0.288    0.460    6.073
  435.454   79.271    0.288    0.466    6.074
  435.704   79.501    0.289    0.483    6.074
  435.954   80.396    0.291    0.470    6.071
  436.204   82.484    0.281    0.448    6.055
  436.454   82.401    0.280    0.457    5.959
  436.704   83.233    0.276    0.465    5.962
  436.954   82.458    0.275    0.462    5.963
  437.204   81.881    0.275    0.477    5.961
  437.454   82.810    0.289    0.456    5.921
  437.704   83.791    0.299    0.452    5.855
  437.954   84.409    0.293    0.457    5.854
  438.204   84.535    0.285    0.457    5.855
  438.454   88.506    0.281    0.464    5.855
  438.704   90.221    0.274    0.482    5.855
  438.954   89.324    0.271    0.490    5.855
  439.204   85.182    0.284    0.485    5.855
  439.454   86.813    0.288    0.493    5.856
  439.704   89.770    0.283    0.472    5.859
  439.954   88.597    0.282    0.472    5.765
  440.204   90.597    0.278    0.474    5.752
  440.454   93.572    0.268    0.467    5.751
  440.704   97.109    0.254    0.471    5.672
  440.954   97.000    0.244    0.505    5.444
  441.204   93.979    0.256    0.506    4.955
  441.454   86.710    0.276    0.482    4.288
  441.704   83.463    0.280    0.469    4.009
  441.954   81.357    0.282    0.460    4.179
  442.204   81.671    0.289    0.462    4.743
  442.454   82.686    0.274    0.473    4.986
  442.704   81.545    0.245    0.459    5.319
  442.954   79.945    0.224    0.448    5.527
  443.204   77.549    0.195    0.433    5.871
  443.454   75.954    0.159    0.399    6.229
  443.704   75.272    0.136    0.387    6.681
  443.954   76.035    0.164    0.425    7.329
  444.204   77.998    0.204    0.463    7.692
  444.454   79.637    0.243    0.463    7.615
  444.704   80.772    0.246    0.445    7.050
  444.954   82.740    0.240    0.444    6.761
  445.204   84.671    0.246    0.444    6.512
  445.454   87.829    0.238    0.449    6.423
  445.704   91.966    0.224    0.469    6.425
  445.954   97.353    0.221    0.470    6.424
  446.204   99.840    0.223    0.461    6.437
  446.454  101.395    0.225    0.459    6.316
  446.704  104.484    0.218    0.471    6.062
  446.954  105.234    0.220    0.494    5.828
  447.204  103.685    0.234    0.493    5.395
  447.454  106.156    0.235    0.503    5.147
  447.704  103.700    0.218    0.495    5.098
  447.954  104.773    0.211    0.486    4.959
  448.204  106.686    0.216    0.481    4.957
  448.454  105.668    0.227    0.463    5.213
  448.704  104.020    0.237    0.465    5.356
  448.954  101.541    0.249    0.456    5.719
  449.204   97.789    0.229    0.458    5.965
  449.454   94.185    0.214    0.447    6.209
  449.704   98.709    0.207    0.445    6.404
  449.954  106.859    0.217    0.457    6.619
  450.204  109.129    0.219    0.461    6.544
  450.454  107.058    0.210    0.466    6.470
  450.704  107.373    0.209    0.464    6.246
  450.954  108.575    0.222    0.462    5.863
  451.204  109.590    0.217    0.488    5.868
  451.454  110.655    0.222    0.489    5.883
  451.704  112.703    0.228    0.457    6.071
  451.954  109.342    0.235    0.442    6.192
  452.204  104.168    0.237    0.451    6.321
  452.454  104.318    0.221    0.452    6.315
  452.704  103.530    0.204    0.443    6.079
  452.954  101.104    0.196    0.427    5.968
  453.204   97.967    0.172    0.448    5.772
  453.454   95.623    0.165    0.463    5.757
  453.704   93.556    0.202    0.476    5.755
  453.954   95.515    0.220    0.477    5.457
  454.204   98.226    0.228    0.468    4.803
  454.454   99.546    0.246    0.502    4.145
  454.704   98.838    0.264    0.537    3.617
  454.954   98.413    0.280    0.544    3.015
  455.204   98.301    0.268    0.537    2.682
  455.454   99.993    0.261    0.544    2.461
  455.704  100.118    0.259    0.552    2.319
  455.954  102.032    0.256    0.543    2.285
  456.204  104.808    0.248    0.537    2.286
  456.454  105.059    0.243    0.546    2.286
  456.704  106.780    0.253    0.570    2.291
  456.954  105.846    0.250    0.558    2.240
  457.204  103.224    0.240    0.564    2.245
  457.454   99.941    0.226    0.516    2.294
  457.704   96.745    0.228    0.476    2.456
  457.954   97.488    0.221    0.468    2.833
  458.204   99.976    0.225    0.471    3.193
  458.454  100.958    0.221    0.447    3.686
  458.704  101.384    0.208    0.444    4.165
  458.954  102.080    0.215    0.459    4.435
  459.204  102.005    0.205    0.466    4.708
  459.454  100.101    0.189    0.467    4.699
  459.704   97.140    0.151    0.416    4.723
  459.954   94.179    0.135    0.406    4.978
  460.204   97.203    0.158    0.413    5.399
  460.454   98.942    0.186    0.436    5.584
  460.704  100.787    0.213    0.450    5.659
  460.954  103.060    0.221    0.475    5.396
  461.204  104.749    0.218    0.495    4.999
  461.454  106.741    0.236    0.511    4.411
  461.704  107.567    0.238    0.506    4.052
  461.954  105.928    0.236    0.495    3.821
  462.204  102.312    0.247    0.486    3.712
  462.454   99.863    0.257    0.480    3.620
  462.704   96.532    0.265    0.481    3.704
  462.954   94.143    0.252    0.487    3.817
  463.204   91.076    0.255    0.498    3.936
  463.454   89.409    0.237    0.503    4.056
  463.704   86.282    0.223    0.484    4.309
  463.954   84.799    0.217    0.472    4.562
  464.204   85.580    0.255    0.453    4.694
  464.454   92.548    0.261    0.437    4.808
  464.704   99.273    0.220    0.451    4.567
  464.954  104.893    0.207    0.483    4.169
  465.204  104.854    0.216    0.497    3.834
  465.454  107.799    0.226    0.497    3.615
  465.704  110.204    0.223    0.501    3.354
  465.954  113.186    0.216    0.501    3.164
  466.204  114.104    0.220    0.499    3.074
  466.454  113.243    0.207    0.494    3.075
  466.704  110.785    0.205    0.491    3.189
  466.954  109.957    0.209    0.456    3.371
  467.204  106.274    0.216    0.431    3.667
  467.454  103.118    0.214    0.413    3.945
  467.704  104.863    0.219    0.437    4.129
  467.954  107.204    0.228    0.467    4.102
  468.204  109.567    0.237    0.491    3.875
  468.454  109.464    0.234    0.526    3.587
  468.704  108.292    0.235    0.548    3.371
  468.954  105.559    0.219    0.542    3.315
  469.204  102.206    0.202    0.488    3.499
  469.454   98.472    0.199    0.431    3.904
  469.704   97.898    0.201    0.429    4.215
  469.954   98.283    0.212    0.454    4.805
  470.204   98.281    0.205    0.472    5.099
  470.454   95.577    0.189    0.457    5.250
  470.704   94.136    0.180    0.434    5.473
  470.954   89.820    0.136    0.419    5.697
  471.204   87.502    0.074    0.408    6.571
  471.454   84.422    0.038    0.310    7.893
  471.704   90.879    0.027    0.341    9.250
  471.954   98.194    0.161    0.389   10.312
  472.204   97.575    0.205    0.404   10.613
  472.454   92.878    0.203    0.386   10.604
