~VERSION INFORMATION
 VERS.                 2.0:   CWLS LOG ASCII STANDARD -VERSION 2.0
 WRAP.                  NO:   ONE LINE PER DEPTH STEP
~WELL INFORMATION BLOCK
#MNEM.UNIT           DATA                    DESCRIPTION OF MNEMONIC
#---------    -------------------            -------------------------------
# Generated from Intellog Unique Number	CS_71_72/WELL/811
WELL.         BVX ET AL NIXON                : Well_name    - WELL
LOC .         00/07-13-072-17W4/0            : Location     - LOCATION
UWI .         00/07-13-072-17W4/0            : Uwi          - UNIQUE WELL ID
ENTR.         SP                             : Entered      - ENTERED BY
SRVC.         SCHLUMBERGER                   : Scn          - SERVICE COMPANY
STRT.M        250                            : top_depth    - START DEPTH
STOP.M        421                            : bot_depth    - STOP DEPTH
STEP.M        0.25                           : increment    - STEP LENGTH
 NULL. -999.2500:NULL Value
~CURVE INFORMATION BLOCK
#MNEM UNIT       ERCB CURVE CODE    CURVE DESCRIPTION
#-----------   ------------------   ----------------------------------
DEPT.M        00 001 00 00         : DEPTH        - DEPTH
GR  .API      00 310 00 00         : GR           - GAMMA RAY
DPHI.V/V      00 890 00 00         : PHID         - DENSITY POROSITY (LIMESTONE)
NPHI.V/V      00 330 00 00         : PHIN         - NEUTRON POROSITY (LIMESTONE)
ILD .OHMM     00 120 00 00         : RESD         - DEEP RESISTIVITY (DIL)
~PARAMETER INFORMATION
#MNEM.UNIT           DATA             DESCRIPTION OF MNEMONIC
#---------         -----------     ------------------------------
GL  .M        572.9                : gl           - GROUND LEVEL ELEVATION
EREF.M        576                  : kb           - ELEVATION OF DEPTH REFERENCE
DATM.M        572.9                : datum        - DATUM ELEVATION
TDD .M        426                  : tdd          - TOTAL DEPTH DRILLER
RUN .         ONE                  : Run          - RUN NUMBER
ENG .         BILL                 : Engineer     - RECORDING ENGINEER
WIT .         JIM                  : Witness      - WITNESSED BY
MUD .         GEL                  : Mud_type     - MUD TYPE
MATR.         LIMESTONE            : Logunit      - NEUTRON MATRIX
TMAX.C        20                   : BHT          - MAXIMUM RECORDED TEMPERATURE
BHTD.M        426                  : BHTDEP       - MAXIMUM RECORDED TEMPERATURE
MATR.         1                    : LOGUNIT      - NEUTRON MATRIX
RMT .C        25                   : MDTP         - TEMPERATURE OF MUD
NEUT.         1                    : NEUTRON      - NEUTRON TYPE
RESI.         0                    : RESIST       - RESISTIVITY TYPE
RMC .OHMM     0.25                 : RMC          - RESISTIVITY OF MUD CAKE
RMF .OHMM     0.25                 : RMF          - RESISTIVITY OF MUD FILTRATE
SUFT.C        15                   : SUFT         - SURFACE TEMPERATURE
~A  DEPTH       GR     PHID     PHIN     RESD
# ...
  380.500   83.606    0.221    0.391   11.102
  380.750   80.029    0.187    0.372   11.528
  381.000   78.252    0.144    0.227    9.417
  381.250   83.084    0.103    0.248    8.128
  381.500   87.910    0.179    0.286    6.640
  381.750   90.934    0.259    0.320    6.057
  382.000   92.155    0.298    0.356    5.427
  382.250   91.574    0.301    0.398    5.233
  382.500   90.998    0.305    0.421    4.956
  382.750   92.829    0.307    0.407    4.868
  383.000   93.450    0.307    0.403    4.872
  383.250   96.483    0.307    0.416    4.876
  383.500   98.304    0.308    0.422    4.792
  383.750   97.722    0.308    0.409    4.794
  384.000   97.151    0.316    0.404    4.797
  384.250   97.773    0.323    0.397    4.891
  384.500   99.000    0.328    0.407    4.893
  384.750   99.621    0.334    0.418    4.899
  385.000   97.850    0.324    0.410    4.902
  385.250   96.077    0.307    0.406    4.905
  385.500   96.102    0.301    0.427    4.908
  385.750   96.729    0.296    0.436    5.005
  386.000   98.551    0.286    0.436    5.008
  386.250  101.572    0.280    0.419    5.011
  386.500  104.593    0.296    0.413    5.111
  386.750  105.218    0.303    0.422    5.114
  387.000  102.249    0.309    0.434    5.212
  387.250   98.666    0.314    0.441    5.314
  387.500   95.690    0.311    0.432    5.416
  387.750   95.119    0.294    0.418    5.729
  388.000   95.145    0.285    0.409    6.173
  388.250   93.964    0.271    0.398    6.409
  388.500   88.594    0.282    0.391    6.536
  388.750   86.812    0.217    0.375    6.540
  389.000   85.638    0.191    0.358    6.427
  389.250   89.262    0.180    0.393    6.314
  389.500   92.888    0.273    0.416    6.201
  389.750   94.712    0.299    0.428    5.982
  390.000   95.335    0.306    0.416    5.767
  390.250   95.959    0.291    0.394    5.565
  390.500   92.382    0.283    0.391    5.466
  390.750   92.410    0.270    0.406    5.372
  391.000   94.837    0.299    0.417    5.276
  391.250   99.660    0.315    0.427    5.183
  391.500  103.882    0.297    0.432    4.999
  391.750  109.312    0.284    0.419    4.733
  392.000  113.531    0.274    0.417    4.320
  392.250  121.356    0.247    0.422    4.165
  392.500  131.582    0.230    0.436    4.091
  392.750  141.806    0.215    0.447    4.019
  393.000  147.233    0.226    0.458    4.098
  393.250  150.857    0.242    0.451    4.416
  393.500  153.883    0.238    0.436    4.671
  393.750  152.105    0.225    0.427    4.941
  394.000  153.330    0.250    0.431    5.226
  394.250  153.354    0.200    0.439    5.426
  394.500  147.385    0.193    0.441    5.741
  394.750  142.603    0.216    0.428    6.185
  395.000  134.833    0.236    0.413    6.916
  395.250  130.050    0.248    0.391    7.878
  395.500  122.278    0.185    0.363    8.485
  395.750  115.102    0.158    0.330   10.028
  396.000  109.730    0.132    0.313   11.424
  396.250  106.749    0.097    0.321   12.308
  396.500  107.373    0.116    0.333   12.777
  396.750  108.599    0.120    0.335   12.787
  397.000  106.221    0.111    0.318   11.246
  397.250  111.052    0.092    0.277    9.356
  397.500  120.074    0.081    0.265    8.227
  397.750  135.697    0.125    0.326    7.371
  398.000  141.722    0.169    0.349    7.108
  398.250  140.546    0.185    0.381    6.984
  398.500  138.782    0.194    0.419    6.988
  398.750  138.795    0.212    0.406    6.993
  399.000  138.222    0.187    0.396    7.001
  399.250  132.843    0.172    0.389    7.137
  399.500  126.866    0.164    0.383    7.140
  399.750  132.293    0.154    0.382    7.148
  400.000  136.518    0.152    0.390    7.286
  400.250  136.540    0.150    0.391    7.156
  400.500  141.383    0.165    0.385    7.165
  400.750  142.594    0.178    0.392    7.170
  401.000  146.217    0.188    0.399    7.176
  401.250  145.041    0.162    0.393    6.790
  401.500  146.866    0.165    0.386    7.183
  401.750  145.096    0.171    0.393    7.189
  402.000  146.322    0.175    0.391    7.195
  402.250  145.139    0.166    0.392    7.333
  402.500  139.168    0.155    0.402    7.339
  402.750  137.386    0.151    0.402    7.484
  403.000  140.413    0.161    0.388    7.488
  403.250  146.440    0.173    0.378    7.494
  403.500  150.661    0.197    0.374    7.361
  403.750  153.688    0.220    0.369    7.232
  404.000  152.509    0.187    0.380    7.238
  404.250  150.138    0.213    0.388    7.243
  404.500  150.160    0.217    0.392    7.250
  404.750  145.385    0.202    0.378    7.255
  405.000  138.207    0.195    0.371    7.262
  405.250  135.231    0.177    0.366    7.268
  405.500  130.456    0.136    0.366    7.273
  405.750  124.490    0.107    0.363    7.276
  406.000  122.104    0.090    0.357    7.281
  406.250  131.134    0.097    0.369    7.025
  406.500  134.760    0.135    0.389    6.773
  406.750  137.180    0.175    0.398    5.956
  407.000  142.610    0.193    0.407    4.955
  407.250  146.834    0.196    0.414    3.974
  407.500  150.455    0.176    0.404    3.430
  407.750  153.481    0.174    0.428    3.016
  408.000  154.103    0.212    0.453    2.752
  408.250  152.327    0.231    0.478    2.606
  408.500  151.154    0.229    0.500    2.560
  408.750  152.377    0.224    0.514    2.562
  409.000  156.010    0.220    0.510    3.200
  409.250  156.030    0.216    0.495    3.997
  409.500  151.849    0.208    0.491    5.278
  409.750  144.676    0.207    0.474    5.899
  410.000  141.099    0.190    0.376    6.845
  410.250  133.926    0.175    0.347    7.654
  410.500  124.950    0.096    0.330    8.096
  410.750  112.370    0.085    0.323    7.952
  411.000  126.197    0.073    0.347    7.258
  411.250  136.420    0.140    0.361    6.998
  411.500  140.645    0.176    0.373    6.876
  411.750  135.275    0.178    0.383    7.409
  412.000  128.095    0.166    0.389    7.836
  412.250  115.523    0.171    0.378    8.444
  412.500  108.342    0.159    0.355    8.769
  412.750  109.568    0.117    0.343    9.277
  413.000  114.991    0.100    0.342    9.282
  413.250  118.618    0.106    0.343    9.289
  413.500  120.439    0.104    0.323    8.477
  413.750  124.063    0.087    0.309    7.182
  414.000  131.289    0.119    0.339    6.316
  414.250  139.114    0.145    0.355    5.354
  414.500  140.349    0.160    0.374    4.796
  414.750  140.371    0.163    0.371    4.458
  415.000  140.387    0.169    0.391    4.221
  415.250  139.816    0.180    0.411    4.146
  415.500  139.240    0.174    0.439    3.999
  415.750  138.667    0.156    0.444    3.929
  416.000  138.692    0.164    0.432    3.860
  416.250  138.710    0.182    0.446    3.862
  416.500  138.734    0.173    0.458    3.865
  416.750  138.761    0.184    0.442    4.014
  417.000  137.585    0.170    0.422    4.247
  417.250  133.408    0.168    0.424    4.410
  417.500  126.232    0.180    0.425    4.494
  417.750  125.059    0.158    0.427    4.934
  418.000  124.483    0.154    0.428    5.122
  418.250  125.111    0.148    0.428    5.520
  418.500  126.938    0.137    0.429    5.731
  418.750  128.157    0.130    0.430    6.063
  419.000  122.788    0.143    0.430    6.179
  419.250  119.807    0.137    0.431    6.419
  419.500  115.636    0.120    0.431    5.856
  419.750  112.657    0.114    0.435    5.442
  420.000  110.278    0.164    0.442    4.787
  420.250  107.905    0.173    0.454    4.532
  420.500  110.333    0.161    0.442    4.452
  420.750  114.552    0.153    0.437    4.374
  421.000  118.775    0.145    0.434    4.297
