~VERSION INFORMATION
 VERS.                 2.0:   CWLS LOG ASCII STANDARD -VERSION 2.0
 WRAP.                  NO:   ONE LINE PER DEPTH STEP
~WELL INFORMATION BLOCK
#MNEM.UNIT           DATA                    DESCRIPTION OF MNEMONIC
#---------    -------------------            -------------------------------
# Generated from Intellog Unique Number	CW_73_75/WELL/2733
WELL.         ANADARKO ER AL FRANCIS 07-32   : Well_name    - WELL
LOC .         00/07-32-073-21W4/0            : Location     - LOCATION
UWI .         00/07-32-073-21W4/0            : Uwi          - UNIQUE WELL ID
ENTR.         JAYE                           : Entered      - ENTERED BY
SRVC.         SCHLUMBERGER                   : Scn          - SERVICE COMPANY
DATE.         18 FEB 79                      : Date         - LOG DATE
STRT.M        325                            : top_depth    - START DEPTH
STOP.M        575                            : bot_depth    - STOP DEPTH
STEP.M        0.25                           : increment    - STEP LENGTH
 NULL. -999.2500:NULL Value
~CURVE INFORMATION BLOCK
#MNEM UNIT       ERCB CURVE CODE    CURVE DESCRIPTION
#-----------   ------------------   ----------------------------------
DEPT.M        00 001 00 00         : DEPTH        - DEPTH
ILD .OHMM     00 120 00 00         : RESD         - DEEP RESISTIVITY (DIL)
NPHI.V/V      00 330 00 00         : PHIN         - NEUTRON POROSITY (SANDSTONE)
DPHI.V/V      00 890 00 00         : PHID         - DENSITY POROSITY (SANDSTONE)
GR  .API      00 310 00 00         : GR           - GAMMA RAY
CALI.MM       00 280 01 00         : CAL          - CALIPER
~PARAMETER INFORMATION
#MNEM.UNIT           DATA             DESCRIPTION OF MNEMONIC
#---------         -----------     ------------------------------
GL  .M        674                  : gl           - GROUND LEVEL ELEVATION
EREF.M        677.8                : kb           - ELEVATION OF DEPTH REFERENCE
DATM.M        674                  : datum        - DATUM ELEVATION
TDD .M        600                  : tdd          - TOTAL DEPTH DRILLER
RUN .         ONE                  : Run          - RUN NUMBER
ENG .         WESOIOWSKY           : Engineer     - RECORDING ENGINEER
WIT .         ROGERS               : Witness      - WITNESSED BY
BASE.         EDM                  : Branch       - HOME BASE OF LOGGING UNIT
MUD .         GEL CHEM             : Mud_type     - MUD TYPE
MATR.         SANDSTONE            : Logunit      - NEUTRON MATRIX
TMAX.C        24                   : BHT          - MAXIMUM RECORDED TEMPERATURE
BHTD.M        601                  : BHTDEP       - MAXIMUM RECORDED TEMPERATURE
RMT .C        18                   : MDTP         - TEMPERATURE OF MUD
MUDD.KG/M     1090                 : MWT          - MUD DENSITY
NEUT.         1                    : NEUTRON      - NEUTRON TYPE
RESI.         0                    : RESIST       - RESISTIVITY TYPE
RM  .OHMM     5.8                  : RM           - RESISTIVITY OF MUD
RMC .OHMM     0                    : RMC          - RESISTIVITY OF MUD CAKE
RMF .OHMM     5.1                  : RMF          - RESISTIVITY OF MUD FILTRATE
SUFT.C        0                    : SUFT         - SURFACE TEMPERATURE
~A  DEPTH     RESD     PHIN     PHID       GR      CAL
# ...
  361.500    2.226    0.539    0.242  117.939  186.289
  361.750    2.230    0.558    0.255  111.152  186.023
  362.000    2.243    0.551    0.261  105.788  185.862
  362.250    2.252    0.546    0.245  106.622  185.705
  362.500    2.261    0.546    0.237  107.644  185.747
  362.750    2.265    0.540    0.238  112.753  187.239
  363.000    2.265    0.531    0.220  107.703  188.329
  363.250    2.278    0.506    0.224  105.253  189.198
  363.500    2.296    0.541    0.241  108.006  190.792
  363.750    2.313    0.521    0.246  110.394  193.218
  364.000    2.344    0.497    0.231  110.545  192.439
  364.250    2.389    0.489    0.220  112.248  188.252
  364.500    2.444    0.516    0.232  114.628  183.657
  364.750    2.481    0.526    0.231  111.250  182.051
  365.000    2.557    0.510    0.217  113.203  181.171
  365.250    2.626    0.493    0.181  116.452  180.608
  365.500    2.666    0.496    0.198  118.152  180.554
  365.750    2.696    0.493    0.225  115.456  180.697
  366.000    2.722    0.514    0.245  111.271  180.753
  366.250    2.743    0.517    0.213  107.148  180.894
  366.500    2.748    0.452    0.183  109.472  180.848
  366.750    2.754    0.459    0.195  113.403  180.494
  367.000    2.754    0.474    0.214  112.132  180.522
  367.250    2.754    0.478    0.210  110.240  180.588
  367.500    2.739    0.458    0.195  105.992  180.632
  367.750    2.713    0.483    0.210  109.432  181.089
  368.000    2.708    0.517    0.202  111.442  181.342
  368.250    2.724    0.524    0.192  111.346  181.288
  368.500    2.750    0.488    0.199  112.738  181.239
  368.750    2.781    0.475    0.209  116.796  181.071
  369.000    2.813    0.504    0.210  125.746  180.915
  369.250    2.851    0.532    0.214  124.910  180.649
  369.500    2.883    0.521    0.211  123.512  180.078
  369.750    2.905    0.494    0.214  122.053  179.196
  370.000    2.889    0.522    0.207  118.860  178.635
  370.250    2.873    0.525    0.195  112.819  178.264
  370.500    2.868    0.485    0.204  114.828  177.999
  370.750    2.873    0.469    0.214  108.599  177.639
  371.000    2.890    0.448    0.224  105.282  177.176
  371.250    2.929    0.472    0.200  112.499  176.917
  371.500    2.979    0.460    0.200  115.318  176.551
  371.750    3.036    0.456    0.194  112.560  176.490
  372.000    3.177    0.482    0.193  106.019  176.121
  372.250    3.400    0.489    0.202   98.489  175.971
  372.500    3.605    0.422    0.183   92.447  175.605
  372.750    3.837    0.404    0.216  100.343  175.236
  373.000    4.007    0.424    0.232  117.476  174.562
  373.250    4.289    0.481    0.201  128.222  173.889
  373.500    4.634    0.430    0.248  119.576  173.317
  373.750    5.073    0.392    0.265  104.921  172.739
  374.000    6.012    0.356    0.288   90.327  171.554
  374.250    7.683    0.328    0.325   75.855  170.358
  374.500    9.892    0.309    0.348   66.094  169.272
  374.750   10.293    0.356    0.300   75.295  168.601
  375.000    9.875    0.388    0.270   80.034  168.338
  375.250    9.546    0.422    0.261   86.882  168.091
  375.500    9.159    0.366    0.241   94.653  167.925
  375.750    8.705    0.373    0.227  103.355  167.963
  376.000    8.180    0.379    0.228  106.112  168.330
  376.250    7.431    0.396    0.218  110.357  169.091
  376.500    6.415    0.415    0.192  115.339  170.897
  376.750    5.772    0.447    0.189  120.324  172.806
  377.000    5.414    0.441    0.190  120.355  176.059
  377.250    5.224    0.432    0.196  120.013  178.066
  377.500    5.466    0.431    0.216  114.714  176.045
  377.750    5.873    0.456    0.246  107.865  168.765
  378.000    6.180    0.377    0.256   92.897  163.858
  378.250    6.540    0.352    0.240   85.180  162.150
  378.500    6.703    0.379    0.259   82.979  162.196
  378.750    6.553    0.384    0.260   87.097  165.036
  379.000    6.311    0.367    0.227   98.343  167.661
  379.250    6.044    0.378    0.207  104.939  170.716
  379.500    5.584    0.405    0.222  108.996  171.892
  379.750    5.247    0.424    0.220  110.264  172.766
  380.000    5.347    0.439    0.231  108.994  172.712
  380.250    5.553    0.431    0.245  102.145  172.862
  380.500    5.767    0.396    0.244   96.101  172.083
  380.750    6.080    0.389    0.226   90.179  170.066
  381.000    6.350    0.383    0.213   99.134  169.705
  381.250    6.720    0.377    0.235  104.057  170.575
  381.500    7.059    0.357    0.227  106.501  173.314
  381.750    7.456    0.365    0.215  106.841  175.427
  382.000    8.086    0.393    0.220  103.960  174.957
  382.250    8.606    0.378    0.234  100.948  168.186
  382.500    9.229    0.371    0.237   93.170  161.632
  382.750    9.785    0.352    0.256   83.410  160.437
  383.000   11.465    0.324    0.280   72.533  158.944
  383.250   13.208    0.286    0.321   60.976  158.884
  383.500   15.045    0.274    0.331   59.457  158.932
  383.750   17.201    0.268    0.346   60.351  158.675
  384.000   19.155    0.247    0.359   50.590  159.143
  384.250   20.774    0.188    0.376   43.743  159.602
  384.500   22.488    0.211    0.345   36.956  159.953
  384.750   24.343    0.248    0.304   32.584  160.623
  385.000   27.159    0.362    0.303   34.100  161.503
  385.250   28.850    0.376    0.305   37.909  161.951
  385.500   25.620    0.380    0.307   37.381  162.726
  385.750   20.433    0.389    0.310   35.366  162.978
  386.000   16.575    0.381    0.329   34.218  162.829
  386.250   14.201    0.366    0.326   32.883  162.565
  386.500   12.587    0.354    0.319   35.580  162.924
  386.750   10.928    0.343    0.311   42.796  163.387
  387.000    9.650    0.349    0.307   49.206  164.048
  387.250    8.489    0.342    0.302   56.917  165.239
  387.500    7.610    0.334    0.283   66.301  166.422
  387.750    7.151    0.347    0.249   92.851  167.496
  388.000    6.913    0.373    0.189  110.105  168.479
  388.250    6.772    0.407    0.203  109.020  168.945
  388.500    6.521    0.398    0.223  104.401  168.981
  388.750    6.221    0.381    0.238  102.882  168.516
  389.000    5.770    0.378    0.231  103.963  168.563
  389.250    5.221    0.411    0.216  106.038  169.854
  389.500    4.788    0.405    0.210  111.828  171.553
  389.750    4.349    0.441    0.199  120.036  173.874
  390.000    3.936    0.478    0.177  131.281  176.505
  390.250    3.334    0.536    0.178  124.431  178.519
  390.500    2.983    0.538    0.153  125.764  179.493
  390.750    2.830    0.527    0.135  131.368  180.057
  391.000    2.793    0.546    0.112  126.317  180.411
  391.250    2.868    0.531    0.115  127.462  180.789
  391.500    2.990    0.517    0.157  131.085  180.837
  391.750    3.146    0.508    0.184  136.628  180.869
  392.000    3.329    0.517    0.237  140.250  181.031
  392.250    3.604    0.493    0.219  135.878  181.275
  392.500    4.113    0.472    0.222  131.075  181.430
  392.750    4.801    0.417    0.227  124.412  181.685
  393.000    5.765    0.388    0.209  120.227  181.739
  393.250    6.010    0.416    0.210  119.578  181.988
  393.500    5.954    0.417    0.212  126.295  182.445
  393.750    5.821    0.408    0.197  134.628  182.707
  394.000    5.638    0.413    0.207  132.551  182.650
  394.250    5.596    0.414    0.203  125.267  181.764
  394.500    5.735    0.451    0.208  116.559  179.954
  394.750    5.979    0.448    0.230  103.453  176.695
  395.000    6.291    0.415    0.251   96.605  173.235
  395.250    6.862    0.385    0.247   95.829  171.222
  395.500    7.234    0.396    0.219  108.310  170.651
  395.750    7.154    0.434    0.225  110.946  170.906
  396.000    7.020    0.466    0.257  104.960  170.956
  396.250    6.851    0.457    0.254   97.370  171.305
  396.500    6.736    0.435    0.255   96.653  171.666
  396.750    6.636    0.449    0.245   92.285  171.403
  397.000    6.524    0.410    0.227   89.028  171.870
  397.250    6.379    0.384    0.218   92.962  172.430
  397.500    6.237    0.404    0.237  101.914  176.404
  397.750    6.120    0.454    0.261  104.978  180.580
