~VERSION INFORMATION
 VERS.                 2.0:   CWLS LOG ASCII STANDARD -VERSION 2.0
 WRAP.                  NO:   ONE LINE PER DEPTH STEP
~WELL INFORMATION BLOCK
#MNEM.UNIT           DATA                    DESCRIPTION OF MNEMONIC
#---------    -------------------            -------------------------------
# Generated from Intellog Unique Number	CS_67_68/WELL/2181
WELL.         07-34-067-08W4                 : Well_name    - WELL
LOC .         00/07-34-067-08W4/0            : Location     - LOCATION
UWI .         00/07-34-067-08W4/0            : Uwi          - UNIQUE WELL ID
ENTR.         SP                             : Entered      - ENTERED BY
SRVC.         SCHLUMBERGER                   : Scn          - SERVICE COMPANY
STRT.M        340                            : top_depth    - START DEPTH
STOP.M        563                            : bot_depth    - STOP DEPTH
STEP.M        0.25                           : increment    - STEP LENGTH
 NULL. -999.2500:NULL Value
~CURVE INFORMATION BLOCK
#MNEM UNIT       ERCB CURVE CODE    CURVE DESCRIPTION
#-----------   ------------------   ----------------------------------
DEPT.M        00 001 00 00         : DEPTH        - DEPTH
ILD .OHMM     00 120 00 00         : RESD         - DEEP RESISTIVITY (DIL)
DPHI.V/V      00 890 00 00         : PHID         - DENSITY POROSITY (LIMESTONE)
NPHI.V/V      00 330 00 00         : PHIN         - NEUTRON POROSITY (LIMESTONE)
GR  .API      00 310 00 00         : GR           - GAMMA RAY
CALI.MM       00 280 01 00         : CAL          - CALIPER
~PARAMETER INFORMATION
#MNEM.UNIT           DATA             DESCRIPTION OF MNEMONIC
#---------         -----------     ------------------------------
GL  .M        644.13               : gl           - GROUND LEVEL ELEVATION
EREF.M        648.68               : kb           - ELEVATION OF DEPTH REFERENCE
DATM.M        648.68               : datum        - DATUM ELEVATION
TDD .M        572                  : tdd          - TOTAL DEPTH DRILLER
RUN .         ONE                  : Run          - RUN NUMBER
ENG .         BILL                 : Engineer     - RECORDING ENGINEER
WIT .         JIM                  : Witness      - WITNESSED BY
MUD .         GEL                  : Mud_type     - MUD TYPE
MATR.         LIMESTONE            : Logunit      - NEUTRON MATRIX
TMAX.C        23                   : BHT          - MAXIMUM RECORDED TEMPERATURE
BHTD.M        571                  : BHTDEP       - MAXIMUM RECORDED TEMPERATURE
MATR.         1                    : LOGUNIT      - NEUTRON MATRIX
RMT .C        25                   : MDTP         - TEMPERATURE OF MUD
NEUT.         1                    : NEUTRON      - NEUTRON TYPE
RESI.         0                    : RESIST       - RESISTIVITY TYPE
RMC .OHMM     0.25                 : RMC          - RESISTIVITY OF MUD CAKE
RMF .OHMM     0.25                 : RMF          - RESISTIVITY OF MUD FILTRATE
SUFT.C        15                   : SUFT         - SURFACE TEMPERATURE
~A  DEPTH     RESD     PHID     PHIN       GR      CAL
# ...
  522.500    9.848    0.172    0.365   91.964  214.112
  522.750    8.730    0.184    0.353   89.748  214.817
  523.000    7.946    0.188    0.341   86.854  214.090
  523.250    7.524    0.189    0.332   82.549  212.952
  523.500    7.220    0.190    0.342   78.490  212.121
  523.750    6.994    0.203    0.356   73.939  211.697
  524.000    6.890    0.213    0.338   70.003  211.688
  524.250    6.853    0.221    0.317   78.345  211.982
  524.500    6.933    0.206    0.316   85.030  212.278
  524.750    7.133    0.191    0.336   89.507  212.369
  525.000    7.298    0.178    0.333   89.254  212.460
  525.250    7.453    0.187    0.335   82.677  212.754
  525.500    7.540    0.201    0.360   77.329  213.049
  525.750    7.556    0.216    0.373   72.409  213.137
  526.000    7.543    0.226    0.384   68.534  213.026
  526.250    7.574    0.195    0.363   84.060  212.503
  526.500    7.619    0.180    0.347   90.501  211.260
  526.750    7.563    0.191    0.377   81.222  210.739
  527.000    7.312    0.195    0.398   76.426  210.524
  527.250    7.056    0.187    0.389   71.937  210.509
  527.500    6.707    0.237    0.379   65.545  210.601
  527.750    6.316    0.277    0.368   60.258  210.999
  528.000    6.060    0.256    0.351   64.854  211.087
  528.250    5.717    0.237    0.337   68.716  210.770
  528.500    5.233    0.229    0.374   71.411  210.348
  528.750    5.031    0.266    0.402   64.342  209.826
  529.000    4.791    0.293    0.427   55.740  208.176
  529.250    4.606    0.316    0.389   48.856  206.630
  529.500    4.642    0.285    0.349   64.260  206.209
  529.750    5.035    0.173    0.329   79.725  207.017
  530.000    5.535    0.143    0.350   94.822  208.233
  530.250    6.073    0.120    0.356   98.069  209.447
  530.500    6.777    0.106    0.349   95.177  210.256
  530.750    7.187    0.115    0.362   96.827  210.958
  531.000    7.423    0.147    0.368   97.434  211.356
  531.250    7.623    0.169    0.365   92.331  211.446
  531.500    7.683    0.181    0.367   86.921  211.334
  531.750    7.728    0.190    0.337   78.748  210.605
  532.000    7.600    0.169    0.318   69.101  209.262
  532.250    7.362    0.151    0.312   62.401  208.330
  532.500    7.104    0.169    0.317   59.447  208.011
  532.750    6.973    0.209    0.335   62.387  208.919
  533.000    7.054    0.189    0.360   72.389  209.422
  533.250    7.002    0.168    0.384   90.125  210.023
  533.500    6.694    0.154    0.407  101.232  210.216
  533.750    6.351    0.144    0.420  105.830  210.512
  534.000    5.846    0.151    0.438  110.734  210.191
  534.250    5.351    0.144    0.463  113.982  209.976
  534.500    5.106    0.149    0.477  114.896  209.042
  534.750    4.799    0.159    0.493  111.696  208.418
  535.000    4.630    0.167    0.508  104.443  207.588
  535.250    5.004    0.195    0.429   91.051  207.369
  535.500    5.490    0.217    0.385   81.527  207.155
  535.750    6.058    0.211    0.348   73.968  207.242
  536.000    6.534    0.166    0.329   66.041  207.131
  536.250    6.698    0.120    0.312   61.736  207.118
  536.500    6.764    0.095    0.334   70.079  207.105
  536.750    6.613    0.146    0.364   79.711  206.993
  537.000    5.127    0.231    0.401   77.187  206.777
  537.250    4.066    0.284    0.398   68.154  206.970
  537.500    3.708    0.292    0.385   61.455  207.364
  537.750    3.511    0.302    0.377   61.877  207.561
  538.000    3.626    0.319    0.384   70.159  208.162
  538.250    3.760    0.312    0.387   78.748  208.662
  538.500    3.927    0.281    0.387   86.722  208.958
  538.750    4.110    0.261    0.382   92.119  209.765
  539.000    4.189    0.269    0.377   93.217  210.569
  539.250    4.151    0.284    0.374   89.096  210.969
  539.500    4.207    0.295    0.374   84.730  211.466
  539.750    4.329    0.291    0.380   82.512  211.865
  540.000    4.795    0.275    0.376   77.962  212.161
  540.250    5.270    0.264    0.360   75.376  212.453
  540.500    5.971    0.259    0.341   77.209  213.363
  540.750    6.551    0.245    0.325   80.335  213.761
  541.000    7.040    0.228    0.354   82.968  213.853
  541.250    7.340    0.198    0.394   83.882  213.636
  541.500    7.496    0.148    0.383   81.725  213.626
  541.750    6.422    0.095    0.364   74.044  213.407
  542.000    4.574    0.280    0.374   65.809  213.499
  542.250    3.717    0.307    0.392   60.706  213.384
  542.500    3.119    0.321    0.405   57.137  213.168
  542.750    3.126    0.327    0.405   56.394  212.952
  543.000    3.174    0.334    0.412   57.614  212.633
  543.250    3.217    0.322    0.416   58.284  212.108
  543.500    3.292    0.304    0.394   60.732  211.892
  543.750    3.343    0.298    0.381   65.944  211.265
  544.000    3.382    0.305    0.369   80.243  211.154
  544.250    3.414    0.301    0.380  114.620  211.039
  544.500    3.441    0.294    0.394  126.401  211.232
  544.750    3.534    0.292    0.398  112.886  211.116
  545.000    3.826    0.280    0.383  102.870  210.901
  545.250    4.294    0.259    0.374   89.540  210.684
  545.500    4.615    0.244    0.376   78.973  210.672
  545.750    5.092    0.234    0.380   84.736  210.556
  546.000    5.565    0.231    0.380   93.264  210.548
  546.250    6.083    0.217    0.378   91.047  210.229
  546.500    6.390    0.194    0.374   96.566  210.320
  546.750    6.613    0.172    0.367  101.777  210.615
  547.000    6.715    0.179    0.415  102.692  211.421
  547.250    6.111    0.222    0.433   91.141  212.740
  547.500    5.033    0.263    0.428   84.872  214.161
  547.750    4.686    0.275    0.413   84.619  214.047
  548.000    5.007    0.251    0.394   90.812  211.272
  548.250    5.726    0.221    0.386   95.716  209.521
  548.500    6.763    0.200    0.387   94.913  210.634
  548.750    7.661    0.190    0.378   91.651  212.053
  549.000    8.647    0.181    0.370   98.337  213.066
  549.250    9.222    0.174    0.438  106.987  213.566
  549.500    7.667    0.195    0.499  111.462  213.449
  549.750    6.470    0.212    0.519  112.376  213.234
  550.000    5.481    0.232    0.453  108.930  212.611
  550.250    5.640    0.204    0.413  107.388  211.678
  550.500    5.749    0.159    0.411  109.960  211.564
  550.750    5.927    0.130    0.420  110.259  211.961
  551.000    6.121    0.139    0.421  106.447  212.973
  551.250    6.335    0.147    0.403   92.870  213.471
  551.500    6.469    0.133    0.390   85.434  213.766
  551.750    6.606    0.054    0.400   84.751  213.858
  552.000    6.695    0.033    0.408   89.348  213.335
  552.250    6.609    0.054    0.407   93.086  212.913
  552.500    6.354    0.084    0.369   96.150  212.799
  552.750    6.108    0.094    0.373   93.749  213.095
  553.000    6.007    0.088    0.385   95.031  213.594
  553.250    6.077    0.095    0.396   91.953  214.197
  553.500    6.217    0.103    0.400   88.877  215.103
  553.750    6.397    0.103    0.383   87.764  215.809
  554.000    6.521    0.100    0.381   87.757  218.357
  554.250    6.547    0.100    0.383   89.040  220.698
  554.500    6.524    0.110    0.393   92.226  221.300
  554.750    6.415    0.117    0.400   94.306  221.697
  555.000    6.238    0.119    0.393   95.956  221.994
  555.250    6.065    0.111    0.382   97.852  219.525
  555.500    5.953    0.099    0.400   99.995  217.877
  555.750    5.865    0.093    0.415  101.093  216.432
  556.000    5.811    0.091    0.424   98.323  216.011
  556.250    5.791    0.092    0.397   97.518  216.408
  556.500    5.814    0.093    0.386   96.773  216.499
  556.750    5.794    0.106    0.401   93.205  216.692
  557.000    5.850    0.115    0.402   90.988  217.806
  557.250    5.884    0.107    0.387   89.323  219.840
  557.500    5.930    0.103    0.394   88.026  221.670
  557.750    5.999    0.121    0.405   86.423  222.987
  558.000    6.173    0.137    0.402   84.083  223.693
  558.250    6.400    0.074    0.362   81.927  223.989
  558.500    7.048    0.061    0.338   77.069  223.261
  558.750    7.955    0.061    0.299   71.474  221.203
