~VERSION INFORMATION
 VERS.                 2.0:   CWLS LOG ASCII STANDARD -VERSION 2.0
 WRAP.                  NO:   ONE LINE PER DEPTH STEP
~WELL INFORMATION BLOCK
#MNEM.UNIT           DATA                    DESCRIPTION OF MNEMONIC
#---------    -------------------            -------------------------------
# Generated from Intellog Unique Number	CC_80_83/WELL/1172
NULL.         -999.25                        : NULL_VALUE
WELL.         HPCI PCEJ CHARD                : Well_name
LOC .         07-06-080-06W4                 : Location     - LOCATION          
UWI .         00/07-06-080-06W400            : Uwi          - UNIQUE WELL ID    
ENTR.         DW                             : Entered      - ENTERED BY        
SRVC.         SCHLUMBERGER                   : Scn          - SERVICE COMPANY   
DATE.         17 JAN 85                      : Date         - LOG DATE
STRT.M        120                            : top_depth    - START DEPTH       
STOP.M        359.997                        : bot_depth    - STOP DEPTH        
STEP.M        0.3                            : increment    - STEP LENGTH       
~CURVE INFORMATION BLOCK
#MNEM UNIT       ERCB CURVE CODE    CURVE DESCRIPTION
#-----------   ------------------   ----------------------------------
DEPT.M        00 001 00 00         : DEPTH        - DEPTH                       
DPHI.V/V      00 890 00 00         : PHID         - DENSITY POROSITY (LIMESTONE)
NPHI.V/V      00 330 00 00         : PHIN         - NEUTRON POROSITY (LIMESTONE)
GR  .API      00 310 00 00         : GR           - GAMMA RAY                   
ILD .OHMM     00 120 00 00         : RESD         - DEEP RESISTIVITY (DIL)      
~PARAMETER INFORMATION       
#MNEM.UNIT           DATA             DESCRIPTION OF MNEMONIC
#---------         -----------     ------------------------------
GL  .M        552                  : gl           - GROUND LEVEL ELEVATION      
EREF.M        555.25               : kb           - ELEVATION OF DEPTH REFERENCE
DATM.M        555.25               : datum        - DATUM ELEVATION             
TDD .M        380                  : tdd          - TOTAL DEPTH DRILLER         
RUN .         ONE                  : Run          - RUN NUMBER                  
ENG .         BILL                 : Engineer     - RECORDING ENGINEER          
WIT .         JIM                  : Witness      - WITNESSED BY                
MUD .         GEL                  : Mud_type     - MUD TYPE                    
MATR.         LIMESTONE            : Logunit      - NEUTRON MATRIX              
TMAX.C        20                   : BHT          - MAXIMUM RECORDED TEMPERATURE
BHTD.M        380                  : BHTDEP       - MAXIMUM RECORDED TEMPERATURE
MATR.         1                    : LOGUNIT      - NEUTRON MATRIX              
RMT .C        25                   : MDTP         - TEMPERATURE OF MUD          
NEUT.         1                    : NEUTRON      - NEUTRON TYPE                
RESI.         0                    : RESIST       - RESISTIVITY TYPE            
RMC .OHMM     0.25                 : RMC          - RESISTIVITY OF MUD CAKE     
RMF .OHMM     0.25                 : RMF          - RESISTIVITY OF MUD FILTRATE 
SUFT.C        15                   : SUFT         - SURFACE TEMPERATURE         
~A  DEPTH     PHID     PHIN       GR     RESD
# ...
  276.601    0.335    0.577   87.208    3.332
  276.901    0.321    0.559   85.368    2.704
  277.201    0.294    0.603   85.378    2.507
  277.501    0.310    0.589   86.006    2.414
  277.801    0.332    0.563   90.335    2.369
  278.100    0.339    0.562   95.279    2.415
  278.400    0.293    0.564   92.822    2.415
  278.700    0.277    0.544   88.516    2.508
  279.000    0.260    0.524   91.610    3.033
  279.300    0.260    0.508   92.854    3.531
  279.600    0.253    0.497   91.014    4.189
  279.900    0.253    0.483   89.792    4.352
  280.200    0.250    0.460   91.654    4.877
  280.500    0.263    0.434   89.198    6.011
  280.800    0.274    0.439   93.523    6.610
  281.100    0.273    0.452   96.621    6.128
  281.400    0.286    0.488   93.548    5.366
  281.700    0.271    0.498   94.175    4.524
  282.000    0.238    0.511   96.657    4.193
  282.300    0.225    0.487   97.278    4.038
  282.600    0.234    0.488   96.673    3.962
  282.900    0.255    0.498   94.216    3.888
  283.200    0.260    0.524   91.760    3.889
  283.500    0.255    0.534   92.388    3.674
  283.800    0.246    0.482   98.566    3.538
  284.100    0.243    0.471  105.976    3.472
  284.400    0.250    0.499  105.989    3.472
  284.700    0.255    0.525  102.915    3.539
  285.000    0.243    0.513   99.841    3.747
  285.300    0.234    0.482   96.770    4.043
  285.600    0.266    0.462   91.230    4.280
  285.900    0.277    0.468   87.539    4.618
  286.200    0.271    0.457   91.252    5.176
  286.500    0.245    0.473   97.430    6.141
  286.800    0.251    0.499  102.374    6.502
  287.100    0.252    0.509  102.383    6.260
  287.400    0.229    0.489   91.293    6.144
  287.700    0.124    0.441   86.370    6.382
  288.000    0.140    0.340   84.532    7.152
  288.300    0.235    0.375   76.523    8.170
  288.600    0.324    0.366   69.135    8.815
  288.900    0.329    0.363   72.846    9.158
  289.200    0.322    0.368   75.323    9.159
  289.500    0.301    0.388   74.717    8.988
  289.800    0.280    0.400   72.260    8.021
  290.100    0.259    0.404   75.971    7.159
  290.400    0.259    0.415   79.068    5.701
  290.700    0.272    0.514   78.459    4.807
  291.000    0.316    0.480   64.286    4.372
  291.300    0.344    0.435   51.962    4.290
  291.600    0.363    0.158   41.488    5.813
  291.900    0.358    0.127   35.331   26.045
  292.200    0.353    0.132   32.875   98.363
  292.500    0.348    0.209   32.886  135.840
  292.800    0.340    0.245   35.982  108.182
  293.100    0.318    0.294   52.026   72.627
  293.400    0.283    0.319   58.205   52.603
  293.700    0.327    0.303   47.114   41.893
  294.000    0.344    0.276   39.107   39.579
  294.300    0.313    0.315   39.735   46.958
  294.600    0.291    0.351   58.864   53.638
  294.900    0.318    0.377   69.359   54.673
  295.200    0.320    0.388   69.986   49.730
  295.500    0.329    0.398   68.764   46.983
  295.800    0.329    0.418   70.010   46.105
  296.100    0.303    0.406   71.870   41.934
  296.400    0.284    0.400   77.431   32.769
  296.700    0.269    0.397   85.461   27.106
  297.000    0.280    0.400   89.170   22.423
  297.300    0.280    0.422   90.418   16.552
  297.600    0.263    0.421   91.658   13.182
  297.900    0.252    0.398  101.536   12.454
  298.200    0.256    0.397  113.265   12.221
  298.500    0.259    0.418  123.760   11.546
  298.800    0.268    0.450  123.154    9.921
  299.100    0.241    0.449  112.064    8.052
  299.400    0.215    0.445  109.608    7.324
  299.700    0.221    0.450  110.235    7.052
  300.000    0.227    0.461  113.330    5.855
  300.300    0.226    0.481  110.256    5.641
  300.600    0.217    0.491   96.700    5.644
  300.900    0.206    0.466  102.262    5.543
  301.200    0.201    0.463  107.205    5.653
  301.500    0.203    0.465  111.535    5.766
  301.800    0.219    0.510  110.928    5.661
  302.100    0.231    0.522  110.938    5.559
  302.400    0.242    0.487  112.800    5.778
  302.699    0.236    0.491  104.175    6.358
  302.999    0.191    0.481   90.002    7.407
  303.299    0.187    0.403   94.947    8.307
  303.599    0.217    0.389   98.656    8.801
  303.899    0.248    0.418   96.201    8.978
  304.199    0.281    0.450   80.793    8.984
  304.499    0.268    0.402   83.270    9.340
  304.799    0.230    0.379   85.131   10.083
  305.099    0.255    0.394   74.658   12.916
  305.399    0.289    0.400   56.167   18.545
  305.699    0.320    0.411   48.159   27.658
  305.999    0.332    0.419   48.788   44.510
  306.299    0.335    0.419   46.950   57.024
  306.599    0.332    0.400   42.644   66.431
  306.899    0.330    0.392   39.569   74.504
  307.199    0.326    0.394   40.200   86.802
  307.499    0.318    0.399   40.206  101.136
  307.799    0.328    0.413   39.600  109.184
  308.099    0.320    0.426   37.762  115.671
  308.399    0.313    0.382   40.242  122.574
  308.699    0.320    0.368   42.104  120.333
  308.999    0.326    0.405   41.494  118.167
  309.299    0.334    0.427   39.040  118.230
  309.599    0.357    0.424   39.667  130.125
  309.899    0.350    0.404   42.144  140.476
  310.199    0.339    0.422   40.922  146.030
  310.499    0.337    0.396   37.847  135.436
  310.799    0.337    0.386   38.475   56.546
  311.099    0.326    0.388   42.802   22.730
  311.399    0.312    0.386   56.998   15.853
  311.699    0.288    0.415   89.696    9.866
  311.999    0.260    0.448   93.406    8.165
  312.299    0.239    0.402  103.904    6.887
  312.599    0.246    0.415  108.232    6.034
  312.899    0.250    0.445  108.856    5.812
  313.199    0.220    0.438  110.102    5.708
  313.499    0.219    0.440  112.581    6.281
  313.799    0.221    0.437  113.826    6.652
  314.099    0.225    0.420  113.834    7.462
  314.399    0.230    0.399  113.227    7.904
  314.699    0.221    0.379  100.288    8.868
  314.999    0.195    0.376   93.515    8.874
  315.299    0.193    0.436   87.976    8.881
  315.599    0.261    0.415   87.369    9.054
  315.899    0.251    0.382   89.847    9.965
  316.199    0.250    0.387   84.306   10.557
  316.499    0.257    0.416   78.148   11.186
  316.799    0.263    0.413   77.544   11.410
  317.099    0.260    0.407   79.405   11.857
  317.399    0.258    0.421   78.800   12.802
  317.699    0.267    0.417   77.575   13.823
  317.999    0.284    0.412   71.419   15.212
  318.299    0.298    0.417   66.495   17.392
  318.599    0.304    0.407   67.747   18.075
  318.899    0.315    0.402   67.754   19.517
  319.199    0.326    0.442   67.146   19.906
  319.499    0.316    0.437   64.071   19.920
  319.799    0.284    0.423   64.085   18.828
  320.099    0.297    0.442   65.942   17.462
  320.399    0.279    0.454   65.339   16.825
  320.699    0.268    0.458   64.731   17.822
  320.999    0.287    0.463   62.894   22.404
  321.299    0.305    0.427   66.603   30.969
  321.599    0.321    0.423   65.380   37.473
  321.899    0.351    0.437   59.223   34.102
  322.199    0.360    0.432   63.551   24.705
  322.499    0.326    0.401   74.046   14.523
  322.799    0.249    0.373   80.845   14.535
  323.099    0.241    0.387   77.769   18.977
  323.399    0.258    0.423   57.428   26.734
  323.699    0.317    0.460   49.420   39.126
  323.999    0.342    0.446   50.664   39.900
  324.299    0.341    0.455   58.075   33.018
  324.599    0.316    0.433   72.271   16.358
  324.899    0.283    0.476   70.734   11.629
  325.199    0.325    0.451   65.161   12.796
  325.499    0.320    0.452   62.064   18.029
  325.799    0.319    0.446   62.684   23.991
  326.099    0.326    0.418   67.018   28.487
  326.399    0.335    0.418   66.399   27.449
  326.699    0.325    0.438   59.587   26.436
  326.999    0.309    0.436   54.014   24.990
  327.298    0.299    0.428   56.491   23.625
  327.598    0.298    0.414   66.399   22.762
  327.898    0.281    0.402   74.450   21.516
  328.198    0.280    0.402   76.307   19.575
  328.498    0.289    0.434   70.115   17.149
