~VERSION INFORMATION
 VERS.                 2.0:   CWLS LOG ASCII STANDARD -VERSION 2.0
 WRAP.                  NO:   ONE LINE PER DEPTH STEP
~WELL INFORMATION BLOCK
#MNEM.UNIT           DATA                    DESCRIPTION OF MNEMONIC
#---------    -------------------            -------------------------------
# Generated from Intellog Unique Number	CW_82_90/WELL/502
WELL.         GULF WABASCA 06-14             : Well_name    - WELL
LOC .         00/06-14-083-23W4/0            : Location     - LOCATION
UWI .         00/06-14-083-23W4/0            : Uwi          - UNIQUE WELL ID
ENTR.         JAYE                           : Entered      - ENTERED BY
SRVC.         SCHLUMBERGER                   : Scn          - SERVICE COMPANY
DATE.         9 JAN 74                       : Date         - LOG DATE
STRT.M        222.504                        : top_depth    - START DEPTH
STOP.M        426.754                        : bot_depth    - STOP DEPTH
STEP.M        0.25                           : increment    - STEP LENGTH
 NULL. -999.2500:NULL Value
~CURVE INFORMATION BLOCK
#MNEM UNIT       ERCB CURVE CODE    CURVE DESCRIPTION
#-----------   ------------------   ----------------------------------
DEPT.M        00 001 00 00         : DEPTH        - DEPTH
ILD .OHMM     00 120 00 00         : RESD         - DEEP RESISTIVITY (DIL)
CALI.MM       00 280 01 00         : CAL          - CALIPER
GR  .API      00 310 00 00         : GR           - GAMMA RAY
NPHI.V/V      00 330 00 00         : PHIN         - NEUTRON POROSITY (SANDSTONE)
DPHI.V/V      00 890 00 00         : PHID         - DENSITY POROSITY (SANDSTONE)
~PARAMETER INFORMATION
#MNEM.UNIT           DATA             DESCRIPTION OF MNEMONIC
#---------         -----------     ------------------------------
GL  .M        607.771              : gl           - GROUND LEVEL ELEVATION
EREF.M        609.295              : kb           - ELEVATION OF DEPTH REFERENCE
DATM.M        607.771              : datum        - DATUM ELEVATION
TDD .M        426.72               : tdd          - TOTAL DEPTH DRILLER
ENG .         CHAUDHARY            : Engineer     - RECORDING ENGINEER
WIT .         LONG & CAMPBELL      : Witness      - WITNESSED BY
BASE.         EDMONTON             : Branch       - HOME BASE OF LOGGING UNIT
MUD .         GEL                  : Mud_type     - MUD TYPE
MATR.         SANDSTONE            : Logunit      - NEUTRON MATRIX
TMAX.C        29.4444              : BHT          - MAXIMUM RECORDED TEMPERATURE
BHTD.M        426.72               : BHTDEP       - MAXIMUM RECORDED TEMPERATURE
RMT .C        11.6667              : MDTP         - TEMPERATURE OF MUD
MUDD.KG/M     0                    : MWT          - MUD DENSITY
NEUT.         1                    : NEUTRON      - NEUTRON TYPE
RESI.         0                    : RESIST       - RESISTIVITY TYPE
RM  .OHMM     4.77                 : RM           - RESISTIVITY OF MUD
RMC .OHMM     0                    : RMC          - RESISTIVITY OF MUD CAKE
RMF .OHMM     0                    : RMF          - RESISTIVITY OF MUD FILTRATE
SUFT.C        -17.7778             : SUFT         - SURFACE TEMPERATURE
~A  DEPTH     RESD      CAL       GR     PHIN     PHID
  222.504    2.667  166.754   91.892    0.579    0.270
  222.754    2.764  166.384   86.731    0.573    0.244
  223.004    2.896  166.120   82.913    0.551    0.236
  223.254    2.990  166.157   85.501    0.532    0.240
  223.504    3.076  165.684   88.574    0.548    0.243
  223.754    3.118  165.320   90.002    0.570    0.248
  224.004    3.208  164.944   88.443    0.572    0.254
  224.254    3.288  164.166   86.395    0.539    0.253
  224.504    3.328  163.997   86.728    0.535    0.212
  224.754    3.332  164.458   90.347    0.538    0.190
  225.004    3.340  164.399   95.493    0.543    0.225
  225.254    3.344  164.646   97.413    0.564    0.255
  225.504    3.287  164.690   98.044    0.566    0.260
  225.754    3.219  165.038   95.936    0.583    0.266
  226.004    3.123  165.393   89.926    0.596    0.266
  226.254    3.190  165.744   83.547    0.589    0.255
  226.504    3.306  165.480   76.014    0.552    0.248
  226.754    3.566  165.725   68.781    0.357    0.236
  227.004    3.860  165.050   57.222    0.370    0.193
  227.254    6.040  163.957   48.711    0.391    0.196
  227.504    9.195  162.560   45.510    0.420    0.326
  227.754   23.532  162.500   45.836    0.444    0.332
  228.004   33.004  162.634   46.961    0.443    0.336
  228.254   34.263  162.687   47.716    0.436    0.340
  228.504   33.069  162.730   48.108    0.440    0.333
  228.754   32.092  162.765   48.195    0.457    0.339
  229.004   31.836  162.814   48.278    0.455    0.345
  229.254   32.162  162.851   48.248    0.448    0.348
  229.504   33.207  162.896   48.818    0.438    0.343
  229.754   34.915  162.842   49.273    0.432    0.342
  230.004   37.664  162.984   49.539    0.444    0.341
  230.254   40.330  163.649   50.113    0.461    0.337
  230.504   44.709  164.306   49.774    0.462    0.339
  230.754   50.937  164.350   48.518    0.451    0.341
  231.004   58.029  164.911   47.263    0.439    0.338
  231.254   68.324  165.362   44.909    0.446    0.328
  231.504   79.126  165.510   42.922    0.451    0.325
  231.754   95.044  165.040   42.460    0.454    0.338
  232.004  110.085  164.874   44.318    0.462    0.340
  232.254  118.098  164.611   45.682    0.480    0.324
  232.504  118.450  164.657   45.035    0.508    0.329
  232.754  117.254  164.485   42.440    0.551    0.352
  233.004  113.165  163.812   43.075    0.481    0.350
  233.254  101.914  163.743   46.702    0.452    0.328
  233.504   90.130  163.899   49.039    0.463    0.351
  233.754   77.689  164.034   49.552    0.483    0.342
  234.004   40.347  164.398   48.663    0.499    0.353
  234.254   37.479  164.535   46.985    0.508    0.371
  234.504   39.338  164.476   45.545    0.485    0.369
  234.754   39.668  164.727   43.924    0.468    0.353
  235.004   41.255  165.076   42.179    0.469    0.331
  235.254   44.583  165.323   40.680    0.481    0.359
  235.504   55.241  165.366   39.607    0.477    0.368
  235.754   65.746  165.000   39.023    0.475    0.355
  236.004   79.259  164.740   39.234    0.482    0.354
  236.254   85.037  164.365   39.988    0.487    0.358
  236.504   85.425  164.822   39.893    0.491    0.360
  236.754   81.259  164.342   38.943    0.481    0.364
  237.004   73.582  164.076   37.686    0.462    0.367
  237.254   67.612  163.716   36.554    0.455    0.358
  237.504   65.746  163.242   37.250    0.478    0.356
  237.754   66.410  163.068   39.652    0.488    0.367
  238.004   69.067  162.911   41.569    0.492    0.368
  238.254   73.281  162.539   42.082    0.499    0.367
  238.504   78.189  162.474   42.108    0.493    0.368
  238.754   80.144  162.526   41.948    0.482    0.362
  239.004   79.497  162.561   42.402    0.480    0.358
  239.254   76.865  162.295   40.903    0.482    0.363
  239.504   70.624  162.346   40.867    0.487    0.370
  239.754   67.427  162.386   42.052    0.488    0.361
  240.004   66.407  162.427   42.686    0.490    0.358
  240.254   65.976  162.671   42.527    0.500    0.363
  240.504   67.259  162.822   41.643    0.495    0.358
  240.754   68.067  162.550   40.812    0.482    0.341
  241.004   67.153  162.798   39.616    0.466    0.321
  241.254   62.378  162.647   38.424    0.452    0.298
  241.504   42.041  162.678   38.630    0.458    0.274
  241.754   38.698  162.726   39.939    0.467    0.253
  242.004   36.745  162.558   41.366    0.471    0.371
  242.254   35.724  162.498   41.571    0.481    0.371
  242.504   34.989  162.232   41.293    0.476    0.361
  242.754   34.142  162.591   41.073    0.470    0.361
  243.004   33.743  162.420   41.465    0.468    0.372
  243.254   33.532  162.254   42.225    0.468    0.377
  243.504   33.378  161.886   42.431    0.471    0.365
  243.754   32.693  162.352   41.968    0.483    0.359
  244.004   32.133  162.389   41.688    0.493    0.368
  244.254   31.353  162.427   43.117    0.503    0.373
  244.504   30.878  161.954   44.362    0.503    0.379
  244.754   30.624  162.310   45.485    0.490    0.369
  245.004   30.434  162.561   45.996    0.484    0.368
  245.254   30.296  162.603   44.683    0.486    0.370
  245.504   30.163  162.643   43.669    0.483    0.358
  245.754   30.916  162.483   43.880    0.479    0.360
  246.004   31.004  162.727   45.064    0.483    0.357
  246.254   30.198  162.989   46.186    0.507    0.359
  246.504   29.255  162.915   46.271    0.523    0.352
  246.754   27.774  162.858   46.662    0.541    0.317
  247.004   26.420  162.900   49.429    0.516    0.297
  247.254   24.994  162.733   56.528    0.483    0.310
  247.504   21.822  162.675   66.494    0.489    0.296
  247.754   15.619  162.719   72.256    0.506    0.271
  248.004   12.157  162.557   70.140    0.515    0.282
  248.254   10.771  162.389   60.227    0.497    0.274
  248.504   10.283  162.336   56.716    0.474    0.312
  248.754    9.943  162.479   61.681    0.465    0.292
  249.004    9.406  163.040   67.864    0.480    0.264
  249.254    8.865  163.186   70.390    0.488    0.246
  249.504    8.131  163.542   70.233    0.476    0.237
  249.754    6.758  163.888   69.648    0.453    0.224
  250.004    6.108  164.243   67.843    0.434    0.215
  250.254    6.159  164.492   62.686    0.419    0.217
  250.504    6.645  164.642   57.894    0.445    0.193
  250.754    7.180  164.782   55.784    0.465    0.304
  251.004    8.180  164.523   54.408    0.471    0.344
  251.254   10.415  164.558   53.640    0.483    0.330
  251.504   14.582  164.400   53.913    0.494    0.335
  251.754   17.230  164.126   53.754    0.477    0.346
  252.004   19.032  164.375   53.716    0.467    0.361
  252.254   19.401  165.153   54.842    0.483    0.347
  252.504   18.152  165.092   58.100    0.496    0.334
  252.754   15.649  164.610   62.878    0.504    0.325
  253.004   14.015  163.731   64.186    0.519    0.312
  253.254   12.259  164.399   60.615    0.518    0.314
  253.504   10.208  164.437   58.627    0.466    0.318
  253.754    8.704  164.054   67.003    0.449    0.289
  254.004    7.782  163.686   76.117    0.488    0.269
  254.254    7.073  163.424   74.861    0.522    0.267
  254.504    6.569  163.468   76.591    0.509    0.276
  254.754    6.069  163.521   81.071    0.503    0.264
  255.004    5.753  163.653   77.434    0.534    0.269
  255.254    5.727  164.010   70.876    0.526    0.281
  255.504    6.326  164.368   64.925    0.504    0.298
  255.754    7.155  164.398   59.036    0.486    0.323
  256.004    8.211  165.175   54.793    0.456    0.333
  256.254    9.953  165.519   56.465    0.444    0.331
  256.504   11.075  165.354   57.955    0.463    0.333
  256.754   11.269  164.470   58.955    0.471    0.331
  257.004   11.017  163.889   59.102    0.467    0.325
  257.254   10.497  163.727   62.665    0.465    0.317
  257.504    9.628  162.327   62.751    0.484    0.322
  257.754    9.157  161.759   61.740    0.497    0.312
  258.004    8.774  161.795   61.642    0.489    0.315
  258.254    8.706  162.251   60.508    0.497    0.301
  258.504    8.714  162.393   58.520    0.483    0.312
  258.754    8.801  162.031   61.172    0.468    0.348
