~VERSION INFORMATION
 VERS.                 2.0:   CWLS LOG ASCII STANDARD -VERSION 2.0
 WRAP.                  NO:   ONE LINE PER DEPTH STEP
~WELL INFORMATION BLOCK
#MNEM.UNIT           DATA                    DESCRIPTION OF MNEMONIC
#---------    -------------------            -------------------------------
# Generated from Intellog Unique Number	CS_73_76/WELL/1033
WELL.         CANADIAN SUPERIOR OIL          : Well_name    - WELL
LOC .         00/06-05-076-14W4/0            : Location     - LOCATION
UWI .         00/06-05-076-14W4/0            : Uwi          - UNIQUE WELL ID
ENTR.         SP                             : Entered      - ENTERED BY
SRVC.         SCHLUMBERGER                   : Scn          - SERVICE COMPANY
STRT.F        1150                           : top_depth    - START DEPTH
STOP.F        1839.8                         : bot_depth    - STOP DEPTH
STEP.F        0.82                           : increment    - STEP LENGTH
 NULL. -999.2500:NULL Value
~CURVE INFORMATION BLOCK
#MNEM UNIT       ERCB CURVE CODE    CURVE DESCRIPTION
#-----------   ------------------   ----------------------------------
DEPT.F        00 001 00 00         : DEPTH        - DEPTH
GR  .API      00 310 00 00         : GR           - GAMMA RAY
NPHI.V/V      00 330 00 00         : PHIN         - NEUTRON POROSITY (SANDSTONE)
DPHI.V/V      00 890 00 00         : PHID         - DENSITY POROSITY (SANDSTONE)
ILD .OHMM     00 120 00 00         : RESD         - DEEP RESISTIVITY (DIL)
~PARAMETER INFORMATION
#MNEM.UNIT           DATA             DESCRIPTION OF MNEMONIC
#---------         -----------     ------------------------------
GL  .F        2386                 : gl           - GROUND LEVEL ELEVATION
EREF.F        2398                 : kb           - ELEVATION OF DEPTH REFERENCE
DATM.F        2386                 : datum        - DATUM ELEVATION
TDD .F        1806                 : tdd          - TOTAL DEPTH DRILLER
RUN .         ONE                  : Run          - RUN NUMBER
ENG .         BILL                 : Engineer     - RECORDING ENGINEER
WIT .         JIM                  : Witness      - WITNESSED BY
MUD .         GEL                  : Mud_type     - MUD TYPE
MATR.         SANDSTONE            : Logunit      - NEUTRON MATRIX
TMAX.C        22.7778              : BHT          - MAXIMUM RECORDED TEMPERATURE
BHTD.M        550.469              : BHTDEP       - MAXIMUM RECORDED TEMPERATURE
MATR.         1                    : LOGUNIT      - NEUTRON MATRIX
RMT .C        25                   : MDTP         - TEMPERATURE OF MUD
NEUT.         1                    : NEUTRON      - NEUTRON TYPE
RESI.         0                    : RESIST       - RESISTIVITY TYPE
RMC .OHMM     0.25                 : RMC          - RESISTIVITY OF MUD CAKE
RMF .OHMM     0.25                 : RMF          - RESISTIVITY OF MUD FILTRATE
SUFT.C        15                   : SUFT         - SURFACE TEMPERATURE
~A  DEPTH       GR     PHIN     PHID     RESD
# ...
 1435.430   98.932    0.543    0.320    9.720
 1436.250  102.450    0.562    0.287    9.556
 1437.070  103.626    0.576    0.343    9.398
 1437.890  104.803    0.586    0.359    9.073
 1438.710  105.393    0.600    0.350    8.917
 1439.530  105.398    0.616    0.344    8.453
 1440.350  105.405    0.611    0.341    7.725
 1441.170  105.409    0.621    0.330    6.562
 1441.990  105.412    0.615    0.326    5.276
 1442.810  104.832    0.607    0.326    3.346
 1443.640  104.836    0.606    0.325    1.584
 1444.460  104.843    0.606    0.325    1.448
 1445.280  104.847    0.600    0.329    1.647
 1446.100  103.681    0.601    0.331    2.960
 1446.920  101.344    0.605    0.332    4.274
 1447.740   97.838    0.609    0.335    4.775
 1448.560   97.256    0.603    0.337    5.239
 1449.380  104.872    0.595    0.344    5.857
 1450.200  101.952    0.592    0.348    6.193
 1451.020  100.784    0.599    0.357    6.432
 1451.840   97.278    0.607    0.388    6.931
 1452.660   93.770    0.585    0.416    7.201
 1453.480   90.262    0.585    0.422    7.479
 1454.300   86.754    0.587    0.430    7.489
 1455.120   83.831    0.589    0.437    7.921
 1455.940   79.153    0.598    0.445    8.853
 1456.760   75.060    0.599    0.408    9.534
 1457.580   71.554    0.579    0.405   10.467
 1458.400   75.656    0.562    0.406   10.870
 1459.220   79.174    0.559    0.407   11.290
 1460.040   82.690    0.557    0.409   11.513
 1460.860   88.549    0.567    0.412   11.741
 1461.680  100.264    0.579    0.412    9.615
 1462.500  108.465    0.583    0.407    4.896
 1463.320  111.983    0.630    0.404    3.402
 1464.140  114.915    0.648    0.395    2.786
 1464.960  117.263    0.665    0.373    2.546
 1465.780  117.853    0.673    0.377    2.549
 1466.600  114.931    0.668    0.382    2.648
 1467.420  110.252    0.673    0.386    3.014
 1468.240  103.817    0.679    0.391    3.557
 1469.060   96.796    0.681    0.398    4.278
 1469.880   90.362    0.619    0.424    4.780
 1470.700   83.341    0.587    0.448    5.539
 1471.520   80.419    0.586    0.452    6.663
 1472.340   81.009    0.593    0.456    7.442
 1473.160   83.944    0.594    0.435    8.315
 1473.980   85.119    0.577    0.420    8.642
 1474.800   83.367    0.562    0.418    8.653
 1475.620   81.030    0.548    0.412    8.662
 1476.440   78.693    0.533    0.363    8.673
 1477.260   78.112    0.505    0.330    8.690
 1478.080   79.290    0.456    0.285    8.701
 1478.900   82.222    0.540    0.300    8.873
 1479.720   84.569    0.566    0.321    9.049
 1480.540   85.159    0.587    0.350    9.228
 1481.360   85.163    0.597    0.417    8.908
 1482.190   85.168    0.589    0.417    8.758
 1483.010   86.345    0.593    0.414    8.778
 1483.830   89.278    0.593    0.416    8.784
 1484.650   88.112    0.597    0.418    8.795
 1485.470   86.360    0.599    0.424    8.807
 1486.290   86.364    0.597    0.428    8.821
 1487.110   86.956    0.602    0.430    8.833
 1487.930   88.130    0.618    0.436    8.684
 1488.750   91.650    0.617    0.433    8.083
 1489.570   92.824    0.612    0.425    7.803
 1490.390   94.000    0.607    0.425    7.818
 1491.210   92.249    0.617    0.426    7.970
 1492.030   90.497    0.614    0.432    8.433
 1492.850   89.331    0.613    0.435    9.084
 1493.670   88.166    0.603    0.441    9.435
 1494.490   85.244    0.590    0.414    9.799
 1495.310   82.322    0.557    0.396    9.815
 1496.130   88.181    0.560    0.390    9.827
 1496.950   92.871    0.576    0.390    9.487
 1497.770   92.289    0.596    0.390    9.161
 1498.590   91.124    0.592    0.396    8.684
 1499.410   91.129    0.594    0.399    8.383
 1500.230   92.892    0.592    0.403    7.946
 1501.050   93.480    0.592    0.409    7.535
 1501.870   95.829    0.591    0.411    7.545
 1502.690   96.418    0.592    0.403    7.552
 1503.510   96.423    0.595    0.394    7.846
 1504.330   92.914    0.594    0.385    8.608
 1505.150   85.894    0.580    0.375    9.976
 1505.970   81.802    0.557    0.360   12.905
 1506.790   76.537    0.537    0.286   15.513
 1507.610   73.031    0.481    0.239   21.199
 1508.430   74.792    0.420    0.211   28.979
 1509.250   77.138    0.396    0.180   27.469
 1510.070   80.070    0.400    0.186   24.641
 1510.890   83.002    0.403    0.208   20.931
 1511.710   89.449    0.409    0.227   18.108
 1512.530   93.550    0.427    0.292   15.665
 1513.350   97.654    0.456    0.339   13.803
 1514.170   94.145    0.489    0.390   11.941
 1514.990   90.052    0.527    0.416   10.524
 1515.810   84.788    0.573    0.431    9.621
 1516.630   78.939    0.590    0.431    9.120
 1517.450   74.847    0.591    0.433    8.807
 1518.270   74.266    0.592    0.439    8.499
 1519.090   74.271    0.591    0.449    8.359
 1519.910   73.690    0.585    0.449    8.370
 1520.730   71.939    0.579    0.449    8.380
 1521.560   70.187    0.566    0.450    8.389
 1522.380   71.948    0.561    0.450    8.402
 1523.200   77.809    0.564    0.450    8.419
 1524.020   81.326    0.565    0.450    8.427
 1524.840   85.431    0.568    0.451    8.283
 1525.660   87.192    0.569    0.452    8.301
 1526.480   87.198    0.574    0.452    8.156
 1527.300   86.616    0.577    0.453    8.170
 1528.120   85.449    0.579    0.455    8.035
 1528.940   81.943    0.581    0.457    8.048
 1529.760   80.776    0.583    0.457    8.053
 1530.580   79.025    0.580    0.453    8.064
 1531.400   79.029    0.577    0.449    8.077
 1532.220   79.034    0.573    0.444    7.944
 1533.040   80.797    0.568    0.441    7.810
 1533.860   83.729    0.561    0.438    7.823
 1534.680   87.246    0.563    0.437    7.828
 1535.500   90.178    0.568    0.432    7.846
 1536.320   91.939    0.573    0.427    7.853
 1537.140   93.702    0.578    0.420    7.864
 1537.960   96.048    0.580    0.413    7.871
 1538.780   98.395    0.575    0.402    7.887
 1539.600   99.571    0.572    0.401    7.894
 1540.420  100.161    0.578    0.407    7.907
 1541.240  100.751    0.576    0.410    7.915
 1542.060  100.171    0.555    0.396    7.931
 1542.880   99.005    0.558    0.374    7.941
 1543.700   98.424    0.562    0.387    7.949
 1544.520   98.429    0.563    0.398    7.959
 1545.340   96.680    0.566    0.397    7.972
 1546.160   94.928    0.569    0.390    7.841
 1546.980   94.933    0.572    0.383    7.571
 1547.800   96.109    0.580    0.371    7.442
 1548.620   97.284    0.582    0.362    7.316
 1549.440   99.630    0.592    0.356    6.937
 1550.260  103.735    0.596    0.357    6.455
 1551.080  104.326    0.597    0.357    5.794
 1551.900  104.329    0.597    0.355    5.593
 1552.720  105.505    0.597    0.348    5.501
 1553.540  107.268    0.594    0.344    5.506
 1554.360  107.858    0.591    0.343    5.721
 1555.180  107.863    0.592    0.341    5.941
 1556.000  107.867    0.595    0.338    6.286
 1556.820  106.701    0.603    0.333    6.649
 1557.640  106.122    0.600    0.330    6.908
 1558.460  107.298    0.593    0.327    7.175
 1559.280  109.059    0.583    0.327    7.184
 1560.100  110.235    0.576    0.333    7.193
 1560.930  109.655    0.574    0.336    7.070
 1561.750  109.075    0.569    0.342    6.827
 1562.570  109.080    0.567    0.349    6.838
 1563.390  109.084    0.573    0.356    6.845
 1564.210  108.503    0.575    0.363    6.854
 1565.030  106.751    0.573    0.357    6.870
 1565.850  103.829    0.568    0.330    7.003
 1566.670  101.494    0.568    0.312    7.144
 1567.490   99.742    0.573    0.301    7.153
 1568.310   97.405    0.576    0.289    7.432
 1569.130   95.069    0.582    0.288    7.437
 1569.950   93.317    0.589    0.321    7.584
 1570.770   91.566    0.596    0.352    7.599
 1571.590   90.399    0.593    0.392    7.608
 1572.410   87.478    0.586    0.400    7.480
 1573.230   84.555    0.582    0.411    7.490
 1574.050   81.047    0.578    0.427    7.502
 1574.870   80.468    0.575    0.443    7.510
 1575.690   80.472    0.574    0.434    7.658
 1576.510   79.306    0.569    0.434    7.954
 1577.330   76.969    0.564    0.431    9.564
