~VERSION INFORMATION
 VERS.                 2.0:   CWLS LOG ASCII STANDARD -VERSION 2.0
 WRAP.                  NO:   ONE LINE PER DEPTH STEP
~WELL INFORMATION BLOCK
#MNEM.UNIT           DATA                    DESCRIPTION OF MNEMONIC
#---------    -------------------            -------------------------------
# Generated from Intellog Unique Number	CW_73_75/WELL/773
WELL.         CHEVRON ER AL ROCK 07-26       : Well_name    - WELL
LOC .         00/07-26-075-22W4/0            : Location     - LOCATION
UWI .         00/07-26-075-22W4/0            : Uwi          - UNIQUE WELL ID
ENTR.         JAYE                           : Entered      - ENTERED BY
SRVC.         WESTERN ATLAS                  : Scn          - SERVICE COMPANY
DATE.         6 JAN 74                       : Date         - LOG DATE
STRT.M        387.096                        : top_depth    - START DEPTH
STOP.M        612.596                        : bot_depth    - STOP DEPTH
STEP.M        0.25                           : increment    - STEP LENGTH
 NULL. -999.2500:NULL Value
~CURVE INFORMATION BLOCK
#MNEM UNIT       ERCB CURVE CODE    CURVE DESCRIPTION
#-----------   ------------------   ----------------------------------
DEPT.M        00 001 00 00         : DEPTH        - DEPTH
ILD .OHMM     00 120 00 00         : RESD         - DEEP RESISTIVITY (DIL)
NPHI.V/V      00 330 00 00         : PHIN         - NEUTRON POROSITY (SANDSTONE)
DPHI.V/V      00 890 00 00         : PHID         - DENSITY POROSITY (SANDSTONE)
GR  .API      00 310 00 00         : GR           - GAMMA RAY
CALI.MM       00 280 01 00         : CAL          - CALIPER
~PARAMETER INFORMATION
#MNEM.UNIT           DATA             DESCRIPTION OF MNEMONIC
#---------         -----------     ------------------------------
GL  .M        682.539              : gl           - GROUND LEVEL ELEVATION
EREF.M        685.648              : kb           - ELEVATION OF DEPTH REFERENCE
DATM.M        682.539              : datum        - DATUM ELEVATION
TDD .M        611.124              : tdd          - TOTAL DEPTH DRILLER
RUN .         ONE                  : Run          - RUN NUMBER
ENG .         SIMPSON              : Engineer     - RECORDING ENGINEER
WIT .         WONG/GOLL            : Witness      - WITNESSED BY
BASE.         EDM                  : Branch       - HOME BASE OF LOGGING UNIT
MUD .         FRESH GEL            : Mud_type     - MUD TYPE
MATR.         SANDSTONE            : Logunit      - NEUTRON MATRIX
TMAX.C        30.5556              : BHT          - MAXIMUM RECORDED TEMPERATURE
BHTD.M        612.648              : BHTDEP       - MAXIMUM RECORDED TEMPERATURE
RMT .C        18.8889              : MDTP         - TEMPERATURE OF MUD
MUDD.KG/M     1140                 : MWT          - MUD DENSITY
NEUT.         1                    : NEUTRON      - NEUTRON TYPE
RESI.         0                    : RESIST       - RESISTIVITY TYPE
RM  .OHMM     5.6                  : RM           - RESISTIVITY OF MUD
RMC .OHMM     5.2                  : RMC          - RESISTIVITY OF MUD CAKE
RMF .OHMM     4.57                 : RMF          - RESISTIVITY OF MUD FILTRATE
SUFT.C        -17.7778             : SUFT         - SURFACE TEMPERATURE
~A  DEPTH     RESD     PHIN     PHID       GR      CAL
  387.096    2.486    0.536    0.202  102.173  202.209
  387.346    2.552    0.531    0.193   95.104  202.207
  387.596    2.668    0.532    0.194   93.763  201.482
  387.846    2.795    0.550    0.203   92.664  201.273
  388.096    2.954    0.572    0.213   90.774  201.065
  388.346    3.129    0.549    0.223   88.518  200.752
  388.596    3.411    0.522    0.228   82.912  199.717
  388.846    3.829    0.486    0.222   78.341  199.509
  389.096    3.473    0.465    0.228   69.870  199.094
  389.346    3.191    0.484    0.215   69.747  199.090
  389.596    2.937    0.530    0.220   77.118  199.604
  389.846    2.649    0.538    0.196   82.478  199.705
  390.096    2.372    0.543    0.201   77.236  199.703
  390.346    2.240    0.564    0.201   76.808  199.597
  390.596    2.134    0.592    0.202   81.559  199.595
  390.846    2.156    0.617    0.221   81.192  199.592
  391.096    2.424    0.574    0.252   77.109  199.590
  391.346    3.960    0.537    0.278   71.197  199.793
  391.596    5.674    0.495    0.311   65.895  200.100
  391.846    7.531    0.442    0.311   61.263  200.201
  392.096    9.431    0.446    0.289   58.398  200.610
  392.346   10.005    0.457    0.305   57.543  200.711
  392.596   10.308    0.472    0.326   58.456  200.812
  392.846   10.507    0.469    0.340   60.465  200.912
  393.096   10.555    0.464    0.314   61.012  201.012
  393.346   10.074    0.465    0.293   57.416  201.011
  393.596    9.563    0.427    0.273   56.744  201.215
  393.846    8.802    0.439    0.264   62.591  201.521
  394.096    8.028    0.450    0.239   63.930  201.416
  394.346    7.443    0.457    0.270   64.355  201.413
  394.596    6.739    0.454    0.278   65.207  201.616
  394.846    6.091    0.456    0.274   67.216  201.615
  395.096    5.749    0.458    0.259   73.977  201.612
  395.346    5.652    0.461    0.257   75.011  201.506
  395.596    5.812    0.471    0.258   72.634  201.401
  395.846    6.212    0.485    0.262   69.220  201.088
  396.096    6.686    0.487    0.285   68.427  200.879
  396.346    6.953    0.475    0.281   69.583  200.670
  396.596    6.216    0.455    0.267   73.724  200.668
  396.846    5.397    0.432    0.243   74.820  200.665
  397.096    4.763    0.435    0.222   74.635  200.766
  397.346    4.313    0.456    0.232   77.192  200.969
  397.596    3.738    0.482    0.246   81.090  201.071
  397.846    3.634    0.519    0.256   86.572  201.377
  398.096    3.696    0.576    0.228   94.613  201.375
  398.346    4.496    0.566    0.205   89.555  201.372
  398.596    6.066    0.519    0.245   79.988  201.267
  398.846    7.087    0.483    0.270   72.919  200.851
  399.096    6.839    0.447    0.302   64.083  200.642
  399.346    6.329    0.441    0.323   65.726  200.226
  399.596    5.815    0.454    0.300   70.233  200.121
  399.846    5.400    0.459    0.279   75.715  199.809
  400.096    5.278    0.459    0.262   77.724  199.703
  400.346    5.341    0.455    0.232   80.099  199.701
  400.596    5.604    0.440    0.205   82.291  199.698
  400.846    5.989    0.456    0.182   80.401  199.695
  401.096    6.447    0.497    0.149   72.052  199.693
  401.346    6.765    0.480    0.226   64.678  199.794
  401.596    7.074    0.438    0.310   57.792  199.791
  401.846    7.276    0.425    0.306   56.999  199.582
  402.096    7.443    0.407    0.283   63.516  199.580
  402.346    7.639    0.403    0.262   68.023  199.474
  402.596    7.872    0.420    0.246   70.642  199.472
  402.846    8.157    0.448    0.227   63.695  199.573
  403.096    8.718    0.440    0.228   64.668  199.673
  403.346    9.081    0.428    0.274   65.032  199.671
  403.596    8.574    0.427    0.245   60.644  199.564
  403.846    7.637    0.381    0.209   59.728  199.459
  404.096    6.728    0.387    0.187   67.708  199.456
  404.346    6.158    0.411    0.212   72.885  199.454
  404.596    6.052    0.425    0.257   80.256  199.245
  404.846    6.035    0.442    0.235   85.860  199.036
  405.096    6.141    0.468    0.213   86.285  198.931
  405.346    6.397    0.461    0.195   81.226  198.721
  405.596    6.724    0.454    0.228   73.731  198.719
  405.846    7.004    0.444    0.256   69.404  198.613
  406.096    7.049    0.438    0.250   65.015  198.507
  406.346    6.851    0.430    0.254   64.039  198.608
  406.596    6.673    0.432    0.265   65.804  198.709
  406.846    6.498    0.436    0.281   71.835  199.016
  407.096    6.538    0.425    0.269   79.327  199.013
  407.346    6.628    0.423    0.269   85.296  199.011
  407.596    6.744    0.443    0.257   90.047  199.214
  407.846    7.013    0.445    0.242   86.512  199.315
  408.096    7.252    0.428    0.248   84.804  199.415
  408.346    7.554    0.408    0.226   89.311  199.516
  408.596    7.687    0.416    0.211   90.224  199.617
  408.846    7.947    0.430    0.201   88.456  199.717
  409.096    8.029    0.419    0.243   84.067  199.921
  409.346    8.123    0.423    0.230   79.557  200.125
  409.596    8.086    0.433    0.226   71.818  200.225
  409.846    7.844    0.428    0.244   64.932  200.326
  410.096    7.711    0.404    0.257   56.888  200.426
  410.346    7.453    0.403    0.273   50.733  200.527
  410.596    7.298    0.419    0.286   45.187  200.525
  410.846    7.239    0.413    0.301   43.053  200.522
  411.096    7.139    0.417    0.318   47.743  200.520
  411.346    7.081    0.427    0.305   53.834  200.517
  411.596    7.009    0.430    0.307   54.259  200.721
  411.846    7.002    0.424    0.303   50.846  200.718
  412.096    7.073    0.415    0.298   51.270  200.716
  412.346    7.182    0.407    0.297   53.767  200.507
  412.596    7.213    0.398    0.293   58.213  200.504
  412.846    7.193    0.394    0.290   61.867  200.502
  413.096    7.109    0.403    0.284   65.582  200.499
  413.346    6.688    0.413    0.272   70.881  200.497
  413.596    5.978    0.426    0.259   78.496  200.391
  413.846    5.624    0.430    0.219   87.633  200.285
  414.096    5.447    0.444    0.191   96.954  200.076
  414.346    5.284    0.473    0.181   95.490  199.971
  414.596    5.119    0.481    0.193   92.564  199.761
  414.846    4.428    0.480    0.217   90.856  199.655
  415.096    3.810    0.486    0.209   91.159  199.343
  415.346    3.320    0.497    0.226   94.692  199.341
  415.596    2.899    0.524    0.257  104.073  199.338
  415.846    2.762    0.540    0.223  109.920  199.336
  416.096    2.690    0.550    0.221  106.751  199.539
  416.346    2.653    0.542    0.236  106.201  199.640
  416.596    2.660    0.539    0.200  104.250  200.051
  416.846    2.648    0.549    0.177  105.406  200.048
  417.096    2.578    0.562    0.176  110.583  199.839
  417.346    2.534    0.570    0.172  109.911  199.631
  417.596    2.708    0.584    0.172  105.767  199.524
  417.846    3.193    0.603    0.186  108.202  199.522
  418.096    3.643    0.593    0.221  109.054  199.416
  418.346    3.943    0.525    0.268  106.676  199.414
  418.596    4.402    0.511    0.266  102.653  199.411
  418.846    4.696    0.485    0.267  102.774  199.408
  419.096    4.769    0.473    0.234  103.260  199.303
  419.346    4.834    0.480    0.205  101.918  198.888
  419.596    4.953    0.495    0.205  101.977  198.576
  419.846    5.160    0.495    0.229  100.513  198.470
  420.096    5.475    0.479    0.223   93.627  198.467
  420.346    5.904    0.478    0.221   84.730  198.568
  420.596    6.106    0.471    0.247   80.099  198.566
  420.846    6.121    0.463    0.257   80.340  198.460
  421.096    6.116    0.466    0.261   80.827  198.457
  421.346    6.077    0.495    0.271   80.764  198.558
  421.596    6.048    0.515    0.283   77.290  198.865
  421.846    6.032    0.501    0.295   72.780  198.965
  422.096    6.003    0.486    0.312   68.148  199.273
  422.346    5.997    0.477    0.313   70.522  199.579
  422.596    5.991    0.474    0.284   74.603  200.092
  422.846    5.964    0.467    0.270   77.039  200.297
  423.096    5.904    0.456    0.265   78.195  200.603
  423.346    5.635    0.449    0.258   79.229  200.807
