~VERSION INFORMATION
 VERS.                 2.0:   CWLS LOG ASCII STANDARD -VERSION 2.0
 WRAP.                  NO:   ONE LINE PER DEPTH STEP
~WELL INFORMATION BLOCK
#MNEM.UNIT           DATA                    DESCRIPTION OF MNEMONIC
#---------    -------------------            -------------------------------
# Generated from Intellog Unique Number	CW_73_75/WELL/3515
WELL.         ULSTER PETROLEUMS LTD.         : Well_name    - WELL
LOC .         00/01-24-075-24W4/0            : Location     - LOCATION
UWI .         00/01-24-075-24W4/0            : Uwi          - UNIQUE WELL ID
ENTR.         JOETTE                         : Entered      - ENTERED BY
SRVC.         SCHLUMBERGER                   : Scn          - SERVICE COMPANY
DATE.         05/22/92                       : Date         - LOG DATE
STRT.M        375                            : top_depth    - START DEPTH
STOP.M        610                            : bot_depth    - STOP DEPTH
STEP.M        0.25                           : increment    - STEP LENGTH
 NULL. -999.2500:NULL Value
~CURVE INFORMATION BLOCK
#MNEM UNIT       ERCB CURVE CODE    CURVE DESCRIPTION
#-----------   ------------------   ----------------------------------
DEPT.M        00 001 00 00         : DEPTH        - DEPTH
ILD .OHMM     00 120 00 00         : RESD         - DEEP RESISTIVITY (DIL)
DPHI.V/V      00 890 00 00         : PHID         - DENSITY POROSITY (SANDSTONE)
NPHI.V/V      00 330 00 00         : PHIN         - NEUTRON POROSITY (SANDSTONE)
GR  .API      00 310 00 00         : GR           - GAMMA RAY
~PARAMETER INFORMATION
#MNEM.UNIT           DATA             DESCRIPTION OF MNEMONIC
#---------         -----------     ------------------------------
GL  .M        699.8                : gl           - GROUND LEVEL ELEVATION
EREF.M        703.6                : kb           - ELEVATION OF DEPTH REFERENCE
DATM.M        703.6                : datum        - DATUM ELEVATION
TDD .M        615                  : tdd          - TOTAL DEPTH DRILLER
RUN .         ONE                  : Run          - RUN NUMBER
ENG .         BILL                 : Engineer     - RECORDING ENGINEER
WIT .         JIM                  : Witness      - WITNESSED BY
MUD .         GEL                  : Mud_type     - MUD TYPE
MATR.         SANDSTONE            : Logunit      - NEUTRON MATRIX
TMAX.C        28                   : BHT          - MAXIMUM RECORDED TEMPERATURE
BHTD.M        615                  : BHTDEP       - MAXIMUM RECORDED TEMPERATURE
RMT .C        20                   : MDTP         - TEMPERATURE OF MUD
MUDD.KG/M     1130                 : MWT          - MUD DENSITY
NEUT.         1                    : NEUTRON      - NEUTRON TYPE
RESI.         0                    : RESIST       - RESISTIVITY TYPE
RM  .OHMM     3.1                  : RM           - RESISTIVITY OF MUD
RMC .OHMM     1.57                 : RMC          - RESISTIVITY OF MUD CAKE
RMF .OHMM     2.7                  : RMF          - RESISTIVITY OF MUD FILTRATE
SUFT.C        4                    : SUFT         - SURFACE TEMPERATURE
~A  DEPTH     RESD     PHID     PHIN       GR
  375.000    3.644    0.206    0.424  114.664
  375.250    3.459    0.209    0.433  116.486
  375.500    3.397    0.216    0.446  113.031
  375.750    3.282    0.219    0.456  112.532
  376.000    3.287    0.210    0.447  117.877
  376.250    3.293    0.212    0.432  121.435
  376.500    3.424    0.220    0.417  122.088
  376.750    3.628    0.229    0.388  118.065
  377.000    3.985    0.249    0.332  105.260
  377.250    4.460    0.268    0.298   60.879
  377.500    5.580    0.257    0.294   49.242
  377.750    7.514    0.215    0.302   39.960
  378.000   10.311    0.184    0.309   42.968
  378.250   12.427    0.168    0.318   38.945
  378.500   12.457    0.201    0.326   34.906
  378.750   11.380    0.241    0.319   31.468
  379.000   10.396    0.270    0.311   28.614
  379.250    9.850    0.279    0.310   26.362
  379.500    8.998    0.273    0.304   29.920
  379.750    7.922    0.267    0.295   34.663
  380.000    6.722    0.273    0.296   46.437
  380.250    5.810    0.288    0.340   57.025
  380.500    5.213    0.288    0.367   57.678
  380.750    5.221    0.281    0.369   61.854
  381.000    5.231    0.271    0.393   70.105
  381.250    5.243    0.261    0.382   67.251
  381.500    5.352    0.259    0.385   60.306
  381.750    5.667    0.274    0.405   56.868
  382.000    6.827    0.297    0.361   40.556
  382.250    8.701    0.307    0.358   28.369
  382.500    9.387    0.307    0.362   33.113
  382.750    9.759    0.312    0.349   32.597
  383.000    9.423    0.312    0.337   30.912
  383.250    7.429    0.306    0.340   36.223
  383.500    6.784    0.298    0.349   50.335
  383.750    5.756    0.285    0.368   61.507
  384.000    5.065    0.280    0.410   75.034
  384.250    4.068    0.289    0.438   79.795
  384.500    3.582    0.290    0.431   74.587
  384.750    3.333    0.280    0.425   72.902
  385.000    3.463    0.276    0.419   84.676
  385.250    3.879    0.295    0.421   87.099
  385.500    3.479    0.339    0.428   88.336
  385.750    3.237    0.346    0.440   82.543
  386.000    3.427    0.319    0.430   55.695
  386.250    4.616    0.300    0.412   50.504
  386.500    5.880    0.303    0.404   42.975
  386.750    6.961    0.299    0.365   34.260
  387.000    7.791    0.309    0.339   30.255
  387.250    7.523    0.302    0.345   39.674
  387.500    6.876    0.310    0.367   60.231
  387.750    6.164    0.319    0.405   62.637
  388.000    5.132    0.312    0.416   64.458
  388.250    3.970    0.301    0.441   63.925
  388.500    3.763    0.289    0.429   63.994
  388.750    3.913    0.278    0.432   71.694
  389.000    3.993    0.269    0.426   68.239
  389.250    3.858    0.279    0.409   67.723
  389.500    3.723    0.280    0.407   73.051
  389.750    3.529    0.283    0.415   86.595
  390.000    3.168    0.288    0.452   88.984
  390.250    3.002    0.282    0.472   92.559
  390.500    2.844    0.273    0.482   96.718
  390.750    2.600    0.260    0.483   93.297
  391.000    2.420    0.249    0.484   75.799
  391.250    2.293    0.280    0.478   67.686
  391.500    2.342    0.329    0.443   67.789
  391.750    2.667    0.354    0.428   67.239
  392.000    3.463    0.318    0.420   64.969
  392.250    4.331    0.300    0.416   60.947
  392.500    5.033    0.290    0.394   58.093
  392.750    5.536    0.272    0.371   56.409
  393.000    5.644    0.273    0.370   58.230
  393.250    5.871    0.267    0.354   60.636
  393.500    5.775    0.261    0.378   63.627
  393.750    5.376    0.246    0.392   60.189
  394.000    4.909    0.203    0.326   46.816
  394.250    4.483    0.233    0.326   41.023
  394.500    5.111    0.267    0.345   43.429
  394.750    6.392    0.291    0.367   51.129
  395.000    7.851    0.301    0.387   55.272
  395.250    7.585    0.301    0.385   59.448
  395.500    7.062    0.298    0.377   57.746
  395.750    6.939    0.291    0.376   66.615
  396.000    6.581    0.274    0.383   65.514
  396.250    6.238    0.259    0.389   62.661
  396.500    5.913    0.248    0.386   62.729
  396.750    5.606    0.247    0.386   66.304
  397.000    5.511    0.253    0.393   68.693
  397.250    5.327    0.257    0.392   69.931
  397.500    5.334    0.264    0.390   71.168
  397.750    5.345    0.274    0.403   75.929
  398.000    5.257    0.277    0.423   81.257
  398.250    4.983    0.245    0.428   88.974
  398.500    4.469    0.230    0.428   88.424
  398.750    4.008    0.227    0.443   92.600
  399.000    3.798    0.230    0.459   96.743
  399.250    3.471    0.225    0.460  100.317
  399.500    3.290    0.209    0.459  100.386
  399.750    3.298    0.209    0.452   99.870
  400.000    3.301    0.218    0.453   95.263
  400.250    3.250    0.211    0.463   97.085
  400.500    3.196    0.219    0.454   97.170
  400.750    3.142    0.237    0.473   94.300
  401.000    3.151    0.233    0.487   92.031
  401.250    3.155    0.239    0.501  103.821
  401.500    3.105    0.244    0.515  103.305
  401.750    3.051    0.254    0.519  103.374
  402.000    2.892    0.257    0.518  106.364
  402.250    2.693    0.257    0.525  107.602
  402.500    2.460    0.253    0.519  106.501
  402.750    2.247    0.251    0.503  104.817
  403.000    2.169    0.248    0.503  101.946
  403.250    2.056    0.247    0.508   97.941
  403.500    2.062    0.245    0.519   95.087
  403.750    2.064    0.250    0.513   94.588
  404.000    2.068    0.256    0.512   96.960
  404.250    2.074    0.252    0.512  101.119
  404.500    2.077    0.248    0.512  100.621
  404.750    2.080    0.245    0.509   99.520
  405.000    2.087    0.247    0.511  100.173
  405.250    2.090    0.253    0.523   99.073
  405.500    2.133    0.255    0.528   96.786
  405.750    2.137    0.255    0.522   96.872
  406.000    2.182    0.248    0.510   99.261
  406.250    2.269    0.272    0.516   99.364
  406.500    2.274    0.252    0.530   98.246
  406.750    2.319    0.221    0.518   96.561
  407.000    2.367    0.225    0.481   96.630
  407.250    2.372    0.225    0.496   96.698
  407.500    2.420    0.224    0.506   98.520
  407.750    2.469    0.224    0.520  102.112
  408.000    2.475    0.228    0.521   99.843
  408.250    2.526    0.216    0.502   98.743
  408.500    2.580    0.200    0.503   98.209
  408.750    2.586    0.192    0.513   98.278
  409.000    2.637    0.199    0.508  101.870
  409.250    2.643    0.194    0.499  101.354
  409.500    2.698    0.198    0.481  103.176
  409.750    2.704    0.208    0.479  104.980
  410.000    2.759    0.213    0.487  107.403
  410.250    2.763    0.216    0.498  107.489
  410.500    2.769    0.221    0.514  105.203
  410.750    2.775    0.222    0.512  100.596
  411.000    2.780    0.227    0.478   95.388
  411.250    2.784    0.250    0.491   94.906
  411.500    2.741    0.241    0.502  106.645
  411.750    2.647    0.231    0.525  107.900
  412.000    2.556    0.225    0.541  106.215
  412.250    2.561    0.221    0.546  105.115
  412.500    2.614    0.221    0.482  102.261
  412.750    2.716    0.209    0.464  103.481
  413.000    2.876    0.217    0.463  106.472
  413.250    2.883    0.222    0.468  105.956
  413.500    2.837    0.216    0.475  106.609
  413.750    2.840    0.214    0.483  108.447
  414.000    2.696    0.232    0.485  107.330
  414.250    2.649    0.250    0.498  103.909
  414.500    2.606    0.253    0.518   99.285
  414.750    2.565    0.252    0.494   94.678
  415.000    2.567    0.245    0.457   88.903
  415.250    2.670    0.250    0.448   83.694
  415.500    2.776    0.252    0.456   87.286
  415.750    2.781    0.240    0.484   89.108
  416.000    2.787    0.245    0.498   88.592
  416.250    2.692    0.254    0.525   88.661
  416.500    2.414    0.271    0.544   88.729
  416.750    2.288    0.284    0.566   88.798
  417.000    2.015    0.298    0.578   88.282
  417.250    1.806    0.318    0.593   81.337
  417.500    1.743    0.313    0.461   74.960
  417.750    5.011    0.322    0.419   61.587
  418.000    9.953    0.340    0.426   54.643
  418.250   11.555    0.280    0.418   56.464
