~VERSION INFORMATION
 VERS.                 2.0:   CWLS LOG ASCII STANDARD -VERSION 2.0
 WRAP.                  NO:   ONE LINE PER DEPTH STEP
~WELL INFORMATION BLOCK
#MNEM.UNIT           DATA                    DESCRIPTION OF MNEMONIC
#---------    -------------------            -------------------------------
# Generated from Intellog Unique Number	CS_73_76/WELL/2103
WELL.         07-08-076-12W4                 : Well_name    - WELL
LOC .         00/07-08-076-12W4/0            : Location     - LOCATION
UWI .         00/07-08-076-12W4/0            : Uwi          - UNIQUE WELL ID
ENTR.         SP                             : Entered      - ENTERED BY
SRVC.         SCHLUMBERGER                   : Scn          - SERVICE COMPANY
STRT.M        329.184                        : top_depth    - START DEPTH
STOP.M        566.684                        : bot_depth    - STOP DEPTH
STEP.M        0.25                           : increment    - STEP LENGTH
 NULL. -999.2500:NULL Value
~CURVE INFORMATION BLOCK
#MNEM UNIT       ERCB CURVE CODE    CURVE DESCRIPTION
#-----------   ------------------   ----------------------------------
DEPT.M        00 001 00 00         : DEPTH        - DEPTH
GR  .API      00 310 00 00         : GR           - GAMMA RAY
DPHI.V/V      00 890 00 00         : PHID         - DENSITY POROSITY (SANDSTONE)
NPHI.V/V      00 330 00 00         : PHIN         - NEUTRON POROSITY (SANDSTONE)
ILD .OHMM     00 120 00 00         : RESD         - DEEP RESISTIVITY (DIL)
~PARAMETER INFORMATION
#MNEM.UNIT           DATA             DESCRIPTION OF MNEMONIC
#---------         -----------     ------------------------------
GL  .M        709.879              : gl           - GROUND LEVEL ELEVATION
EREF.M        713.842              : kb           - ELEVATION OF DEPTH REFERENCE
DATM.M        709.879              : datum        - DATUM ELEVATION
TDD .M        585.216              : tdd          - TOTAL DEPTH DRILLER
RUN .         ONE                  : Run          - RUN NUMBER
ENG .         BILL                 : Engineer     - RECORDING ENGINEER
WIT .         JIM                  : Witness      - WITNESSED BY
MUD .         GEL                  : Mud_type     - MUD TYPE
MATR.         SANDSTONE            : Logunit      - NEUTRON MATRIX
TMAX.C        32.2222              : BHT          - MAXIMUM RECORDED TEMPERATURE
BHTD.M        585.216              : BHTDEP       - MAXIMUM RECORDED TEMPERATURE
MATR.         1                    : LOGUNIT      - NEUTRON MATRIX
RMT .C        25                   : MDTP         - TEMPERATURE OF MUD
NEUT.         1                    : NEUTRON      - NEUTRON TYPE
RESI.         0                    : RESIST       - RESISTIVITY TYPE
RMC .OHMM     0.25                 : RMC          - RESISTIVITY OF MUD CAKE
RMF .OHMM     0.25                 : RMF          - RESISTIVITY OF MUD FILTRATE
SUFT.C        15                   : SUFT         - SURFACE TEMPERATURE
~A  DEPTH       GR     PHID     PHIN     RESD
# ...
  416.184   93.827    0.289    0.481   16.439
  416.434   86.141    0.296    0.491   16.192
  416.684   79.004    0.302    0.491   15.180
  416.934   71.993    0.308    0.497   14.050
  417.184   69.041    0.311    0.512   13.316
  417.434   71.270    0.314    0.531   12.942
  417.684   73.241    0.329    0.517   12.729
  417.934   75.327    0.310    0.526   12.412
  418.184   78.298    0.291    0.516   12.047
  418.434   84.047    0.266    0.517   11.446
  418.684   87.786    0.244    0.528   10.702
  418.934   88.586    0.230    0.510   10.053
  419.184   87.847    0.228    0.505    9.571
  419.434   87.899    0.240    0.502    9.155
  419.684   89.422    0.241    0.500    8.997
  419.934   90.021    0.235    0.506    9.178
  420.184   88.931    0.231    0.500    9.164
  420.434   89.618    0.235    0.490    9.328
  420.684   91.115    0.240    0.477    9.280
  420.934   89.592    0.257    0.469    8.818
  421.184   92.136    0.266    0.456    8.171
  421.434   94.624    0.258    0.471    7.365
  421.684   95.489    0.232    0.499    6.987
  421.934   97.123    0.219    0.495    6.257
  422.184   99.460    0.218    0.501    5.821
  422.434  101.012    0.195    0.502    5.319
  422.684   98.154    0.184    0.515    4.959
  422.934   95.258    0.196    0.542    4.623
  423.184   93.688    0.204    0.557    4.429
  423.434   94.535    0.210    0.558    4.115
  423.684   95.494    0.220    0.573    4.010
  423.934   98.999    0.217    0.589    3.894
  424.184  100.188    0.234    0.572    3.794
  424.434  100.175    0.233    0.565    3.801
  424.684  100.857    0.223    0.562    3.801
  424.934  101.904    0.210    0.571    3.804
  425.184  100.210    0.223    0.579    3.740
  425.434  101.956    0.235    0.581    3.619
  425.684  105.111    0.234    0.577    3.575
  425.934  104.644    0.245    0.557    3.301
  426.184  101.291    0.227    0.537    3.110
  426.434  102.568    0.226    0.562    2.926
  426.684  103.836    0.238    0.580    2.740
  426.934  106.339    0.244    0.582    2.647
  427.184  107.209    0.240    0.598    2.540
  427.434  105.520    0.237    0.600    2.497
  427.684  105.578    0.237    0.608    2.445
  427.934  105.988    0.243    0.601    2.450
  428.184  105.617    0.256    0.600    2.446
  428.434  105.345    0.271    0.607    2.507
  428.684  103.178    0.265    0.611    2.578
  428.934   98.954    0.267    0.605    2.859
  429.184   91.698    0.279    0.579    3.651
  429.434   84.712    0.300    0.537    4.622
  429.684   79.327    0.301    0.512    5.779
  429.934   78.474    0.289    0.506    6.772
  430.184   79.389    0.277    0.512    8.096
  430.434   80.202    0.278    0.518    8.382
  430.684   80.172    0.283    0.507    8.214
  430.934   78.453    0.299    0.495    8.119
  431.184   78.202    0.300    0.499    8.069
  431.434   77.760    0.305    0.508    8.065
  431.684   77.296    0.306    0.519    8.069
  431.934   79.076    0.309    0.525    8.086
  432.184   79.938    0.287    0.513    8.330
  432.434   81.575    0.276    0.504    8.765
  432.684   83.197    0.270    0.509    9.230
  432.934   82.505    0.277    0.500    9.825
  433.184   77.977    0.269    0.489   10.381
  433.434   72.136    0.231    0.472   11.242
  433.684   65.601    0.165    0.341   12.182
  433.934   58.239    0.018    0.237   12.602
  434.184   54.809    0.028    0.257   12.765
  434.434   63.728    0.087    0.304   12.464
  434.684   73.447    0.151    0.384   10.976
  434.934   79.541    0.211    0.445    9.285
  435.184   82.506    0.262    0.505    8.527
  435.434   82.335    0.267    0.506    8.052
  435.684   82.694    0.262    0.500    8.088
  435.934   85.504    0.233    0.503    7.924
  436.184   88.403    0.204    0.495    7.777
  436.434   89.781    0.256    0.483    7.679
  436.684   92.127    0.259    0.480    7.657
  436.934   93.620    0.269    0.487    7.502
  437.184   93.536    0.259    0.489    7.411
  437.434   94.421    0.242    0.495    7.338
  437.684   94.740    0.242    0.500    7.229
  437.934   96.302    0.246    0.492    7.159
  438.184   97.921    0.248    0.496    7.111
  438.434   95.795    0.253    0.519    6.990
  438.684   90.691    0.249    0.521    6.978
  438.934   89.430    0.255    0.508    6.975
  439.184   90.361    0.252    0.497    6.971
  439.434   90.984    0.253    0.504    6.926
  439.684   89.213    0.263    0.514    6.849
  439.934   86.354    0.257    0.504    6.848
  440.184   86.486    0.245    0.499    6.849
  440.434   86.876    0.224    0.515    6.849
  440.684   87.524    0.239    0.513    6.850
  440.934   87.459    0.240    0.501    6.851
  441.184   87.448    0.252    0.510    6.846
  441.434   87.444    0.252    0.509    6.717
  441.684   87.470    0.236    0.511    6.598
  441.934   88.942    0.243    0.502    6.379
  442.184   90.645    0.238    0.515    6.358
  442.434   92.246    0.232    0.527    6.489
  442.684   93.284    0.234    0.527    6.578
  442.934   91.146    0.254    0.513    6.647
  443.184   86.747    0.245    0.524    6.728
  443.434   86.154    0.236    0.519    6.866
  443.684   86.288    0.223    0.495    6.879
  443.934   86.731    0.230    0.495    7.104
  444.184   86.777    0.233    0.495    7.093
  444.434   84.999    0.235    0.486    7.253
  444.684   82.541    0.241    0.480    7.238
  444.934   83.320    0.251    0.478    7.175
  445.184   84.926    0.262    0.476    7.104
  445.434   85.929    0.259    0.477    6.870
  445.684   87.034    0.243    0.486    6.806
  445.934   89.701    0.243    0.493    6.728
  446.184   91.287    0.253    0.486    6.610
  446.434   91.378    0.260    0.470    6.445
  446.684   91.375    0.267    0.475    6.261
  446.934   91.248    0.252    0.483    5.895
  447.184   92.770    0.257    0.483    5.552
  447.434   93.667    0.240    0.499    4.795
  447.684   94.696    0.242    0.521    4.361
  447.934   94.974    0.247    0.563    4.059
  448.184   95.540    0.239    0.585    3.320
  448.434   95.995    0.245    0.607    2.598
  448.684   97.383    0.244    0.587    2.454
  448.934  100.018    0.255    0.569    2.413
  449.184  101.153    0.259    0.562    2.541
  449.434  100.183    0.263    0.554    2.852
  449.684   98.148    0.253    0.551    3.409
  449.934   96.779    0.259    0.539    3.825
  450.184   93.717    0.253    0.517    4.400
  450.434   91.408    0.261    0.489    4.825
  450.684   89.647    0.248    0.495    5.155
  450.934   86.557    0.230    0.503    5.486
  451.184   84.905    0.242    0.497    5.696
  451.434   84.148    0.221    0.480    6.040
  451.684   87.714    0.202    0.473    6.224
  451.934   89.792    0.244    0.479    6.353
  452.184   85.905    0.279    0.479    6.499
  452.434   76.972    0.291    0.477    6.624
  452.684   68.040    0.297    0.473    6.609
  452.934   61.311    0.307    0.453    6.738
  453.184   56.332    0.307    0.443    6.737
  453.434   57.172    0.310    0.456    6.739
  453.684   58.092    0.314    0.465    6.740
  453.934   59.717    0.312    0.451    6.740
  454.184   60.508    0.309    0.435    6.741
  454.434   57.228    0.311    0.435    6.741
  454.684   56.712    0.311    0.440    6.741
  454.934   57.103    0.311    0.447    6.741
  455.184   59.229    0.306    0.442    6.742
  455.434   60.281    0.311    0.447    6.742
  455.684   59.269    0.315    0.455    6.742
  455.934   58.452    0.309    0.453    6.743
  456.184   57.935    0.312    0.452    6.743
  456.434   57.452    0.312    0.443    6.743
  456.684   57.442    0.316    0.437    6.743
  456.934   57.433    0.309    0.448    6.744
  457.184   57.434    0.312    0.460    6.745
  457.434   57.718    0.309    0.461    6.757
  457.684   57.983    0.309    0.453    6.613
  457.934   58.017    0.314    0.450    6.624
  458.184   58.458    0.318    0.442    6.622
  458.434   59.114    0.315    0.433    6.622
  458.684   58.581    0.316    0.433    6.695
  458.934   57.870    0.316    0.440    7.110
  459.184   57.929    0.313    0.452    7.953
  459.434   57.919    0.316    0.459    8.728
