~VERSION INFORMATION
 VERS.                 2.0:   CWLS LOG ASCII STANDARD -VERSION 2.0
 WRAP.                  NO:   ONE LINE PER DEPTH STEP
~WELL INFORMATION BLOCK
#MNEM.UNIT           DATA                    DESCRIPTION OF MNEMONIC
#---------    -------------------            -------------------------------
# Generated from Intellog Unique Number	CS_69_70/WELL/786
WELL.         SCEPTRE RESOURCES              : Well_name    - WELL
LOC .         00/06-34-069-14W4/0            : Location     - LOCATION
UWI .         00/06-34-069-14W4/0            : Uwi          - UNIQUE WELL ID
ENTR.         SP                             : Entered      - ENTERED BY
SRVC.         SCHLUMBERGER                   : Scn          - SERVICE COMPANY
STRT.M        280                            : top_depth    - START DEPTH
STOP.M        497                            : bot_depth    - STOP DEPTH
STEP.M        0.25                           : increment    - STEP LENGTH
 NULL. -999.2500:NULL Value
~CURVE INFORMATION BLOCK
#MNEM UNIT       ERCB CURVE CODE    CURVE DESCRIPTION
#-----------   ------------------   ----------------------------------
DEPT.M        00 001 00 00         : DEPTH        - DEPTH
ILD .OHMM     00 120 00 00         : RESD         - DEEP RESISTIVITY (DIL)
DPHI.V/V      00 890 00 00         : PHID         - DENSITY POROSITY (LIMESTONE)
NPHI.V/V      00 330 00 00         : PHIN         - NEUTRON POROSITY (LIMESTONE)
GR  .API      00 310 00 00         : GR           - GAMMA RAY
~PARAMETER INFORMATION
#MNEM.UNIT           DATA             DESCRIPTION OF MNEMONIC
#---------         -----------     ------------------------------
GL  .M        579.8                : gl           - GROUND LEVEL ELEVATION
EREF.M        583.24               : kb           - ELEVATION OF DEPTH REFERENCE
DATM.M        579.8                : datum        - DATUM ELEVATION
TDD .M        505                  : tdd          - TOTAL DEPTH DRILLER
RUN .         ONE                  : Run          - RUN NUMBER
ENG .         BILL                 : Engineer     - RECORDING ENGINEER
WIT .         JIM                  : Witness      - WITNESSED BY
MUD .         GEL                  : Mud_type     - MUD TYPE
MATR.         LIMESTONE            : Logunit      - NEUTRON MATRIX
TMAX.C        23                   : BHT          - MAXIMUM RECORDED TEMPERATURE
BHTD.M        505                  : BHTDEP       - MAXIMUM RECORDED TEMPERATURE
MATR.         1                    : LOGUNIT      - NEUTRON MATRIX
RMT .C        25                   : MDTP         - TEMPERATURE OF MUD
NEUT.         1                    : NEUTRON      - NEUTRON TYPE
RESI.         0                    : RESIST       - RESISTIVITY TYPE
RMC .OHMM     0.25                 : RMC          - RESISTIVITY OF MUD CAKE
RMF .OHMM     0.25                 : RMF          - RESISTIVITY OF MUD FILTRATE
SUFT.C        15                   : SUFT         - SURFACE TEMPERATURE
~A  DEPTH     RESD     PHID     PHIN       GR
# ...
  410.500    2.372    0.362    0.392   67.574
  410.750    2.378    0.360    0.389   67.579
  411.000    2.384    0.357    0.395   64.771
  411.250    2.381    0.350    0.376   60.924
  411.500    2.397    0.336    0.354   63.681
  411.750    2.412    0.318    0.375   63.014
  412.000    2.446    0.300    0.388   64.609
  412.250    2.494    0.321    0.395   68.467
  412.500    2.601    0.331    0.382   72.447
  412.750    2.795    0.320    0.379   75.020
  413.000    2.954    0.302    0.401   79.001
  413.250    2.995    0.276    0.422   84.876
  413.500    3.003    0.266    0.437   89.835
  413.750    2.989    0.266    0.419   94.487
  414.000    2.968    0.267    0.424   98.712
  414.250    3.004    0.277    0.457  101.897
  414.500    3.058    0.284    0.474  103.064
  414.750    3.119    0.292    0.450  103.375
  415.000    3.144    0.295    0.416   98.060
  415.250    3.206    0.301    0.393   88.221
  415.500    3.306    0.305    0.409   84.740
  415.750    3.384    0.309    0.387   82.116
  416.000    3.425    0.304    0.361   82.305
  416.250    3.446    0.287    0.369   88.547
  416.500    3.430    0.255    0.392   93.689
  416.750    3.356    0.234    0.394   92.104
  417.000    3.259    0.208    0.378   95.228
  417.250    3.165    0.203    0.406  100.492
  417.500    3.033    0.208    0.421  105.329
  417.750    2.907    0.243    0.446  103.805
  418.000    2.807    0.274    0.471   95.739
  418.250    2.670    0.289    0.436   91.891
  418.500    2.593    0.276    0.418   90.001
  418.750    2.481    0.267    0.410   95.693
  419.000    2.431    0.267    0.435  101.264
  419.250    2.322    0.270    0.472  105.182
  419.500    2.272    0.271    0.496  108.551
  419.750    2.206    0.280    0.481  106.294
  420.000    2.146    0.286    0.465  106.237
  420.250    2.108    0.289    0.430  106.732
  420.500    2.110    0.291    0.463  103.374
  420.750    2.139    0.284    0.435   98.977
  421.000    2.185    0.268    0.460   98.615
  421.250    2.262    0.252    0.472  101.677
  421.500    2.440    0.271    0.418  104.496
  421.750    2.623    0.289    0.405  105.846
  422.000    2.793    0.273    0.419   99.493
  422.250    2.896    0.255    0.380   89.652
  422.500    2.948    0.250    0.385   84.276
  422.750    2.995    0.259    0.374   81.164
  423.000    3.025    0.229    0.365   79.150
  423.250    3.028    0.223    0.372   77.443
  423.500    3.029    0.235    0.390   78.794
  423.750    3.066    0.150    0.400   82.531
  424.000    3.308    0.167    0.396   81.617
  424.250    3.727    0.203    0.412   75.202
  424.500    4.103    0.243    0.354   78.387
  424.750    4.702    0.172    0.340   80.777
  425.000    5.337    0.119    0.309   76.808
  425.250    5.977    0.069    0.278   62.199
  425.500    7.737    0.036    0.256   54.560
  425.750    7.816    0.020    0.241   50.223
  426.000    7.215    0.009    0.212   54.203
  426.250    6.426   -0.004    0.252   63.809
  426.500    5.280    0.140    0.286   78.552
  426.750    4.546    0.188    0.325   88.647
  427.000    3.981    0.213    0.346   94.644
  427.250    3.669    0.233    0.368   92.876
  427.500    3.582    0.239    0.349   87.378
  427.750    3.518    0.163    0.330   84.326
  428.000    3.541    0.174    0.318   82.191
  428.250    3.617    0.200    0.371   84.215
  428.500    3.668    0.219    0.408   86.788
  428.750    3.691    0.222    0.397   91.563
  429.000    3.694    0.233    0.388   91.140
  429.250    3.704    0.234    0.383   86.620
  429.500    3.699    0.221    0.385   89.806
  429.750    3.730    0.209    0.391   92.134
  430.000    3.776    0.198    0.383   88.104
  430.250    3.835    0.206    0.372   82.911
  430.500    3.970    0.204    0.385   86.341
  430.750    4.422    0.206    0.399   87.875
  431.000    5.954    0.214    0.349   83.416
  431.250    7.883    0.013    0.262   74.616
  431.500    8.715   -0.004    0.201   54.809
  431.750    9.384   -0.014    0.176   45.030
  432.000    8.533   -0.017    0.214   46.870
  432.250    6.044   -0.006    0.239   69.134
  432.500    5.293    0.092    0.269   84.365
  432.750    4.732    0.189    0.300   97.579
  433.000    4.239    0.205    0.327  106.084
  433.250    3.898    0.208    0.350  101.380
  433.500    3.694    0.208    0.370   96.922
  433.750    3.662    0.209    0.356  102.064
  434.000    3.707    0.211    0.359  105.738
  434.250    3.758    0.212    0.362  100.056
  434.500    3.804    0.214    0.378  100.245
  434.750    3.864    0.217    0.374   97.621
  435.000    3.904    0.220    0.378   94.202
  435.250    3.936    0.221    0.374   94.757
  435.500    3.976    0.219    0.364   95.069
  435.750    3.994    0.210    0.363   94.523
  436.000    4.012    0.203    0.380   92.633
  436.250    4.030    0.196    0.372   90.131
  436.500    4.033    0.190    0.365   88.975
  436.750    4.051    0.213    0.372   93.933
  437.000    4.092    0.224    0.385   99.014
  437.250    4.149    0.215    0.401  103.972
  437.500    4.224    0.207    0.373  107.524
  437.750    4.347    0.199    0.349  110.037
  438.000    4.534    0.205    0.344  108.085
  438.250    4.554    0.214    0.356  100.020
  438.500    4.292    0.206    0.361   96.111
  438.750    3.801    0.192    0.392   92.019
  439.000    3.298    0.162    0.382   87.376
  439.250    2.965    0.137    0.385   84.080
  439.500    2.515    0.249    0.397   86.592
  439.750    2.266    0.277    0.405   92.102
  440.000    2.052    0.296    0.413   96.142
  440.250    1.902    0.279    0.448  101.406
  440.500    1.961    0.263    0.446  103.429
  440.750    2.168    0.262    0.437  101.234
  441.000    2.443    0.267    0.430   98.609
  441.250    2.731    0.266    0.435   94.456
  441.500    3.002    0.266    0.416   89.141
  441.750    3.275    0.279    0.407   85.967
  442.000    3.774    0.276    0.426   82.364
  442.250    4.179    0.269    0.440   78.823
  442.500    4.620    0.270    0.352   77.972
  442.750    4.900    0.251    0.338   80.484
  443.000    5.169    0.206    0.323   79.817
  443.250    5.618    0.179    0.314   71.568
  443.500    6.005    0.155    0.306   67.109
  443.750    5.953    0.205    0.300   72.006
  444.000    5.464    0.258    0.321   80.755
  444.250    5.130    0.250    0.348   86.937
  444.500    4.926    0.236    0.355   89.572
  444.750    4.712    0.230    0.354   87.008
  445.000    4.533    0.213    0.352   81.694
  445.250    4.257    0.165    0.347   85.246
  445.500    4.064    0.233    0.337   91.428
  445.750    3.851    0.254    0.360   96.141
  446.000    3.575    0.278    0.390   95.290
  446.250    3.331    0.276    0.373   91.199
  446.500    3.192    0.258    0.362   93.466
  446.750    3.231    0.245    0.354   94.695
  447.000    3.357    0.240    0.384   92.376
  447.250    3.398    0.231    0.381   93.911
  447.500    3.394    0.226    0.398   96.729
  447.750    3.272    0.223    0.421   99.608
  448.000    3.135    0.211    0.414  102.426
  448.250    2.988    0.191    0.401  102.737
  448.500    2.858    0.186    0.384  100.969
  448.750    2.755    0.206    0.424  102.260
  449.000    2.680    0.218    0.452  104.710
  449.250    2.637    0.224    0.445  107.527
  449.500    2.595    0.205    0.442  103.558
  449.750    2.568    0.191    0.443  100.873
  450.000    2.541    0.189    0.461  102.101
  450.250    2.523    0.184    0.447  104.552
  450.500    2.492    0.221    0.407  106.698
  450.750    2.471    0.240    0.383  108.171
  451.000    2.464    0.240    0.417  109.705
  451.250    2.465    0.246    0.447  113.196
  451.500    2.518    0.253    0.447  117.604
  451.750    2.535    0.242    0.430  113.940
  452.000    2.457    0.214    0.437  100.309
  452.250    2.377    0.158    0.409  102.088
  452.500    2.339    0.233    0.405  110.348
  452.750    2.225    0.258    0.434  116.101
  453.000    2.165    0.249    0.453  117.391
  453.250    2.170    0.239    0.449  123.695
  453.500    2.255    0.235    0.469  127.001
  453.750    2.383    0.233    0.449  115.328
