~VERSION INFORMATION
 VERS.                 2.0:   CWLS LOG ASCII STANDARD -VERSION 2.0
 WRAP.                  NO:   ONE LINE PER DEPTH STEP
~WELL INFORMATION BLOCK
#MNEM.UNIT           DATA                    DESCRIPTION OF MNEMONIC
#---------    -------------------            -------------------------------
# Generated from Intellog Unique Number	CS_73_76/WELL/2813
WELL.         TEXACO WINEFRED LAKE 7-17      : Well_name    - WELL
LOC .         07-17-075-03W4                   : Location     - LOCATION
UWI .         00/07-17-075-03W4/0             : Uwi          - UNIQUE WELL ID
ENTR.         ANDERSEN                       : Entered      - ENTERED BY
SRVC.         COMPUTALOG                     : Scn          - SERVICE COMPANY
STRT.M        260                            : top_depth    - START DEPTH
STOP.M        510                            : bot_depth    - STOP DEPTH
STEP.M        0.25                           : increment    - STEP LENGTH
 NULL. -999.2500:NULL Value
~CURVE INFORMATION BLOCK
#MNEM UNIT       ERCB CURVE CODE    CURVE DESCRIPTION
#-----------   ------------------   ----------------------------------
DEPT.M        00 001 00 00         : DEPTH        - DEPTH
GR  .API      00 310 00 00         : GR           - GAMMA RAY
CALI.MM       00 280 01 00         : CAL          - CALIPER
NPHI.V/V      00 330 00 00         : PHIN         - NEUTRON POROSITY (SANDSTONE)
DPHI.V/V      00 890 00 00         : PHID         - DENSITY POROSITY (SANDSTONE)
ILD .OHMM     00 120 00 00         : RESD         - DEEP RESISTIVITY (DIL)
~PARAMETER INFORMATION
#MNEM.UNIT           DATA             DESCRIPTION OF MNEMONIC
#---------         -----------     ------------------------------
GL  .M        624.1                : gl           - GROUND LEVEL ELEVATION
EREF.M        627.7                : kb           - ELEVATION OF DEPTH REFERENCE
DATM.M        627.7                : datum        - DATUM ELEVATION
TDD .M        526                  : tdd          - TOTAL DEPTH DRILLER
RUN .         ONE                  : Run          - RUN NUMBER
ENG .         BILL                 : Engineer     - RECORDING ENGINEER
WIT .         JIM                  : Witness      - WITNESSED BY
MUD .         GEL                  : Mud_type     - MUD TYPE
MATR.         SANDSTONE            : Logunit      - NEUTRON MATRIX
TMAX.C        20                   : BHT          - MAXIMUM RECORDED TEMPERATURE
BHTD.M        526                  : BHTDEP       - MAXIMUM RECORDED TEMPERATURE
RMT .C        18                   : MDTP         - TEMPERATURE OF MUD
MUDD.KG/M     1100                 : MWT          - MUD DENSITY
NEUT.         1                    : NEUTRON      - NEUTRON TYPE
RESI.         0                    : RESIST       - RESISTIVITY TYPE
RM  .OHMM     4.7                  : RM           - RESISTIVITY OF MUD
RMC .OHMM     3.3                  : RMC          - RESISTIVITY OF MUD CAKE
RMF .OHMM     7.3                  : RMF          - RESISTIVITY OF MUD FILTRATE
SUFT.C        15                   : SUFT         - SURFACE TEMPERATURE
~A  DEPTH       GR      CAL     PHIN     PHID     RESD
  260.000   95.235  209.275    0.556    0.306    2.601
  260.250   92.830  211.294    0.543    0.300    2.610
  260.500   91.028  210.299    0.548    0.290    2.565
  260.750   91.034  207.293    0.561    0.288    2.571
  261.000   92.246  206.300    0.576    0.288    2.578
  261.250   93.456  205.305    0.580    0.288    2.584
  261.500   89.243  204.308    0.564    0.282    2.590
  261.750   79.605  204.323    0.531    0.120    2.598
  262.000   73.583  204.328    0.548    0.150    2.603
  262.250   72.384  204.337    0.567    0.191    2.658
  262.500   83.239  204.349    0.580    0.258    2.664
  262.750   95.904  204.359    0.589    0.271    2.669
  263.000   95.307  205.373    0.599    0.270    2.679
  263.250   92.300  208.397    0.599    0.270    2.683
  263.500   93.512  209.411    0.593    0.270    2.689
  263.750   92.915  211.430    0.586    0.270    2.648
  264.000   91.715  211.440    0.581    0.272    2.653
  264.250   93.529  211.452    0.603    0.279    2.657
  264.500   95.344  210.457    0.618    0.281    2.667
  264.750   95.951  208.455    0.628    0.270    2.670
  265.000  100.176  204.447    0.622    0.264    2.726
  265.250  102.592  204.457    0.606    0.261    2.786
  265.500   99.585  203.462    0.594    0.263    2.844
  265.750   97.782  203.472    0.576    0.265    2.907
  266.000  100.802  203.481    0.551    0.265    2.967
  266.250   97.193  203.491    0.524    0.265    3.032
  266.500   99.609  202.496    0.507    0.260    3.039
  266.750   99.615  202.506    0.504    0.255    3.104
  267.000   97.210  202.516    0.514    0.257    3.109
  267.250   94.204  202.528    0.532    0.261    3.120
  267.500   96.621  202.540    0.546    0.265    3.124
  267.750   98.435  202.552    0.544    0.270    3.131
  268.000   99.043  202.557    0.551    0.280    3.138
  268.250   99.049  202.569    0.559    0.276    3.089
  268.500   99.053  202.577    0.562    0.265    3.037
  268.750   98.457  202.586    0.538    0.253    2.991
  269.000   98.464  203.603    0.517    0.246    2.941
  269.250   99.675  203.615    0.494    0.249    2.949
  269.500  102.091  203.620    0.488    0.257    2.955
  269.750   99.685  203.630    0.498    0.261    2.960
  270.000   90.049  203.642    0.497    0.246    3.023
  270.250   80.411  203.652    0.478    0.158    3.206
  270.500   71.978  203.661    0.408    0.112    3.595
  270.750   52.696  202.667    0.358    0.168    3.814
  271.000   53.305  202.679    0.391    0.216    3.682
  271.250   81.640  202.689    0.483    0.249    3.621
  271.500   98.522  202.698    0.523    0.246    3.431
  271.750   91.295  202.708    0.505    0.253    3.375
  272.000   79.246  202.718    0.473    0.267    3.856
  272.250   65.993  202.730    0.421    0.274    4.932
  272.500   65.395  202.740    0.395    0.278    5.960
  272.750   72.633  202.747    0.391    0.284    7.074
  273.000   79.872  202.757    0.391    0.298    8.239
  273.250   79.880  202.769    0.398    0.308    8.895
  273.500   77.473  202.776    0.411    0.314    9.790
  273.750   73.862  202.786    0.470    0.329   10.198
  274.000   67.238  202.796    0.527    0.375   10.210
  274.250   56.396  202.806    0.593    0.474   10.246
  274.500   54.593  202.818    0.539    0.490   10.661
  274.750   55.202  202.827    0.481    0.387   11.733
  275.000   54.607  202.837    0.449    0.355   12.674
  275.250   55.215  202.849    0.412    0.352   13.437
  275.500   56.425  202.857    0.392    0.341   13.484
  275.750   61.254  202.864    0.377    0.328   13.499
  276.000   67.889  202.876    0.378    0.317   13.280
  276.250   75.731  202.886    0.394    0.324   13.303
  276.500   75.738  202.893    0.398    0.338   13.087
  276.750   73.934  202.905    0.405    0.340   13.125
  277.000   73.940  202.918    0.413    0.337   13.155
  277.250   79.973  202.922    0.419    0.325   13.186
  277.500   86.006  202.932    0.431    0.299   13.216
  277.750   90.836  202.942    0.446    0.299   13.255
  278.000   89.636  202.957    0.423    0.295   13.278
  278.250   83.013  202.964    0.398    0.287   13.070
  278.500   83.019  202.974    0.380    0.278   13.092
  278.750   78.201  202.988    0.378    0.275   13.123
  279.000   70.974  202.995    0.374    0.287   13.409
  279.250   62.542  203.003    0.375    0.297   13.694
  279.500   57.727  203.013    0.388    0.305   14.249
  279.750   55.321  203.022    0.397    0.307   14.552
  280.000   61.355  203.034    0.398    0.295   15.142
  280.250   63.168  203.047    0.399    0.286   15.177
  280.500   62.571  203.054    0.404    0.279   15.509
  280.750   60.166  203.054    0.412    0.279   15.536
  281.000   58.363  202.074    0.418    0.275   15.283
  281.250   57.164  202.079    0.428    0.270   13.439
  281.500   62.594  202.088    0.438    0.261   11.383
  281.750   70.437  202.098    0.453    0.261   10.581
  282.000   77.676  202.105    0.467    0.266    9.841
  282.250   79.490  202.120    0.468    0.271    9.336
  282.500   81.907  202.127    0.462    0.262    9.179
  282.750   86.735  201.132    0.448    0.248    8.863
  283.000   90.357  201.142    0.436    0.239    8.713
  283.250   94.584  200.147    0.423    0.238    8.267
  283.500   89.766  200.157    0.411    0.261    8.128
  283.750   81.334  200.167    0.400    0.281    8.147
  284.000   71.695  200.179    0.382    0.308    8.966
  284.250   63.263  200.186    0.354    0.323    8.992
  284.500   60.858  200.196    0.342    0.267    8.687
  284.750   69.905  200.206    0.349    0.173    8.536
  285.000   97.036  200.216    0.349    0.147    8.402
  285.250   94.028  200.225    0.351    0.119    9.076
  285.500   77.157  200.235    0.352    0.162   10.183
  285.750   69.327  200.247    0.342    0.202   10.790
  286.000   63.305  200.257    0.332    0.237   11.439
  286.250   60.900  200.267    0.330    0.262   11.682
  286.500   60.906  200.279    0.334    0.277   10.664
  286.750   60.912  200.286    0.358    0.283    9.382
  287.000   63.329  200.298    0.365    0.272    8.886
  287.250   68.759  200.306    0.376    0.257    8.574
  287.500   75.999  200.318    0.390    0.244    7.691
  287.750   72.387  200.325    0.403    0.256    7.284
  288.000   68.777  200.335    0.399    0.264    6.649
  288.250   63.961  200.345    0.389    0.249    6.066
  288.500   73.008  201.359    0.400    0.224    5.434
  288.750  104.960  201.369    0.408    0.194    4.872
  289.000  103.762  201.379    0.419    0.135    4.528
  289.250  109.794  201.388    0.440    0.168    4.294
  289.500  118.843  201.398    0.462    0.202    3.919
  289.750  120.052  201.413    0.480    0.209    3.712
  290.000  120.661  202.427    0.502    0.204    3.454
  290.250  117.052  202.439    0.553    0.212    3.335
  290.500  116.455  202.444    0.592    0.223    3.343
  290.750  118.870  202.456    0.588    0.227    3.349
  291.000  122.494  202.466    0.563    0.231    3.357
  291.250  117.677  202.478    0.530    0.243    3.764
  291.500  114.669  202.488    0.508    0.246    4.221
  291.750  115.880  202.493    0.477    0.244    4.916
  292.000  112.874  201.503    0.445    0.239    5.516
  292.250  113.482  200.503    0.416    0.237    6.186
  292.500  114.694  200.513    0.426    0.237    6.678
  292.750  111.686  198.513    0.421    0.239    8.232
  293.000  101.445  198.523    0.434    0.253   12.444
  293.250   90.601  198.535    0.439    0.288   14.235
  293.500   78.552  198.545    0.439    0.312   15.367
  293.750   73.737  198.555    0.434    0.321   15.703
  294.000   74.346  198.564    0.440    0.322   15.748
  294.250   76.159  198.577    0.450    0.323   15.776
  294.500   74.959  199.593    0.456    0.327   15.776
  294.750   73.759  199.601    0.438    0.328   15.574
  295.000   72.561  200.613    0.412    0.328   13.678
  295.250   73.773  200.622    0.397    0.323   12.969
  295.500   77.393  200.635    0.400    0.319   12.751
  295.750   82.221  200.642    0.392    0.311   12.304
  296.000   85.844  198.642    0.385    0.297   11.667
  296.250   87.658  197.648    0.401    0.279   11.470
