~VERSION INFORMATION
 VERS.                 2.0:   CWLS LOG ASCII STANDARD -VERSION 2.0
 WRAP.                  NO:   ONE LINE PER DEPTH STEP
~WELL INFORMATION BLOCK
#MNEM.UNIT           DATA                    DESCRIPTION OF MNEMONIC
#---------    -------------------            -------------------------------
# Generated from Intellog Unique Number	CW_76_78/WELL/693
WELL.         ASHLAND PCP TOTAL PELICAN 07-3 : Well_name    - WELL
LOC .         00/07-36-076-19W4/0            : Location     - LOCATION
UWI .         00/07-36-076-19W4/0            : Uwi          - UNIQUE WELL ID
ENTR.         JAYE                           : Entered      - ENTERED BY
SRVC.         SCHLUMBERGER                   : Scn          - SERVICE COMPANY
DATE.         25 FEB 75                      : Date         - LOG DATE
STRT.M        210.312                        : top_depth    - START DEPTH
STOP.M        387.062                        : bot_depth    - STOP DEPTH
STEP.M        0.25                           : increment    - STEP LENGTH
 NULL. -999.2500:NULL Value
~CURVE INFORMATION BLOCK
#MNEM UNIT       ERCB CURVE CODE    CURVE DESCRIPTION
#-----------   ------------------   ----------------------------------
DEPT.M        00 001 00 00         : DEPTH        - DEPTH
ILD .OHMM     00 120 00 00         : RESD         - DEEP RESISTIVITY (DIL)
NPHI.V/V      00 330 00 00         : PHIN         - NEUTRON POROSITY (SANDSTONE)
DPHI.V/V      00 890 00 00         : PHID         - DENSITY POROSITY (SANDSTONE)
GR  .API      00 310 00 00         : GR           - GAMMA RAY
CALI.MM       00 280 01 00         : CAL          - CALIPER
~PARAMETER INFORMATION
#MNEM.UNIT           DATA             DESCRIPTION OF MNEMONIC
#---------         -----------     ------------------------------
GL  .M        565.099              : gl           - GROUND LEVEL ELEVATION
EREF.M        568.757              : kb           - ELEVATION OF DEPTH REFERENCE
DATM.M        565.099              : datum        - DATUM ELEVATION
TDD .M        406.908              : tdd          - TOTAL DEPTH DRILLER
RUN .         ONE                  : Run          - RUN NUMBER
ENG .         LAVERCIERE           : Engineer     - RECORDING ENGINEER
WIT .         GARDINER             : Witness      - WITNESSED BY
BASE.         EDM                  : Branch       - HOME BASE OF LOGGING UNIT
MUD .         GEL                  : Mud_type     - MUD TYPE
MATR.         SANDSTONE            : Logunit      - NEUTRON MATRIX
TMAX.C        20                   : BHT          - MAXIMUM RECORDED TEMPERATURE
BHTD.M        406.298              : BHTDEP       - MAXIMUM RECORDED TEMPERATURE
RMT .C        10                   : MDTP         - TEMPERATURE OF MUD
MUDD.KG/M     1056                 : MWT          - MUD DENSITY
NEUT.         1                    : NEUTRON      - NEUTRON TYPE
RESI.         0                    : RESIST       - RESISTIVITY TYPE
RM  .OHMM     1.8                  : RM           - RESISTIVITY OF MUD
RMC .OHMM     0                    : RMC          - RESISTIVITY OF MUD CAKE
RMF .OHMM     1.94                 : RMF          - RESISTIVITY OF MUD FILTRATE
SUFT.C        -17.7778             : SUFT         - SURFACE TEMPERATURE
~A  DEPTH     RESD     PHIN     PHID       GR      CAL
# ...
  246.812    8.601    0.455    0.288  119.099  210.598
  247.062    8.312    0.480    0.288  115.398  213.637
  247.312    8.285    0.495    0.277  109.431  215.217
  247.562    8.595    0.511    0.263  102.117  211.833
  247.812    9.185    0.522    0.271   93.405  206.599
  248.062   10.475    0.530    0.276   86.585  204.350
  248.312   11.765    0.507    0.301   77.503  203.461
  248.562   12.935    0.463    0.327   71.848  202.765
  248.812   13.526    0.445    0.341   72.478  202.780
  249.062   13.197    0.426    0.328   71.634  202.497
  249.312   12.569    0.419    0.308   72.390  201.401
  249.562   11.322    0.434    0.275   74.917  200.202
  249.812   10.254    0.444    0.242   80.057  199.716
  250.062    9.006    0.449    0.311   75.555  199.110
  250.312    7.938    0.480    0.340   71.237  198.418
  250.562    6.950    0.471    0.337   77.122  198.029
  250.812    6.262    0.463    0.310   84.403  197.133
  251.062    6.812    0.505    0.288   89.061  194.694
  251.312    8.023    0.525    0.262   81.820  190.574
  251.562   10.032    0.474    0.289   74.258  182.751
  251.812   12.141    0.479    0.308   70.003  177.514
  252.062   13.710    0.504    0.325   66.784  174.549
  252.312   14.661    0.384    0.277   62.656  172.203
  252.562   15.530    0.305    0.151   58.520  170.685
  252.812   15.942    0.283    0.090   58.298  169.459
  253.062   14.954    0.327    0.186   64.058  168.254
  253.312   12.927    0.422    0.252   71.343  167.155
  253.562   10.940    0.461    0.246   75.993  166.059
  253.812    9.752    0.497    0.280   80.955  165.760
  254.062    9.164    0.486    0.262   85.985  165.787
  254.312    8.896    0.472    0.279   89.547  165.831
  254.562    9.087    0.464    0.284   91.454  166.181
  254.812    9.558    0.456    0.282   91.960  166.298
  255.062   10.068    0.446    0.303   88.139  166.432
  255.312   10.419    0.440    0.329   84.180  166.773
  255.562   10.151    0.432    0.341   80.478  168.153
  255.812    9.363    0.431    0.329   78.908  172.008
  256.062    8.754    0.436    0.311   79.961  178.043
  256.312    7.926    0.430    0.295   84.990  183.438
  256.562    7.218    0.461    0.273   90.620  190.289
  256.812    6.630    0.487    0.273   93.881  198.283
  257.062    6.221    0.494    0.296   92.917  196.457
  257.312    6.533    0.493    0.303   94.033  196.068
  257.562    7.322    0.497    0.283   91.792  196.722
  257.812    8.472    0.507    0.289   87.601  197.592
  258.062    9.983    0.531    0.303   82.982  198.884
  258.312   11.771    0.536    0.313   76.408  200.438
  258.562   17.697    0.523    0.331   69.829  202.444
  258.812   22.183    0.499    0.343   63.495  204.437
  259.062   23.653    0.461    0.362   58.684  206.121
  259.312   24.503    0.451    0.380   56.941  207.597
  259.562   25.513    0.462    0.368   56.401  209.284
  259.812   26.765    0.468    0.361   55.765  211.480
  260.062   27.694    0.463    0.360   55.470  213.063
  260.312   28.724    0.464    0.361   55.910  214.340
  260.562   29.734    0.464    0.360   57.209  215.197
  260.812   30.765    0.462    0.337   59.059  215.847
  261.062   31.495    0.470    0.340   60.847  216.497
  261.312   31.925    0.464    0.355   62.635  217.044
  261.562   31.597    0.454    0.368   62.839  217.588
  261.812   30.509    0.463    0.376   59.989  217.509
  262.062   28.622    0.471    0.378   60.066  216.516
  262.312   26.775    0.477    0.377   60.877  214.378
  262.562   24.609    0.472    0.376   61.078  212.333
  262.812   22.682    0.462    0.381   61.466  210.084
  263.062   20.994    0.471    0.380   61.053  206.806
  263.312   20.006    0.479    0.373   61.866  202.608
  263.562   19.299    0.472    0.369   62.311  199.957
  263.812   18.810    0.456    0.367   62.155  198.221
  264.062   18.242    0.482    0.367   62.961  194.340
  264.312   17.794    0.497    0.378   64.750  190.626
  264.562   17.545    0.488    0.386   64.337  183.006
  264.812   17.176    0.468    0.380   61.002  173.531
  265.062   16.688    0.471    0.384   61.872  171.718
  265.312   16.160    0.503    0.382   63.240  171.529
  265.562   15.491    0.516    0.370   64.844  172.189
  265.812   14.683    0.508    0.373   66.938  173.446
  266.062   13.896    0.509    0.389   69.335  175.249
  266.312   13.188    0.520    0.383   71.671  175.986
  266.562   12.658    0.509    0.369   74.312  168.264
  266.812   11.991    0.474    0.357   77.391  162.607
  267.062   11.363    0.484    0.345   78.072  163.377
  267.312   10.795    0.501    0.333   74.796  165.150
  267.562   10.647    0.504    0.319   71.643  167.146
  267.812   10.758    0.493    0.291   72.572  169.572
  268.062   11.147    0.479    0.291   76.987  171.765
  268.312   11.978    0.491    0.308   77.011  174.062
  268.562   12.648    0.492    0.331   69.942  176.271
  268.812   13.498    0.494    0.352   61.779  177.025
  269.062   15.127    0.500    0.370   56.421  178.205
  269.312   15.839    0.492    0.393   53.387  179.765
  269.562   15.350    0.486    0.377   53.649  182.691
  269.812   14.682    0.483    0.371   55.200  186.346
  270.062   13.994    0.495    0.361   55.706  187.507
  270.312   13.266    0.493    0.343   55.602  183.096
  270.562   12.797    0.479    0.323   56.598  184.679
  270.812   12.409    0.462    0.339   59.790  187.911
  271.062   12.560    0.482    0.366   60.965  189.704
  271.312   13.370    0.496    0.368   59.822  190.158
  271.562   14.760    0.489    0.355   58.927  190.175
  271.812   15.770    0.477    0.351   58.335  190.322
  272.062   16.821    0.471    0.345   57.991  190.756
  272.312   17.590    0.502    0.330   57.822  191.300
  272.562   18.001    0.517    0.354   57.049  191.566
  272.812   18.093    0.511    0.356   56.695  191.581
  273.062   17.924    0.495    0.376   57.882  191.618
  273.312   17.455    0.488    0.401   58.500  191.455
  273.562   16.608    0.482    0.402   58.703  191.249
  273.812   15.819    0.480    0.390   58.172  190.663
  274.062   14.892    0.489    0.376   57.089  189.561
  274.312   13.984    0.496    0.381   56.445  187.729
  274.562   13.076    0.491    0.391   56.461  185.184
  274.812   12.207    0.478    0.393   56.481  180.857
  275.062   11.319    0.490    0.391   56.739  175.200
  275.312   10.672    0.484    0.388   57.061  175.960
  275.562   10.245    0.475    0.375   57.460  177.646
  275.812   10.135    0.497    0.367   57.646  178.603
  276.062   10.286    0.499    0.385   58.096  174.805
  276.312   10.637    0.480    0.407   58.662  169.152
  276.562   10.987    0.466    0.389   57.578  164.734
  276.812   11.357    0.468    0.377   57.116  162.718
  277.062   11.669    0.482    0.376   58.228  162.936
  277.312   11.699    0.483    0.373   58.555  163.739
  277.562   11.550    0.464    0.368   56.550  163.653
  277.812   11.303    0.457    0.361   52.727  163.254
  278.062   11.093    0.460    0.357   54.154  162.955
  278.312   10.925    0.466    0.356   58.316  162.489
  278.562   10.777    0.469    0.359   58.704  162.099
  278.812   10.748    0.467    0.359   56.827  162.036
  279.062   10.719    0.463    0.358   57.518  161.944
  279.312   10.710    0.460    0.357   58.815  161.878
  279.562   10.662    0.459    0.354   59.447  161.395
  279.812   10.652    0.471    0.354   58.857  160.609
  280.062   10.686    0.485    0.356   58.808  160.117
  280.312   10.596    0.480    0.359   60.719  159.624
  280.562   10.488    0.469    0.373   62.996  159.455
  280.812   10.437    0.462    0.376   61.245  159.266
  281.062   10.349    0.464    0.390   57.727  159.103
  281.312   10.340    0.473    0.363   55.850  159.243
  281.562   10.392    0.472    0.337   55.152  159.990
  281.812   10.403    0.466    0.370   55.029  160.637
  282.062   10.353    0.472    0.377   56.328  160.765
  282.312   10.227    0.461    0.370   56.971  160.911
  282.562   10.136    0.474    0.357   56.917  161.042
  282.812   10.127    0.465    0.358   56.689  161.182
  283.062   10.138    0.472    0.369   57.990  161.319
