~VERSION INFORMATION
 VERS.                 2.0:   CWLS LOG ASCII STANDARD -VERSION 2.0
 WRAP.                  NO:   ONE LINE PER DEPTH STEP
~WELL INFORMATION BLOCK
#MNEM.UNIT           DATA                    DESCRIPTION OF MNEMONIC
#---------    -------------------            -------------------------------
# Generated from Intellog Unique Number	CX_WELLS/WELL/2948
WELL.         GULF SYREBY                    : Well_name    - WELL
LOC .         00/06-35-082-09W4/0            : Location     - LOCATION
UWI .         00/06-35-082-09W4/0            : Uwi          - UNIQUE WELL ID
ENTR.         T                              : Entered      - ENTERED BY
SRVC.         SCHLUMBERGER                   : Scn          - SERVICE COMPANY
STRT.F        1150                           : top_depth    - START DEPTH
STOP.F        1629.82                        : bot_depth    - STOP DEPTH
STEP.F        0.82                           : increment    - STEP LENGTH
 NULL. -999.2500:NULL Value
~CURVE INFORMATION BLOCK
#MNEM UNIT       ERCB CURVE CODE    CURVE DESCRIPTION
#-----------   ------------------   ----------------------------------
DEPT.F        00 001 00 00         : DEPTH        - DEPTH
GR  .API      00 310 00 00         : GR           - GAMMA RAY
NPHI.V/V      00 330 00 00         : PHIN         - NEUTRON POROSITY (SANDSTONE)
DPHI.V/V      00 890 00 00         : PHID         - DENSITY POROSITY (SANDSTONE)
ILD .OHMM     00 120 00 00         : RESD         - DEEP RESISTIVITY (OTHER)
~PARAMETER INFORMATION
#MNEM.UNIT           DATA             DESCRIPTION OF MNEMONIC
#---------         -----------     ------------------------------
GL  .F        2380                 : gl           - GROUND LEVEL ELEVATION
EREF.F        2387                 : kb           - ELEVATION OF DEPTH REFERENCE
DATM.F        2387                 : datum        - DATUM ELEVATION
TDD .F        1640                 : tdd          - TOTAL DEPTH DRILLER
RUN .         ONE                  : Run          - RUN NUMBER
ENG .         BILL                 : Engineer     - RECORDING ENGINEER
WIT .         JIM                  : Witness      - WITNESSED BY
MUD .         GEL                  : Mud_type     - MUD TYPE
MATR.         SANDSTONE            : Logunit      - NEUTRON MATRIX
TMAX.F        71.6                 : BHT          - MAXIMUM RECORDED TEMPERATURE
BHTD.F        1640                 : BHTDEP       - MAXIMUM RECORDED TEMPERATURE
MATR.         1                    : LOGUNIT      - NEUTRON MATRIX
RMT .F        77                   : MDTP         - TEMPERATURE OF MUD
NEUT.         1                    : NEUTRON      - NEUTRON TYPE
RESI.         6.29                 : RESIST       - RESISTIVITY TYPE
RMC .OHMM     7.15                 : RMC          - RESISTIVITY OF MUD CAKE
RMF .OHMM     7.15                 : RMF          - RESISTIVITY OF MUD FILTRATE
SUFT.F        32                   : SUFT         - SURFACE TEMPERATURE
~A  DEPTH       GR     PHIN     PHID     RESD
# ...
 1435.430   77.728    0.407    0.291   16.411
 1436.250   78.967    0.407    0.307   20.210
 1437.070   81.445    0.413    0.309   20.711
 1437.890   83.304    0.421    0.300   20.020
 1438.710   84.543    0.408    0.288   18.668
 1439.530   85.782    0.391    0.286   18.063
 1440.350   87.021    0.391    0.285   16.568
 1441.170   89.500    0.397    0.275   16.015
 1441.990   93.838    0.402    0.265   14.406
 1442.810   98.796    0.397    0.261   13.657
 1443.640   98.175    0.391    0.253   12.502
 1444.460   93.215    0.392    0.243   11.456
 1445.280   89.494    0.397    0.241   10.881
 1446.100   93.212    0.399    0.247   10.336
 1446.920   96.311    0.394    0.246    9.818
 1447.740  101.890    0.385    0.234    9.490
 1448.560  106.848    0.379    0.217    9.182
 1449.380  112.427    0.389    0.201    8.885
 1450.200  116.145    0.401    0.196    8.766
 1451.020  116.144    0.408    0.195    8.631
 1451.840  116.763    0.410    0.200    8.360
 1452.660  116.762    0.412    0.207    8.089
 1453.480  117.380    0.416    0.207    7.834
 1454.300  117.380    0.423    0.201    7.722
 1455.120  117.379    0.426    0.202    7.753
 1455.940  117.378    0.435    0.202    7.776
 1456.760  117.376    0.422    0.203    7.823
 1457.580  116.755    0.399    0.204    7.854
 1458.400  116.754    0.402    0.207    7.893
 1459.220  116.753    0.415    0.205    8.065
 1460.040  117.372    0.437    0.204    8.097
 1460.860  117.371    0.446    0.203    8.273
 1461.680  111.790    0.404    0.202    8.636
 1462.500  105.589    0.386    0.203    8.832
 1463.320  108.068    0.368    0.204    9.382
 1464.140  104.967    0.359    0.196    9.586
 1464.960  101.866    0.366    0.187   10.204
 1465.780  104.345    0.375    0.183   10.415
 1466.600  106.204    0.386    0.184   10.861
 1467.420  104.963    0.397    0.187   11.326
 1468.240  103.722    0.392    0.187   11.572
 1469.060  100.001    0.378    0.185   12.068
 1469.880   96.280    0.367    0.191   12.354
 1470.700   91.939    0.375    0.197   12.610
 1471.520   85.119    0.373    0.207   12.897
 1472.340   79.538    0.367    0.215   13.476
 1473.160   85.116    0.361    0.223   13.517
 1473.980   90.075    0.360    0.222   13.824
 1474.800   91.934    0.374    0.219   13.865
 1475.620   90.693    0.371    0.218   14.474
 1476.440   86.972    0.363    0.224   14.788
 1477.260   83.871    0.365    0.237   15.124
 1478.080   82.630    0.369    0.237   15.200
 1478.900   82.629    0.369    0.233   15.261
 1479.720   82.628    0.366    0.230   14.781
 1480.540   86.346    0.363    0.225   14.554
 1481.360   85.105    0.361    0.225   14.612
 1482.190   82.624    0.366    0.224   14.671
 1483.010   83.243    0.369    0.221   14.729
 1483.830   85.722    0.366    0.219   15.361
 1484.650   86.341    0.362    0.217   15.725
 1485.470   85.720    0.357    0.221   16.067
 1486.290   83.239    0.359    0.224   16.789
 1487.110   80.758    0.357    0.230   17.136
 1487.930   78.896    0.355    0.238   17.870
 1488.750   77.656    0.354    0.246   18.258
 1489.570   76.415    0.360    0.251   18.692
 1490.390   73.934    0.361    0.251   19.117
 1491.210   69.593    0.354    0.252   19.212
 1492.030   65.252    0.352    0.252   19.309
 1492.850   68.971    0.361    0.252   19.347
 1493.670   70.829    0.365    0.252   19.088
 1494.490   71.448    0.370    0.247   19.165
 1495.310   68.968    0.377    0.240   18.908
 1496.130   65.867    0.380    0.238   18.984
 1496.950   68.345    0.381    0.244   19.079
 1497.770   70.824    0.376    0.253   18.824
 1498.590   72.063    0.368    0.254   18.553
 1499.410   76.401    0.370    0.253   18.250
 1500.230   80.120    0.376    0.248   16.433
 1501.050   86.319    0.378    0.247   15.869
 1501.870   92.517    0.381    0.244   14.289
 1502.690   96.856    0.379    0.241   13.311
 1503.510   98.714    0.375    0.236   12.880
 1504.330   83.834    0.370    0.232   12.450
 1505.150   80.113    0.364    0.233   12.058
 1505.970   83.832    0.355    0.235   11.655
 1506.790   89.410    0.345    0.232   11.300
 1507.610   92.509    0.351    0.223   11.334
 1508.430   92.508    0.363    0.212   11.171
 1509.250   94.367    0.371    0.200   11.216
 1510.070   96.846    0.369    0.189   11.471
 1510.890   94.365    0.363    0.180   11.528
 1511.710   93.744    0.356    0.185   12.034
 1512.530   96.842    0.357    0.187   12.296
 1513.350  101.181    0.359    0.182   12.562
 1514.170   98.700    0.365    0.185   12.848
 1514.990   90.639    0.365    0.201   13.412
 1515.810   86.299    0.358    0.215   13.973
 1516.630   86.298    0.347    0.223   14.571
 1517.450   98.076    0.350    0.198   15.165
 1518.270  107.994    0.360    0.204   16.094
 1519.090  105.513    0.377    0.227   17.096
 1519.910   98.692    0.393    0.233   18.481
 1520.730   91.252    0.387    0.233   20.039
 1521.560   85.671    0.359    0.218   20.453
 1522.380   85.670    0.357    0.211   20.918
 1523.200   93.108    0.358    0.220   21.793
 1524.020   98.066    0.361    0.228   22.310
 1524.840   97.446    0.360    0.231   23.243
 1525.660   92.485    0.363    0.231   23.795
 1526.480   86.904    0.365    0.232   24.336
 1527.300   84.423    0.366    0.234   24.889
 1528.120   83.182    0.365    0.234   25.480
 1528.940   83.181    0.365    0.235   25.557
 1529.760   83.180    0.365    0.235   26.164
 1530.580   83.799    0.370    0.237   26.732
 1531.400   84.418    0.373    0.242   27.933
 1532.220   85.037    0.378    0.249   28.539
 1533.040   84.416    0.382    0.251   29.702
 1533.860   85.034    0.372    0.260   31.584
 1534.680   87.513    0.377    0.265   34.143
 1535.500   85.652    0.380    0.268   35.535
 1536.320   79.451    0.387    0.272   39.940
 1537.140   72.011    0.392    0.277   43.175
 1537.960   60.850    0.387    0.288   49.383
 1538.780   60.229    0.379    0.296   55.393
 1539.600   65.188    0.372    0.294   62.136
 1540.420   73.866    0.376    0.292   61.242
 1541.240   79.445    0.384    0.292   47.474
 1542.060   86.263    0.373    0.284   40.321
 1542.880   89.362    0.363    0.275   34.281
 1543.700   94.320    0.365    0.263   29.146
 1544.520   98.039    0.365    0.250   28.727
 1545.340   89.358    0.365    0.255   28.871
 1546.160   84.398    0.363    0.263   28.957
 1546.980   78.197    0.361    0.275   30.228
 1547.800   75.716    0.361    0.284   30.915
 1548.620   78.815    0.356    0.275   31.587
 1549.440   83.153    0.351    0.265   32.304
 1550.260   86.252    0.357    0.259   30.685
 1551.080   88.111    0.363    0.246   28.642
 1551.900   89.349    0.374    0.258   28.814
 1552.720   87.488    0.377    0.270   29.440
 1553.540   84.387    0.380    0.270   30.640
 1554.360   81.287    0.381    0.267   33.807
 1555.180   76.946    0.383    0.272   36.583
 1556.000   75.705    0.384    0.277   38.036
 1556.820   75.084    0.383    0.280   45.187
 1557.640   73.843    0.378    0.273   50.687
 1558.460   71.982    0.377    0.297   56.913
 1559.280   68.881    0.380    0.306   63.841
 1560.100   65.160    0.380    0.318   72.946
 1560.930   57.720    0.380    0.324   81.907
 1561.750   58.338    0.380    0.322   76.453
 1562.570   62.057    0.380    0.312   69.986
 1563.390   67.016    0.381    0.306   67.717
 1564.210   65.155    0.382    0.302   70.689
 1565.030   63.294    0.382    0.298   72.151
 1565.850   63.912    0.382    0.297   75.167
 1566.670   64.531    0.382    0.298   84.485
 1567.490   67.010    0.382    0.298   91.330
 1568.310   67.009    0.377    0.298  100.470
 1569.130   60.188    0.372    0.299  110.746
 1569.950   54.608    0.366    0.299  121.951
 1570.770   52.747    0.355    0.295   99.921
 1571.590   55.846    0.352    0.291   84.868
 1572.410   62.663    0.359    0.286   56.804
 1573.230   63.282    0.371    0.279   52.863
 1574.050   63.901    0.383    0.268   40.228
 1574.870   65.140    0.371    0.255   42.734
 1575.690   68.859    0.370    0.242   47.983
 1576.510   69.478    0.382    0.260   50.870
 1577.330   64.517    0.389    0.279   59.328
