~VERSION INFORMATION
 VERS.                 2.0:   CWLS LOG ASCII STANDARD -VERSION 2.0
 WRAP.                  NO:   ONE LINE PER DEPTH STEP
~WELL INFORMATION BLOCK
#MNEM.UNIT           DATA                    DESCRIPTION OF MNEMONIC
#---------    -------------------            -------------------------------
# Generated from Intellog Unique Number	CW_73_75/WELL/2726
WELL.         UNIGAS ET AL TOMATO 05-02      : Well_name    - WELL
LOC .         00/05-02-073-23W4/0            : Location     - LOCATION
UWI .         00/05-02-073-23W4/0            : Uwi          - UNIQUE WELL ID
ENTR.         JAYE                           : Entered      - ENTERED BY
SRVC.         SCHLUMBERGER                   : Scn          - SERVICE COMPANY
DATE.         14 DEC 80                      : Date         - LOG DATE
STRT.M        325                            : top_depth    - START DEPTH
STOP.M        622                            : bot_depth    - STOP DEPTH
STEP.M        0.25                           : increment    - STEP LENGTH
 NULL. -999.2500:NULL Value
~CURVE INFORMATION BLOCK
#MNEM UNIT       ERCB CURVE CODE    CURVE DESCRIPTION
#-----------   ------------------   ----------------------------------
DEPT.M        00 001 00 00         : DEPTH        - DEPTH
ILD .OHMM     00 120 00 00         : RESD         - DEEP RESISTIVITY (DIL)
NPHI.V/V      00 330 00 00         : PHIN         - NEUTRON POROSITY (SANDSTONE)
DPHI.V/V      00 890 00 00         : PHID         - DENSITY POROSITY (SANDSTONE)
GR  .API      00 310 00 00         : GR           - GAMMA RAY
CALI.MM       00 280 01 00         : CAL          - CALIPER
~PARAMETER INFORMATION
#MNEM.UNIT           DATA             DESCRIPTION OF MNEMONIC
#---------         -----------     ------------------------------
GL  .M        625                  : gl           - GROUND LEVEL ELEVATION
EREF.M        627.5                : kb           - ELEVATION OF DEPTH REFERENCE
DATM.M        625                  : datum        - DATUM ELEVATION
TDD .M        624                  : tdd          - TOTAL DEPTH DRILLER
RUN .         ONE                  : Run          - RUN NUMBER
ENG .         KUZIO                : Engineer     - RECORDING ENGINEER
BASE.         EDM                  : Branch       - HOME BASE OF LOGGING UNIT
MUD .         GEL CHEM             : Mud_type     - MUD TYPE
MATR.         SANDSTONE            : Logunit      - NEUTRON MATRIX
TMAX.C        23.3                 : BHT          - MAXIMUM RECORDED TEMPERATURE
BHTD.M        625                  : BHTDEP       - MAXIMUM RECORDED TEMPERATURE
RMT .C        16.6                 : MDTP         - TEMPERATURE OF MUD
MUDD.KG/M     1110                 : MWT          - MUD DENSITY
NEUT.         1                    : NEUTRON      - NEUTRON TYPE
RESI.         0                    : RESIST       - RESISTIVITY TYPE
RM  .OHMM     3.19                 : RM           - RESISTIVITY OF MUD
RMC .OHMM     0                    : RMC          - RESISTIVITY OF MUD CAKE
RMF .OHMM     3.11                 : RMF          - RESISTIVITY OF MUD FILTRATE
SUFT.C        0                    : SUFT         - SURFACE TEMPERATURE
~A  DEPTH     RESD     PHIN     PHID       GR      CAL
# ...
  544.000    7.011    0.389    0.126   89.440  171.811
  544.250    7.302    0.391    0.140   90.521  171.950
  544.500    7.460    0.401    0.152   89.537  171.974
  544.750    7.521    0.385    0.135   87.805  172.104
  545.000    7.354    0.374    0.118   86.447  172.030
  545.250    6.961    0.363    0.113   86.652  170.915
  545.500    6.627    0.366    0.116   90.043  170.526
  545.750    6.720    0.369    0.125   92.185  170.241
  546.000    7.039    0.370    0.139   92.451  170.482
  546.250    7.344    0.377    0.155   91.281  171.136
  546.500    7.562    0.394    0.158   91.235  171.788
  546.750    7.609    0.380    0.123   93.878  172.339
  547.000    7.657    0.349    0.090   95.831  172.674
  547.250    7.675    0.320    0.093   93.599  172.601
  547.500    7.620    0.315    0.110   89.556  172.109
  547.750    7.352    0.340    0.116   92.884  171.515
  548.000    6.435    0.366    0.127   97.400  171.129
  548.250    5.329    0.382    0.139   93.981  171.051
  548.500    4.446    0.368    0.135   85.625  171.083
  548.750    3.277    0.344    0.065   77.270  171.106
  549.000    2.538    0.327    0.036   81.099  171.134
  549.250    2.090    0.316    0.053   88.177  171.169
  549.500    1.919    0.355    0.095   91.005  171.504
  549.750    1.916    0.375    0.113   91.147  171.744
  550.000    2.042    0.366    0.119   90.731  171.875
  550.250    2.222    0.345    0.102   91.057  172.010
  550.500    2.546    0.328    0.094   94.636  172.037
  550.750    3.451    0.330    0.107   98.277  173.004
  551.000    4.376    0.344    0.124   99.168  174.800
  551.250    6.023    0.373    0.145   96.686  179.099
  551.500    6.430    0.452    0.224   96.891  183.291
  551.750    5.881    0.512    0.221  100.157  186.341
  552.000    5.089    0.506    0.197  106.546  187.723
  552.250    4.845    0.514    0.181  113.937  186.919
  552.500    5.133    0.527    0.180  111.330  183.097
  552.750    6.064    0.543    0.199  108.098  179.482
  553.000    7.042    0.522    0.208   99.868  176.279
  553.250    7.992    0.467    0.188   90.827  171.726
  553.500    8.517    0.415    0.115   85.782  168.424
  553.750    7.760    0.394    0.077   81.614  167.827
  554.000    7.002    0.377    0.039   87.817  168.274
  554.250    6.380    0.350    0.044   94.770  169.241
  554.500    6.239    0.372    0.061  101.285  170.099
  554.750    6.218    0.395    0.084  104.489  171.281
  555.000    6.256    0.416    0.109  107.129  171.305
  555.250    6.356    0.432    0.123  101.211  170.188
  555.500    6.433    0.449    0.132   91.856  168.759
  555.750    6.461    0.298    0.099   69.506  167.849
  556.000    6.414    0.240    0.000   66.399  167.364
  556.250    6.320    0.283    0.016   80.976  167.391
  556.500    6.110    0.338    0.088   87.115  167.731
  556.750    5.828    0.379    0.121   91.254  168.174
  557.000    5.569    0.385    0.111   92.334  168.518
  557.250    5.241    0.380    0.114   93.789  168.749
  557.500    4.849    0.372    0.118   90.869  168.986
  557.750    4.564    0.364    0.101   92.637  168.911
  558.000    4.429    0.366    0.104   92.841  169.047
  558.250    4.422    0.382    0.114   91.795  169.180
  558.500    4.492    0.396    0.129   87.816  169.318
  558.750    4.670    0.392    0.061   83.833  169.136
  559.000    4.920    0.360    0.028   81.038  168.955
  559.250    5.313    0.347    0.046   87.116  168.877
  559.500    5.938    0.368    0.091   90.696  168.595
  559.750    6.753    0.388    0.094   92.212  168.516
  560.000    6.966    0.407    0.112   93.104  168.552
  560.250    6.916    0.423    0.132   93.745  168.371
  560.500    6.686    0.425    0.146   94.638  168.293
  560.750    6.365    0.410    0.144   95.282  168.214
  561.000    5.755    0.405    0.135   95.799  168.244
  561.250    5.510    0.420    0.123   96.753  168.277
  561.500    5.838    0.423    0.121   97.956  168.196
  561.750    6.463    0.416    0.120   99.909  168.121
  562.000    7.169    0.391    0.117  100.301  168.357
  562.250    7.757    0.389    0.112   96.819  168.493
  562.500    7.687    0.407    0.092   86.091  168.730
  562.750    6.780    0.360    0.047   85.921  168.866
  563.000    5.889    0.337    0.048   91.124  168.993
  563.250    5.825    0.329    0.086   95.077  169.544
  563.500    6.160    0.332    0.098   97.344  170.096
  563.750    7.058    0.341    0.094   98.673  170.646
  564.000    8.467    0.377    0.106   99.752  170.881
  564.250    8.684    0.395    0.114   99.581  170.915
  564.500    8.639    0.399    0.128   93.164  170.937
  564.750    8.367    0.371    0.120   88.682  170.861
  565.000    7.667    0.340    0.095   93.073  171.001
  565.250    7.512    0.328    0.104   97.588  170.920
  565.500    7.660    0.344    0.115  102.356  170.741
  565.750    7.901    0.362    0.121  105.183  170.767
  566.000    8.119    0.389    0.127  109.761  170.699
  566.250    8.108    0.409    0.136  111.715  170.726
  566.500    7.289    0.415    0.122  106.234  170.751
  566.750    6.140    0.407    0.108   99.128  170.986
  567.000    5.114    0.365    0.068   93.648  171.016
  567.250    4.944    0.305    0.031   91.540  171.254
  567.500    5.022    0.311    0.055   93.997  171.490
  567.750    5.271    0.321    0.079   95.949  171.725
  568.000    5.880    0.327    0.101   98.966  171.652
  568.250    6.776    0.334    0.114  104.544  171.579
  568.500    7.691    0.345    0.113  106.871  171.399
  568.750    8.498    0.352    0.096  100.391  171.321
  569.000    9.213    0.360    0.080   90.911  171.143
  569.250    9.761    0.358    0.067   89.991  171.173
  569.500   10.582    0.343    0.084   93.258  171.409
  569.750   11.276    0.325    0.103   96.401  171.541
  570.000   12.131    0.326    0.127   99.540  172.297
  570.250   13.559    0.368    0.169  105.680  179.094
  570.500   15.243    0.507    0.214   95.578  179.020
  570.750   17.769    0.505    0.243   88.409  174.778
  571.000   20.090    0.495    0.265   84.177  169.807
  571.250   21.003    0.563    0.297   85.133  166.089
  571.500   19.805    0.569    0.262   89.335  165.810
  571.750   14.935    0.411    0.188   85.106  165.941
  572.000   12.320    0.345    0.164   80.372  166.180
  572.250    8.908    0.339    0.156   79.702  166.206
  572.500    7.476    0.356    0.147   77.971  166.132
  572.750    7.830    0.337    0.132   62.805  165.950
  573.000   11.070    0.287    0.124   49.764  165.773
  573.250   22.033    0.260    0.122   42.221  165.592
  573.500   32.428    0.316    0.123   49.361  165.206
  573.750   48.643    0.333    0.134   46.255  164.815
  574.000   85.669    0.356    0.160   34.964  164.115
  574.250  101.406    0.378    0.188   29.545  163.206
  574.500   95.075    0.359    0.205   33.124  161.671
  574.750   89.311    0.324    0.223   40.328  160.035
  575.000   90.729    0.301    0.229   47.278  161.001
  575.250   99.687    0.311    0.203   58.792  163.006
  575.500  104.811    0.357    0.184   80.988  165.118
  575.750  104.669    0.394    0.228   99.062  167.125
  576.000  101.573    0.445    0.276  117.197  168.927
  576.250   96.877    0.508    0.216  102.595  169.788
  576.500   88.431    0.490    0.148   66.937  169.815
  576.750   78.591    0.378    0.047   35.777  169.326
  577.000   66.337    0.267    0.010   20.177  169.039
  577.250   54.721    0.091   -0.013   20.380  168.652
  577.500   41.820    0.116    0.021   18.773  168.266
  577.750   25.074    0.148    0.059   16.917  167.982
  578.000   14.949    0.176    0.075   16.936  167.804
  578.250   10.483    0.144    0.083   17.763  167.417
  578.500    8.452    0.106    0.016   18.656  167.236
  578.750    7.511    0.101    0.016   18.736  166.952
  579.000    7.317    0.110    0.026   18.377  166.980
  579.250    7.292    0.131    0.033   18.269  166.802
  579.500    7.409    0.140    0.025   18.223  166.415
  579.750    7.483    0.132    0.010   17.117  166.131
  580.000    7.431    0.100   -0.010   16.259  165.739
  580.250    7.224    0.094   -0.021   17.216  165.563
