~VERSION INFORMATION
 VERS.                 2.0:   CWLS LOG ASCII STANDARD -VERSION 2.0
 WRAP.                  NO:   ONE LINE PER DEPTH STEP
~WELL INFORMATION BLOCK
#MNEM.UNIT           DATA                    DESCRIPTION OF MNEMONIC
#---------    -------------------            -------------------------------
# Generated from Intellog Unique Number	CW_73_75/WELL/620
WELL.         ANG ET AL FRANCIS 06-36        : Well_name    - WELL
LOC .         00/06-36-074-22W4/0            : Location     - LOCATION
UWI .         00/06-36-074-22W4/0            : Uwi          - UNIQUE WELL ID
ENTR.         JAYE                           : Entered      - ENTERED BY
SRVC.         SCHLUMBERGER                   : Scn          - SERVICE COMPANY
DATE.         27 MAR 88                      : Date         - LOG DATE
STRT.M        350                            : top_depth    - START DEPTH
STOP.M        560                            : bot_depth    - STOP DEPTH
STEP.M        0.25                           : increment    - STEP LENGTH
 NULL. -999.2500:NULL Value
~CURVE INFORMATION BLOCK
#MNEM UNIT       ERCB CURVE CODE    CURVE DESCRIPTION
#-----------   ------------------   ----------------------------------
DEPT.M        00 001 00 00         : DEPTH        - DEPTH
ILD .OHMM     00 120 00 00         : RESD         - DEEP RESISTIVITY (DIL)
DPHI.V/V      00 890 00 00         : PHID         - DENSITY POROSITY (SANDSTONE)
NPHI.V/V      00 330 00 00         : PHIN         - NEUTRON POROSITY (SANDSTONE)
GR  .API      00 310 00 00         : GR           - GAMMA RAY
CALI.MM       00 280 01 00         : CAL          - CALIPER
~PARAMETER INFORMATION
#MNEM.UNIT           DATA             DESCRIPTION OF MNEMONIC
#---------         -----------     ------------------------------
GL  .M        656.8                : gl           - GROUND LEVEL ELEVATION
EREF.M        660                  : kb           - ELEVATION OF DEPTH REFERENCE
DATM.M        656.8                : datum        - DATUM ELEVATION
TDD .M        620                  : tdd          - TOTAL DEPTH DRILLER
RUN .         ONE                  : Run          - RUN NUMBER
ENG .         POWELL               : Engineer     - RECORDING ENGINEER
WIT .         LIEHTENBELT          : Witness      - WITNESSED BY
BASE.         EDM                  : Branch       - HOME BASE OF LOGGING UNIT
MUD .         GEL CHEM             : Mud_type     - MUD TYPE
MATR.         SANDSTONE            : Logunit      - NEUTRON MATRIX
TMAX.C        47                   : BHT          - MAXIMUM RECORDED TEMPERATURE
BHTD.M        619.5                : BHTDEP       - MAXIMUM RECORDED TEMPERATURE
RMT .C        18                   : MDTP         - TEMPERATURE OF MUD
MUDD.KG/M     1170                 : MWT          - MUD DENSITY
NEUT.         1                    : NEUTRON      - NEUTRON TYPE
RESI.         0                    : RESIST       - RESISTIVITY TYPE
RM  .OHMM     1.26                 : RM           - RESISTIVITY OF MUD
RMC .OHMM     0                    : RMC          - RESISTIVITY OF MUD CAKE
RMF .OHMM     3.44                 : RMF          - RESISTIVITY OF MUD FILTRATE
SUFT.C        0                    : SUFT         - SURFACE TEMPERATURE
~A  DEPTH     RESD     PHID     PHIN       GR      CAL
  350.000    2.802    0.227    0.495   93.431  183.463
  350.250    2.818    0.233    0.497   97.251  185.039
  350.500    2.877    0.238    0.499  101.500  186.007
  350.750    2.933    0.229    0.519  101.651  185.452
  351.000    2.989    0.210    0.555   97.649  185.407
  351.250    3.023    0.192    0.554   96.458  185.348
  351.500    3.041    0.177    0.531   99.605  184.684
  351.750    3.018    0.188    0.506  104.156  183.717
  352.000    2.990    0.213    0.516  105.837  183.668
  352.250    2.990    0.210    0.532  104.647  184.842
  352.500    2.996    0.202    0.544  102.356  185.708
  352.750    2.940    0.210    0.548   98.660  186.061
  353.000    2.901    0.220    0.541   97.345  186.824
  353.250    2.901    0.225    0.513   98.108  187.691
  353.500    2.913    0.223    0.524   97.833  187.544
  353.750    2.952    0.216    0.541   97.989  187.189
  354.000    2.969    0.211    0.562  100.950  187.339
  354.250    3.020    0.205    0.528  101.227  187.181
  354.500    3.125    0.211    0.503  100.585  186.627
  354.750    3.277    0.210    0.485  105.198  185.553
  355.000    3.340    0.221    0.486  107.001  184.893
  355.250    3.315    0.221    0.491  104.221  185.350
  355.500    3.259    0.196    0.485  101.747  185.916
  355.750    3.168    0.205    0.486   97.928  187.090
  356.000    3.068    0.204    0.489   94.597  187.540
  356.250    2.993    0.211    0.494   93.224  182.299
  356.500    3.005    0.195    0.501   94.964  182.047
  356.750    2.960    0.183    0.508   95.608  184.132
  357.000    2.937    0.189    0.491   95.516  184.795
  357.250    2.954    0.187    0.468   94.629  179.756
  357.500    3.000    0.191    0.446   87.632  176.138
  357.750    4.033    0.220    0.425   76.053  172.624
  358.000    9.858    0.252    0.379   69.302  172.678
  358.250   11.963    0.285    0.297   60.288  172.222
  358.500   13.005    0.278    0.300   57.022  169.725
  358.750   13.081    0.230    0.322   60.961  167.029
  359.000   11.807    0.266    0.339   65.819  165.861
  359.250   10.558    0.306    0.358   67.992  165.816
  359.500    9.676    0.275    0.378   71.380  165.648
  359.750    9.038    0.239    0.396   76.605  164.994
  360.000    8.394    0.222    0.418   78.652  164.737
  360.250    7.870    0.216    0.444   77.157  164.384
  360.500    7.337    0.238    0.441   81.401  164.021
  360.750    6.328    0.253    0.430   84.307  164.481
  361.000    5.745    0.257    0.418   84.153  165.551
  361.250    5.438    0.251    0.429   82.962  168.557
  361.500    5.147    0.241    0.430   81.160  172.890
  361.750    5.089    0.227    0.404   80.334  177.211
  362.000    5.398    0.212    0.407   84.458  182.558
  362.250    5.682    0.222    0.443   92.005  175.582
  362.500    6.049    0.225    0.466   95.518  185.919
  362.750    6.870    0.236    0.425   89.439  178.640
  363.000    7.398    0.272    0.369   79.510  172.885
  363.250    7.876    0.298    0.348   73.554  167.846
  363.500    8.275    0.316    0.347   70.224  162.091
  363.750    8.370    0.283    0.384   79.051  158.988
  364.000    8.198    0.258    0.432   87.455  159.238
  364.250    8.014    0.242    0.423   89.074  160.106
  364.500    7.557    0.232    0.405   88.982  161.789
  364.750    7.085    0.223    0.407   92.681  163.366
  365.000    6.668    0.214    0.414   98.822  165.361
  365.250    6.240    0.210    0.411  101.358  167.549
  365.500    6.112    0.205    0.420  100.412  170.550
  365.750    6.312    0.197    0.432   96.958  173.859
  366.000    6.695    0.242    0.434   83.851  172.279
  366.250    7.196    0.297    0.413   69.338  166.830
  366.500    7.720    0.313    0.366   54.704  165.150
  366.750    7.989    0.306    0.369   48.258  161.635
  367.000    7.974    0.276    0.387   52.016  160.979
  367.250    7.870    0.240    0.383   60.907  160.823
  367.500    7.737    0.191    0.389   76.030  160.771
  367.750    7.650    0.208    0.416   74.474  160.932
  368.000    7.708    0.229    0.428   73.587  161.096
  368.250    7.694    0.229    0.414   77.100  161.031
  368.500    7.651    0.199    0.415   78.110  160.977
  368.750    7.681    0.141    0.394   72.212  160.931
  369.000    7.667    0.113    0.369   69.676  160.875
  369.250    7.726    0.106    0.354   74.779  161.028
  369.500    7.756    0.204    0.384   79.638  161.189
  369.750    7.756    0.225    0.398   79.729  161.235
  370.000    7.727    0.239    0.411   73.038  161.487
  370.250    7.728    0.251    0.415   70.869  161.853
  370.500    7.758    0.259    0.410   72.672  162.204
  370.750    7.907    0.273    0.391   76.736  163.576
  371.000    8.028    0.274    0.391   83.428  166.889
  371.250    8.136    0.254    0.400   89.262  171.219
  371.500    8.324    0.216    0.403   91.187  173.610
  371.750    8.500    0.208    0.404   91.036  166.328
  372.000    8.680    0.194    0.414   90.396  160.472
  372.250    8.796    0.202    0.409   89.325  159.506
  372.500    8.915    0.217    0.390   87.341  159.659
  372.750    8.831    0.226    0.394   84.805  160.425
  373.000    8.140    0.224    0.391   83.308  160.780
  373.250    7.432    0.216    0.383   85.110  161.543
  373.500    6.824    0.207    0.385   91.250  163.126
  373.750    6.398    0.187    0.406   95.499  165.111
  374.000    5.864    0.156    0.446  101.027  168.012
  374.250    5.213    0.167    0.475  105.276  173.258
  374.500    4.851    0.162    0.481  103.779  178.910
  374.750    4.787    0.171    0.483  107.782  180.285
  375.000    5.155    0.159    0.483  107.505  177.383
  375.250    5.899    0.166    0.480  110.042  176.219
  375.500    6.725    0.189    0.474  109.524  177.081
  375.750    7.493    0.183    0.450  101.671  174.786
  376.000    7.565    0.183    0.417   87.709  171.274
  376.250    7.537    0.200    0.384   81.628  167.355
  376.500    7.284    0.184    0.366   79.398  163.433
  376.750    6.714    0.191    0.352   84.990  161.955
  377.000    6.416    0.173    0.366   95.103  164.857
  377.250    6.272    0.156    0.399  104.484  170.205
  377.500    6.320    0.149    0.439  108.975  174.435
  377.750    6.565    0.157    0.446  109.923  174.287
  378.000    7.003    0.165    0.443  109.036  171.990
  378.250    7.598    0.154    0.456  105.461  167.458
  378.500    8.229    0.170    0.433   95.776  166.697
  378.750    9.049    0.193    0.363   85.663  167.559
  379.000    9.950    0.202    0.354   75.978  165.980
  379.250   10.816    0.162    0.364   81.388  164.200
  379.500   11.214    0.150    0.378   86.183  167.412
  379.750   11.046    0.194    0.338   86.275  169.192
  380.000   10.456    0.247    0.320   74.268  166.393
  380.250    9.492    0.338    0.359   64.644  163.697
  380.500    8.601    0.383    0.386   54.470  162.725
  380.750    8.033    0.307    0.375   47.719  161.566
  381.000    7.706    0.299    0.394   44.266  161.000
  381.250    7.547    0.301    0.398   42.954  160.845
  381.500    7.448    0.307    0.396   48.300  160.696
  381.750    7.392    0.298    0.390   49.919  160.445
  382.000    7.295    0.290    0.391   48.727  160.084
  382.250    7.240    0.293    0.400   48.393  159.825
  382.500    7.241    0.307    0.393   50.928  159.469
  382.750    7.255    0.316    0.398   51.937  159.111
  383.000    7.311    0.308    0.403   50.867  158.554
  383.250    7.339    0.297    0.403   52.060  158.098
  383.500    7.339    0.289    0.412   51.296  158.155
  383.750    7.396    0.286    0.414   47.110  158.404
  384.000    7.382    0.322    0.403   48.362  158.862
  384.250    7.397    0.320    0.420   50.167  160.236
  384.500    7.383    0.316    0.420   49.098  162.128
  384.750    7.412    0.312    0.407   45.583  162.883
  385.000    7.540    0.319    0.409   43.047  163.240
  385.250    7.729    0.337    0.408   40.880  163.701
  385.500    7.983    0.340    0.394   40.238  164.062
  385.750    8.260    0.331    0.386   40.817  164.317
  386.000    8.679    0.317    0.379   44.087  164.364
  386.250    9.153    0.296    0.370   56.094  164.311
