~VERSION INFORMATION
 VERS.                 2.0:   CWLS LOG ASCII STANDARD -VERSION 2.0
 WRAP.                  NO:   ONE LINE PER DEPTH STEP
~WELL INFORMATION BLOCK
#MNEM.UNIT           DATA                    DESCRIPTION OF MNEMONIC
#---------    -------------------            -------------------------------
# Generated from Intellog Unique Number	CX_WELLS/WELL/2567
WELL.         SIEBENS COWFAR                 : Well_name    - WELL
LOC .         00/06-34-080-03W4/0            : Location     - LOCATION
UWI .         00/06-34-080-03W400            : Uwi          - UNIQUE WELL ID
ENTR.         T                              : Entered      - ENTERED BY
SRVC.         SCHLUMBERGER                   : Scn          - SERVICE COMPANY
STRT.F        300                            : top_depth    - START DEPTH
STOP.F        970.112                        : bot_depth    - STOP DEPTH
STEP.F        0.82                           : increment    - STEP LENGTH
 NULL. -999.2500:NULL Value
~CURVE INFORMATION BLOCK
#MNEM UNIT       ERCB CURVE CODE    CURVE DESCRIPTION
#-----------   ------------------   ----------------------------------
DEPT.F        00 001 00 00         : DEPTH        - DEPTH
GR  .API      00 310 00 00         : GR           - GAMMA RAY
NPHI.V/V      00 330 00 00         : PHIN         - NEUTRON POROSITY (SANDSTONE)
DPHI.V/V      00 890 00 00         : PHID         - DENSITY POROSITY (SANDSTONE)
ILD .OHMM     00 120 00 00         : RESD         - DEEP RESISTIVITY (DIL)
~PARAMETER INFORMATION
#MNEM.UNIT           DATA             DESCRIPTION OF MNEMONIC
#---------         -----------     ------------------------------
GL  .F        1635                 : gl           - GROUND LEVEL ELEVATION
EREF.F        1647                 : kb           - ELEVATION OF DEPTH REFERENCE
DATM.F        1647                 : datum        - DATUM ELEVATION
TDD .F        1018                 : tdd          - TOTAL DEPTH DRILLER
RUN .         ONE                  : Run          - RUN NUMBER
ENG .         BILL                 : Engineer     - RECORDING ENGINEER
WIT .         JIM                  : Witness      - WITNESSED BY
MUD .         GEL                  : Mud_type     - MUD TYPE
MATR.         SANDSTONE            : Logunit      - NEUTRON MATRIX
TMAX.F        71.6                 : BHT          - MAXIMUM RECORDED TEMPERATURE
BHTD.F        1018                 : BHTDEP       - MAXIMUM RECORDED TEMPERATURE
MATR.         1                    : LOGUNIT      - NEUTRON MATRIX
RMT .F        77                   : MDTP         - TEMPERATURE OF MUD
NEUT.         1                    : NEUTRON      - NEUTRON TYPE
RESI.         6.29                 : RESIST       - RESISTIVITY TYPE
RMC .OHMM     7.15                 : RMC          - RESISTIVITY OF MUD CAKE
RMF .OHMM     7.15                 : RMF          - RESISTIVITY OF MUD FILTRATE
SUFT.F        32                   : SUFT         - SURFACE TEMPERATURE
~A  DEPTH       GR     PHIN     PHID     RESD
# ...
  585.433   75.411    0.464    0.304   14.413
  586.253   75.374    0.467    0.292   14.398
  587.073   75.355    0.464    0.270   14.367
  587.894   75.903    0.451    0.238   14.352
  588.714   75.878    0.377    0.143   14.332
  589.534   74.703    0.295    0.123   14.306
  590.354   73.521    0.346    0.124   14.286
  591.175   72.340    0.388    0.185   14.271
  591.995   76.364    0.425    0.265   14.246
  592.815   76.911    0.453    0.297   14.226
  593.635   76.296    0.469    0.313   14.206
  594.455   75.699    0.472    0.317   14.452
  595.276   75.102    0.468    0.318   14.692
  596.096   74.487    0.465    0.319   14.681
  596.916   73.890    0.463    0.318   14.930
  597.736   73.865    0.466    0.314   15.189
  598.556   73.828    0.474    0.308   15.173
  599.377   74.394    0.476    0.311   14.050
  600.197   74.936    0.469    0.311   13.523
  601.017   74.332    0.465    0.310   13.011
  601.837   74.302    0.467    0.312   12.758
  602.657   74.289    0.467    0.313   12.496
  603.478   74.265    0.467    0.310   12.708
  604.298   74.234    0.466    0.307   12.699
  605.118   74.209    0.468    0.308   12.919
  605.938   74.178    0.478    0.306   13.138
  606.759   74.160    0.470    0.305   13.120
  607.579   74.123    0.465    0.310   13.347
  608.399   74.098    0.466    0.318   13.328
  609.219   74.073    0.469    0.328   13.309
  610.039   74.049    0.470    0.320   13.290
  610.860   74.030    0.470    0.317   13.027
  611.680   73.993    0.471    0.322   13.004
  612.500   73.968    0.474    0.329   12.986
  613.320   74.522    0.477    0.331   12.724
  614.140   75.076    0.481    0.325   12.706
  614.961   76.208    0.482    0.313   12.688
  615.781   76.749    0.483    0.311   12.670
  616.601   76.737    0.481    0.314   12.889
  617.421   75.549    0.480    0.321   12.871
  618.241   74.368    0.481    0.321   12.857
  619.062   73.765    0.487    0.326   13.080
  619.882   72.005    0.488    0.327   13.302
  620.702   69.660    0.478    0.303   13.782
  621.522   67.900    0.449    0.255   14.025
  622.343   66.147    0.407    0.200   14.526
  623.163   62.061    0.284    0.130   15.060
  623.983   63.778    0.296    0.172   15.321
  624.803   67.802    0.355    0.204   15.885
  625.623   72.977    0.493    0.293   16.463
  626.444   74.115    0.504    0.325   17.051
  627.264   75.819    0.498    0.327   17.021
  628.084   76.373    0.490    0.324   16.695
  628.904   76.336    0.484    0.317   16.052
  629.724   76.317    0.479    0.311   15.739
  630.545   76.293    0.477    0.321   13.799
  631.365   78.003    0.478    0.327   12.093
  632.185   82.606    0.493    0.321   11.008
  633.005   87.208    0.510    0.298    9.295
  633.825   90.075    0.528    0.268    8.146
  634.646   87.731    0.534    0.254    7.415
  635.466   85.977    0.526    0.255    6.747
  636.286   84.777    0.533    0.260    6.255
  637.106   84.186    0.544    0.272    5.690
  637.927   83.571    0.537    0.282    5.080
  638.747   82.974    0.523    0.290    4.979
  639.567   80.045    0.503    0.265    5.256
  640.387   78.876    0.499    0.241    5.451
  641.207   78.273    0.505    0.228    6.083
  642.028   77.670    0.517    0.238    6.426
  642.848   77.639    0.526    0.250    7.169
  643.668   77.614    0.518    0.254    7.714
  644.488   78.162    0.495    0.266    8.145
  645.308   78.716    0.488    0.275    8.755
  646.129   79.848    0.490    0.289    8.749
  646.949   80.395    0.492    0.296    9.064
  647.769   80.364    0.495    0.296    9.391
  648.589   80.346    0.492    0.288    9.385
  649.409   80.321    0.491    0.288    9.719
  650.230   80.303    0.491    0.288    9.709
  651.050   80.850    0.491    0.288    9.874
  651.870   80.825    0.493    0.287   10.041
  652.690   81.379    0.492    0.282   10.219
  653.510   81.933    0.490    0.278   10.400
  654.331   81.908    0.485    0.284   10.572
  655.151   81.305    0.482    0.282   10.763
  655.971   79.539    0.479    0.265   11.151
  656.791   77.188    0.468    0.240   11.340
  657.612   76.591    0.447    0.169   11.537
  658.432   75.989    0.413    0.118   11.733
  659.252   81.163    0.446    0.093   11.720
  660.072   84.615    0.461    0.121   11.492
  660.892   89.211    0.478    0.183   11.476
  661.713   92.663    0.492    0.198   11.241
  662.533   94.952    0.496    0.267   11.014
  663.353   96.084    0.499    0.277   10.800
  664.173   96.053    0.499    0.258   10.589
  664.993   94.872    0.496    0.244   10.185
  665.814   97.733    0.497    0.246    9.802
  666.634  100.600    0.502    0.245    8.588
  667.454  101.154    0.497    0.243    7.814
  668.274   98.231    0.485    0.240    7.244
  669.094   96.477    0.480    0.240    6.839
  669.915   94.711    0.478    0.240    6.706
  670.735   94.687    0.483    0.241    6.694
  671.555   95.825    0.492    0.244    6.684
  672.375   98.686    0.503    0.248    6.675
  673.196   99.812    0.508    0.252    6.668
  674.016   99.209    0.511    0.253    6.533
  674.836   99.184    0.511    0.251    6.404
  675.656   99.744    0.510    0.249    6.048
  676.476   99.707    0.512    0.248    5.710
  677.297   99.110    0.522    0.247    5.492
  678.117   98.501    0.523    0.246    5.387
  678.937   97.904    0.518    0.244    5.181
  679.757   97.879    0.524    0.243    5.172
  680.577   98.999    0.539    0.240    4.882
  681.398   99.559    0.563    0.249    4.787
  682.218  100.113    0.579    0.257    4.523
  683.038  100.088    0.579    0.255    4.350
  683.858   95.430    0.549    0.249    4.182
  684.678   89.031    0.521    0.250    4.178
  685.499   87.283    0.507    0.250    4.173
  686.319   87.831    0.509    0.249    4.243
  687.139   89.535    0.526    0.247    4.481
  687.959   90.095    0.536    0.248    4.733
  688.780   90.642    0.540    0.246    5.187
  689.600   90.618    0.532    0.241    5.580
  690.420   90.015    0.519    0.241    6.000
  691.240   89.984    0.511    0.242    6.333
  692.060   91.110    0.505    0.247    6.564
  692.881   91.676    0.494    0.249    6.680
  693.701   93.380    0.484    0.252    6.918
  694.521   94.506    0.473    0.252    7.043
  695.341   95.638    0.531    0.250    6.774
  696.161   96.192    0.557    0.247    6.164
  696.982   93.853    0.570    0.251    5.609
  697.802   91.515    0.570    0.254    4.914
  698.622   89.183    0.539    0.251    4.642
  699.442   89.731    0.502    0.251    4.222
  700.262   90.863    0.508    0.253    4.063
  701.083   91.410    0.515    0.256    3.983
  701.903   91.386    0.516    0.259    4.129
  702.723   91.367    0.508    0.258    4.438
  703.543   90.758    0.490    0.251    4.603
  704.364   87.835    0.481    0.239    4.948
  705.184   84.925    0.474    0.232    5.130
  706.004   84.322    0.463    0.219    5.316
  706.824   85.435    0.452    0.210    5.407
  707.644   86.580    0.451    0.212    5.500
  708.465   90.019    0.467    0.252    5.493
  709.285   91.736    0.479    0.267    5.485
  710.105   93.440    0.485    0.255    5.479
  710.925   93.421    0.491    0.240    5.171
  711.745   92.806    0.521    0.240    4.883
  712.566   90.474    0.547    0.247    4.612
  713.386   87.557    0.566    0.252    4.355
  714.206   85.219    0.574    0.260    3.962
  715.026   84.597    0.577    0.269    3.743
  715.846   85.736    0.572    0.278    3.404
  716.667   86.296    0.567    0.285    3.157
  717.487   88.006    0.564    0.284    2.767
  718.307   87.981    0.555    0.277    2.471
  719.127   86.794    0.535    0.265    2.333
  719.948   84.456    0.524    0.251    2.374
  720.768   83.268    0.534    0.244    2.371
  721.588   84.394    0.524    0.235    2.456
  722.408   85.532    0.504    0.229    2.546
  723.228   86.658    0.483    0.222    2.688
  724.049   86.049    0.496    0.216    2.786
  724.869   86.030    0.500    0.215    3.109
  725.689   86.012    0.466    0.218    3.471
  726.509   86.547    0.451    0.220    3.877
  727.329   87.113    0.450    0.218    4.247
