~VERSION INFORMATION
 VERS.                 2.0:   CWLS LOG ASCII STANDARD -VERSION 2.0
 WRAP.                  NO:   ONE LINE PER DEPTH STEP
~WELL INFORMATION BLOCK
#MNEM.UNIT           DATA                    DESCRIPTION OF MNEMONIC
#---------    -------------------            -------------------------------
# Generated from Intellog Unique Number	CW_70_72/WELL/288
NULL.         -999.25                        : NULL_VALUE
WELL.         GULF NORCEN MITSUE 04-31       : Well_name    - WELL              
LOC .         04-31-072-03W5                 : Location     - LOCATION          
UWI .         00/04-31-072-03W5/0            : Uwi          - UNIQUE WELL ID    
ENTR.         JAYE                           : Entered      - ENTERED BY        
SRVC.         COMPUTALOG                     : Scn          - SERVICE COMPANY   
DATE.         18 MAR 83                      : Date         - LOG DATE          
STRT.M        380                            : top_depth    - START DEPTH       
STOP.M        585                            : bot_depth    - STOP DEPTH        
STEP.M        0.25                           : increment    - STEP LENGTH       
~CURVE INFORMATION BLOCK
#MNEM UNIT       ERCB CURVE CODE    CURVE DESCRIPTION
#-----------   ------------------   ----------------------------------
DEPT.M        00 001 00 00         : DEPTH        - DEPTH                       
DPHI.V/V      00 890 00 00         : PHID         - DENSITY POROSITY (SANDSTONE)
NPHI.V/V      00 330 00 00         : PHIN         - NEUTRON POROSITY (SANDSTONE)
GR  .API      00 310 00 00         : GR           - GAMMA RAY                   
CALI.MM       00 280 01 00         : CAL          - CALIPER                     
ILD .OHMM     00 120 00 00         : RESD         - DEEP RESISTIVITY (DIL)      
~PARAMETER INFORMATION       
#MNEM.UNIT           DATA             DESCRIPTION OF MNEMONIC
#---------         -----------     ------------------------------
GL  .M        586.75               : gl           - GROUND LEVEL ELEVATION      
EREF.M        591.4                : kb           - ELEVATION OF DEPTH REFERENCE
DATM.M        586.75               : datum        - DATUM ELEVATION             
TDD .M        1610                 : tdd          - TOTAL DEPTH DRILLER         
RUN .         ONE                  : Run          - RUN NUMBER                  
ENG .         MCEWAN               : Engineer     - RECORDING ENGINEER          
WIT .         BELLMAN              : Witness      - WITNESSED BY                
BASE.         EDM                  : Branch       - HOME BASE OF LOGGING UNIT   
MUD .         GEL                  : Mud_type     - MUD TYPE                    
MATR.         SANDSTONE            : Logunit      - NEUTRON MATRIX              
TMAX.C        48                   : BHT          - MAXIMUM RECORDED TEMPERATURE
BHTD.M        1609                 : BHTDEP       - MAXIMUM RECORDED TEMPERATURE
RMT .C        18.3                 : MDTP         - TEMPERATURE OF MUD          
MUDD.KG/M     1070                 : MWT          - MUD DENSITY                 
NEUT.         1                    : NEUTRON      - NEUTRON TYPE                
RESI.         0                    : RESIST       - RESISTIVITY TYPE            
RM  .OHMM     0.9                  : RM           - RESISTIVITY OF MUD          
RMC .OHMM     1.3                  : RMC          - RESISTIVITY OF MUD CAKE     
RMF .OHMM     0.9                  : RMF          - RESISTIVITY OF MUD FILTRATE 
SUFT.C        0                    : SUFT         - SURFACE TEMPERATURE         
~A  DEPTH     PHID     PHIN       GR      CAL     RESD
# ...
  489.500    0.298    0.380   52.713  221.281    3.542
  489.750    0.297    0.367   55.701  221.062    3.582
  490.000    0.299    0.366   57.255  220.427    3.573
  490.250    0.302    0.368   58.373  220.727    3.544
  490.500    0.307    0.371   58.802  222.588    3.502
  490.750    0.314    0.374   56.799  224.034    3.375
  491.000    0.324    0.381   52.922  224.854    3.322
  491.250    0.332    0.387   53.664  225.155    3.326
  491.500    0.326    0.396   56.279  225.559    3.427
  491.750    0.318    0.399   57.146  225.861    3.585
  492.000    0.306    0.394   56.765  226.370    3.823
  492.250    0.290    0.381   55.010  226.775    4.076
  492.500    0.274    0.367   53.568  226.659    4.347
  492.750    0.245    0.357   50.939  226.543    4.610
  493.000    0.227    0.348   49.809  226.636    4.822
  493.250    0.214    0.352   49.240  226.626    4.978
  493.500    0.219    0.356   49.733  226.926    4.984
  493.750    0.236    0.350   51.848  227.124    4.944
  494.000    0.250    0.335   54.276  227.737    4.904
  494.250    0.260    0.343   52.334  227.100    4.901
  494.500    0.267    0.359   49.706  227.089    4.890
  494.750    0.270    0.356   53.320  227.077    4.896
  495.000    0.273    0.354   57.620  226.858    4.901
  495.250    0.278    0.363   56.240  226.326    4.936
  495.500    0.282    0.373   54.298  225.376    4.971
  495.750    0.273    0.376   53.167  224.636    4.893
  496.000    0.271    0.367   53.411  224.214    4.863
  496.250    0.279    0.348   54.278  223.786    4.870
  496.500    0.284    0.353   54.209  223.774    4.877
  496.750    0.286    0.366   52.267  223.761    4.845
  497.000    0.292    0.368   51.011  224.063    4.798
  497.250    0.298    0.342   53.938  224.780    4.775
  497.500    0.300    0.326   56.803  225.808    4.701
  497.750    0.298    0.337   57.920  226.943    4.619
  498.000    0.297    0.355   54.292  227.971    4.589
  498.250    0.299    0.369   51.851  228.897    4.535
  498.500    0.294    0.381   51.907  229.302    4.584
  498.750    0.278    0.412   56.082  229.395    4.741
  499.000    0.241    0.356   56.263  230.111    5.075
  499.250    0.182    0.281   53.697  231.869    5.633
  499.500    0.136    0.224   48.509  234.875    6.098
  499.750    0.096    0.182   44.507  236.736    6.781
  500.000    0.080    0.151   40.693  232.563    7.669
  500.250    0.068    0.134   38.876  233.176    8.544
  500.500    0.061    0.131   40.180  237.326    8.854
  500.750    0.075    0.142   44.043  238.564    8.000
  501.000    0.075    0.169   44.723  238.656    6.958
  501.250    0.091    0.186   45.902  238.124    6.155
  501.500    0.143    0.204   47.456  235.825    5.477
  501.750    0.232    0.254   49.571  228.219    4.818
  502.000    0.234    0.350   49.066  225.294    4.471
  502.250    0.187    0.316   46.874  224.450    4.310
  502.500    0.167    0.272   46.118  225.063    4.193
  502.750    0.173    0.274   46.424  225.469    4.004
  503.000    0.215    0.294   48.851  225.145    3.779
  503.250    0.252    0.325   51.466  225.342    3.507
  503.500    0.273    0.357   51.647  225.746    3.174
  503.750    0.295    0.387   50.954  225.943    2.825
  504.000    0.308    0.414   51.133  225.204    2.775
  504.250    0.302    0.396   52.063  224.880    2.742
  504.500    0.295    0.369   53.243  224.870    2.836
  504.750    0.289    0.381   55.546  224.751    3.124
  505.000    0.283    0.378   59.034  224.847    3.286
  505.250    0.272    0.375   61.774  224.936    3.272
  505.500    0.257    0.381   64.077  225.033    3.209
  505.750    0.274    0.385   63.071  225.125    3.159
  506.000    0.292    0.390   62.253  224.904    3.109
  506.250    0.305    0.395   63.869  224.788    3.055
  506.500    0.306    0.408   64.424  224.569    3.035
  506.750    0.302    0.417   61.671  224.660    3.039
  507.000    0.294    0.426   61.726  224.754    3.132
  507.250    0.284    0.429   62.344  224.847    3.226
  507.500    0.264    0.401   63.212  224.943    3.369
  507.750    0.273    0.385   64.453  225.135    3.458
  508.000    0.280    0.385   65.070  225.128    3.523
  508.250    0.270    0.395   65.001  225.531    3.575
  508.500    0.261    0.395   64.245  225.834    3.600
  508.750    0.269    0.385   63.240  226.029    3.654
  509.000    0.279    0.365   61.298  226.226    3.751
  509.250    0.286    0.384   59.793  226.423    3.827
  509.500    0.288    0.388   58.039  226.514    3.854
  509.750    0.294    0.373   54.848  226.713    3.830
  510.000    0.292    0.365   51.596  226.908    3.699
  510.250    0.282    0.364   52.586  227.105    3.413
  510.500    0.265    0.363   55.327  227.406    3.283
  510.750    0.276    0.360   58.129  227.604    3.171
  511.000    0.293    0.367   59.870  227.801    3.127
  511.250    0.303    0.374   60.800  227.998    3.143
  511.500    0.307    0.379   61.354  228.401    3.251
  511.750    0.298    0.389   62.097  228.704    3.407
  512.000    0.229    0.388   62.902  228.900    3.620
  512.250    0.240    0.389   64.206  229.098    3.759
  512.500    0.263    0.389   65.385  229.086    3.828
  512.750    0.266    0.368   65.379  229.387    3.855
  513.000    0.243    0.354   60.940  229.688    3.905
  513.250    0.255    0.366   56.376  229.781    4.040
  513.500    0.264    0.369   59.865  229.561    4.138
  513.750    0.247    0.366   64.228  229.341    4.239
  514.000    0.219    0.378   67.217  229.851    4.368
  514.250    0.210    0.395   69.957  235.769    4.509
  514.500    0.204    0.407   71.947  242.000    4.602
  514.750    0.222    0.385   72.441  243.446    4.652
  515.000    0.234    0.349   69.001  244.163    4.703
  515.250    0.238    0.329   63.188  244.047    4.746
  515.500    0.243    0.335   63.930  244.036    4.780
  515.750    0.247    0.356   66.109  244.233    4.841
  516.000    0.238    0.369   69.036  244.118    4.903
  516.250    0.229    0.368   62.724  245.978    5.004
  516.500    0.226    0.366   60.220  247.320    5.077
  516.750    0.237    0.364   59.465  248.661    5.095
  517.000    0.235    0.364   60.519  250.002    5.082
  517.250    0.212    0.367   62.822  251.968    5.050
  517.500    0.193    0.381   65.374  254.660    5.037
  517.750    0.182    0.388   68.613  256.418    4.997
  518.000    0.177    0.378   71.978  261.193    4.956
  518.250    0.175    0.371   74.530  267.423    4.952
  518.500    0.172    0.382   73.649  269.180    4.997
  518.750    0.166    0.396   71.333  269.791    5.110
  519.000    0.160    0.390   68.705  269.679    5.204
  519.250    0.173    0.374   65.577  268.835    5.435
  519.500    0.190    0.366   61.138  266.327    5.633
  519.750    0.206    0.360   61.318  260.176    5.737
  520.000    0.214    0.351   62.559  260.789    5.701
  520.250    0.209    0.337   64.050  262.442    5.592
  520.500    0.196    0.345   65.918  265.241    5.483
  520.750    0.184    0.342   66.972  266.789    5.406
  521.000    0.178    0.331   66.216  266.154    5.331
  521.250    0.175    0.337   66.646  263.751    5.288
  521.500    0.211    0.382   68.387  259.162    5.246
  521.750    0.234    0.389   71.002  253.013    5.213
  522.000    0.247    0.383   73.555  246.864    5.151
  522.250    0.246    0.375   68.867  243.938    5.060
  522.500    0.241    0.371   66.488  245.072    4.924
  522.750    0.234    0.370   69.726  245.786    4.800
  523.000    0.220    0.381   72.716  245.985    4.655
  523.250    0.201    0.368   75.393  245.663    4.589
  523.500    0.204    0.386   74.637  245.235    4.519
  523.750    0.222    0.423   72.571  245.848    4.507
  524.000    0.229    0.416   70.629  247.293    4.530
  524.250    0.231    0.398   69.811  247.801    4.581
  524.500    0.230    0.377   69.679  247.894    4.621
  524.750    0.228    0.395   69.547  246.843    4.654
  525.000    0.230    0.422   69.728  245.168    4.660
  525.250    0.226    0.399   70.471  242.971    4.711
  525.500    0.215    0.408   71.025  241.504    4.762
  525.750    0.214    0.421   70.332  241.284    4.805
