~VERSION INFORMATION
 VERS.                 2.0:   CWLS LOG ASCII STANDARD -VERSION 2.0
 WRAP.                  NO:   ONE LINE PER DEPTH STEP
~WELL INFORMATION BLOCK
#MNEM.UNIT           DATA                    DESCRIPTION OF MNEMONIC
#---------    -------------------            -------------------------------
# Generated from Intellog Unique Number	CW_70_72/WELL/642
NULL.         -999.25                        : NULL_VALUE
WELL.         MIDAS AMOCO MEYER 06-21        : Well_name    - WELL              
LOC .         06-21-071-25W4                 : Location     - LOCATION          
UWI .         00/06-21-071-25W4/0            : Uwi          - UNIQUE WELL ID    
ENTR.         JAYE                           : Entered      - ENTERED BY        
SRVC.         SCHLUMBERGER                   : Scn          - SERVICE COMPANY   
DATE.         4 FEB 73                       : Date         - LOG DATE          
STRT.M        402.336                        : top_depth    - START DEPTH       
STOP.M        624.836                        : bot_depth    - STOP DEPTH        
STEP.M        0.25                           : increment    - STEP LENGTH       
~CURVE INFORMATION BLOCK
#MNEM UNIT       ERCB CURVE CODE    CURVE DESCRIPTION
#-----------   ------------------   ----------------------------------
DEPT.M        00 001 00 00         : DEPTH        - DEPTH                       
DPHI.V/V      00 890 00 00         : PHID         - DENSITY POROSITY (SANDSTONE)
NPHI.V/V      00 330 00 00         : PHIN         - NEUTRON POROSITY (SANDSTONE)
GR  .API      00 310 00 00         : GR           - GAMMA RAY                   
CALI.MM       00 280 01 00         : CAL          - CALIPER                     
ILD .OHMM     00 120 00 00         : RESD         - DEEP RESISTIVITY (DIL)      
~PARAMETER INFORMATION       
#MNEM.UNIT           DATA             DESCRIPTION OF MNEMONIC
#---------         -----------     ------------------------------
GL  .M        598.322              : gl           - GROUND LEVEL ELEVATION      
EREF.M        601.37               : kb           - ELEVATION OF DEPTH REFERENCE
DATM.M        598.322              : datum        - DATUM ELEVATION             
TDD .M        628.802              : tdd          - TOTAL DEPTH DRILLER         
RUN .         ONE                  : Run          - RUN NUMBER                  
ENG .         LEWIS                : Engineer     - RECORDING ENGINEER          
WIT .         JAMES                : Witness      - WITNESSED BY                
BASE.         LLOYD                : Branch       - HOME BASE OF LOGGING UNIT   
MUD .         GEL                  : Mud_type     - MUD TYPE                    
MATR.         SANDSTONE            : Logunit      - NEUTRON MATRIX              
TMAX.C        25.5556              : BHT          - MAXIMUM RECORDED TEMPERATURE
BHTD.M        627.583              : BHTDEP       - MAXIMUM RECORDED TEMPERATURE
RMT .C        15                   : MDTP         - TEMPERATURE OF MUD          
MUDD.KG/M     1116                 : MWT          - MUD DENSITY                 
NEUT.         1                    : NEUTRON      - NEUTRON TYPE                
RESI.         0                    : RESIST       - RESISTIVITY TYPE            
RM  .OHMM     8.41                 : RM           - RESISTIVITY OF MUD          
RMC .OHMM     5                    : RMC          - RESISTIVITY OF MUD CAKE     
RMF .OHMM     3.96                 : RMF          - RESISTIVITY OF MUD FILTRATE 
SUFT.C        -17.7778             : SUFT         - SURFACE TEMPERATURE         
~A  DEPTH     PHID     PHIN       GR      CAL     RESD
# ...
  475.336    0.193    0.411   60.829  162.492    3.107
  475.586    0.205    0.422   59.076  163.615    3.082
  475.836    0.218    0.413   57.575  164.230    3.063
  476.086    0.232    0.389   58.305  163.990    3.022
  476.336    0.228    0.388   60.763  162.801    2.950
  476.586    0.241    0.401   62.787  163.096    2.900
  476.836    0.240    0.408   64.816  164.540    2.872
  477.086    0.224    0.416   68.636  165.555    2.839
  477.336    0.220    0.425   69.920  165.324    2.821
  477.586    0.218    0.437   67.862  164.044    2.834
  477.836    0.219    0.433   69.151  163.066    2.847
  478.086    0.213    0.426   72.602  162.090    2.881
  478.336    0.214    0.416   72.396  162.071    2.957
  478.586    0.227    0.430   71.635  162.154    3.080
  478.836    0.218    0.432   74.035  162.219    3.349
  479.086    0.201    0.419   75.196  162.310    3.642
  479.336    0.214    0.406   75.242  161.746    3.820
  479.586    0.207    0.395   75.533  160.254    3.831
  479.836    0.183    0.377   77.561  159.186    3.780
  480.086    0.201    0.431   78.724  159.049    3.420
  480.336    0.237    0.439   78.581  159.449    3.123
  480.586    0.249    0.453   77.885  159.620    2.946
  480.836    0.254    0.450   77.187  159.911    2.912
  481.086    0.252    0.437   76.808  160.296    2.915
  481.336    0.233    0.452   76.970  160.179    2.918
  481.586    0.220    0.465   78.068  160.152    2.915
  481.836    0.222    0.458   79.540  159.902    2.903
  482.086    0.223    0.439   80.206  159.668    2.874
  482.336    0.231    0.444   77.033  159.745    2.846
  482.586    0.226    0.457   73.671  160.349    2.839
  482.836    0.236    0.474   74.338  161.155    2.796
  483.086    0.238    0.490   78.592  161.650    2.743
  483.336    0.242    0.457   76.842  162.254    2.702
  483.586    0.248    0.419   72.248  162.646    2.676
  483.836    0.250    0.431   72.848  162.941    2.649
  484.086    0.249    0.465   76.793  163.335    2.629
  484.336    0.232    0.479   75.484  163.199    2.645
  484.586    0.229    0.448   74.229  163.172    2.706
  484.836    0.235    0.395   73.713  163.151    2.864
  485.086    0.209    0.362   75.494  163.324    3.148
  485.336    0.165    0.342   79.622  166.026    3.543
  485.586    0.110    0.319   85.798  167.258    3.832
  485.836    0.087    0.365   92.591  167.336    4.159
  486.086    0.117    0.442   99.941  166.680    4.402
  486.336    0.154    0.429  102.154  166.348    4.576
  486.586    0.170    0.416   98.237  166.108    4.090
  486.836    0.159    0.436  103.115  166.176    3.900
  487.086    0.149    0.437  101.057  166.690    3.785
  487.336    0.144    0.421   99.430  166.955    3.831
  487.586    0.149    0.438  101.702  167.579    3.897
  487.836    0.138    0.460  104.598  167.745    3.986
  488.086    0.137    0.457  105.762  168.042    4.041
  488.336    0.139    0.443  111.374  168.537    4.059
  488.586    0.144    0.447  113.838  168.293    4.056
  488.836    0.143    0.444  108.246  168.378    4.068
  489.086    0.148    0.441  105.073  168.347    4.071
  489.336    0.163    0.453  104.007  168.423    4.067
  489.586    0.151    0.462  104.546  168.600    4.043
  489.836    0.137    0.470  108.618  169.313    4.003
  490.086    0.156    0.468  114.666  169.493    3.942
  490.336    0.125    0.444  109.946  169.468    3.862
  490.586    0.148    0.456  104.357  169.235    3.783
  490.836    0.164    0.448  101.247  169.210    3.672
  491.086    0.177    0.415  101.168  169.069    3.464
  491.336    0.181    0.430  105.427  169.568    3.303
  491.586    0.182    0.461  109.868  168.592    3.065
  491.836    0.230    0.483  106.197  165.734    2.933
  492.086    0.257    0.461   93.987  162.670    2.931
  492.336    0.246    0.442   87.160  164.120    3.008
  492.586    0.224    0.427   86.715  166.080    3.295
  492.836    0.199    0.472   92.766  168.145    3.622
  493.086    0.168    0.511   96.459  169.492    3.574
  493.336    0.193    0.568   92.918  169.352    3.182
  493.586    0.243    0.616   83.120  168.384    2.793
  493.836    0.285    0.532   69.176  166.892    2.509
  494.086    0.307    0.456   62.103  165.082    2.230
  494.336    0.278    0.449   60.728  163.893    2.063
  494.586    0.272    0.441   63.803  162.620    1.988
  494.836    0.261    0.426   69.667  161.848    1.926
  495.086    0.266    0.428   67.425  161.510    1.894
  495.336    0.275    0.456   69.760  161.070    1.848
  495.586    0.296    0.468   67.143  160.311    1.794
  495.836    0.282    0.460   61.807  159.549    1.764
  496.086    0.282    0.458   62.656  159.194    1.772
  496.336    0.294    0.458   65.118  159.276    1.829
  496.586    0.294    0.467   62.934  159.245    1.912
  496.836    0.303    0.461   66.508  159.746    2.027
  497.086    0.303    0.450   68.782  161.811    2.204
  497.336    0.267    0.444   65.608  162.308    2.402
  497.586    0.240    0.429   67.263  158.928    2.588
  497.836    0.218    0.405   67.805  156.803    2.779
  498.086    0.190    0.380   66.800  156.885    3.017
  498.336    0.200    0.372   69.693  157.797    3.305
  498.586    0.233    0.387   70.729  159.241    3.498
  498.836    0.217    0.377   64.893  160.894    3.234
  499.086    0.194    0.346   58.997  163.586    3.029
  499.336    0.248    0.437   61.891  165.352    2.806
  499.586    0.292    0.444   65.714  163.862    2.521
  499.836    0.271    0.434   66.624  162.356    2.245
  500.086    0.257    0.436   67.972  160.664    2.259
  500.336    0.241    0.429   69.876  159.684    2.457
  500.586    0.252    0.419   72.766  158.615    2.835
  500.836    0.228    0.399   75.969  158.171    3.139
  501.086    0.201    0.378   75.087  158.245    3.603
  501.336    0.182    0.353   71.794  158.529    4.018
  501.586    0.169    0.337   69.612  159.862    4.338
  501.836    0.148    0.308   67.863  162.453    4.567
  502.086    0.112    0.289   68.648  166.408    4.531
  502.336    0.116    0.444   72.160  167.225    4.305
  502.586    0.180    0.478   78.210  163.527    4.030
  502.836    0.235    0.452   83.704  159.411    3.518
  503.086    0.226    0.417   77.002  158.121    3.060
  503.336    0.231    0.420   74.324  157.054    2.861
  503.586    0.219    0.429   76.726  156.810    2.797
  503.836    0.191    0.411   77.081  157.324    3.359
  504.086    0.167    0.354   73.907  158.021    3.947
  504.336    0.130    0.302   70.671  158.826    4.790
  504.586    0.083    0.260   63.287  159.744    6.092
  504.836    0.037    0.204   57.455  161.506    8.571
  505.086    0.005    0.179   56.445  163.156   11.080
  505.336   -0.003    0.169   56.680  164.387   13.042
  505.586    0.002    0.184   59.511  165.306   14.005
  505.836    0.029    0.209   63.396  166.425   12.698
  506.086    0.067    0.236   67.344  167.021   10.501
  506.336    0.123    0.272   70.789  166.157    6.440
  506.586    0.210    0.333   74.924  162.990    4.361
  506.836    0.231    0.391   78.311  159.608    3.766
  507.086    0.217    0.420   82.503  159.688    3.383
  507.336    0.199    0.437   85.709  161.132    3.315
  507.586    0.150    0.455   86.556  162.155    3.318
  507.836    0.168    0.466   83.507  162.122    3.387
  508.086    0.197    0.398   77.121  161.672    3.502
  508.336    0.185    0.392   74.997  161.449    3.621
  508.586    0.180    0.412   77.393  161.304    3.547
  508.836    0.201    0.462   82.824  161.378    3.475
  509.086    0.212    0.446   83.799  161.783    3.485
  509.336    0.200    0.434   85.212  162.267    3.488
  509.586    0.165    0.412   86.555  162.775    3.486
  509.836    0.155    0.422   88.703  163.059    3.470
  510.086    0.193    0.442   87.079  159.250    3.405
  510.336    0.199    0.439   91.334  156.299    3.300
  510.586    0.194    0.435   94.291  156.577    3.233
  510.836    0.213    0.436   93.097  157.813    3.247
  511.086    0.199    0.428   91.595  159.784    3.358
  511.336    0.205    0.415   91.890  160.805    3.465
  511.586    0.199    0.400   91.625  161.927    3.551
