~VERSION INFORMATION
 VERS.                 2.0:   CWLS LOG ASCII STANDARD -VERSION 2.0
 WRAP.                  NO:   ONE LINE PER DEPTH STEP
~WELL INFORMATION BLOCK
#MNEM.UNIT           DATA                    DESCRIPTION OF MNEMONIC
#---------    -------------------            -------------------------------
# Generated from Intellog Unique Number	CW_70_72/WELL/468
NULL.         -999.25                        : NULL_VALUE
WELL.         GLOBAL CALLING LAKE SOUTH 05-0 : Well_name    - WELL              
LOC .         05-06-071-21W4                 : Location     - LOCATION          
UWI .         00/05-06-071-21W4/0            : Uwi          - UNIQUE WELL ID    
ENTR.         JAYE                           : Entered      - ENTERED BY        
SRVC.         SCHLUMBERGER                   : Scn          - SERVICE COMPANY   
DATE.         13 MAR 83                      : Date         - LOG DATE          
STRT.M        432                            : top_depth    - START DEPTH       
STOP.M        620                            : bot_depth    - STOP DEPTH        
STEP.M        0.25                           : increment    - STEP LENGTH       
~CURVE INFORMATION BLOCK
#MNEM UNIT       ERCB CURVE CODE    CURVE DESCRIPTION
#-----------   ------------------   ----------------------------------
DEPT.M        00 001 00 00         : DEPTH        - DEPTH                       
DPHI.V/V      00 890 00 00         : PHID         - DENSITY POROSITY (SANDSTONE)
NPHI.V/V      00 330 00 00         : PHIN         - NEUTRON POROSITY (SANDSTONE)
GR  .API      00 310 00 00         : GR           - GAMMA RAY                   
CALI.MM       00 280 01 00         : CAL          - CALIPER                     
ILD .OHMM     00 120 00 00         : RESD         - DEEP RESISTIVITY (DIL)      
~PARAMETER INFORMATION       
#MNEM.UNIT           DATA             DESCRIPTION OF MNEMONIC
#---------         -----------     ------------------------------
GL  .M        681.1                : gl           - GROUND LEVEL ELEVATION      
EREF.M        685.6                : kb           - ELEVATION OF DEPTH REFERENCE
DATM.M        681.1                : datum        - DATUM ELEVATION             
TDD .M        622                  : tdd          - TOTAL DEPTH DRILLER         
RUN .         ONE                  : Run          - RUN NUMBER                  
ENG .         DUNLOP               : Engineer     - RECORDING ENGINEER          
WIT .         LOWTHER              : Witness      - WITNESSED BY                
BASE.         EDM                  : Branch       - HOME BASE OF LOGGING UNIT   
MUD .         GEL CHEM             : Mud_type     - MUD TYPE                    
MATR.         SANDSTONE            : Logunit      - NEUTRON MATRIX              
TMAX.C        20.6                 : BHT          - MAXIMUM RECORDED TEMPERATURE
BHTD.M        622.5                : BHTDEP       - MAXIMUM RECORDED TEMPERATURE
RMT .C        22.8                 : MDTP         - TEMPERATURE OF MUD          
MUDD.KG/M     1110                 : MWT          - MUD DENSITY                 
NEUT.         1                    : NEUTRON      - NEUTRON TYPE                
RESI.         0                    : RESIST       - RESISTIVITY TYPE            
RM  .OHMM     4.22                 : RM           - RESISTIVITY OF MUD          
RMC .OHMM     0                    : RMC          - RESISTIVITY OF MUD CAKE     
RMF .OHMM     2.83                 : RMF          - RESISTIVITY OF MUD FILTRATE 
SUFT.C        0                    : SUFT         - SURFACE TEMPERATURE         
~A  DEPTH     PHID     PHIN       GR      CAL     RESD
# ...
  578.000    0.118    0.423  103.650  162.881    5.875
  578.250    0.124    0.405  107.178  162.707    5.430
  578.500    0.136    0.396  110.955  162.425    5.239
  578.750    0.151    0.397  113.358  162.247    5.246
  579.000    0.165    0.402  114.879  161.659    5.244
  579.250    0.162    0.412  115.901  161.583    5.192
  579.500    0.154    0.414  116.611  161.724    5.189
  579.750    0.150    0.405  114.626  161.861    5.344
  580.000    0.138    0.384  105.001  162.000    5.597
  580.250    0.125    0.366   95.562  162.032    5.839
  580.500    0.116    0.350   92.200  159.144    6.114
  580.750    0.099    0.322   93.787  157.407    6.487
  581.000    0.090    0.316   93.744  156.914    6.819
  581.250    0.095    0.352   88.630  157.467    7.035
  581.500    0.099    0.346   90.841  158.236    6.576
  581.750    0.125    0.360   99.818  159.104    6.043
  582.000    0.147    0.379  108.733  160.075    5.617
  582.250    0.162    0.398   98.292  160.630    5.710
  582.500    0.148    0.396   86.788  160.875    5.968
  582.750    0.098    0.329   68.455  160.906    6.771
  583.000    0.024    0.284   56.325  161.147    8.064
  583.250   -0.011    0.214   62.484  161.284    9.167
  583.500    0.026    0.264   76.972  161.213    9.985
  583.750    0.069    0.321   91.460  161.352    9.722
  584.000    0.094    0.354   93.110  161.489    9.002
  584.250    0.118    0.365   90.687  161.525    8.382
  584.500    0.105    0.355   90.957  161.460    8.088
  584.750    0.085    0.324   94.674  161.487    7.993
  585.000    0.087    0.324   99.518  161.623    7.885
  585.250    0.115    0.349  105.174  161.766    7.721
  585.500    0.120    0.372  109.953  162.109    7.463
  585.750    0.126    0.380  107.092  162.560    7.133
  586.000    0.140    0.382  104.168  162.387    6.793
  586.250    0.142    0.376   98.428  162.317    6.578
  586.500    0.129    0.362   94.878  161.512    6.539
  586.750    0.129    0.356   94.710  159.358    6.885
  587.000    0.096    0.348   87.839  158.975    7.401
  587.250    0.047    0.321   87.485  159.003    8.030
  587.500    0.064    0.275   94.394  159.772    8.647
  587.750    0.078    0.302   92.472  160.218    8.806
  588.000    0.088    0.321   92.493  161.090    8.495
  588.250    0.128    0.336   97.836  161.747    8.288
  588.500    0.148    0.344  100.862  162.198    7.951
  588.750    0.134    0.330  103.452  162.862    7.294
  589.000    0.127    0.342  107.291  163.002    6.434
  589.250    0.142    0.381  113.826  163.243    5.915
  589.500    0.138    0.350  105.453  163.380    5.944
  589.750    0.121    0.325   99.523  163.413    6.237
  590.000    0.116    0.346   98.478  163.548    6.557
  590.250    0.123    0.355  101.254  163.792    6.788
  590.500    0.137    0.344  101.775  163.619    7.137
  590.750    0.151    0.338  100.671  163.022    7.013
  591.000    0.131    0.335   99.686  156.585    6.363
  591.250    0.111    0.337   96.450  154.114    6.116
  591.500    0.097    0.353   89.892  154.355    6.358
  591.750    0.093    0.348   78.075  156.796    6.582
  592.000    0.084    0.316   62.061  158.701    6.945
  592.250    0.065    0.262   76.486  160.927    7.073
  592.500    0.104    0.284   98.555  162.636    6.659
  592.750    0.142    0.427  124.005  163.298    5.023
  593.000    0.158    0.473  133.607  163.532    4.190
  593.250    0.177    0.480  127.867  163.671    3.330
  593.500    0.176    0.458  117.613  163.705    2.959
  593.750    0.131    0.421  102.414  163.644    3.036
  594.000    0.073    0.396   89.656  163.676    3.845
  594.250    0.020    0.334   92.432  163.704    4.719
  594.500    0.030    0.320   93.019  163.425    5.455
  594.750    0.068    0.359   91.469  163.356    5.842
  595.000    0.071    0.358   99.132  163.077    6.362
  595.250    0.086    0.352  106.918  163.008    6.551
  595.500    0.111    0.365  112.138  163.036    6.203
  595.750    0.130    0.392  115.917  162.966    5.442
  596.000    0.138    0.420  118.378  162.796    5.049
  596.250    0.131    0.420  104.557  162.717    4.843
  596.500    0.109    0.406   85.096  162.445    4.960
  596.750    0.067    0.383   70.962  162.157    6.177
  597.000    0.000    0.259   61.023  161.882    7.467
  597.250   -0.014    0.246   72.192  161.807    8.649
  597.500    0.027    0.289   90.941  161.534    9.942
  597.750    0.076    0.338   94.093  161.253   10.068
  598.000    0.136    0.388   95.428  161.390    9.184
  598.250    0.121    0.367   98.517  161.632    6.940
  598.500    0.116    0.362  105.175  161.770    6.249
  598.750    0.133    0.386  110.709  162.117    5.797
  599.000    0.143    0.402  112.358  162.251    5.439
  599.250    0.122    0.391  105.864  162.394    5.267
  599.500    0.103    0.391  104.692  162.529    5.168
  599.750    0.085    0.401  109.288  162.353    5.155
  600.000    0.108    0.412  114.693  162.388    5.162
  600.250    0.119    0.422  119.661  162.527    5.112
  600.500    0.094    0.433  115.172  162.560    5.043
  600.750    0.088    0.427  114.000  162.593    4.911
  601.000    0.123    0.424  115.213  162.735    4.693
  601.250    0.146    0.424  113.416  162.866    4.363
  601.500    0.135    0.431  110.992  162.803    4.093
  601.750    0.081    0.455  103.433  162.829    3.948
  602.000    0.032    0.431   92.493  162.864    3.954
  602.250    0.018    0.399   99.152  162.904    4.102
  602.500    0.063    0.389  107.378  162.937    4.353
  602.750    0.127    0.400  111.781  162.963    4.533
  603.000    0.113    0.375  110.239  163.000    4.755
  603.250    0.103    0.384  104.495  162.930    5.037
  603.500    0.036    0.407   95.557  162.550    5.274
  603.750   -0.000    0.315   83.051  162.366    5.554
  604.000    0.007    0.299   89.585  162.089    5.926
  604.250    0.124    0.344  113.155  162.022    6.045
  604.500    0.125    0.404  124.450  161.949    5.545
  604.750    0.118    0.421  120.837  161.878    5.144
  605.000    0.106    0.427  114.468  161.909    4.963
  605.250    0.128    0.421  118.185  161.840    4.797
  605.500    0.127    0.435  118.769  161.872    4.689
  605.750    0.097    0.454  113.215  161.600    4.713
  606.000    0.063    0.424  107.346  161.633    4.781
  606.250    0.073    0.375  108.743  161.557    4.997
  606.500    0.105    0.388  113.211  161.381    5.303
  606.750    0.109    0.384  118.179  161.106    5.637
  607.000    0.126    0.377  113.752  160.828    5.924
  607.250    0.131    0.377  119.224  160.857    6.217
  607.500    0.120    0.385  122.624  160.683    6.342
  607.750    0.126    0.440  107.299  160.715    6.433
  608.000    0.278    0.517   96.045  160.852    6.491
  608.250    0.369    0.611   84.227  160.889    6.549
  608.500    0.229    0.397   70.906  160.919    6.570
  608.750    0.161    0.290   61.909  160.746    6.641
  609.000    0.136    0.273   59.923  160.989    6.713
  609.250    0.136    0.275   59.066  161.124    6.812
  609.500    0.136    0.286   57.396  164.810    6.794
  609.750    0.136    0.288   54.283  164.320    6.791
  610.000    0.149    0.281   53.931  161.118    6.724
  610.250    0.143    0.266   57.080  160.945    6.548
  610.500    0.135    0.258   55.973  165.466    6.400
  610.750    0.128    0.253   53.426  171.137    6.445
  611.000    0.151    0.252   53.946  171.588    6.553
  611.250    0.154    0.254   54.718  170.477    6.709
  611.500    0.142    0.253   58.496  168.836    6.935
  611.750    0.152    0.253   71.982  159.788    7.048
  612.000    0.166    0.267   85.782  163.059    6.954
  612.250    0.168    0.302   83.924  169.147    6.708
  612.500    0.180    0.317   76.804  168.866    6.448
  612.750    0.197    0.306   85.530  165.977    6.197
  613.000    0.172    0.344  123.067  172.906    6.012
  613.250    0.131    0.418  130.793  176.379    6.124
  613.500    0.108    0.439  137.952  167.643    6.189
  613.750    0.090    0.447  145.364  163.710    6.174
  614.000    0.084    0.479  144.947  162.803    6.115
  614.250    0.117    0.498  142.334  162.740    6.044
