~VERSION INFORMATION
 VERS.                 2.0:   CWLS LOG ASCII STANDARD -VERSION 2.0
 WRAP.                  NO:   ONE LINE PER DEPTH STEP
~WELL INFORMATION BLOCK
#MNEM.UNIT           DATA                    DESCRIPTION OF MNEMONIC
#---------    -------------------            -------------------------------
# Generated from Intellog Unique Number	CS_69_70/WELL/842
WELL.         PENNANT-PUMA                   : Well_name    - WELL
LOC .         00/07-24-069-16W4/0            : Location     - LOCATION
UWI .         00/07-24-069-16W4/0            : Uwi          - UNIQUE WELL ID
ENTR.         SP                             : Entered      - ENTERED BY
SRVC.         SCHLUMBERGER                   : Scn          - SERVICE COMPANY
STRT.M        259.080                        : top_depth    - START DEPTH
STOP.M        466.080                        : bot_depth    - STOP DEPTH
STEP.M        0.25                           : increment    - STEP LENGTH
 NULL. -999.2500:NULL Value
~CURVE INFORMATION BLOCK
#MNEM UNIT       ERCB CURVE CODE    CURVE DESCRIPTION
#-----------   ------------------   ----------------------------------
DEPT.M        00 001 00 00         : DEPTH        - DEPTH
GR  .API      00 310 00 00         : GR           - GAMMA RAY
DPHI.V/V      00 890 00 00         : PHID         - DENSITY POROSITY (SANDSTONE)
NPHI.V/V      00 330 00 00         : PHIN         - NEUTRON POROSITY (SANDSTONE)
ILD .OHMM     00 120 00 00         : RESD         - DEEP RESISTIVITY (DIL)
~PARAMETER INFORMATION
#MNEM.UNIT           DATA             DESCRIPTION OF MNEMONIC
#---------         -----------     ------------------------------
GL  .M        552.572              : gl           - GROUND LEVEL ELEVATION
EREF.M        555.65               : kb           - ELEVATION OF DEPTH REFERENCE
DATM.M        552.572              : datum        - DATUM ELEVATION
TDD .M        467.563              : tdd          - TOTAL DEPTH DRILLER
RUN .         ONE                  : Run          - RUN NUMBER
ENG .         BILL                 : Engineer     - RECORDING ENGINEER
WIT .         JIM                  : Witness      - WITNESSED BY
MUD .         GEL                  : Mud_type     - MUD TYPE
MATR.         SANDSTONE            : Logunit      - NEUTRON MATRIX
TMAX.C        22.2222              : BHT          - MAXIMUM RECORDED TEMPERATURE
BHTD.M        467.563              : BHTDEP       - MAXIMUM RECORDED TEMPERATURE
MATR.         1                    : LOGUNIT      - NEUTRON MATRIX
RMT .C        25                   : MDTP         - TEMPERATURE OF MUD
NEUT.         1                    : NEUTRON      - NEUTRON TYPE
RESI.         0                    : RESIST       - RESISTIVITY TYPE
RMC .OHMM     0.25                 : RMC          - RESISTIVITY OF MUD CAKE
RMF .OHMM     0.25                 : RMF          - RESISTIVITY OF MUD FILTRATE
SUFT.C        15                   : SUFT         - SURFACE TEMPERATURE
~A  DEPTH       GR     PHID     PHIN     RESD
  259.080   93.237    0.223    0.568    2.485
  259.330   91.166    0.230    0.591    2.491
  259.580   89.728    0.229    0.613    2.465
  259.830   89.105    0.232    0.632    2.407
  260.080   88.632    0.239    0.623    2.356
  260.330   88.405    0.249    0.646    2.317
  260.580   88.690    0.250    0.641    2.271
  260.830   90.139    0.244    0.631    2.245
  261.080   93.547    0.249    0.664    2.231
  261.330   96.448    0.276    0.694    2.248
  261.580   98.438    0.265    0.725    2.282
  261.830   98.232    0.246    0.737    2.347
  262.080   95.312    0.245    0.616    2.367
  262.330   94.254    0.251    0.601    2.324
  262.580   93.997    0.243    0.656    2.279
  262.830   94.747    0.253    0.681    2.246
  263.080   96.758    0.273    0.685    2.249
  263.330   97.817    0.268    0.668    2.327
  263.580   96.798    0.257    0.668    2.399
  263.830   94.918    0.260    0.667    2.480
  264.080   93.454    0.254    0.645    2.594
  264.330   92.410    0.247    0.646    2.672
  264.580   91.994    0.248    0.628    2.731
  264.830   92.347    0.226    0.628    2.757
  265.080   93.407    0.219    0.623    2.776
  265.330   96.562    0.249    0.603    2.785
  265.580   98.332    0.252    0.631    2.858
  265.830   94.790    0.237    0.649    2.902
  266.080   94.086    0.228    0.660    2.860
  266.330   95.454    0.236    0.669    2.760
  266.580   96.723    0.243    0.647    2.632
  266.830   97.368    0.232    0.623    2.610
  267.080   97.525    0.219    0.608    2.624
  267.330   97.593    0.222    0.644    2.619
  267.580   98.126    0.232    0.650    2.638
  267.830   97.853    0.224    0.635    2.701
  268.080   96.961    0.222    0.619    2.778
  268.330   95.043    0.224    0.610    2.832
  268.580   93.341    0.220    0.601    2.893
  268.830   92.261    0.220    0.609    2.971
  269.080   91.390    0.225    0.616    3.092
  269.330   93.458    0.232    0.606    3.203
  269.580   95.137    0.226    0.592    3.319
  269.830   93.869    0.215    0.562    3.408
  270.080   93.217    0.201    0.546    3.486
  270.330   95.424    0.209    0.563    3.507
  270.580   93.494    0.212    0.603    3.490
  270.830   92.519    0.200    0.584    3.406
  271.080   92.451    0.194    0.570    3.289
  271.330   93.729    0.196    0.584    3.131
  271.580   95.704    0.206    0.601    3.007
  271.830   97.877    0.216    0.590    2.895
  272.080   99.429    0.216    0.603    2.846
  272.330  100.604    0.207    0.619    2.812
  272.580  101.369    0.204    0.622    2.799
  272.830  100.998    0.202    0.609    2.821
  273.080   98.750    0.209    0.598    2.882
  273.330   96.265    0.224    0.602    2.988
  273.580   95.307    0.221    0.614    3.055
  273.830   95.644    0.220    0.613    3.103
  274.080   95.988    0.221    0.603    3.110
  274.330   95.703    0.206    0.598    2.983
  274.580   95.265    0.221    0.575    2.842
  274.830   94.211    0.219    0.548    2.730
  275.080   92.163    0.174    0.527    2.692
  275.330   89.335    0.143    0.543    2.682
  275.580   87.879    0.202    0.606    2.887
  275.830   86.656    0.206    0.541    3.106
  276.080   84.817    0.205    0.477    3.292
  276.330   82.295    0.205    0.435    3.458
  276.580   78.499    0.186    0.428    3.598
  276.830   83.515    0.215    0.446    3.714
  277.080   90.022    0.250    0.455    3.806
  277.330   94.162    0.244    0.453    3.824
  277.580   94.966    0.239    0.453    3.796
  277.830   91.762    0.252    0.492    3.720
  278.080   74.128    0.284    0.528    3.609
  278.330   58.789    0.310    0.492    3.272
  278.580   46.237    0.331    0.430    3.016
  278.830   41.003    0.343    0.418    2.783
  279.080   41.895    0.342    0.420    2.590
  279.330   44.400    0.339    0.427    2.442
  279.580   46.538    0.342    0.445    2.320
  279.830   50.571    0.338    0.464    2.216
  280.080   56.622    0.329    0.456    2.274
  280.330   61.919    0.320    0.449    2.411
  280.580   67.531    0.312    0.439    2.728
  280.830   71.361    0.308    0.430    3.007
  281.080   68.287    0.302    0.439    3.338
  281.330   64.309    0.291    0.448    3.664
  281.580   61.877    0.278    0.429    3.864
  281.830   59.468    0.258    0.412    3.998
  282.080   57.363    0.279    0.411    4.061
  282.330   56.901    0.294    0.432    4.057
  282.580   61.202    0.276    0.412    3.947
  282.830   68.149    0.264    0.393    3.867
  283.080   72.370    0.251    0.391    3.817
  283.330   75.159    0.242    0.406    3.849
  283.580   74.670    0.241    0.412    3.859
  283.830   75.141    0.236    0.412    3.789
  284.080   77.073    0.232    0.438    3.719
  284.330   74.449    0.240    0.520    3.540
  284.580   67.726    0.272    0.549    3.312
  284.830   61.560    0.318    0.538    3.092
  285.080   57.578    0.334    0.478    2.900
  285.330   59.781    0.317    0.443    2.758
  285.580   61.741    0.305    0.450    2.681
  285.830   61.997    0.303    0.455    2.648
  286.080   61.391    0.297    0.460    2.642
  286.330   60.549    0.294    0.469    2.626
  286.580   59.857    0.292    0.467    2.606
  286.830   59.275    0.303    0.478    2.600
  287.080   58.964    0.319    0.474    2.619
  287.330   58.957    0.319    0.452    2.656
  287.580   59.308    0.310    0.482    2.712
  287.830   60.961    0.302    0.506    2.777
  288.080   61.537    0.298    0.513    2.838
  288.330   59.229    0.304    0.493    2.895
  288.580   57.264    0.310    0.483    2.805
  288.830   57.247    0.303    0.473    2.847
  289.080   58.512    0.296    0.479    2.879
  289.330   59.047    0.292    0.490    2.907
  289.580   59.088    0.296    0.499    2.922
  289.830   58.400    0.299    0.492    2.953
  290.080   58.308    0.293    0.494    2.987
  290.330   59.017    0.287    0.478    3.032
  290.580   60.411    0.281    0.461    3.017
  290.830   61.930    0.287    0.494    3.025
  291.080   62.912    0.287    0.517    3.015
  291.330   64.221    0.286    0.511    2.931
  291.580   66.893    0.294    0.510    2.860
  291.830   69.183    0.284    0.521    2.788
  292.080   70.733    0.292    0.513    2.677
  292.330   70.108    0.293    0.513    2.579
  292.580   68.472    0.283    0.497    2.629
  292.830   63.032    0.295    0.473    2.766
  293.080   56.120    0.309    0.460    2.925
  293.330   51.426    0.267    0.447    3.023
  293.580   49.498    0.209    0.384    3.069
  293.830   49.001    0.175    0.340    3.119
  294.080   51.752    0.149    0.357    3.121
  294.330   55.730    0.267    0.409    3.093
  294.580   58.585    0.291    0.468    3.095
  294.830   60.371    0.277    0.451    3.183
  295.080   58.553    0.247    0.416    3.488
  295.330   62.468    0.213    0.396    3.739
  295.580   69.950    0.183    0.448    3.836
  295.830   73.906    0.253    0.514    3.931
  296.080   76.861    0.269    0.529    3.994
  296.330   80.895    0.263    0.543    4.026
  296.580   84.841    0.243    0.538    4.004
  296.830   88.135    0.222    0.529    3.939
  297.080   92.132    0.201    0.538    3.834
  297.330   96.082    0.225    0.548    3.705
  297.580  100.459    0.227    0.552    3.559
  297.830  102.847    0.208    0.564    3.391
  298.080  103.153    0.190    0.578    3.501
  298.330  101.859    0.187    0.595    3.640
  298.580  101.673    0.192    0.566    3.888
  298.830  102.758    0.177    0.540    4.063
  299.080  105.089    0.178    0.524    4.247
  299.330  108.006    0.194    0.531    4.386
  299.580  105.576    0.219    0.510    4.502
  299.830   99.390    0.226    0.486    4.603
  300.080   95.274    0.233    0.469    4.723
  300.330   97.820    0.253    0.457    4.821
  300.580  101.295    0.242    0.432    4.936
  300.830  101.330    0.236    0.440    5.078
  301.080  100.077    0.230    0.443    5.216
  301.330   99.199    0.221    0.431    5.292
  301.580   98.246    0.225    0.435    5.222
  301.830   94.186    0.236    0.441    5.020
  302.080   91.320    0.225    0.466    4.791
  302.330   89.702    0.236    0.493    4.572
