~VERSION INFORMATION
 VERS.                 2.0:   CWLS LOG ASCII STANDARD -VERSION 2.0
 WRAP.                  NO:   ONE LINE PER DEPTH STEP
~WELL INFORMATION BLOCK
#MNEM.UNIT           DATA                    DESCRIPTION OF MNEMONIC
#---------    -------------------            -------------------------------
# Generated from Intellog Unique Number	CS_69_70/WELL/804
WELL.         HUSKEY OIL OPERATIONS          : Well_name    - WELL
LOC .         00/06-22-069-05W4/0            : Location     - LOCATION
UWI .         00/06-22-069-05W4/0            : Uwi          - UNIQUE WELL ID
ENTR.         SP                             : Entered      - ENTERED BY
SRVC.         SCHLUMBERGER                   : Scn          - SERVICE COMPANY
STRT.M        300                            : top_depth    - START DEPTH
STOP.M        580                            : bot_depth    - STOP DEPTH
STEP.M        0.25                           : increment    - STEP LENGTH
 NULL. -999.2500:NULL Value
~CURVE INFORMATION BLOCK
#MNEM UNIT       ERCB CURVE CODE    CURVE DESCRIPTION
#-----------   ------------------   ----------------------------------
DEPT.M        00 001 00 00         : DEPTH        - DEPTH
ILD .OHMM     00 120 00 00         : RESD         - DEEP RESISTIVITY (DIL)
DPHI.V/V      00 890 00 00         : PHID         - DENSITY POROSITY (LIMESTONE)
NPHI.V/V      00 330 00 00         : PHIN         - NEUTRON POROSITY (LIMESTONE)
GR  .API      00 310 00 00         : GR           - GAMMA RAY
~PARAMETER INFORMATION
#MNEM.UNIT           DATA             DESCRIPTION OF MNEMONIC
#---------         -----------     ------------------------------
GL  .M        670.1                : gl           - GROUND LEVEL ELEVATION
EREF.M        673.8                : kb           - ELEVATION OF DEPTH REFERENCE
DATM.M        670.1                : datum        - DATUM ELEVATION
TDD .M        585                  : tdd          - TOTAL DEPTH DRILLER
RUN .         ONE                  : Run          - RUN NUMBER
ENG .         BILL                 : Engineer     - RECORDING ENGINEER
WIT .         JIM                  : Witness      - WITNESSED BY
MUD .         GEL                  : Mud_type     - MUD TYPE
MATR.         LIMESTONE            : Logunit      - NEUTRON MATRIX
TMAX.C        21                   : BHT          - MAXIMUM RECORDED TEMPERATURE
BHTD.M        585                  : BHTDEP       - MAXIMUM RECORDED TEMPERATURE
MATR.         1                    : LOGUNIT      - NEUTRON MATRIX
RMT .C        25                   : MDTP         - TEMPERATURE OF MUD
NEUT.         1                    : NEUTRON      - NEUTRON TYPE
RESI.         0                    : RESIST       - RESISTIVITY TYPE
RMC .OHMM     0.25                 : RMC          - RESISTIVITY OF MUD CAKE
RMF .OHMM     0.25                 : RMF          - RESISTIVITY OF MUD FILTRATE
SUFT.C        15                   : SUFT         - SURFACE TEMPERATURE
~A  DEPTH     RESD     PHID     PHIN       GR
# ...
  387.000    7.884    0.325    0.418   43.944
  387.250    7.901    0.336    0.419   44.915
  387.500    7.902    0.357    0.424   40.684
  387.750    7.903    0.365    0.418   39.599
  388.000    7.934    0.357    0.416   40.025
  388.250    7.951    0.353    0.418   40.210
  388.500    7.952    0.355    0.421   40.093
  388.750    7.939    0.357    0.419   39.793
  389.000    7.910    0.357    0.415   39.010
  389.250    7.868    0.360    0.411   39.195
  389.500    7.825    0.364    0.403   41.436
  389.750    7.782    0.368    0.394   43.798
  390.000    7.740    0.369    0.396   44.164
  390.250    7.727    0.356    0.406   42.656
  390.500    7.772    0.354    0.411   42.115
  390.750    7.832    0.357    0.408   42.057
  391.000    7.863    0.357    0.407   41.939
  391.250    7.879    0.354    0.414   41.821
  391.500    7.895    0.351    0.421   41.825
  391.750    7.926    0.349    0.420   42.916
  392.000    7.928    0.347    0.416   44.976
  392.250    7.959    0.344    0.411   47.459
  392.500    7.960    0.341    0.415   49.821
  392.750    7.977    0.346    0.427   51.155
  393.000    7.963    0.353    0.423   50.675
  393.250    7.979    0.355    0.421   51.827
  393.500    7.966    0.354    0.431   54.855
  393.750    7.983    0.353    0.448   57.459
  394.000    7.984    0.352    0.452   59.155
  394.250    7.986    0.352    0.446   60.066
  394.500    7.987    0.353    0.457   62.972
  394.750    7.943    0.353    0.456   65.637
  395.000    7.768    0.352    0.449   65.821
  395.250    7.511    0.347    0.450   66.792
  395.500    6.892    0.330    0.451   69.578
  395.750    6.205    0.311    0.440   73.634
  396.000    5.834    0.295    0.427   75.996
  396.250    5.802    0.272    0.464   78.358
  396.500    5.858    0.299    0.519   78.421
  396.750    5.881    0.311    0.502   72.558
  397.000    5.927    0.313    0.485   69.658
  397.250    5.995    0.304    0.462   67.967
  397.500    6.086    0.316    0.446   66.156
  397.750    6.226    0.331    0.451   63.740
  398.000    6.502    0.343    0.459   59.812
  398.250    6.841    0.351    0.444   57.214
  398.500    7.266    0.355    0.436   59.516
  398.750    7.516    0.358    0.432   60.910
  399.000    7.646    0.362    0.436   62.667
  399.250    7.705    0.372    0.437   62.912
  399.500    7.750    0.372    0.438   64.428
  399.750    7.737    0.357    0.444   66.124
  400.000    7.709    0.348    0.447   67.277
  400.250    7.653    0.345    0.455   66.676
  400.500    7.611    0.343    0.457   65.711
  400.750    7.613    0.343    0.451   65.533
  401.000    7.657    0.344    0.447   65.959
  401.250    7.702    0.346    0.446   66.991
  401.500    7.746    0.347    0.448   66.934
  401.750    7.763    0.349    0.449   66.150
  402.000    7.793    0.350    0.447   68.090
  402.250    7.765    0.349    0.445   69.242
  402.500    7.766    0.350    0.445   67.974
  402.750    7.724    0.360    0.459   68.341
  403.000    6.968    0.348    0.470   71.308
  403.250    4.935    0.337    0.465   74.395
  403.500    3.725    0.326    0.452   78.693
  403.750    3.025    0.319    0.483   83.475
  404.000    2.684    0.314    0.525   87.107
  404.250    2.610    0.310    0.567   89.650
  404.500    2.910    0.307    0.579   89.291
  404.750    3.221    0.304    0.547   86.270
  405.000    3.750    0.313    0.518   74.116
  405.250    4.943    0.327    0.493   67.042
  405.500    5.409    0.338    0.463   70.070
  405.750    5.853    0.335    0.444   71.887
  406.000    6.334    0.325    0.430   70.076
  406.250    6.529    0.317    0.430   69.112
  406.500    6.616    0.312    0.443   70.264
  406.750    6.605    0.308    0.457   72.142
  407.000    6.581    0.304    0.460   73.657
  407.250    6.583    0.299    0.445   74.749
  407.500    6.572    0.295    0.446   74.934
  407.750    6.560    0.292    0.463   75.058
  408.000    6.537    0.305    0.458   75.243
  408.250    6.514    0.305    0.441   74.762
  408.500    6.515    0.295    0.439   75.733
  408.750    6.516    0.279    0.439   77.249
  409.000    6.493    0.267    0.449   76.768
  409.250    6.457    0.280    0.456   78.586
  409.500    6.244    0.268    0.441   83.186
  409.750    6.027    0.244    0.433   85.850
  410.000    5.795    0.216    0.441   87.547
  410.250    5.667    0.221    0.452   87.188
  410.500    5.552    0.235    0.468   85.618
  410.750    5.399    0.247    0.470   84.049
  411.000    5.350    0.249    0.480   83.931
  411.250    5.472    0.243    0.490   86.415
  411.500    5.567    0.234    0.480   88.656
  411.750    5.557    0.214    0.458   90.715
  412.000    5.465    0.195    0.445   90.718
  412.250    4.704    0.229    0.461   87.395
  412.500    4.212    0.262    0.483   86.975
  412.750    3.793    0.269    0.475   87.099
  413.000    3.737    0.253    0.468   87.404
  413.250    4.021    0.239    0.471   88.315
  413.500    4.544    0.226    0.476   90.495
  413.750    4.908    0.220    0.473   92.071
  414.000    5.272    0.218    0.478   90.502
  414.250    5.382    0.219    0.491   88.146
  414.500    5.383    0.231    0.497   86.214
  414.750    5.354    0.235    0.492   87.064
  415.000    5.236    0.226    0.476   88.156
  415.250    4.978    0.240    0.490   91.607
  415.500    4.441    0.254    0.495   94.937
  415.750    3.946    0.250    0.483   96.936
  416.000    3.487    0.236    0.506   98.814
  416.250    3.134    0.222    0.529  101.115
  416.500    3.008    0.223    0.547  103.720
  416.750    3.135    0.225    0.551  105.235
  417.000    3.318    0.222    0.529  105.420
  417.250    3.517    0.223    0.488  101.794
  417.500    3.714    0.225    0.466   99.862
  417.750    3.864    0.225    0.456   98.716
  418.000    3.960    0.235    0.459   97.751
  418.250    3.983    0.243    0.483   96.121
  418.500    3.917    0.236    0.500   95.822
  418.750    3.838    0.232    0.489   98.668
  419.000    3.739    0.234    0.483  100.849
  419.250    3.616    0.233    0.497   99.885
  419.500    3.529    0.245    0.508   99.041
  419.750    3.471    0.256    0.532   97.775
  420.000    3.478    0.267    0.558   96.628
  420.250    3.571    0.276    0.589   92.821
  420.500    3.764    0.280    0.576   90.102
  420.750    3.953    0.284    0.536   87.323
  421.000    4.128    0.281    0.477   84.181
  421.250    4.327    0.288    0.447   83.458
  421.500    4.536    0.287    0.424   84.308
  421.750    4.728    0.265    0.445   86.670
  422.000    4.827    0.246    0.461   88.125
  422.250    4.837    0.235    0.473   83.290
  422.500    4.884    0.284    0.479   78.273
  422.750    5.406    0.300    0.482   73.679
  423.000    5.994    0.297    0.486   73.138
  423.250    6.647    0.092    0.331   73.141
  423.500    7.113    0.049    0.289   70.906
  423.750    7.611    0.031    0.269   68.551
  424.000    7.569    0.056    0.266   68.070
  424.250    6.323    0.117    0.374   67.468
  424.500    5.726    0.205    0.406   66.504
  424.750    5.413    0.282    0.424   65.177
  425.000    5.147    0.327    0.431   64.514
  425.250    5.062    0.338    0.436   67.119
  425.500    5.178    0.331    0.440   69.843
  425.750    5.267    0.325    0.444   72.629
  426.000    5.338    0.334    0.447   73.600
  426.250    5.430    0.340    0.454   70.882
  426.500    5.575    0.337    0.460   69.796
  426.750    5.545    0.315    0.470   74.093
  427.000    5.736    0.288    0.479   82.625
  427.250    5.737    0.262    0.469   85.894
  427.500    5.760    0.249    0.458   85.898
  427.750    5.728    0.244    0.454   84.268
  428.000    5.508    0.259    0.455   79.372
  428.250    5.316    0.275    0.459   76.774
  428.500    5.189    0.288    0.485   76.414
  428.750    5.161    0.300    0.498   73.393
  429.000    5.250    0.314    0.481   70.615
  429.250    5.380    0.328    0.461   69.408
  429.500    5.567    0.316    0.445   70.621
  429.750    5.630    0.303    0.435   70.684
  430.000    5.716    0.297    0.427   69.781
  430.250    5.654    0.292    0.422   72.748
