~VERSION INFORMATION
 VERS.                 2.0:   CWLS LOG ASCII STANDARD -VERSION 2.0
 WRAP.                  NO:   ONE LINE PER DEPTH STEP
~WELL INFORMATION BLOCK
#MNEM.UNIT           DATA                    DESCRIPTION OF MNEMONIC
#---------    -------------------            -------------------------------
# Generated from Intellog Unique Number	CX_WELLS/WELL/4007
WELL.         PRECAM THORNBURY               : Well_name    - WELL
LOC .         00/04-30-078-13W4/0            : Location     - LOCATION
UWI .         00/04-30-078-13W4/0            : Uwi          - UNIQUE WELL ID
ENTR.         T                              : Entered      - ENTERED BY
SRVC.         SCHLUMBERGER                   : Scn          - SERVICE COMPANY
DATE.         03/06/92                       : Date         - LOG DATE
STRT.M        275                            : top_depth    - START DEPTH
STOP.M        505                            : bot_depth    - STOP DEPTH
STEP.M        0.25                           : increment    - STEP LENGTH
 NULL. -999.2500:NULL Value
~CURVE INFORMATION BLOCK
#MNEM UNIT       ERCB CURVE CODE    CURVE DESCRIPTION
#-----------   ------------------   ----------------------------------
DEPT.M        00 001 00 00         : DEPTH        - DEPTH
GR  .API      00 310 00 00         : GR           - GAMMA RAY
NPHI.V/V      00 330 00 00         : PHIN         - NEUTRON POROSITY (SANDSTONE)
DPHI.V/V      00 890 00 00         : PHID         - DENSITY POROSITY (SANDSTONE)
ILD .OHMM     00 120 00 00         : RESD         - DEEP RESISTIVITY (DIL)
~PARAMETER INFORMATION
#MNEM.UNIT           DATA             DESCRIPTION OF MNEMONIC
#---------         -----------     ------------------------------
GL  .M        675                  : gl           - GROUND LEVEL ELEVATION
EREF.M        679                  : kb           - ELEVATION OF DEPTH REFERENCE
DATM.M        679                  : datum        - DATUM ELEVATION
TDD .M        508                  : tdd          - TOTAL DEPTH DRILLER
RUN .         ONE                  : Run          - RUN NUMBER
ENG .         JO                   : Engineer     - RECORDING ENGINEER
WIT .         TIM                  : Witness      - WITNESSED BY
MUD .         GEL                  : Mud_type     - MUD TYPE
MATR.         SANDSTONE            : Logunit      - NEUTRON MATRIX
TMAX.C        19                   : BHT          - MAXIMUM RECORDED TEMPERATURE
BHTD.M        508                  : BHTDEP       - MAXIMUM RECORDED TEMPERATURE
RMT .C        19                   : MDTP         - TEMPERATURE OF MUD
MUDD.KG/M     1170                 : MWT          - MUD DENSITY
NEUT.         1                    : NEUTRON      - NEUTRON TYPE
RESI.         7.5                  : RESIST       - RESISTIVITY TYPE
RM  .OHMM     7.78                 : RM           - RESISTIVITY OF MUD
RMC .OHMM     7.78                 : RMC          - RESISTIVITY OF MUD CAKE
RMF .OHMM     7.78                 : RMF          - RESISTIVITY OF MUD FILTRATE
SUFT.C        4                    : SUFT         - SURFACE TEMPERATURE
~A  DEPTH       GR     PHIN     PHID     RESD
# ...
  318.500   51.971    0.422    0.361   36.190
  318.750   48.947    0.426    0.355   37.626
  319.000   44.686    0.429    0.355   39.203
  319.250   42.914    0.430    0.370   41.618
  319.500   42.996    0.424    0.378   44.152
  319.750   43.045    0.427    0.383   47.726
  320.000   43.127    0.436    0.372   53.522
  320.250   43.160    0.443    0.357   67.265
  320.500   42.608    0.432    0.353   79.856
  320.750   41.437    0.423    0.358   84.777
  321.000   41.552    0.414    0.362   83.439
  321.250   41.585    0.413    0.365   80.654
  321.500   42.903    0.415    0.363   77.906
  321.750   43.571    0.420    0.362   75.252
  322.000   43.653    0.423    0.362   74.012
  322.250   42.499    0.426    0.367   81.517
  322.500   42.548    0.429    0.369  128.298
  322.750   42.597    0.435    0.367  141.509
  323.000   42.680    0.444    0.364  136.591
  323.250   42.745    0.450    0.362  131.938
  323.500   42.828    0.453    0.362  127.443
  323.750   42.291    0.452    0.363  127.715
  324.000   42.324    0.449    0.364  130.594
  324.250   41.772    0.447    0.364  143.940
  324.500   41.220    0.443    0.364  155.702
  324.750   40.684    0.443    0.364  158.874
  325.000   40.115    0.441    0.364  159.439
  325.250   39.595    0.432    0.367  159.778
  325.500   39.645    0.430    0.368  148.972
  325.750   39.743    0.437    0.372  143.693
  326.000   39.776    0.442    0.374  133.689
  326.250   40.493    0.443    0.377  121.985
  326.500   40.526    0.445    0.373  109.315
  326.750   40.608    0.452    0.368   79.761
  327.000   40.673    0.456    0.364   72.779
  327.250   41.374    0.452    0.361   61.609
  327.500   43.310    0.447    0.361   51.221
  327.750   44.579    0.431    0.362   43.390
  328.000   47.134    0.427    0.361   37.453
  328.250   49.054    0.423    0.353   33.587
  328.500   49.721    0.419    0.349   32.419
  328.750   50.405    0.416    0.338   30.755
  329.000   49.251    0.411    0.317   29.729
  329.250   48.080    0.409    0.286   29.218
  329.500   47.544    0.409    0.280   28.242
  329.750   46.975    0.404    0.272   27.261
  330.000   46.456    0.401    0.256   26.370
  330.250   45.887    0.377    0.238   25.916
  330.500   43.464    0.388    0.298   25.526
  330.750   40.440    0.403    0.336   25.105
  331.000   40.522    0.416    0.371   24.267
  331.250   40.587    0.425    0.387   23.867
  331.500   40.035    0.428    0.386   23.507
  331.750   39.483    0.427    0.383   23.119
  332.000   39.548    0.426    0.382   22.363
  332.250   40.232    0.423    0.383   22.411
  332.500   40.298    0.424    0.383   21.678
  332.750   37.891    0.424    0.381   21.336
  333.000   35.501    0.422    0.377   20.984
  333.250   34.932    0.414    0.376   20.639
  333.500   33.795    0.414    0.380   19.964
  333.750   33.828    0.420    0.381   19.635
  334.000   33.910    0.427    0.377   19.311
  334.250   33.975    0.427    0.374   18.666
  334.500   35.294    0.416    0.373   18.372
  334.750   35.961    0.408    0.374   18.069
  335.000   37.279    0.412    0.370   18.146
  335.250   37.345    0.418    0.369   18.172
  335.500   37.411    0.424    0.367   18.224
  335.750   37.477    0.422    0.367   18.288
  336.000   36.924    0.417    0.369   18.366
  336.250   36.973    0.409    0.369   18.392
  336.500   37.039    0.406    0.369   18.445
  336.750   37.121    0.410    0.368   18.497
  337.000   36.569    0.412    0.368   18.563
  337.250   36.635    0.415    0.368   18.270
  337.500   36.099    0.419    0.367   18.309
  337.750   36.164    0.420    0.363   18.033
  338.000   36.214    0.424    0.361   18.071
  338.250   35.678    0.425    0.359   17.798
  338.500   35.109    0.425    0.359   17.542
  338.750   33.353    0.419    0.358   17.567
  339.000   32.768    0.418    0.354   17.302
  339.250   30.979    0.416    0.350   17.351
  339.500   30.460    0.419    0.353   17.090
  339.750   29.891    0.425    0.357   17.114
  340.000   29.322    0.431    0.361   16.856
  340.250   29.421    0.427    0.362   16.892
  340.500   30.739    0.415    0.362   16.952
  340.750   31.407    0.412    0.362   16.672
  341.000   31.456    0.411    0.362   16.720
  341.250   31.538    0.411    0.361   16.779
  341.500   31.587    0.417    0.362   16.827
  341.750   32.288    0.419    0.362   16.875
  342.000   32.955    0.425    0.362   16.923
  342.250   34.290    0.427    0.363   16.983
  342.500   34.990    0.428    0.363   16.715
  342.750   35.039    0.428    0.364   16.750
  343.000   35.088    0.428    0.364   16.498
  343.250   34.569    0.428    0.363   16.533
  343.500   33.382    0.429    0.363   16.272
  343.750   32.813    0.433    0.360   16.330
  344.000   32.277    0.435    0.359   16.388
  344.250   33.596    0.437    0.360   16.434
  344.500   34.263    0.437    0.361   16.175
  344.750   35.598    0.433    0.361   16.221
  345.000   36.265    0.422    0.362   15.965
  345.250   36.314    0.413    0.366   15.702
  345.500   36.397    0.409    0.370   15.465
  345.750   36.446    0.408    0.364   15.498
  346.000   37.146    0.407    0.364   15.264
  346.250   37.863    0.409    0.366   15.307
  346.500   38.514    0.415    0.367   15.066
  346.750   39.197    0.423    0.367   15.109
  347.000   39.881    0.428    0.365   15.152
  347.250   40.565    0.433    0.362   15.205
  347.500   40.664    0.435    0.360   15.249
  347.750   40.078    0.440    0.359   15.292
  348.000   40.160    0.441    0.357   15.325
  348.250   38.990    0.442    0.356   15.083
  348.500   37.202    0.442    0.355   15.136
  348.750   37.300    0.437    0.355   14.887
  349.000   37.951    0.431    0.352   14.662
  349.250   39.871    0.428    0.352   14.725
  349.500   41.791    0.429    0.352   14.756
  349.750   43.093    0.430    0.351   14.534
  350.000   43.175    0.430    0.350   14.554
  350.250   42.037    0.419    0.349   14.882
  350.500   41.452    0.419    0.345   15.196
  350.750   41.518    0.425    0.346   15.822
  351.000   41.600    0.429    0.347   17.115
  351.250   42.284    0.426    0.344   19.221
  351.500   42.968    0.414    0.342   21.155
  351.750   43.651    0.393    0.290   25.168
  352.000   43.099    0.283    0.201   26.662
  352.250   43.148    0.270    0.140   27.760
  352.500   44.467    0.271    0.093   27.341
  352.750   45.801    0.278    0.068   24.536
  353.000   46.452    0.343    0.132   23.650
  353.250   46.535    0.372    0.191   22.003
  353.500   46.617    0.396    0.241   19.732
  353.750   46.650    0.403    0.336   18.358
  354.000   47.366    0.418    0.359   17.080
  354.250   48.033    0.446    0.366   16.498
  354.500   48.734    0.457    0.365   15.925
  354.750   49.401    0.448    0.362   15.674
  355.000   50.101    0.436    0.358   15.426
  355.250   48.947    0.432    0.352   15.183
  355.500   48.362    0.439    0.351   15.237
  355.750   47.810    0.446    0.349   15.269
  356.000   49.128    0.451    0.350   15.039
  356.250   51.048    0.453    0.351   15.092
  356.500   52.350    0.455    0.349   14.854
  356.750   53.050    0.453    0.346   14.886
  357.000   53.750    0.449    0.342   14.939
  357.250   54.401    0.449    0.340   14.692
  357.500   55.085    0.449    0.337   14.755
  357.750   53.915    0.441    0.336   14.776
  358.000   52.744    0.430    0.332   14.829
  358.250   52.208    0.428    0.330   14.871
  358.500   51.656    0.429    0.329   15.217
  358.750   51.103    0.427    0.329   15.239
  359.000   50.600    0.427    0.329   15.293
  359.250   50.650    0.429    0.329   15.325
  359.500   51.301    0.433    0.327   15.391
  359.750   52.619    0.435    0.326   15.412
  360.000   55.157    0.440    0.326   15.180
  360.250   59.566    0.436    0.323   14.940
  360.500   60.250    0.429    0.319   14.694
  360.750   58.445    0.418    0.317   13.691
  361.000   61.016    0.410    0.312   12.969
  361.250   62.301    0.409    0.281   12.286
  361.500   65.457    0.411    0.238   11.218
  361.750   68.613    0.419    0.271   10.437
