~VERSION INFORMATION
 VERS.                 2.0:   CWLS LOG ASCII STANDARD -VERSION 2.0
 WRAP.                  NO:   ONE LINE PER DEPTH STEP
~WELL INFORMATION BLOCK
#MNEM.UNIT           DATA                    DESCRIPTION OF MNEMONIC
#---------    -------------------            -------------------------------
# Generated from Intellog Unique Number	CN_94_101/WELL/2864
WELL.         NORTHSTAR ENERGY CORP.         : Well_name    - WELL
LOC .         00/03-12-095-16W4/0            : Location     - LOCATION
UWI .         00/03-12-095-16W400            : Uwi          - UNIQUE WELL ID
ENTR.         JOETTE                         : Entered      - ENTERED BY
SRVC.         SCHLUMBERGER                   : Scn          - SERVICE COMPANY
DATE.         07/09/92                       : Date         - LOG DATE
STRT.M        170                            : top_depth    - START DEPTH
STOP.M        305                            : bot_depth    - STOP DEPTH
STEP.M        0.25                           : increment    - STEP LENGTH
 NULL. -999.2500:NULL Value
~CURVE INFORMATION BLOCK
#MNEM UNIT       ERCB CURVE CODE    CURVE DESCRIPTION
#-----------   ------------------   ----------------------------------
DEPT.M        00 001 00 00         : DEPTH        - DEPTH
CALI.MM       00 280 01 00         : CAL          - CALIPER
GR  .API      00 310 00 00         : GR           - GAMMA RAY
NPHI.V/V      00 330 00 00         : PHIN         - NEUTRON POROSITY (SANDSTONE)
DPHI.V/V      00 890 00 00         : PHID         - DENSITY POROSITY (SANDSTONE)
ILD .OHMM     00 120 00 00         : RESD         - DEEP RESISTIVITY (DIL)
~PARAMETER INFORMATION
#MNEM.UNIT           DATA             DESCRIPTION OF MNEMONIC
#---------         -----------     ------------------------------
GL  .M        559.3                : gl           - GROUND LEVEL ELEVATION
EREF.M        562.9                : kb           - ELEVATION OF DEPTH REFERENCE
DATM.M        562.9                : datum        - DATUM ELEVATION
TDD .M        320                  : tdd          - TOTAL DEPTH DRILLER
RUN .         ONE                  : Run          - RUN NUMBER
ENG .         JO                   : Engineer     - RECORDING ENGINEER
WIT .         TIM                  : Witness      - WITNESSED BY
MUD .         GEL                  : Mud_type     - MUD TYPE
MATR.         SANDSTONE            : Logunit      - NEUTRON MATRIX
TMAX.C        21                   : BHT          - MAXIMUM RECORDED TEMPERATURE
BHTD.M        320                  : BHTDEP       - MAXIMUM RECORDED TEMPERATURE
RMT .C        15                   : MDTP         - TEMPERATURE OF MUD
MUDD.KG/M     1030                 : MWT          - MUD DENSITY
NEUT.         1                    : NEUTRON      - NEUTRON TYPE
RESI.         0                    : RESIST       - RESISTIVITY TYPE
RM  .OHMM     0.33                 : RM           - RESISTIVITY OF MUD
RMC .OHMM     0.58                 : RMC          - RESISTIVITY OF MUD CAKE
RMF .OHMM     0.32                 : RMF          - RESISTIVITY OF MUD FILTRATE
SUFT.C        4                    : SUFT         - SURFACE TEMPERATURE
~A  DEPTH      CAL       GR     PHIN     PHID     RESD
  170.000  165.913  102.239    0.524    0.299    3.907
  170.250  164.036  102.281    0.498    0.290    3.570
  170.500  164.064   99.970    0.499    0.293    3.383
  170.750  164.119   98.251    0.529    0.294    3.325
  171.000  167.109  101.789    0.531    0.278    3.325
  171.250  169.098  101.822    0.535    0.273    3.388
  171.500  173.061   97.183    0.561    0.284    3.390
  171.750  175.078   93.711    0.596    0.298    3.454
  172.000  175.105   96.674    0.598    0.305    3.519
  172.250  175.161   99.043    0.572    0.311    3.651
  172.500  175.217   99.661    0.563    0.304    3.719
  172.750  175.286   98.526    0.532    0.281    3.721
  173.000  175.328   96.215    0.525    0.268    3.656
  173.250  175.383   91.575    0.535    0.273    3.592
  173.500  174.479   87.520    0.579    0.281    3.594
  173.750  174.521   84.049    0.591    0.281    3.797
  174.000  174.618   85.843    0.604    0.268    4.159
  174.250  174.660   87.612    0.536    0.270    4.315
  174.500  174.688   95.246    0.538    0.281    4.317
  174.750  175.758  102.289    0.532    0.289    4.167
  175.000  176.760  100.570    0.508    0.279    4.167
  175.250  175.828   97.683    0.487    0.283    4.095
  175.500  173.937  100.052    0.513    0.295    4.024
  175.750  169.139  101.254    0.531    0.306    3.953
  176.000  170.168   91.358    0.508    0.306    4.252
  176.250  167.289   86.126    0.500    0.293    4.918
  176.500  162.491   78.567    0.482    0.232    5.793
  176.750  165.481   71.591    0.454    0.202    6.823
  177.000  165.509   66.376    0.456    0.201    7.339
  177.250  164.591   67.577    0.458    0.217    8.040
  177.500  165.620   72.275    0.450    0.237    8.494
  177.750  169.583   75.813    0.445    0.242    8.974
  178.000  169.639   77.014    0.457    0.244    8.977
  178.250  165.800   74.127    0.461    0.255    8.981
  178.500  162.936   71.240    0.451    0.268    8.512
  178.750  163.965   74.778    0.447    0.280    8.212
  179.000  164.980   81.236    0.453    0.257    7.642
  179.250  167.010   85.942    0.465    0.242    7.241
  179.500  167.038   90.648    0.481    0.253    6.739
  179.750  166.120   90.682    0.478    0.270    6.503
  180.000  163.255   84.290    0.475    0.282    6.388
  180.250  159.417   76.146    0.472    0.291    6.627
  180.500  160.460   76.196    0.461    0.277    7.129
  180.750  163.436   75.629    0.449    0.260    7.953
  181.000  165.424   70.414    0.442    0.248    8.400
  181.250  165.494   66.934    0.437    0.289    9.717
  181.500  165.549   62.879    0.430    0.304   10.080
  181.750  165.591   60.576    0.426    0.255   10.457
  182.000  166.620   65.282    0.436    0.235    9.910
  182.250  166.676   70.572    0.478    0.242    9.055
  182.500  169.652   78.199    0.518    0.260    7.158
  182.750  172.628   85.241    0.476    0.267    5.975
  183.000  172.683   92.867    0.460    0.271    5.266
  183.250  169.818   95.237    0.458    0.277    4.726
  183.500  166.954   91.182    0.465    0.275    4.643
  183.750  167.983   87.126    0.480    0.272    4.816
  184.000  171.946   88.920    0.486    0.276    5.181
  184.250  172.975   91.874    0.472    0.273    5.675
  184.500  172.043   94.820    0.461    0.261    5.996
  184.750  171.139   97.198    0.450    0.240    6.109
  185.000  171.209   98.399    0.454    0.226    6.112
  185.250  172.224   97.264    0.462    0.232    6.116
  185.500  172.293   93.793    0.469    0.240    6.118
  185.750  171.348   90.898    0.473    0.254    6.234
  186.000  169.456   92.099    0.469    0.269    6.350
  186.250  166.591   95.637    0.475    0.280    6.590
  186.500  166.647   96.847    0.483    0.282    6.591
  186.750  169.623   89.863    0.468    0.173    6.715
  187.000  168.705   75.294    0.439    0.128    6.720
  187.250  168.761   67.735    0.467    0.196    6.484
  187.500  172.710   72.441    0.489    0.229    6.033
  187.750  174.727   88.244    0.507    0.255    5.414
  188.000  174.782   97.623    0.522    0.272    4.686
  188.250  172.877  100.585    0.501    0.274    4.522
  188.500  170.012  100.610    0.493    0.276    4.524
  188.750  168.121  100.643    0.482    0.266    4.779
  189.000  167.189   99.508    0.486    0.266    5.141
  189.250  165.311   94.869    0.486    0.273    5.735
  189.500  165.353   90.230    0.480    0.276    6.282
  189.750  168.329   89.095    0.482    0.254    6.758
  190.000  169.372   89.712    0.480    0.236    6.886
  190.250  166.507   85.665    0.472    0.233    6.888
  190.500  165.589   84.531    0.461    0.225    6.646
  190.750  169.539   86.892    0.468    0.228    6.531
  191.000  171.541   89.846    0.505    0.235    6.533
  191.250  171.583   89.879    0.510    0.244    6.656
  191.500  168.718   86.408    0.482    0.278    6.782
  191.750  165.853   81.184    0.461    0.295    7.165
  192.000  162.015   71.280    0.447    0.304    7.569
  192.250  163.044   71.314    0.444    0.270    7.996
  192.500  168.940   76.612    0.443    0.258    7.999
  192.750  171.916   81.902    0.452    0.254    7.718
  193.000  171.972   84.856    0.469    0.268    7.181
  193.250  170.081   84.889    0.489    0.277    6.329
  193.500  169.163   80.834    0.463    0.292    5.890
  193.750  168.245   72.098    0.469    0.312    5.787
  194.000  166.353   58.113    0.484    0.282    6.113
  194.250  160.582   54.066    0.489    0.256    6.819
  194.500  158.677   55.259    0.463    0.286    7.887
  194.750  161.667   69.311    0.451    0.312    8.639
  195.000  161.722   75.769    0.445    0.319    8.963
  195.250  158.871   85.740    0.454    0.297    8.493
  195.500  157.926   86.366    0.459    0.285    7.761
  195.750  158.969   85.823    0.453    0.285    7.222
  196.000  158.037   85.264    0.442    0.290    6.843
  196.250  157.119   85.298    0.436    0.293    6.603
  196.500  157.188   85.915    0.441    0.296    6.489
  196.750  162.111   87.701    0.453    0.295    6.491
  197.000  165.073   86.574    0.471    0.293    6.264
  197.250  166.116   84.855    0.504    0.291    5.725
  197.500  166.158   84.888    0.524    0.290    5.624
  197.750  164.294   85.489    0.498    0.287    5.731
  198.000  164.322   86.691    0.474    0.273    5.944
  198.250  166.339   84.980    0.463    0.267    6.281
  198.500  171.275   80.324    0.465    0.275    6.398
  198.750  174.224   82.118    0.478    0.287    6.402
  199.000  177.227   85.656    0.489    0.303    6.404
  199.250  175.308   87.458    0.507    0.320    6.293
  199.500  167.590   86.307    0.502    0.328    6.412
  199.750  162.778   85.172    0.471    0.311    6.896
  200.000  161.860   86.374    0.446    0.286    7.419
  200.250  163.849   88.743    0.444    0.284    7.560
  200.500  168.772   93.449    0.451    0.279    7.426
  200.750  172.735   94.067    0.471    0.259    6.911
  201.000  176.685   92.348    0.491    0.257    6.315
  201.250  175.767   98.806    0.507    0.263    5.770
  201.500  169.995  104.680    0.474    0.257    5.370
  201.750  165.184  102.961    0.446    0.223    5.181
  202.000  164.238   87.808    0.434    0.131    5.184
  202.250  169.189   87.842    0.418    0.170    5.577
  202.500  173.110   94.300    0.443    0.196    5.785
  202.750  178.033  103.687    0.474    0.212    5.789
  203.000  177.129  105.464    0.518    0.209    5.688
  203.250  172.331  110.170    0.497    0.212    5.293
  203.500  170.426  106.123    0.467    0.220    5.016
  203.750  168.549  105.573    0.465    0.235    4.839
  204.000  167.603  106.774    0.459    0.243    4.670
  204.250  168.646   94.533    0.454    0.216    4.671
  204.500  168.688   79.956    0.449    0.215    4.675
  204.750  166.810   74.733    0.440    0.221    4.849
  205.000  164.919   69.510    0.412    0.175    5.217
  205.250  163.987   63.118    0.365    0.082    6.033
  205.500  162.109   63.736    0.342    0.103    6.609
  205.750  161.178   83.043    0.421    0.160    6.150
  206.000  159.314  102.368    0.457    0.201    6.265
  206.250  158.382  100.057    0.428    0.216    6.740
