~VERSION INFORMATION
 VERS.                 2.0:   CWLS LOG ASCII STANDARD -VERSION 2.0
 WRAP.                  NO:   ONE LINE PER DEPTH STEP
~WELL INFORMATION BLOCK
#MNEM.UNIT           DATA                    DESCRIPTION OF MNEMONIC
#---------    -------------------            -------------------------------
# Generated from Intellog Unique Number	CW_76_78/WELL/642
WELL.         07-32-077-22W4                 : Well_name    - WELL
LOC .         00/07-32-077-22W4/0            : Location     - LOCATION
UWI .         00/07-32-077-22W4/0            : Uwi          - UNIQUE WELL ID
ENTR.         jj                             : Entered      - ENTERED BY
SRVC.         WESTERN ATLAS                  : Scn          - SERVICE COMPANY
DATE.         06 MAR 1983                    : Date         - LOG DATE
STRT.M        300                            : top_depth    - START DEPTH
STOP.M        537                            : bot_depth    - STOP DEPTH
STEP.M        0.25                           : increment    - STEP LENGTH
 NULL. -999.2500:NULL Value
~CURVE INFORMATION BLOCK
#MNEM UNIT       ERCB CURVE CODE    CURVE DESCRIPTION
#-----------   ------------------   ----------------------------------
DEPT.M        00 001 00 00         : DEPTH        - DEPTH
ILD .OHMM     00 120 00 00         : RESD         - DEEP RESISTIVITY (DIL)
DPHI.V/V      00 890 00 00         : PHID         - DENSITY POROSITY (SANDSTONE)
NPHI.V/V      00 330 00 00         : PHIN         - NEUTRON POROSITY (SANDSTONE)
GR  .API      00 310 00 00         : GR           - GAMMA RAY
CALI.MM       00 280 01 00         : CAL          - CALIPER
~PARAMETER INFORMATION
#MNEM.UNIT           DATA             DESCRIPTION OF MNEMONIC
#---------         -----------     ------------------------------
GL  .M        630.9                : gl           - GROUND LEVEL ELEVATION
EREF.M        635.4                : kb           - ELEVATION OF DEPTH REFERENCE
DATM.M        630.9                : datum        - DATUM ELEVATION
TDD .M        537                  : tdd          - TOTAL DEPTH DRILLER
RUN .         ONE                  : Run          - RUN NUMBER
ENG .         RUTHERFORD           : Engineer     - RECORDING ENGINEER
WIT .         RAGHER               : Witness      - WITNESSED BY
BASE.         RED DEER             : Branch       - HOME BASE OF LOGGING UNIT
MUD .         GEL CHEM             : Mud_type     - MUD TYPE
MATR.         SANDSTONE            : Logunit      - NEUTRON MATRIX
TMAX.C        27                   : BHT          - MAXIMUM RECORDED TEMPERATURE
BHTD.M        536                  : BHTDEP       - MAXIMUM RECORDED TEMPERATURE
RMT .C        17                   : MDTP         - TEMPERATURE OF MUD
MUDD.KG/M     1055                 : MWT          - MUD DENSITY
NEUT.         1                    : NEUTRON      - NEUTRON TYPE
RESI.         0                    : RESIST       - RESISTIVITY TYPE
RM  .OHMM     0.4                  : RM           - RESISTIVITY OF MUD
RMC .OHMM     0.44                 : RMC          - RESISTIVITY OF MUD CAKE
RMF .OHMM     0.34                 : RMF          - RESISTIVITY OF MUD FILTRATE
SUFT.C        4.5                  : SUFT         - SURFACE TEMPERATURE
~A  DEPTH     RESD     PHID     PHIN       GR      CAL
# ...
  336.500    6.404    0.311    0.303   24.326  162.513
  336.750    6.689    0.304    0.304   28.644  162.705
  337.000    6.792    0.296    0.311   39.106  162.584
  337.250    6.820    0.293    0.329   50.008  162.463
  337.500    6.783    0.291    0.348   52.694  162.447
  337.750    6.797    0.287    0.374   53.248  162.430
  338.000    6.773    0.281    0.366   53.803  162.413
  338.250    6.611    0.276    0.356   57.180  162.292
  338.500    6.465    0.274    0.359   66.952  162.068
  338.750    6.334    0.283    0.359   73.651  161.947
  339.000    6.395    0.291    0.358   79.850  162.662
  339.250    6.642    0.303    0.365   92.445  165.153
  339.500    6.783    0.313    0.398   93.564  166.809
  339.750    6.608    0.321    0.426   93.177  168.152
  340.000    6.306    0.317    0.421   92.289  169.180
  340.250    5.994    0.289    0.354   88.894  169.895
  340.500    5.939    0.260    0.349   84.431  169.984
  340.750    5.975    0.293    0.399   80.659  170.072
  341.000    5.853    0.359    0.471   80.586  173.713
  341.250    5.585    0.416    0.466   82.144  182.789
  341.500    4.706    0.401    0.386   83.451  185.594
  341.750    4.026    0.324    0.365   83.880  179.412
  342.000    3.556    0.267    0.377   85.312  173.855
  342.250    3.165    0.256    0.498   87.246  173.317
  342.500    3.003    0.277    0.509   90.058  172.986
  342.750    3.004    0.310    0.493   94.124  174.538
  343.000    3.050    0.319    0.457   97.877  175.567
  343.250    3.022    0.313    0.437  101.065  175.132
  343.500    2.933    0.303    0.426   99.549  172.398
  343.750    2.873    0.309    0.444   98.097  170.919
  344.000    2.837    0.374    0.506   98.590  170.483
  344.250    2.864    0.393    0.484  100.963  170.676
  344.500    3.095    0.358    0.442  100.577  170.972
  344.750    3.565    0.266    0.394   96.993  172.106
  345.000    4.069    0.226    0.380   96.167  172.404
  345.250    4.557    0.240    0.396   95.969  172.074
  345.500    5.143    0.245    0.427   97.214  171.952
  345.750    5.781    0.247    0.447  101.593  171.516
  346.000    6.039    0.262    0.435  103.465  171.291
  346.250    6.052    0.326    0.387  101.072  170.544
  346.500    5.873    0.328    0.371   91.029  168.646
  346.750    5.776    0.315    0.369   89.326  166.853
  347.000    6.102    0.284    0.376   82.669  165.896
  347.250    6.834    0.270    0.384   80.338  165.252
  347.500    7.511    0.260    0.377   83.400  164.817
  347.750    7.816    0.258    0.363   85.335  164.279
  348.000    7.818    0.273    0.360   84.573  163.531
  348.250    7.688    0.281    0.351   81.365  162.574
  348.500    7.532    0.278    0.338   76.903  161.930
  348.750    7.310    0.272    0.338   76.390  161.494
  349.000    7.257    0.266    0.338   75.942  161.061
  349.250    6.925    0.279    0.346   74.490  161.672
  349.500    6.683    0.349    0.405   71.971  166.253
  349.750    6.258    0.516    0.509   70.770  172.195
  350.000    5.569    0.535    0.538   71.701  178.554
  350.250    4.702    0.450    0.476   73.133  185.121
  350.500    4.224    0.383    0.413   74.628  177.057
  350.750    4.061    0.320    0.385   77.565  171.187
  351.000    4.070    0.280    0.367   82.322  167.200
  351.250    4.291    0.270    0.370   83.127  165.302
  351.500    4.646    0.268    0.373   82.051  164.449
  351.750    4.871    0.268    0.369   80.474  164.850
  352.000    5.078    0.269    0.369   79.647  165.669
  352.250    5.255    0.265    0.375   79.137  166.175
  352.500    5.397    0.257    0.390   77.685  166.368
  352.750    5.480    0.240    0.381   76.985  166.457
  353.000    5.564    0.241    0.364   77.101  166.126
  353.250    5.671    0.248    0.369   75.711  165.901
  353.500    5.694    0.247    0.375   74.697  165.467
  353.750    5.696    0.247    0.379   74.437  165.241
  354.000    5.794    0.250    0.371   74.678  164.702
  354.250    5.895    0.266    0.349   73.727  163.954
  354.500    5.941    0.268    0.355   71.962  163.206
  354.750    5.920    0.263    0.377   71.513  162.666
  355.000    5.888    0.264    0.391   71.566  162.442
  355.250    5.747    0.262    0.404   71.367  162.634
  355.500    5.641    0.260    0.390   71.106  163.453
  355.750    5.621    0.258    0.382   72.665  163.750
  356.000    5.654    0.260    0.392   73.846  164.256
  356.250    5.962    0.270    0.397   73.210  164.240
  356.500    6.287    0.280    0.378   69.876  162.761
  356.750    6.324    0.295    0.374   64.285  160.550
  357.000    6.196    0.306    0.363   58.945  157.815
  357.250    6.070    0.299    0.352   57.806  157.067
  357.500    6.060    0.279    0.345   59.113  157.782
  357.750    6.224    0.267    0.345   61.109  160.065
  358.000    6.416    0.255    0.390   61.790  162.346
  358.250    6.250    0.250    0.411   64.414  163.689
  358.500    5.842    0.247    0.406   70.424  164.404
  358.750    5.378    0.247    0.406   80.510  165.225
  359.000    5.027    0.251    0.407   85.015  165.626
  359.250    4.869    0.259    0.400   82.998  165.191
  359.500    4.717    0.286    0.392   78.285  164.444
  359.750    4.665    0.303    0.388   75.704  163.486
  360.000    4.737    0.316    0.372   73.374  162.216
  360.250    4.948    0.310    0.370   70.668  161.154
  360.500    5.257    0.297    0.378   70.595  160.929
  360.750    5.460    0.295    0.379   72.780  161.538
  361.000    5.639    0.295    0.380   73.084  162.044
  361.250    5.780    0.293    0.392   72.572  162.865
  361.500    5.847    0.287    0.390   77.203  165.043
  361.750    5.740    0.270    0.374   84.216  164.609
  362.000    5.539    0.255    0.375   91.355  166.474
  362.250    5.336    0.239    0.381   92.411  166.039
  362.500    5.178    0.235    0.371   93.154  166.126
  362.750    5.054    0.240    0.365   93.582  166.633
  363.000    4.924    0.251    0.383   93.321  166.616
  363.250    4.779    0.271    0.407   91.619  166.286
  363.500    4.603    0.297    0.421   89.414  165.746
  363.750    4.409    0.325    0.442   86.331  164.894
  364.000    4.287    0.356    0.443   82.998  164.041
  364.250    4.169    0.352    0.352   78.285  163.294
  364.500    4.115    0.342    0.334   72.506  162.963
  364.750    4.331    0.334    0.338   65.912  162.946
  365.000    4.814    0.342    0.351   59.443  162.929
  365.250    5.251    0.342    0.371   53.601  162.494
  365.500    5.750    0.339    0.378   51.333  162.061
  365.750    6.131    0.336    0.369   53.831  161.730
  366.000    6.179    0.334    0.367   55.326  161.295
  366.250    6.192    0.336    0.361   55.568  161.072
  366.500    6.241    0.341    0.355   54.931  161.264
  366.750    6.242    0.344    0.352   53.980  161.979
  367.000    6.255    0.343    0.344   53.030  162.380
  367.250    6.269    0.338    0.339   51.453  162.676
  367.500    6.177    0.333    0.335   50.878  162.765
  367.750    6.132    0.337    0.336   50.806  162.749
  368.000    6.179    0.344    0.340   52.425  162.731
  368.250    6.228    0.351    0.345   53.984  162.611
  368.500    6.229    0.357    0.352   54.789  162.280
  368.750    6.231    0.356    0.356   55.969  162.159
  369.000    6.209    0.351    0.358   56.525  162.144
  369.250    6.140    0.350    0.362   56.201  162.127
  369.500    6.108    0.349    0.367   55.690  162.632
  369.750    6.063    0.345    0.381   55.430  162.929
  370.000    6.064    0.339    0.383   55.482  163.332
  370.250    6.043    0.333    0.369   54.783  163.315
  370.500    6.044    0.335    0.339   54.584  162.985
  370.750    5.618    0.337    0.350   55.014  162.551
  371.000    5.566    0.335    0.375   56.258  162.323
  371.250    5.526    0.330    0.359   54.430  162.204
  371.500    5.496    0.313    0.357   52.915  162.083
  371.750    5.528    0.282    0.369   54.723  162.170
  372.000    5.646    0.257    0.402   58.351  162.048
  372.250    5.690    0.246    0.412   68.437  162.034
  372.500    5.734    0.260    0.401   77.269  161.703
  372.750    5.801    0.289    0.384   75.628  162.000
