~VERSION INFORMATION
 VERS.                 2.0:   CWLS LOG ASCII STANDARD -VERSION 2.0
 WRAP.                  NO:   ONE LINE PER DEPTH STEP
~WELL INFORMATION BLOCK
#MNEM.UNIT           DATA                    DESCRIPTION OF MNEMONIC
#---------    -------------------            -------------------------------
# Generated from Intellog Unique Number	CW_73_75/WELL/2723
WELL.         TRICENT ET AL MITSUE 02-26     : Well_name    - WELL
LOC .         00/02-26-073-05W5/0            : Location     - LOCATION
UWI .         00/02-26-073-05W5/0            : Uwi          - UNIQUE WELL ID
ENTR.         JAYE                           : Entered      - ENTERED BY
SRVC.         SCHLUMBERGER                   : Scn          - SERVICE COMPANY
DATE.         23 MAR 82                      : Date         - LOG DATE
STRT.M        350                            : top_depth    - START DEPTH
STOP.M        590                            : bot_depth    - STOP DEPTH
STEP.M        0.25                           : increment    - STEP LENGTH
 NULL. -999.2500:NULL Value
~CURVE INFORMATION BLOCK
#MNEM UNIT       ERCB CURVE CODE    CURVE DESCRIPTION
#-----------   ------------------   ----------------------------------
DEPT.M        00 001 00 00         : DEPTH        - DEPTH
DPHI.V/V      00 890 00 00         : PHID         - DENSITY POROSITY (SANDSTONE)
NPHI.V/V      00 330 00 00         : PHIN         - NEUTRON POROSITY (SANDSTONE)
GR  .API      00 310 00 00         : GR           - GAMMA RAY
CALI.MM       00 280 01 00         : CAL          - CALIPER
ILD .OHMM     00 120 00 00         : RESD         - DEEP RESISTIVITY (DIL)
~PARAMETER INFORMATION
#MNEM.UNIT           DATA             DESCRIPTION OF MNEMONIC
#---------         -----------     ------------------------------
GL  .M        576                  : gl           - GROUND LEVEL ELEVATION
EREF.M        583                  : kb           - ELEVATION OF DEPTH REFERENCE
DATM.M        576                  : datum        - DATUM ELEVATION
TDD .M        1695                 : tdd          - TOTAL DEPTH DRILLER
RUN .         ONE                  : Run          - RUN NUMBER
ENG .         HEATH                : Engineer     - RECORDING ENGINEER
WIT .         MACKASEY             : Witness      - WITNESSED BY
BASE.         EDM                  : Branch       - HOME BASE OF LOGGING UNIT
MUD .         GEL CHEM             : Mud_type     - MUD TYPE
MATR.         SANDSTONE            : Logunit      - NEUTRON MATRIX
TMAX.C        46.1                 : BHT          - MAXIMUM RECORDED TEMPERATURE
BHTD.M        1695.8               : BHTDEP       - MAXIMUM RECORDED TEMPERATURE
RMT .C        17.7                 : MDTP         - TEMPERATURE OF MUD
MUDD.KG/M     1090                 : MWT          - MUD DENSITY
NEUT.         1                    : NEUTRON      - NEUTRON TYPE
RESI.         0                    : RESIST       - RESISTIVITY TYPE
RM  .OHMM     1.08                 : RM           - RESISTIVITY OF MUD
RMC .OHMM     0                    : RMC          - RESISTIVITY OF MUD CAKE
RMF .OHMM     0.79                 : RMF          - RESISTIVITY OF MUD FILTRATE
SUFT.C        0                    : SUFT         - SURFACE TEMPERATURE
~A  DEPTH     PHID     PHIN       GR      CAL     RESD
# ...
  496.000    0.296    0.412   65.627  234.172    4.933
  496.250    0.258    0.347   65.190  233.444    5.127
  496.500    0.208    0.305   64.258  232.922    5.258
  496.750    0.178    0.265   63.079  231.575    5.222
  497.000    0.192    0.348   61.715  229.507    4.977
  497.250    0.270    0.438   61.773  228.161    4.637
  497.500    0.306    0.423   67.645  227.227    4.344
  497.750    0.323    0.398   70.302  226.293    4.094
  498.000    0.332    0.400   71.906  225.257    3.916
  498.250    0.340    0.427   70.727  224.219    3.732
  498.500    0.337    0.429   68.559  223.801    3.563
  498.750    0.342    0.413   67.380  223.485    3.473
  499.000    0.346    0.414   65.830  223.169    3.411
  499.250    0.350    0.454   66.383  223.059    3.388
  499.500    0.356    0.437   67.678  222.745    3.397
  499.750    0.353    0.422   69.406  222.636    3.407
  500.000    0.345    0.446   73.474  226.489    3.415
  500.250    0.335    0.452   77.009  226.775    3.470
  500.500    0.329    0.441   80.355  227.169    3.499
  500.750    0.335    0.431   74.423  227.039    3.521
  501.000    0.342    0.438   71.357  226.386    3.551
  501.250    0.342    0.425   73.270  225.939    3.574
  501.500    0.332    0.408   76.741  226.439    3.604
  501.750    0.320    0.404   74.420  227.759    3.607
  502.000    0.316    0.408   73.097  229.705    3.609
  502.250    0.325    0.421   74.388  234.138    3.605
  502.500    0.322    0.443   75.679  237.540    3.581
  502.750    0.321    0.470   77.097  228.484    3.570
  503.000    0.327    0.446   80.629  220.569    3.573
  503.250    0.337    0.406   84.350  219.087    3.562
  503.500    0.339    0.406   80.224  219.684    3.531
  503.750    0.334    0.426   73.856  221.009    3.520
  504.000    0.325    0.426   72.284  221.598    3.496
  504.250    0.320    0.428   74.012  220.642    3.473
  504.500    0.318    0.436   80.906  218.746    3.495
  504.750    0.320    0.445   87.056  216.645    3.558
  505.000    0.327    0.460   91.648  215.057    3.670
  505.250    0.323    0.476   85.340  214.514    3.835
  505.500    0.308    0.439   79.846  215.424    4.092
  505.750    0.263    0.387   75.408  216.332    4.475
  506.000    0.209    0.276   72.590  216.716    5.044
  506.250    0.120    0.269   70.583  216.380    5.903
  506.500    0.096    0.255   70.007  215.828    7.423
  506.750    0.070    0.225   74.784  215.180    9.298
  507.000    0.043    0.185   79.874  214.739   10.863
  507.250    0.038    0.184   83.220  215.027   10.728
  507.500    0.149    0.268   80.090  217.074    9.534
  507.750    0.240    0.370   79.888  218.708    8.600
  508.000    0.267    0.376   84.231  219.406    7.194
  508.250    0.284    0.397   88.014  219.800    6.179
  508.500    0.300    0.408   89.178  219.768    5.297
  508.750    0.310    0.451   89.287  219.742    4.725
  509.000    0.324    0.459   90.204  219.716    4.336
  509.250    0.322    0.425   91.061  219.898    4.108
  509.500    0.289    0.432   92.227  220.392    3.907
  509.750    0.272    0.445   94.016  221.290    3.822
  510.000    0.253    0.458   95.435  221.687    3.825
  510.250    0.234    0.453   91.434  221.758    3.915
  510.500    0.251    0.441   86.559  221.835    4.171
  510.750    0.267    0.453   83.120  221.914    4.326
  511.000    0.279    0.469   81.174  222.202    4.547
  511.250    0.296    0.436   82.651  223.211    4.698
  511.500    0.282    0.410   88.489  225.366    4.801
  511.750    0.237    0.396   92.832  227.622    4.868
  512.000    0.218    0.393   93.687  229.255    4.946
  512.250    0.205    0.395   91.616  229.333    5.054
  512.500    0.198    0.388   91.725  227.539    5.144
  512.750    0.199    0.399   90.401  223.982    5.187
  513.000    0.215    0.445   86.088  220.430    5.161
  513.250    0.241    0.452   87.068  216.357    5.097
  513.500    0.266    0.427   89.667  212.696    4.922
  513.750    0.281    0.425   92.080  210.279    4.744
  514.000    0.284    0.458   94.243  209.011    4.658
  514.250    0.280    0.479   93.418  208.357    4.661
  514.500    0.275    0.464   89.230  208.022    4.872
  514.750    0.266    0.458   91.144  207.577    5.218
  515.000    0.226    0.478   87.890  207.658    5.804
  515.250    0.161    0.317   80.340  208.458    6.542
  515.500    0.114    0.284   73.411  209.263    7.073
  515.750    0.083    0.247   87.469  211.308    6.972
  516.000    0.127    0.352   93.804  212.634    6.582
  516.250    0.157    0.422   96.839  210.846    6.016
  516.500    0.215    0.423   96.573  206.668    5.448
  516.750    0.243    0.449   99.484  206.846    4.786
  517.000    0.221    0.441  100.153  211.907    4.417
  517.250    0.206    0.423   96.089  213.020    4.329
  517.500    0.227    0.440   96.321  210.295    4.212
  517.750    0.235    0.448   97.364  214.732    4.159
  518.000    0.234    0.428  100.026  223.733    4.163
  518.250    0.231    0.414  104.305  226.194    4.213
  518.500    0.224    0.416  106.034  227.100    4.362
  518.750    0.210    0.460  106.018  226.972    4.516
  519.000    0.227    0.438  102.888  226.845    4.676
  519.250    0.242    0.435   99.384  227.645    4.732
  519.500    0.247    0.447   96.940  229.385    4.701
  519.750    0.244    0.451   98.045  233.921    4.616
  520.000    0.241    0.440   95.414  236.386    4.509
  520.250    0.236    0.421   95.895  236.876    4.428
  520.500    0.228    0.418   96.750  236.955    4.397
  520.750    0.221    0.422   97.233  237.136    4.367
  521.000    0.230    0.430   98.276  237.208    4.354
  521.250    0.226    0.441   99.444  237.291    4.374
  521.500    0.223    0.448  102.416  236.636    4.469
  521.750    0.228    0.454  105.450  234.954    4.592
  522.000    0.237    0.425  101.387  231.708    4.835
  522.250    0.249    0.445   94.895  228.362    5.179
  522.500    0.259    0.441   93.759  228.854    5.382
  522.750    0.248    0.413  101.089  231.732    5.237
  523.000    0.237    0.432  104.562  233.369    4.980
  523.250    0.232    0.428  104.171  233.443    4.630
  523.500    0.229    0.425  104.840  232.167    4.362
  523.750    0.223    0.454  107.564  230.899    4.125
  524.000    0.218    0.489  114.771  229.626    3.902
  524.250    0.213    0.501  111.891  228.454    3.781
  524.500    0.210    0.478  107.765  227.705    3.748
  524.750    0.210    0.470  105.445  226.122    3.866
  525.000    0.219    0.478  100.696  223.396    4.056
  525.250    0.235    0.485   97.878  219.114    4.320
  525.500    0.246    0.486   97.862  214.623    4.671
  525.750    0.257    0.478   94.919  211.693    4.937
  526.000    0.265    0.470   89.112  209.486    5.268
  526.250    0.271    0.460   84.551  207.488    5.579
  526.500    0.276    0.445   81.234  205.694    5.864
  526.750    0.280    0.435   83.522  204.945    6.245
  527.000    0.282    0.434   84.191  205.228    6.156
  527.250    0.285    0.446   83.115  206.859    5.888
  527.500    0.289    0.438   83.908  206.936    5.352
  527.750    0.288    0.427   89.621  206.291    4.765
  528.000    0.280    0.419   93.777  206.887    4.307
  528.250    0.268    0.435   95.691  210.285    3.929
  528.500    0.255    0.445   97.357  214.615    3.578
  528.750    0.239    0.447   99.708  220.609    3.352
  529.000    0.221    0.450  101.123  228.366    3.387
  529.250    0.256    0.452  100.672  232.903    3.447
  529.500    0.260    0.453   98.725  232.045    3.624
  529.750    0.225    0.451   97.588  230.774    3.772
  530.000    0.199    0.449  101.931  231.266    4.079
  530.250    0.195    0.437   99.609  232.172    4.207
  530.500    0.208    0.431   95.546  233.493    4.178
  530.750    0.214    0.448   97.274  234.820    3.966
  531.000    0.242    0.487  103.611  239.149    3.808
  531.250    0.289    0.457  101.289  235.492    3.768
  531.500    0.281    0.428  101.648  231.003    3.743
  531.750    0.242    0.428  108.295  236.580    3.676
  532.000    0.284    0.486  110.956  246.516    3.596
  532.250    0.331    0.519  107.826  259.461    3.579
