~VERSION INFORMATION
 VERS.                 2.0:   CWLS LOG ASCII STANDARD -VERSION 2.0
 WRAP.                  NO:   ONE LINE PER DEPTH STEP
~WELL INFORMATION BLOCK
#MNEM.UNIT           DATA                    DESCRIPTION OF MNEMONIC
#---------    -------------------            -------------------------------
# Generated from Intellog Unique Number	CS_77_79/WELL/903
WELL.         CANADIAN WORLDWIDE ENERGY      : Well_name    - WELL
LOC .         00/07-22-077-05W4/0            : Location     - LOCATION
UWI .         00/07-22-077-05W4/0            : Uwi          - UNIQUE WELL ID
ENTR.         SP                             : Entered      - ENTERED BY
SRVC.         SCHLUMBERGER                   : Scn          - SERVICE COMPANY
STRT.M        175                            : top_depth    - START DEPTH
STOP.M        425                            : bot_depth    - STOP DEPTH
STEP.M        0.25                           : increment    - STEP LENGTH
 NULL. -999.2500:NULL Value
~CURVE INFORMATION BLOCK
#MNEM UNIT       ERCB CURVE CODE    CURVE DESCRIPTION
#-----------   ------------------   ----------------------------------
DEPT.M        00 001 00 00         : DEPTH        - DEPTH
GR  .API      00 310 00 00         : GR           - GAMMA RAY
DPHI.V/V      00 890 00 00         : PHID         - DENSITY POROSITY (LIMESTONE)
NPHI.V/V      00 330 00 00         : PHIN         - NEUTRON POROSITY (LIMESTONE)
ILD .OHMM     00 120 00 00         : RESD         - DEEP RESISTIVITY (DIL)
~PARAMETER INFORMATION
#MNEM.UNIT           DATA             DESCRIPTION OF MNEMONIC
#---------         -----------     ------------------------------
GL  .M        582                  : gl           - GROUND LEVEL ELEVATION
EREF.M        585                  : kb           - ELEVATION OF DEPTH REFERENCE
DATM.M        582                  : datum        - DATUM ELEVATION
TDD .M        434                  : tdd          - TOTAL DEPTH DRILLER
RUN .         ONE                  : Run          - RUN NUMBER
ENG .         BILL                 : Engineer     - RECORDING ENGINEER
WIT .         JIM                  : Witness      - WITNESSED BY
MUD .         GEL                  : Mud_type     - MUD TYPE
MATR.         LIMESTONE            : Logunit      - NEUTRON MATRIX
TMAX.C        23                   : BHT          - MAXIMUM RECORDED TEMPERATURE
BHTD.M        434                  : BHTDEP       - MAXIMUM RECORDED TEMPERATURE
MATR.         1                    : LOGUNIT      - NEUTRON MATRIX
RMT .C        25                   : MDTP         - TEMPERATURE OF MUD
NEUT.         1                    : NEUTRON      - NEUTRON TYPE
RESI.         0                    : RESIST       - RESISTIVITY TYPE
RMC .OHMM     0.25                 : RMC          - RESISTIVITY OF MUD CAKE
RMF .OHMM     0.25                 : RMF          - RESISTIVITY OF MUD FILTRATE
SUFT.C        15                   : SUFT         - SURFACE TEMPERATURE
~A  DEPTH       GR     PHID     PHIN     RESD
  175.000  101.454    0.291    0.593    2.924
  175.250  100.234    0.283    0.516    2.924
  175.500   99.619    0.275    0.532    2.923
  175.750  102.123    0.270    0.512    2.923
  176.000  102.141    0.269    0.504    2.923
  176.250  100.905    0.271    0.506    2.923
  176.500  100.298    0.266    0.520    2.978
  176.750   98.445    0.262    0.515    2.978
  177.000  103.439    0.266    0.478    2.978
  177.250  101.590    0.275    0.453    2.978
  177.500   97.869    0.278    0.443    3.034
  177.750   96.018    0.268    0.464    3.034
  178.000   99.145    0.249    0.498    3.034
  178.250  104.137    0.237    0.532    3.034
  178.500  107.887    0.235    0.564    3.092
  178.750  107.900    0.237    0.543    3.150
  179.000  108.539    0.243    0.479    3.210
  179.250  109.174    0.255    0.469    3.271
  179.500  106.082    0.260    0.482    3.396
  179.750  104.227    0.257    0.522    3.460
  180.000  103.623    0.245    0.514    3.593
  180.250  103.637    0.238    0.502    3.731
  180.500  102.402    0.230    0.493    3.801
  180.750  102.424    0.228    0.496    3.873
  181.000  104.302    0.238    0.515    3.947
  181.250  105.559    0.255    0.523    4.022
  181.500  103.087    0.251    0.520    4.255
  181.750   99.368    0.244    0.514    4.418
  182.000   95.023    0.231    0.426    5.136
  182.250   82.589    0.220    0.355    5.970
  182.500   37.792    0.205    0.335    8.221
  182.750   29.716    0.188    0.334   11.109
  183.000   25.995    0.200    0.334   16.186
  183.250   24.767    0.203    0.327   19.909
  183.500   29.762    0.246    0.324   21.873
  183.750   35.377    0.311    0.327   17.450
  184.000   49.083    0.329    0.331   13.921
  184.250   92.665    0.295    0.359    9.920
  184.500  101.395    0.269    0.409    7.622
  184.750  105.148    0.238    0.445    5.747
  185.000  105.160    0.254    0.477    4.943
  185.250  103.311    0.242    0.495    4.333
  185.500  103.322    0.237    0.503    4.018
  185.750   95.871    0.249    0.499    3.870
  186.000   81.566    0.263    0.488    4.414
  186.250   62.286    0.277    0.449    5.745
  186.500   60.434    0.293    0.412    7.764
  186.750   61.693    0.309    0.410   10.296
  187.000   60.465    0.312    0.415   12.196
  187.250   71.061    0.308    0.406   13.149
  187.500   75.433    0.301    0.397   13.398
  187.750   74.827    0.292    0.386   13.148
  188.000   70.483    0.286    0.380   12.902
  188.250   64.896    0.302    0.391   13.146
  188.500   68.648    0.317    0.408   13.395
  188.750   74.886    0.312    0.423   13.395
  189.000   74.277    0.311    0.438   13.649
  189.250   69.934    0.312    0.426   13.907
  189.500   69.954    0.313    0.426   14.171
  189.750   71.830    0.316    0.432   14.440
  190.000   75.581    0.316    0.413   14.713
  190.250   78.712    0.313    0.392   15.277
  190.500   79.967    0.317    0.401   15.862
  190.750   75.627    0.317    0.412   16.163
  191.000   69.419    0.314    0.419   16.469
  191.250   64.451    0.309    0.425   16.781
  191.500   61.355    0.299    0.424   17.099
  191.750   81.909    0.296    0.410   16.780
  192.000   96.238    0.298    0.393   16.779
  192.250   95.630    0.294    0.392   17.422
  192.500   86.932    0.283    0.397   17.752
  192.750   76.989    0.277    0.388   17.751
  193.000   82.604    0.270    0.381   16.463
  193.250  100.050    0.257    0.387   15.854
  193.500  106.910    0.240    0.384   14.983
  193.750  111.281    0.221    0.377   14.160
  194.000  112.539    0.211    0.373   13.636
  194.250  106.333    0.211    0.365   12.887
  194.500  105.728    0.206    0.356   13.131
  194.750  105.742    0.222    0.355   13.893
  195.000  104.510    0.288    0.377   15.553
  195.250   97.677    0.322    0.408   16.456
  195.500   87.110    0.351    0.429   17.742
  195.750   72.186    0.362    0.445   19.129
  196.000   65.979    0.343    0.406   19.861
  196.250   66.617    0.332    0.373   19.127
  196.500   78.455    0.306    0.367   17.408
  196.750   93.412    0.274    0.378   15.844
  197.000  100.268    0.264    0.398   13.887
  197.250  109.624    0.252    0.412   12.404
  197.500  110.880    0.237    0.430   11.079
  197.750  100.939    0.228    0.441   10.083
  198.000   88.504    0.222    0.447    9.351
  198.250   74.203    0.220    0.408   10.082
  198.500   57.411    0.220    0.386   11.076
  198.750   52.447    0.228    0.359   11.719
  199.000   55.575    0.234    0.347   12.399
  199.250   81.733    0.226    0.345   12.875
  199.500   89.836    0.218    0.352   13.881
  199.750   88.608    0.217    0.363   15.250
  200.000   79.910    0.250    0.363   17.396
  200.250   69.342    0.305    0.359   19.476
  200.500   59.398    0.328    0.375   23.069
  200.750   50.078    0.345    0.391   25.826
  201.000   40.136    0.358    0.382   28.913
  201.250   37.039    0.353    0.366   31.172
  201.500   36.432    0.350    0.356   31.763
  201.750   36.447    0.345    0.355   31.761
  202.000   38.331    0.338    0.361   31.168
  202.250   40.834    0.333    0.376   30.015
  202.500   42.091    0.333    0.376   28.905
  202.750   45.218    0.335    0.370   27.835
  203.000   53.330    0.335    0.372   26.306
  203.250   55.826    0.336    0.373   24.861
  203.500   60.204    0.331    0.373   23.056
  203.750   63.954    0.333    0.366   19.832
  204.000   70.189    0.333    0.377   17.383
  204.250   83.898    0.300    0.391   14.953
  204.500   96.980    0.249    0.391   12.622
  204.750  111.310    0.199    0.399   10.655
  205.000  114.439    0.181    0.408    9.339
  205.250  109.473    0.162    0.411    8.341
  205.500  100.774    0.146    0.410    8.033
  205.750   95.188    0.129    0.394    7.311
  206.000   98.936    0.095    0.392    7.040
  206.250  112.021    0.174    0.388    6.530
  206.500  121.376    0.194    0.411    6.056
  206.750  120.145    0.200    0.431    5.723
  207.000  120.160    0.203    0.458    5.409
  207.250  122.669    0.204    0.479    5.111
  207.500  123.299    0.207    0.494    4.740
  207.750  120.825    0.228    0.491    4.565
  208.000  112.750    0.274    0.469    5.615
  208.250  100.937    0.302    0.452    7.307
  208.500   71.698    0.356    0.449    9.333
  208.750   46.817    0.501    0.470   12.852
  209.000   38.740    0.480    0.489   16.726
  209.250   35.021    0.436    0.523   21.361
  209.500   34.417    0.362    0.441   26.274
  209.750   34.428    0.358    0.397   29.414
  210.000   35.692    0.359    0.389   31.712
  210.250   37.570    0.354    0.394   33.553
  210.500   44.436    0.350    0.396   33.551
  210.750   46.936    0.352    0.400   33.549
  211.000   51.311    0.352    0.390   33.548
  211.250   51.944    0.354    0.381   32.921
  211.500   51.963    0.359    0.395   32.919
  211.750   52.596    0.363    0.398   32.918
  212.000   58.838    0.363    0.390   33.541
  212.250   68.189    0.360    0.381   33.540
  212.500   87.496    0.354    0.376   33.538
  212.750  104.938    0.340    0.366   33.537
  213.000   94.373    0.339    0.380   32.910
  213.250   71.980    0.343    0.393   32.295
  213.500   71.995    0.333    0.385   31.691
  213.750   90.683    0.324    0.380   30.518
  214.000   79.494    0.324    0.376   29.390
  214.250   63.948    0.322    0.368   28.841
  214.500   58.984    0.309    0.362   27.774
  214.750   59.624    0.304    0.366   25.758
  215.000   65.865    0.293    0.352   24.806
  215.250   72.102    0.287    0.347   24.342
  215.500   77.095    0.276    0.352   23.004
  215.750   83.957    0.284    0.367   22.153
  216.000   88.949    0.300    0.382   22.153
  216.250   91.453    0.311    0.390   21.738
  216.500   92.717    0.302    0.393   21.738
  216.750   91.483    0.292    0.388   21.331
  217.000   93.987    0.288    0.384   21.330
  217.250   98.359    0.284    0.377   21.329
  217.500   89.664    0.280    0.369   21.328
  217.750   83.452    0.278    0.363   20.929
  218.000   74.754    0.272    0.364   20.928
  218.250   64.188    0.288    0.373   20.537
