~VERSION INFORMATION
 VERS.                 2.0:   CWLS LOG ASCII STANDARD -VERSION 2.0
 WRAP.                  NO:   ONE LINE PER DEPTH STEP
~WELL INFORMATION BLOCK
#MNEM.UNIT           DATA                    DESCRIPTION OF MNEMONIC
#---------    -------------------            -------------------------------
# Generated from Intellog Unique Number	CS_67_68/WELL/786
WELL.         DOME PETROLEUM LIMITED         : Well_name    - WELL
LOC .         00/09-05-068-03W4/0            : Location     - LOCATION
UWI .         00/09-05-068-03W4/0            : Uwi          - UNIQUE WELL ID
ENTR.         SP                             : Entered      - ENTERED BY
SRVC.         SCHLUMBERGER                   : Scn          - SERVICE COMPANY
STRT.M        345                            : top_depth    - START DEPTH
STOP.M        577                            : bot_depth    - STOP DEPTH
STEP.M        0.25                           : increment    - STEP LENGTH
 NULL. -999.2500:NULL Value
~CURVE INFORMATION BLOCK
#MNEM UNIT       ERCB CURVE CODE    CURVE DESCRIPTION
#-----------   ------------------   ----------------------------------
DEPT.M        00 001 00 00         : DEPTH        - DEPTH
ILD .OHMM     00 120 00 00         : RESD         - DEEP RESISTIVITY (DIL)
DPHI.V/V      00 890 00 00         : PHID         - DENSITY POROSITY (LIMESTONE)
NPHI.V/V      00 330 00 00         : PHIN         - NEUTRON POROSITY (LIMESTONE)
GR  .API      00 310 00 00         : GR           - GAMMA RAY
~PARAMETER INFORMATION
#MNEM.UNIT           DATA             DESCRIPTION OF MNEMONIC
#---------         -----------     ------------------------------
GL  .M        705.08               : gl           - GROUND LEVEL ELEVATION
EREF.M        709                  : kb           - ELEVATION OF DEPTH REFERENCE
DATM.M        705.08               : datum        - DATUM ELEVATION
TDD .M        583                  : tdd          - TOTAL DEPTH DRILLER
RUN .         ONE                  : Run          - RUN NUMBER
ENG .         BILL                 : Engineer     - RECORDING ENGINEER
WIT .         JIM                  : Witness      - WITNESSED BY
MUD .         GEL                  : Mud_type     - MUD TYPE
MATR.         LIMESTONE            : Logunit      - NEUTRON MATRIX
TMAX.C        23.3                 : BHT          - MAXIMUM RECORDED TEMPERATURE
BHTD.M        583                  : BHTDEP       - MAXIMUM RECORDED TEMPERATURE
MATR.         1                    : LOGUNIT      - NEUTRON MATRIX
RMT .C        25                   : MDTP         - TEMPERATURE OF MUD
NEUT.         1                    : NEUTRON      - NEUTRON TYPE
RESI.         0                    : RESIST       - RESISTIVITY TYPE
RMC .OHMM     0.25                 : RMC          - RESISTIVITY OF MUD CAKE
RMF .OHMM     0.25                 : RMF          - RESISTIVITY OF MUD FILTRATE
SUFT.C        15                   : SUFT         - SURFACE TEMPERATURE
~A  DEPTH     RESD     PHID     PHIN       GR
  345.000    2.954    0.231    0.505   98.947
  345.250    2.982    0.233    0.520   96.392
  345.500    3.010    0.236    0.519   96.999
  345.750    3.101    0.238    0.511   95.357
  346.000    3.212    0.241    0.510   97.544
  346.250    3.303    0.243    0.510  101.554
  346.500    3.371    0.243    0.492  105.443
  346.750    3.416    0.237    0.504  104.044
  347.000    3.448    0.233    0.543   98.390
  347.250    3.494    0.228    0.519   93.162
  347.500    3.526    0.225    0.500   98.388
  347.750    3.566    0.229    0.495  101.669
  348.000    3.613    0.241    0.509   99.115
  348.250    3.654    0.251    0.494   94.981
  348.500    3.689    0.242    0.475   96.073
  348.750    3.723    0.231    0.490   96.862
  349.000    3.656    0.224    0.504   97.347
  349.250    3.562    0.235    0.530   97.529
  349.500    3.446    0.250    0.539   97.832
  349.750    3.396    0.246    0.525   98.864
  350.000    3.403    0.241    0.515   99.227
  350.250    3.416    0.241    0.507   97.828
  350.500    3.461    0.240    0.507   97.584
  350.750    3.526    0.236    0.511   98.919
  351.000    3.579    0.233    0.500  101.349
  351.250    3.660    0.234    0.491  105.299
  351.500    3.722    0.224    0.489  107.850
  351.750    3.702    0.214    0.471  103.473
  352.000    3.621    0.219    0.463   96.300
  352.250    3.490    0.228    0.479   90.768
  352.500    3.388    0.234    0.511   93.867
  352.750    3.314    0.237    0.519   96.540
  353.000    3.242    0.240    0.513   97.450
  353.250    3.278    0.201    0.531   95.504
  353.500    4.467    0.115    0.539   85.839
  353.750    6.776    0.091    0.367   72.892
  354.000   11.089    0.261    0.265   51.984
  354.250   14.426    0.300    0.244   44.325
  354.500   16.824    0.317    0.238   49.672
  354.750   15.800    0.317    0.240   53.135
  355.000   13.958    0.309    0.252   56.416
  355.250   13.255    0.307    0.272   60.061
  355.500   14.355    0.348    0.305   52.037
  355.750   14.330    0.377    0.202   46.141
  356.000   13.113    0.307    0.179   41.338
  356.250   11.824    0.276    0.265   52.642
  356.500   11.269    0.251    0.314   66.498
  356.750   11.105    0.262    0.341   72.028
  357.000   12.049    0.289    0.297   61.572
  357.250   13.416    0.316    0.249   54.643
  357.500   15.618    0.338    0.223   48.624
  357.750   17.072    0.330    0.209   45.098
  358.000   18.184    0.313    0.230   44.550
  358.250   18.253    0.323    0.243   46.008
  358.500   18.597    0.339    0.224   44.852
  358.750   20.441    0.342    0.225   46.248
  359.000   22.803    0.360    0.205   44.181
  359.250   25.111    0.366    0.192   39.560
  359.500   27.095    0.365    0.192   35.609
  359.750   25.257    0.346    0.223   44.420
  360.000   20.530    0.315    0.252   52.745
  360.250   17.221    0.282    0.268   58.093
  360.500   15.729    0.298    0.262   61.921
  360.750   14.690    0.337    0.225   53.958
  361.000   14.556    0.364    0.202   48.973
  361.250   15.361    0.353    0.212   46.966
  361.500   15.592    0.337    0.236   54.501
  361.750   15.083    0.327    0.256   56.323
  362.000   14.891    0.333    0.252   55.654
  362.250   15.059    0.334    0.246   52.857
  362.500   15.173    0.334    0.241   49.938
  362.750   15.008    0.337    0.243   48.053
  363.000   14.304    0.341    0.258   48.355
  363.250   13.433    0.331    0.266   50.968
  363.500   12.851    0.317    0.274   54.492
  363.750   12.386    0.302    0.274   56.922
  364.000   12.137    0.323    0.262   57.772
  364.250   11.504    0.310    0.260   53.759
  364.500   10.645    0.288    0.278   59.775
  364.750   10.015    0.272    0.303   66.945
  365.000    9.388    0.260    0.324   72.353
  365.250    9.014    0.234    0.337   76.060
  365.500    8.279    0.221    0.358   78.368
  365.750    7.479    0.217    0.365   78.246
  366.000    7.302    0.211    0.372   74.537
  366.250    7.453    0.223    0.387   69.066
  366.500    7.764    0.241    0.377   62.804
  366.750    7.910    0.256    0.366   56.239
  367.000    7.926    0.267    0.357   53.078
  367.250    7.854    0.275    0.341   50.706
  367.500    7.711    0.274    0.331   52.285
  367.750    7.612    0.255    0.346   59.091
  368.000    7.557    0.239    0.366   60.245
  368.250    7.516    0.262    0.378   55.503
  368.500    7.503    0.283    0.361   51.916
  368.750    7.463    0.300    0.353   54.892
  369.000    7.436    0.299    0.365   55.986
  369.250    7.328    0.292    0.354   54.161
  369.500    7.141    0.280    0.364   50.756
  369.750    6.895    0.294    0.390   49.114
  370.000    6.720    0.313    0.387   49.599
  370.250    6.733    0.326    0.367   54.642
  370.500    6.859    0.329    0.368   56.647
  370.750    7.054    0.326    0.373   50.811
  371.000    7.389    0.328    0.361   43.456
  371.250    7.598    0.346    0.355   35.736
  371.500    7.784    0.358    0.346   28.988
  371.750    7.916    0.364    0.338   27.650
  372.000    7.829    0.362    0.333   31.539
  372.250    7.787    0.357    0.353   35.670
  372.500    7.904    0.350    0.372   40.592
  372.750    8.038    0.340    0.379   54.570
  373.000    8.039    0.328    0.422   67.028
  373.250    7.762    0.315    0.488   72.436
  373.500    7.536    0.297    0.458   77.601
  373.750    7.250    0.279    0.434   82.523
  374.000    7.144    0.266    0.454   85.622
  374.250    7.106    0.262    0.457   84.891
  374.500    7.080    0.261    0.454   83.431
  374.750    7.055    0.261    0.462   82.640
  375.000    7.017    0.267    0.470   84.948
  375.250    6.979    0.272    0.453   86.406
  375.500    6.941    0.264    0.465   88.228
  375.750    6.878    0.251    0.475   89.686
  376.000    6.841    0.238    0.476   86.889
  376.250    6.816    0.261    0.469   75.826
  376.500    6.730    0.306    0.446   64.094
  376.750    6.656    0.338    0.426   59.535
  377.000    6.620    0.355    0.412   59.716
  377.250    6.572    0.363    0.404   61.660
  377.500    6.500    0.359    0.400   64.758
  377.750    6.453    0.356    0.402   68.343
  378.000    6.587    0.350    0.413   72.110
  378.250    6.698    0.333    0.439   71.744
  378.500    6.913    0.318    0.455   63.842
  378.750    7.070    0.309    0.438   59.161
  379.000    7.216    0.301    0.408   63.171
  379.250    7.324    0.294    0.384   67.121
  379.500    7.353    0.286    0.384   70.523
  379.750    7.313    0.272    0.391   73.925
  380.000    7.220    0.292    0.406   73.620
  380.250    7.167    0.309    0.402   70.337
  380.500    7.142    0.294    0.396   73.983
  380.750    7.077    0.286    0.406   75.258
  381.000    7.052    0.280    0.420   75.195
  381.250    7.027    0.286    0.429   76.289
  381.500    6.975    0.292    0.431   77.989
  381.750    6.810    0.285    0.437   79.204
  382.000    6.711    0.280    0.430   78.351
  382.250    6.737    0.277    0.425   74.339
  382.500    7.018    0.282    0.419   78.410
  382.750    7.365    0.287    0.411   80.354
  383.000    8.416    0.292    0.419   80.656
  383.250    9.494    0.283    0.441   80.108
  383.500   10.930    0.119    0.464   78.405
  383.750   11.641    0.052    0.467   72.812
  384.000   12.239    0.003    0.355   67.220
  384.250   12.061    0.001    0.260   62.356
  384.500    9.822    0.038    0.259   66.670
  384.750    8.254    0.084    0.382   77.305
  385.000    7.780    0.150    0.419   81.680
  385.250    7.429    0.229    0.436   84.779
  385.500    7.240    0.254    0.452   85.385
  385.750    7.161    0.269    0.466   82.710
  386.000    7.096    0.280    0.475   82.952
  386.250    7.057    0.277    0.484   82.282
  386.500    7.007    0.272    0.474   81.430
  386.750    6.943    0.273    0.458   83.617
  387.000    6.842    0.275    0.446   87.688
  387.250    6.767    0.269    0.444   91.880
  387.500    6.693    0.274    0.448   95.465
  387.750    6.571    0.276    0.459   98.624
  388.000    6.523    0.275    0.446  101.176
  388.250    6.561    0.279    0.441   97.893
