~VERSION INFORMATION
 VERS.                 2.0:   CWLS LOG ASCII STANDARD -VERSION 2.0
 WRAP.                  NO:   ONE LINE PER DEPTH STEP
~WELL INFORMATION BLOCK
#MNEM.UNIT           DATA                    DESCRIPTION OF MNEMONIC
#---------    -------------------            -------------------------------
# Generated from Intellog Unique Number	CS_69_70/WELL/819
NULL.         -999.25                        : NULL_VALUE
WELL.         AEC OIL AND GAS COMPANY        : Well_name    - WELL              
LOC .         00/07-14-070-05W4/0            : Location     - LOCATION          
UWI .         00/07-14-070-05W4/0            : Uwi          - UNIQUE WELL ID    
ENTR.         SP                             : Entered      - ENTERED BY        
SRVC.         SCHLUMBERGER                   : Scn          - SERVICE COMPANY   
STRT.M        300                            : top_depth    - START DEPTH       
STOP.M        535                            : bot_depth    - STOP DEPTH        
STEP.M        0.25                           : increment    - STEP LENGTH       
~CURVE INFORMATION BLOCK
#MNEM UNIT       ERCB CURVE CODE    CURVE DESCRIPTION
#-----------   ------------------   ----------------------------------
DEPT.M        00 001 00 00         : DEPTH        - DEPTH                       
ILD .OHMM     00 120 00 00         : RESD         - DEEP RESISTIVITY (DIL)      
DPHI.V/V      00 890 00 00         : PHID         - DENSITY POROSITY (LIMESTONE)
NPHI.V/V      00 330 00 00         : PHIN         - NEUTRON POROSITY (LIMESTONE)
GR  .API      00 310 00 00         : GR           - GAMMA RAY                   
~PARAMETER INFORMATION       
#MNEM.UNIT           DATA             DESCRIPTION OF MNEMONIC
#---------         -----------     ------------------------------
GL  .M        676.5                : gl           - GROUND LEVEL ELEVATION      
EREF.M        680.4                : kb           - ELEVATION OF DEPTH REFERENCE
DATM.M        676.5                : datum        - DATUM ELEVATION             
TDD .M        547                  : tdd          - TOTAL DEPTH DRILLER         
RUN .         ONE                  : Run          - RUN NUMBER                  
ENG .         BILL                 : Engineer     - RECORDING ENGINEER          
WIT .         JIM                  : Witness      - WITNESSED BY                
MUD .         GEL                  : Mud_type     - MUD TYPE                    
MATR.         LIMESTONE            : Logunit      - NEUTRON MATRIX              
TMAX.C        28                   : BHT          - MAXIMUM RECORDED TEMPERATURE
BHTD.M        547                  : BHTDEP       - MAXIMUM RECORDED TEMPERATURE
MATR.         1                    : LOGUNIT      - NEUTRON MATRIX              
RMT .C        25                   : MDTP         - TEMPERATURE OF MUD          
NEUT.         1                    : NEUTRON      - NEUTRON TYPE                
RESI.         0                    : RESIST       - RESISTIVITY TYPE            
RMC .OHMM     0.25                 : RMC          - RESISTIVITY OF MUD CAKE     
RMF .OHMM     0.25                 : RMF          - RESISTIVITY OF MUD FILTRATE 
SUFT.C        15                   : SUFT         - SURFACE TEMPERATURE         
~A  DEPTH     RESD     PHID     PHIN       GR
# ...
  430.500    7.560    0.268    0.402   80.918
  430.750    9.302    0.251    0.365   73.655
  431.000    9.845    0.261    0.354   69.416
  431.250    9.665    0.279    0.375   72.434
  431.500    8.475    0.273    0.380   70.613
  431.750    7.862    0.249    0.370   70.001
  432.000    8.166    0.281    0.362   73.019
  432.250    9.319    0.306    0.445   74.829
  432.500   11.253    0.303    0.501   73.614
  432.750   13.086    0.234    0.482   69.979
  433.000   14.112    0.210    0.404   65.738
  433.250   14.936    0.196    0.308   62.709
  433.500   14.941    0.233    0.357   65.726
  433.750   11.925    0.286    0.417   68.140
  434.000   10.070    0.305    0.445   69.948
  434.250    8.997    0.292    0.454   71.149
  434.500    7.889    0.286    0.436   69.936
  434.750    7.319    0.291    0.428   67.511
  435.000    8.043    0.300    0.418   71.132
  435.250    7.323    0.302    0.433   72.337
  435.500    6.668    0.307    0.439   69.910
  435.750    6.303    0.307    0.441   71.719
  436.000    5.959    0.297    0.452   74.737
  436.250    5.741    0.283    0.455   76.546
  436.500    5.636    0.280    0.454   77.146
  436.750    5.637    0.274    0.460   76.535
  437.000    5.639    0.280    0.459   74.109
  437.250    5.747    0.283    0.451   72.289
  437.500    5.642    0.288    0.451   74.095
  437.750    5.538    0.294    0.465   75.906
  438.000    5.335    0.297    0.470   78.319
  438.250    5.044    0.299    0.457   75.289
  438.500    4.859    0.301    0.452   76.490
  438.750    4.681    0.301    0.465   77.696
  439.000    4.683    0.290    0.451   81.317
  439.250    4.597    0.277    0.440   80.707
  439.500    4.598    0.270    0.433   78.886
  439.750    4.514    0.280    0.435   79.486
  440.000    4.516    0.286    0.443   81.293
  440.250    4.433    0.287    0.443   83.704
  440.500    4.434    0.284    0.445   84.307
  440.750    4.435    0.285    0.461   84.300
  441.000    4.695    0.295    0.477   81.270
  441.250    4.785    0.301    0.493   77.031
  441.500    5.358    0.300    0.484   73.396
  441.750    6.115    0.296    0.476   70.971
  442.000    6.978    0.291    0.460   70.965
  442.250    7.815    0.293    0.454   72.772
  442.500    9.089    0.297    0.462   70.953
  442.750    9.801    0.278    0.443   62.479
  443.000   12.289    0.211    0.307   54.005
  443.250   16.613    0.134    0.241   52.789
  443.500   19.684    0.127    0.385   58.830
  443.750   22.045    0.256    0.409   63.059
  444.000   21.237    0.286    0.425   65.471
  444.250   15.139    0.308    0.432   67.280
  444.500   12.311    0.316    0.436   69.694
  444.750   10.012    0.306    0.434   73.316
  445.000    8.454    0.301    0.461   71.496
  445.250   10.018    0.310    0.487   66.046
  445.500   11.219    0.319    0.475   63.018
  445.750   11.653    0.329    0.465   67.245
  446.000   10.611    0.321    0.464   72.078
  446.250   10.221    0.316    0.480   69.045
  446.500    9.847    0.313    0.464   69.041
  446.750    9.665    0.312    0.454   71.451
  447.000    9.488    0.306    0.437   72.656
  447.250    9.856    0.306    0.425   73.257
  447.500   10.431    0.313    0.420   73.251
  447.750   12.361    0.307    0.448   68.406
  448.000   14.373    0.279    0.474   58.723
  448.250   17.031    0.225    0.460   49.645
  448.500   21.762    0.109    0.207   41.776
  448.750   23.469    0.164    0.272   49.025
  449.000   24.840    0.195    0.315   50.837
  449.250   26.291    0.181    0.329   49.016
  449.500   26.298    0.081    0.219   50.219
  449.750   24.865    0.149    0.299   55.049
  450.000   24.407    0.250    0.344   57.464
  450.250   24.416    0.295    0.403   60.483
  450.500   24.421    0.340    0.437   59.268
  450.750   23.973    0.338    0.452   55.028
  451.000   22.241    0.348    0.425   58.650
  451.250   19.502    0.337    0.424   60.459
  451.500   16.782    0.332    0.430   60.451
  451.750   14.714    0.325    0.435   60.447
  452.000   14.174    0.329    0.480   59.835
  452.250   16.485    0.334    0.462   58.619
  452.500   18.117    0.336    0.445   58.010
  452.750   18.816    0.336    0.435   57.399
  453.000   20.295    0.337    0.435   57.997
  453.250   21.480    0.331    0.429   57.992
  453.500   21.895    0.311    0.418   57.380
  453.750   21.900    0.161    0.344   51.325
  454.000   15.611    0.126    0.345   51.320
  454.250   12.458    0.227    0.383   60.385
  454.500   10.924    0.271    0.415   62.800
  454.750   11.784    0.298    0.437   65.818
  455.000   12.708    0.315    0.464   60.973
  455.250   14.501    0.328    0.477   56.127
  455.500   17.183    0.339    0.455   53.098
  455.750   18.187    0.343    0.442   50.068
  456.000   17.853    0.338    0.426   54.901
  456.250   14.519    0.332    0.433   57.919
  456.500   13.219    0.331    0.455   60.331
  456.750   12.497    0.337    0.471   60.931
  457.000   13.996    0.341    0.472   60.320
  457.250   15.972    0.347    0.461   60.310
  457.500   19.286    0.352    0.440   60.305
  457.750   21.597    0.352    0.435   60.905
  458.000   26.079    0.352    0.423   60.901
  458.250   29.204    0.355    0.419   60.895
  458.500   33.960    0.357    0.444   59.075
  458.750   37.326    0.336    0.457   51.810
  459.000   38.767    0.160    0.453   49.990
  459.250   40.266    0.146    0.266   48.775
  459.500   40.279    0.223    0.298   53.001
  459.750   38.078    0.303    0.327   52.995
  460.000   34.671    0.332    0.368   51.779
  460.250   32.778    0.354    0.439   53.588
  460.500   32.175    0.363    0.454   55.395
  460.750   35.360    0.270    0.403   54.182
  461.000   40.352    0.225    0.331   49.942
  461.250   44.347    0.192    0.310   48.121
  461.500   46.064    0.165    0.324   51.140
  461.750   37.461    0.204    0.372   54.761
  462.000   22.970    0.250    0.401   57.174
  462.250   17.326    0.280    0.423   58.985
  462.500   12.824    0.304    0.430   63.210
  462.750   10.627    0.323    0.437   64.416
  463.000    9.318    0.335    0.439   67.434
  463.250    9.499    0.337    0.461   67.428
  463.500   10.440    0.342    0.492   64.397
  463.750   11.049    0.345    0.488   64.995
  464.000   12.142    0.342    0.471   64.384
  464.250   13.598    0.337    0.479   61.355
  464.500   14.392    0.336    0.472   63.766
  464.750   14.670    0.326    0.464   64.972
  465.000   10.858    0.317    0.466   64.360
  465.250    9.343    0.309    0.472   64.353
  465.500    8.348    0.304    0.473   64.954
  465.750    7.892    0.313    0.472   64.341
  466.000    8.674    0.325    0.472   62.523
  466.250   10.673    0.330    0.472   57.677
  466.500   13.133    0.334    0.483   54.648
  466.750   14.163    0.338    0.488   54.037
  467.000   14.436    0.336    0.496   57.054
  467.250   12.899    0.336    0.462   59.468
  467.500   11.525    0.331    0.440   61.882
  467.750   10.493    0.323    0.470   61.875
  468.000   10.301    0.322    0.482   60.659
  468.250   10.902    0.327    0.494   61.258
  468.500   12.441    0.329    0.483   60.041
  468.750   14.743    0.333    0.467   58.828
  469.000   17.471    0.335    0.458   57.005
  469.250   19.198    0.323    0.453   53.974
  469.500   21.100    0.240    0.439   52.156
  469.750   22.333    0.226    0.401   55.778
  470.000   23.636    0.256    0.363   59.402
  470.250   24.551    0.284    0.406   56.370
  470.500   22.353    0.306    0.449   56.970
  470.750   18.876    0.339    0.444   60.592
  471.000   17.185    0.333    0.414   63.007
  471.250   15.646    0.317    0.449   64.814
  471.500   15.072    0.310    0.475   65.414
  471.750   22.387    0.306    0.458   64.198
  472.000   30.263    0.302    0.452   60.563
  472.250   40.150    0.302    0.453   56.322
  472.500   44.124    0.280    0.461   53.292
  472.750   46.702    0.165    0.414   50.867
  473.000   24.174    0.088    0.313   55.700
  473.250   17.560    0.089    0.317   60.532
  473.500   14.551    0.160    0.354   64.156
  473.750   12.759    0.198    0.375   62.940
