~VERSION INFORMATION
 VERS.                 2.0:   CWLS LOG ASCII STANDARD -VERSION 2.0
 WRAP.                  NO:   ONE LINE PER DEPTH STEP
~WELL INFORMATION BLOCK
#MNEM.UNIT           DATA                    DESCRIPTION OF MNEMONIC
#---------    -------------------            -------------------------------
# Generated from Intellog Unique Number	CS_69_70/WELL/134
WELL.         AFC MEDLEY 6-7-69 2 W4M        : Well_name    - WELL
LOC .         00/06-07-069-02W4/0            : Location     - LOCATION
UWI .         00/06-07-069-02W4/0            : Uwi          - UNIQUE WELL ID
ENTR.         ANDERSEN                       : Entered      - ENTERED BY
SRVC.         SCHLUMBERGER                   : Scn          - SERVICE COMPANY
STRT.M        375                            : top_depth    - START DEPTH
STOP.M        625                            : bot_depth    - STOP DEPTH
STEP.M        0.25                           : increment    - STEP LENGTH
 NULL. -999.2500:NULL Value
~CURVE INFORMATION BLOCK
#MNEM UNIT       ERCB CURVE CODE    CURVE DESCRIPTION
#-----------   ------------------   ----------------------------------
DEPT.M        00 001 00 00         : DEPTH        - DEPTH
ILD .OHMM     00 120 00 00         : RESD         - DEEP RESISTIVITY (DIL)
DPHI.V/V      00 890 00 00         : PHID         - DENSITY POROSITY (SANDSTONE)
NPHI.V/V      00 330 00 00         : PHIN         - NEUTRON POROSITY (SANDSTONE)
CALI.MM       00 280 01 00         : CAL          - CALIPER
GR  .API      00 310 00 00         : GR           - GAMMA RAY
~PARAMETER INFORMATION
#MNEM.UNIT           DATA             DESCRIPTION OF MNEMONIC
#---------         -----------     ------------------------------
GL  .M        717.8                : gl           - GROUND LEVEL ELEVATION
EREF.M        721.4                : kb           - ELEVATION OF DEPTH REFERENCE
DATM.M        721.4                : datum        - DATUM ELEVATION
TDD .M        626                  : tdd          - TOTAL DEPTH DRILLER
RUN .         ONE                  : Run          - RUN NUMBER
ENG .         BILL                 : Engineer     - RECORDING ENGINEER
WIT .         JIM                  : Witness      - WITNESSED BY
MUD .         GEL                  : Mud_type     - MUD TYPE
MATR.         SANDSTONE            : Logunit      - NEUTRON MATRIX
TMAX.C        27                   : BHT          - MAXIMUM RECORDED TEMPERATURE
BHTD.M        626                  : BHTDEP       - MAXIMUM RECORDED TEMPERATURE
MATR.         1                    : LOGUNIT      - NEUTRON MATRIX
RMT .C        19                   : MDTP         - TEMPERATURE OF MUD
NEUT.         1                    : NEUTRON      - NEUTRON TYPE
RESI.         0                    : RESIST       - RESISTIVITY TYPE
RMC .OHMM     3.3                  : RMC          - RESISTIVITY OF MUD CAKE
RMF .OHMM     6.9                  : RMF          - RESISTIVITY OF MUD FILTRATE
SUFT.C        15                   : SUFT         - SURFACE TEMPERATURE
~A  DEPTH     RESD     PHID     PHIN      CAL       GR
# ...
  448.000    4.872    0.365    0.444  147.756   44.175
  448.250    4.878    0.363    0.431  146.776   41.281
  448.500    4.972    0.346    0.417  146.761   40.693
  448.750    5.068    0.334    0.398  146.736   43.563
  449.000    5.071    0.318    0.352  146.717   51.613
  449.250    5.075    0.263    0.334  147.656   63.117
  449.500    4.897    0.313    0.390  149.556   72.318
  449.750    4.725    0.352    0.435  150.491   72.882
  450.000    4.560    0.359    0.443  150.476   71.143
  450.250    4.321    0.357    0.440  150.451   68.822
  450.500    4.021    0.334    0.441  149.476   68.237
  450.750    3.809    0.320    0.446  149.456   71.680
  451.000    3.543    0.303    0.461  148.467   80.881
  451.250    3.296    0.290    0.493  147.492   88.930
  451.500    3.181    0.292    0.510  147.472   88.343
  451.750    3.126    0.305    0.484  147.452   72.784
  452.000    3.128    0.338    0.452  147.432   53.191
  452.250    3.131    0.360    0.420  147.407   46.845
  452.500    3.310    0.371    0.407  147.387   43.954
  452.750    3.697    0.375    0.415  147.367   42.211
  453.000    3.981    0.376    0.427  147.348   44.503
  453.250    4.058    0.376    0.429  147.328   46.215
  453.500    3.988    0.370    0.405  149.227   45.052
  453.750    3.992    0.368    0.390  150.167   44.464
  454.000    3.995    0.369    0.405  151.102   44.452
  454.250    3.999    0.376    0.425  152.046   44.440
  454.500    4.002    0.380    0.420  152.022   45.583
  454.750    4.006    0.379    0.414  151.997   47.298
  455.000    4.009    0.376    0.431  151.982   46.707
  455.250    4.014    0.378    0.432  151.002   45.544
  455.500    4.015    0.379    0.419  150.023   43.229
  455.750    4.019    0.375    0.418  148.083   44.365
  456.000    4.022    0.374    0.418  148.058   46.657
  456.250    4.025    0.374    0.408  147.074   47.221
  456.500    4.030    0.375    0.411  147.054   45.481
  456.750    4.034    0.373    0.414  147.039   44.318
  457.000    4.036    0.371    0.413  147.014   43.730
  457.250    3.968    0.370    0.410  146.999   43.718
  457.500    3.970    0.371    0.405  146.979   44.858
  457.750    3.974    0.373    0.407  147.919   46.570
  458.000    3.977    0.377    0.420  148.844   47.134
  458.250    3.981    0.374    0.446  148.834   47.122
  458.500    3.984    0.370    0.438  148.814   46.534
  458.750    3.988    0.365    0.434  148.789   44.216
  459.000    3.991    0.361    0.434  148.769   44.204
  459.250    3.995    0.360    0.425  148.749   44.192
  459.500    3.997    0.359    0.412  148.729   43.604
  459.750    3.930    0.358    0.410  148.709   42.441
  460.000    3.932    0.355    0.412  148.689   42.429
  460.250    3.935    0.355    0.408  148.664   43.568
  460.500    3.868    0.363    0.405  148.645   44.129
  460.750    3.872    0.375    0.431  148.625   43.541
  461.000    3.806    0.384    0.431  148.610   42.954
  461.250    3.807    0.392    0.450  147.625   43.518
  461.500    3.741    0.396    0.476  146.645   44.084
  461.750    3.744    0.397    0.460  146.626   42.915
  462.000    3.681    0.380    0.443  145.646   43.479
  462.250    3.684    0.357    0.423  145.621   43.470
  462.500    3.754    0.338    0.408  145.601   45.755
  462.750    3.898    0.332    0.415  145.581   46.901
  463.000    4.047    0.336    0.422  145.561   48.041
  463.250    4.201    0.348    0.427  145.531   49.180
  463.500    4.282    0.354    0.434  146.476   48.014
  463.750    4.365    0.361    0.432  147.416   46.850
  464.000    4.368    0.355    0.424  148.356   58.354
  464.250    4.452    0.324    0.434  149.296   75.617
  464.500    4.456    0.307    0.464  150.235   86.546
  464.750    4.543    0.291    0.473  151.175   92.289
  465.000    4.546    0.292    0.484  151.150   91.701
  465.250    4.551    0.298    0.504  151.130   89.965
  465.500    4.638    0.308    0.506  153.030   87.071
  465.750    4.643    0.309    0.498  153.015   85.910
  466.000    4.645    0.317    0.551  152.030   80.713
  466.250    4.650    0.327    0.569  151.056   73.215
  466.500    4.572    0.340    0.527  150.066   63.990
  466.750    4.574    0.348    0.529  150.046   50.734
  467.000    4.495    0.356    0.528  149.066   46.686
  467.250    4.339    0.361    0.511  149.037   44.946
  467.500    4.263    0.367    0.485  149.027   42.634
  467.750    4.113    0.372    0.489  149.007   42.046
  468.000    3.897    0.365    0.477  148.982   43.762
  468.250    3.626    0.357    0.463  148.967   55.263
  468.500    3.373    0.350    0.465  148.942   57.555
  468.750    3.196    0.338    0.468  148.917   61.001
  469.000    3.028    0.320    0.461  148.907   70.775
  469.250    2.869    0.307    0.467  148.887   79.400
  469.500    2.670    0.289    0.486  150.787   81.691
  469.750    2.623    0.269    0.519  151.726   82.255
  470.000    2.625    0.267    0.534  153.621   81.667
  470.250    2.627    0.266    0.534  154.561   77.049
  470.500    2.727    0.264    0.524  154.536   75.885
  470.750    3.102    0.271    0.521  153.561   64.930
  471.000    3.796    0.306    0.513  151.622   56.280
  471.250    4.731    0.329    0.494  149.683   51.662
  471.500    5.093    0.338    0.469  148.703   50.498
  471.750    5.191    0.335    0.453  147.713   56.820
  472.000    5.103    0.309    0.441  147.693   91.358
  472.250    5.014    0.278    0.455  147.674   95.373
  472.500    4.498    0.240    0.452  148.608   94.213
  472.750    4.262    0.240    0.435  148.598   96.504
  473.000    4.113    0.248    0.442  148.578   95.338
  473.250    4.116    0.248    0.480  147.599   91.871
  473.500    4.196    0.256    0.480  147.569   93.010
  473.750    4.356    0.263    0.483  148.504   95.877
  474.000    4.359    0.269    0.475  148.484   94.711
  474.250    4.206    0.264    0.464  148.474   95.851
  474.500    3.912    0.264    0.458  148.449   95.263
  474.750    3.509    0.271    0.472  147.469   93.523
  475.000    3.207    0.279    0.491  147.445   94.087
  475.250    3.210    0.285    0.505  147.425   95.224
  475.500    3.212    0.276    0.522  148.364   94.060
  475.750    3.215    0.270    0.538  148.344   91.172
  476.000    3.218    0.280    0.505  147.370   86.554
  476.250    3.220    0.284    0.485  146.390   82.508
  476.500    3.224    0.272    0.470  147.330   89.406
  476.750    3.226    0.257    0.464  148.260   94.573
  477.000    3.228    0.261    0.476  147.275   92.834
  477.250    3.291    0.270    0.505  147.265   93.398
  477.500    3.354    0.260    0.501  148.200   91.662
  477.750    3.547    0.264    0.513  148.175   86.467
  478.000    3.614    0.276    0.514  147.205   78.967
  478.250    3.552    0.285    0.484  147.186   78.955
  478.500    3.491    0.269    0.465  147.156   89.307
  478.750    3.430    0.270    0.461  147.136   95.051
  479.000    3.434    0.298    0.477  147.121   92.738
  479.250    3.500    0.311    0.494  145.182   85.241
  479.500    3.633    0.320    0.503  144.202   80.043
  479.750    3.636    0.333    0.499  144.177   80.607
  480.000    3.384    0.338    0.467  144.157   82.323
  480.250    3.147    0.336    0.443  144.132   78.856
  480.500    2.982    0.345    0.430  144.112   75.965
  480.750    3.096    0.359    0.428  144.092   73.074
  481.000    3.522    0.376    0.410  144.072   71.335
  481.250    3.861    0.395    0.396  143.098   71.314
  481.500    4.158    0.400    0.396  143.078   70.156
  481.750    4.729    0.395    0.404  143.053   67.265
  482.000    5.091    0.382    0.415  143.018   62.647
  482.250    5.791    0.367    0.427  143.003   56.876
  482.500    6.468    0.354    0.452  142.993   49.952
  482.750    7.094    0.250    0.481  143.933   44.757
  483.000    7.498    0.160    0.394  144.873   40.715
  483.250    7.643    0.013    0.195  147.732   37.824
  483.500    7.790    0.017    0.166  147.707   41.267
  483.750    8.089    0.135    0.208  147.687   47.013
  484.000    8.397    0.244    0.344  145.748   51.607
  484.250    9.041    0.318    0.377  143.809   48.135
