~VERSION INFORMATION
 VERS.                 2.0:   CWLS LOG ASCII STANDARD -VERSION 2.0
 WRAP.                  NO:   ONE LINE PER DEPTH STEP
~WELL INFORMATION BLOCK
#MNEM.UNIT           DATA                    DESCRIPTION OF MNEMONIC
#---------    -------------------            -------------------------------
# Generated from Intellog Unique Number	CS_73_76/WELL/2158
WELL.         PEX KIRBY                      : Well_name    - WELL
LOC .         00/07-13-075-07W4/0            : Location     - LOCATION
UWI .         00/07-13-075-07W4/0            : Uwi          - UNIQUE WELL ID
ENTR.         SP                             : Entered      - ENTERED BY
SRVC.         SCHLUMBERGER                   : Scn          - SERVICE COMPANY
STRT.M        245                            : top_depth    - START DEPTH
STOP.M        475                            : bot_depth    - STOP DEPTH
STEP.M        0.25                           : increment    - STEP LENGTH
 NULL. -999.2500:NULL Value
~CURVE INFORMATION BLOCK
#MNEM UNIT       ERCB CURVE CODE    CURVE DESCRIPTION
#-----------   ------------------   ----------------------------------
DEPT.M        00 001 00 00         : DEPTH        - DEPTH
ILD .OHMM     00 120 00 00         : RESD         - DEEP RESISTIVITY (DIL)
DPHI.V/V      00 890 00 00         : PHID         - DENSITY POROSITY (LIMESTONE)
NPHI.V/V      00 330 00 00         : PHIN         - NEUTRON POROSITY (LIMESTONE)
GR  .API      00 310 00 00         : GR           - GAMMA RAY
~PARAMETER INFORMATION
#MNEM.UNIT           DATA             DESCRIPTION OF MNEMONIC
#---------         -----------     ------------------------------
GL  .M        642.12               : gl           - GROUND LEVEL ELEVATION
EREF.M        645.4                : kb           - ELEVATION OF DEPTH REFERENCE
DATM.M        642.12               : datum        - DATUM ELEVATION
TDD .M        480                  : tdd          - TOTAL DEPTH DRILLER
RUN .         ONE                  : Run          - RUN NUMBER
ENG .         BILL                 : Engineer     - RECORDING ENGINEER
WIT .         JIM                  : Witness      - WITNESSED BY
MUD .         GEL                  : Mud_type     - MUD TYPE
MATR.         LIMESTONE            : Logunit      - NEUTRON MATRIX
TMAX.C        21                   : BHT          - MAXIMUM RECORDED TEMPERATURE
BHTD.M        480                  : BHTDEP       - MAXIMUM RECORDED TEMPERATURE
MATR.         1                    : LOGUNIT      - NEUTRON MATRIX
RMT .C        25                   : MDTP         - TEMPERATURE OF MUD
NEUT.         1                    : NEUTRON      - NEUTRON TYPE
RESI.         0                    : RESIST       - RESISTIVITY TYPE
RMC .OHMM     0.25                 : RMC          - RESISTIVITY OF MUD CAKE
RMF .OHMM     0.25                 : RMF          - RESISTIVITY OF MUD FILTRATE
SUFT.C        15                   : SUFT         - SURFACE TEMPERATURE
~A  DEPTH     RESD     PHID     PHIN       GR
# ...
  332.000   14.039    0.257    0.355   67.236
  332.250   14.302    0.274    0.345   69.079
  332.500   14.300    0.292    0.357   70.924
  332.750   14.297    0.285    0.352   72.152
  333.000   12.528    0.293    0.366   75.221
  333.250   11.617    0.301    0.388   78.289
  333.500   10.373    0.315    0.406   77.072
  333.750    8.754    0.293    0.418   76.464
  334.000    7.388    0.261    0.422   87.494
  334.250    6.118    0.243    0.413   94.235
  334.500    5.463    0.238    0.422   99.138
  334.750    4.524    0.230    0.441   98.534
  335.000    3.747    0.224    0.456   95.478
  335.250    3.283    0.234    0.434   94.260
  335.500    3.044    0.233    0.422   92.430
  335.750    3.044    0.223    0.412   90.600
  336.000    3.407    0.208    0.403   88.160
  336.250    4.113    0.211    0.387   88.165
  336.500    5.352    0.202    0.373   90.621
  336.750    6.340    0.198    0.384   93.688
  337.000    7.097    0.207    0.389   96.145
  337.250    7.945    0.212    0.379   94.315
  337.500    8.727    0.218    0.365   91.261
  337.750    8.891    0.236    0.356   90.042
  338.000    8.889    0.241    0.348   89.437
  338.250    7.937    0.236    0.368   90.667
  338.500    7.360    0.247    0.395   93.123
  338.750    5.870    0.244    0.411   92.517
  339.000    5.144    0.235    0.424  101.709
  339.250    4.770    0.223    0.420  102.328
  339.500    4.507    0.215    0.408   99.887
  339.750    4.339    0.206    0.389   96.831
  340.000    4.505    0.203    0.369   89.490
  340.250    4.856    0.223    0.396   83.987
  340.500    5.645    0.224    0.402   87.055
  340.750    6.943    0.234    0.391   83.389
  341.000    7.772    0.245    0.376   80.333
  341.250    9.033    0.259    0.371   76.053
  341.500    9.738    0.265    0.364   74.837
  341.750   10.110    0.258    0.355   74.843
  342.000   10.301    0.245    0.375   74.849
  342.250    8.692    0.227    0.392   79.142
  342.500    7.910    0.247    0.408   87.722
  342.750    7.198    0.260    0.432   89.563
  343.000    6.427    0.254    0.424   90.184
  343.250    5.632    0.258    0.412   92.028
  343.500    5.322    0.259    0.430   93.258
  343.750    5.028    0.259    0.428   95.716
  344.000    4.842    0.279    0.413   96.945
  344.250    4.750    0.267    0.419   95.114
  344.500    4.660    0.257    0.441   94.509
  344.750    4.748    0.253    0.421   94.515
  345.000    4.747    0.252    0.441   92.073
  345.250    5.021    0.269    0.446   88.406
  345.500    5.116    0.242    0.432   86.579
  345.750    5.311    0.275    0.419   87.197
  346.000    5.412    0.268    0.409   87.202
  346.250    5.618    0.213    0.396   87.822
  346.500    5.724    0.248    0.394   89.053
  346.750    5.722    0.247    0.403   87.834
  347.000    5.721    0.211    0.402   89.066
  347.250    5.829    0.166    0.394   90.296
  347.500    6.166    0.198    0.384   90.916
  347.750    6.524    0.205    0.369   92.147
  348.000    7.166    0.201    0.370   92.155
  348.250    7.581    0.201    0.387   92.773
  348.500    7.871    0.198    0.381   90.944
  348.750    8.484    0.206    0.384   89.726
  349.000    8.808    0.216    0.376   87.896
  349.250    9.145    0.209    0.372   86.065
  349.500    9.674    0.210    0.362   84.847
  349.750   10.044    0.198    0.364   84.242
  350.000   10.427    0.193    0.366   84.250
  350.250   10.624    0.189    0.390   85.479
  350.500   10.621    0.187    0.389   87.322
  350.750   10.036    0.200    0.381   86.719
  351.000    9.483    0.211    0.367   89.175
  351.250    8.309    0.205    0.365   91.017
  351.500    7.560    0.199    0.375   94.085
  351.750    7.143    0.202    0.386   95.316
  352.000    6.750    0.201    0.388   95.936
  352.250    6.499    0.199    0.384   96.553
  352.500    6.258    0.202    0.385   92.887
  352.750    5.913    0.158    0.394   95.342
  353.000    5.693    0.191    0.410   94.738
  353.250    5.180    0.216    0.401   93.519
  353.500    4.539    0.223    0.404   92.914
  353.750    4.209    0.233    0.409   92.308
  354.000    3.903    0.241    0.422   94.151
  354.250    3.485    0.257    0.421   94.772
  354.500    3.171    0.248    0.426   96.001
  354.750    2.941    0.232    0.436   97.232
  355.000    2.778    0.224    0.404   99.691
  355.250    2.778    0.233    0.391  100.309
  355.500    2.884    0.239    0.385  101.540
  355.750    3.168    0.227    0.388  102.157
  356.000    3.415    0.218    0.378  102.164
  356.250    3.681    0.205    0.363   97.273
  356.500    3.895    0.174    0.362   89.933
  356.750    4.613    0.189    0.371   84.429
  357.000    4.973    0.211    0.372   83.824
  357.250    5.673    0.234    0.361   86.279
  357.500    6.115    0.212    0.361   82.614
  357.750    6.349    0.218    0.375   78.947
  358.000    6.469    0.241    0.374   70.994
  358.250    6.467    0.271    0.356   61.817
  358.500    6.466    0.299    0.335   57.538
  358.750    6.344    0.293    0.324   53.872
  359.000    6.225    0.284    0.315   53.265
  359.250    6.222    0.279    0.344   55.722
  359.500    6.105    0.283    0.357   54.503
  359.750    6.104    0.278    0.355   53.285
  360.000    6.102    0.283    0.363   52.069
  360.250    5.876    0.288    0.356   54.524
  360.500    5.875    0.284    0.350   56.979
  360.750    5.874    0.289    0.362   58.211
  361.000    5.873    0.295    0.359   55.156
  361.250    6.213    0.297    0.353   57.613
  361.500    6.212    0.295    0.358   58.230
  361.750    6.210    0.299    0.361   57.627
  362.000    6.209    0.307    0.356   57.020
  362.250    6.326    0.294    0.358   56.413
  362.500    6.324    0.290    0.357   55.195
  362.750    6.323    0.273    0.341   58.265
  363.000    6.322    0.279    0.346   56.434
  363.250    6.321    0.294    0.356   58.279
  363.500    6.319    0.294    0.352   58.284
  363.750    6.318    0.291    0.345   58.292
  364.000    6.316    0.294    0.348   58.910
  364.250    6.315    0.295    0.351   58.916
  364.500    6.314    0.303    0.343   55.864
  364.750    6.313    0.313    0.353   53.421
  365.000    6.312    0.316    0.349   54.038
  365.250    6.192    0.298    0.347   56.495
  365.500    6.191    0.290    0.349   56.501
  365.750    6.190    0.295    0.349   57.122
  366.000    6.188    0.298    0.342   58.965
  366.250    6.304    0.303    0.349   60.809
  366.500    6.303    0.303    0.349   62.654
  366.750    6.302    0.302    0.352   63.270
  367.000    6.301    0.298    0.366   64.500
  367.250    6.299    0.296    0.357   62.672
  367.500    6.298    0.298    0.353   61.453
  367.750    6.297    0.301    0.354   62.685
  368.000    6.416    0.295    0.361   64.528
  368.250    6.414    0.290    0.348   66.370
  368.500    6.413    0.287    0.338   65.767
  368.750    6.412    0.288    0.346   66.386
  369.000    6.410    0.297    0.381   67.616
  369.250    6.408    0.298    0.394   69.462
  369.500    6.408    0.290    0.397   71.302
  369.750    6.407    0.281    0.396   75.597
  370.000    6.405    0.286    0.388   76.826
  370.250    6.404    0.293    0.376   72.548
  370.500    6.402    0.294    0.355   70.716
  370.750    6.401    0.305    0.327   71.949
  371.000    6.645    0.302    0.278   73.178
  371.250    7.164    0.283    0.249   70.738
  371.500    8.020    0.242    0.224   68.294
  371.750    9.499    0.050    0.203   62.180
  372.000   11.683    0.005    0.186   57.288
  372.250   12.835    0.034    0.274   56.682
  372.500   14.099    0.239    0.391   70.160
  372.750   12.355    0.266    0.391   75.676
  373.000    9.312    0.238    0.389   80.580
  373.250    7.859    0.236    0.382   81.200
  373.500    6.150    0.222    0.370   82.430
  373.750    5.191    0.212    0.356   84.274
  374.000    4.218    0.196    0.366   89.181
  374.250    3.697    0.188    0.371   89.797
  374.500    3.493    0.193    0.388   87.358
  374.750    3.238    0.204    0.404   86.138
  375.000    3.238    0.202    0.413   88.593
  375.250    3.425    0.200    0.424   89.213
