~VERSION INFORMATION
 VERS.                 2.0:   CWLS LOG ASCII STANDARD -VERSION 2.0
 WRAP.                  NO:   ONE LINE PER DEPTH STEP
~WELL INFORMATION BLOCK
#MNEM.UNIT           DATA                    DESCRIPTION OF MNEMONIC
#---------    -------------------            -------------------------------
# Generated from Intellog Unique Number	CS_77_79/WELL/885
WELL.         PARAMOUNT ET AL PORTAGE        : Well_name    - WELL
LOC .         00/06-28-079-15W4/0            : Location     - LOCATION
UWI .         00/06-28-079-15W4/0            : Uwi          - UNIQUE WELL ID
ENTR.         JHS                            : Entered      - ENTERED BY
SRVC.         SCHLUMBERGER                   : Scn          - SERVICE COMPANY
STRT.M        188.976                        : top_depth    - START DEPTH
STOP.M        447.726                        : bot_depth    - STOP DEPTH
STEP.M        0.25                           : increment    - STEP LENGTH
 NULL. -999.2500:NULL Value
~CURVE INFORMATION BLOCK
#MNEM UNIT       ERCB CURVE CODE    CURVE DESCRIPTION
#-----------   ------------------   ----------------------------------
DEPT.M        00 001 00 00         : DEPTH        - DEPTH
GR  .API      00 310 00 00         : GR           - GAMMA RAY
DPHI.V/V      00 890 00 00         : PHID         - DENSITY POROSITY (SANDSTONE)
NPHI.V/V      00 330 00 00         : PHIN         - NEUTRON POROSITY (SANDSTONE)
ILD .OHMM     00 120 00 00         : RESD         - DEEP RESISTIVITY (DIL)
~PARAMETER INFORMATION
#MNEM.UNIT           DATA             DESCRIPTION OF MNEMONIC
#---------         -----------     ------------------------------
GL  .M        619.354              : gl           - GROUND LEVEL ELEVATION
EREF.M        622.402              : kb           - ELEVATION OF DEPTH REFERENCE
DATM.M        622.402              : datum        - DATUM ELEVATION
TDD .M        449.58               : tdd          - TOTAL DEPTH DRILLER
RUN .         ONE                  : Run          - RUN NUMBER
ENG .         BILL                 : Engineer     - RECORDING ENGINEER
WIT .         JIM                  : Witness      - WITNESSED BY
MUD .         GEL                  : Mud_type     - MUD TYPE
MATR.         SANDSTONE            : Logunit      - NEUTRON MATRIX
TMAX.C        60                   : BHT          - MAXIMUM RECORDED TEMPERATURE
BHTD.M        449.58               : BHTDEP       - MAXIMUM RECORDED TEMPERATURE
MATR.         1                    : LOGUNIT      - NEUTRON MATRIX
RMT .C        25                   : MDTP         - TEMPERATURE OF MUD
NEUT.         1                    : NEUTRON      - NEUTRON TYPE
RESI.         0                    : RESIST       - RESISTIVITY TYPE
RMC .OHMM     0.25                 : RMC          - RESISTIVITY OF MUD CAKE
RMF .OHMM     0.25                 : RMF          - RESISTIVITY OF MUD FILTRATE
SUFT.C        15                   : SUFT         - SURFACE TEMPERATURE
~A  DEPTH       GR     PHID     PHIN     RESD
# ...
  275.976   51.230    0.353    0.490   33.495
  276.226   50.187    0.345    0.461   30.058
  276.476   46.804    0.351    0.441   26.096
  276.726   47.669    0.350    0.427   24.472
  276.976   52.331    0.339    0.425   23.877
  277.226   55.542    0.328    0.444   23.288
  277.476   54.399    0.318    0.447   22.172
  277.726   50.742    0.308    0.443   20.964
  277.976   50.707    0.309    0.452   20.141
  278.226   51.754    0.328    0.468   19.379
  278.476   49.780    0.337    0.476   19.064
  278.726   46.749    0.322    0.472   19.097
  278.976   46.554    0.310    0.458   19.787
  279.226   47.735    0.321    0.450   21.849
  279.476   48.159    0.311    0.439   28.590
  279.726   50.001    0.267    0.417   34.208
  279.976   50.228    0.186    0.368   38.842
  280.226   47.959    0.104    0.295   40.829
  280.476   50.279    0.049    0.249   36.472
  280.726   52.152    0.120    0.259   27.858
  280.976   52.785    0.188    0.347   22.181
  281.226   52.827    0.284    0.405   19.371
  281.476   51.705    0.337    0.466   16.244
  281.726   49.193    0.328    0.457   14.794
  281.976   50.520    0.325    0.458   14.155
  282.226   50.567    0.324    0.451   14.015
  282.476   46.899    0.342    0.446   13.765
  282.726   46.192    0.326    0.446   13.780
  282.976   47.047    0.304    0.448   13.783
  283.226   49.218    0.316    0.446   13.784
  283.476   50.546    0.318    0.441   13.786
  283.726   50.480    0.301    0.433   13.790
  283.976   51.200    0.314    0.426   13.804
  284.226   51.775    0.323    0.435   13.595
  284.476   52.773    0.324    0.440   13.598
  284.726   53.786    0.315    0.436   13.596
  284.976   54.758    0.312    0.439   13.597
  285.226   56.782    0.315    0.446   13.599
  285.476   58.020    0.308    0.419   13.601
  285.726   60.611    0.298    0.405   13.598
  285.976   61.050    0.283    0.408   13.518
  286.226   55.128    0.298    0.417   13.425
  286.476   51.067    0.324    0.416   13.610
  286.726   51.246    0.335    0.413   13.496
  286.976   55.651    0.318    0.421   12.808
  287.226   57.833    0.301    0.411   12.218
  287.476   58.674    0.283    0.401   11.408
  287.726   62.072    0.280    0.401   10.256
  287.976   65.782    0.271    0.408    9.814
  288.226   67.982    0.261    0.423    9.877
  288.476   68.915    0.263    0.440   10.009
  288.726   67.148    0.286    0.447   10.935
  288.976   64.656    0.273    0.431   12.147
  289.226   62.766    0.270    0.446   13.479
  289.476   59.866    0.269    0.453   14.064
  289.726   60.006    0.280    0.454   13.814
  289.976   62.687    0.281    0.443   13.490
  290.226   65.790    0.297    0.430   13.169
  290.476   64.848    0.284    0.410   12.838
  290.726   62.692    0.298    0.416   12.733
  290.976   65.196    0.273    0.419   12.427
  291.226   69.691    0.270    0.425   12.446
  291.476   67.052    0.273    0.437   12.537
  291.726   66.808    0.264    0.422   12.857
  291.976   67.853    0.259    0.416   12.853
  292.226   69.063    0.266    0.419   12.439
  292.476   71.059    0.279    0.428   12.246
  292.726   72.169    0.268    0.428   11.886
  292.976   71.889    0.272    0.433   11.857
  293.226   66.691    0.273    0.423   11.855
  293.476   65.670    0.263    0.421   11.767
  293.726   68.339    0.256    0.428   12.076
  293.976   69.275    0.245    0.430   12.064
  294.226   68.179    0.246    0.434   12.066
  294.476   69.731    0.258    0.449   12.075
  294.726   69.514    0.256    0.451   11.899
  294.976   68.938    0.272    0.434   11.572
  295.226   71.669    0.278    0.442   11.251
  295.476   79.384    0.261    0.452   10.754
  295.726   82.130    0.255    0.462   10.403
  295.976   81.363    0.279    0.458   10.075
  296.226   80.900    0.273    0.452    9.472
  296.476   80.509    0.265    0.451    8.879
  296.726   82.675    0.257    0.455    8.696
  296.976   83.399    0.245    0.448    8.363
  297.226   82.762    0.229    0.447    8.362
  297.476   84.394    0.238    0.464    8.487
  297.726   86.332    0.252    0.473    8.928
  297.976   83.828    0.269    0.462    9.176
  298.226   80.983    0.300    0.455    9.839
  298.476   68.710    0.304    0.434   10.490
  298.726   56.122    0.294    0.419   11.140
  298.976   54.728    0.290    0.422   11.293
  299.226   54.405    0.302    0.439   11.599
  299.476   51.002    0.312    0.451   11.700
  299.726   50.376    0.299    0.456   11.868
  299.976   53.306    0.289    0.445   11.676
  300.226   56.502    0.277    0.432   11.713
  300.476   57.252    0.269    0.431   11.517
  300.726   56.509    0.278    0.436   11.303
  300.976   56.588    0.279    0.445   11.134
  301.226   56.614    0.288    0.440   11.129
  301.476   56.697    0.292    0.431   11.147
  301.726   57.242    0.288    0.429   11.310
  301.976   56.971    0.274    0.441   11.543
  302.226   56.620    0.279    0.433   11.524
  302.476   54.525    0.287    0.437   11.498
  302.726   54.605    0.289    0.446   11.677
  302.976   57.327    0.287    0.442   11.527
  303.226   56.957    0.295    0.440   11.551
  303.476   57.228    0.304    0.442   11.324
  303.726   61.998    0.285    0.445   11.143
  303.976   64.882    0.288    0.445   11.025
  304.226   63.612    0.284    0.444   10.943
  304.476   61.549    0.297    0.447   10.941
  304.726   64.234    0.305    0.453   10.964
  304.976   64.681    0.298    0.460   10.741
  305.226   63.729    0.284    0.465   10.438
  305.476   63.706    0.282    0.454   10.007
  305.726   65.409    0.275    0.441    9.330
  305.976   70.283    0.267    0.436    8.192
  306.226   74.533    0.278    0.433    7.110
  306.476   78.500    0.292    0.437    5.988
  306.726   83.241    0.296    0.467    5.096
  306.976   84.518    0.321    0.493    4.691
  307.226   83.469    0.338    0.512    4.195
  307.476   83.950    0.360    0.567    4.227
  307.726   85.802    0.392    0.568    3.736
  307.976   83.623    0.362    0.514    3.428
  308.226   85.559    0.331    0.500    3.017
  308.476   90.986    0.276    0.529    2.583
  308.726   93.663    0.305    0.582    2.259
  308.976   93.316    0.323    0.598    1.992
  309.226   92.566    0.311    0.615    2.010
  309.476   90.966    0.293    0.627    2.356
  309.726   87.699    0.290    0.623    2.784
  309.976   89.559    0.278    0.576    3.379
  310.226   89.938    0.275    0.567    4.345
  310.476   89.843    0.274    0.506    5.158
  310.726   91.957    0.243    0.478    5.790
  310.976   93.263    0.216    0.479    5.717
  311.226   94.517    0.237    0.483    5.375
  311.476   94.985    0.234    0.489    5.221
  311.726   96.173    0.202    0.485    4.990
  311.976   98.903    0.221    0.482    5.014
  312.226  101.780    0.229    0.488    5.019
  312.476   99.388    0.219    0.509    5.049
  312.726   92.291    0.253    0.527    5.614
  312.976   89.055    0.267    0.512    5.873
  313.226   90.379    0.255    0.508    6.042
  313.476   93.861    0.230    0.510    6.410
  313.726   96.834    0.246    0.498    6.437
  313.976   94.351    0.247    0.486    6.204
  314.226   94.468    0.233    0.490    6.247
  314.476   95.194    0.219    0.485    6.097
  314.726   92.660    0.221    0.496    6.223
  314.976   88.903    0.271    0.475    6.349
  315.226   88.841    0.247    0.469    6.911
  315.476   91.206    0.242    0.485    7.438
  315.726   87.021    0.232    0.486    7.634
  315.976   84.511    0.237    0.483    7.598
  316.226   82.315    0.259    0.490    5.914
  316.476   79.984    0.277    0.485    3.921
  316.726   80.028    0.286    0.480    2.506
  316.976   80.500    0.301    0.498    1.704
  317.226   85.063    0.317    0.512    1.472
  317.476   91.251    0.295    0.539    1.253
  317.726   98.472    0.321    0.602    1.258
  317.976   99.981    0.361    0.617    1.580
  318.226   94.839    0.355    0.580    1.679
  318.476   95.236    0.328    0.580    1.864
  318.726   94.473    0.311    0.597    2.095
  318.976   91.460    0.308    0.610    2.074
  319.226   91.720    0.331    0.631    2.074
