~VERSION INFORMATION
 VERS.                 2.0:   CWLS LOG ASCII STANDARD -VERSION 2.0
 WRAP.                  NO:   ONE LINE PER DEPTH STEP
~WELL INFORMATION BLOCK
#MNEM.UNIT           DATA                    DESCRIPTION OF MNEMONIC
#---------    -------------------            -------------------------------
# Generated from Intellog Unique Number	CW_70_72/WELL/2903
NULL.         -999.25                        : NULL_VALUE
WELL.         PETROMA ET AL RICHMOND         : Well_name    - WELL              
LOC .         07-14-070-19W4                 : Location     - LOCATION          
UWI .         00/07-14-070-19W4/0            : Uwi          - UNIQUE WELL ID    
ENTR.         MAX                            : Entered      - ENTERED BY        
SRVC.         SCHLUMBERGER                   : Scn          - SERVICE COMPANY   
DATE.         07 FEB 76                      : Date         - LOG DATE
STRT.M        335.28                         : top_depth    - START DEPTH       
STOP.M        487.78                         : bot_depth    - STOP DEPTH        
STEP.M        0.25                           : increment    - STEP LENGTH       
~CURVE INFORMATION BLOCK
#MNEM UNIT       ERCB CURVE CODE    CURVE DESCRIPTION
#-----------   ------------------   ----------------------------------
DEPT.M        00 001 00 00         : DEPTH        - DEPTH                       
ILD .OHMM     00 120 00 00         : RESD         - DEEP RESISTIVITY (DIL)      
NPHI.V/V      00 330 00 00         : PHIN         - NEUTRON POROSITY (SANDSTONE)
DPHI.V/V      00 890 00 00         : PHID         - DENSITY POROSITY (SANDSTONE)
CALI.MM       00 280 01 00         : CAL          - CALIPER                     
GR  .API      00 310 00 00         : GR           - GAMMA RAY                   
~PARAMETER INFORMATION       
#MNEM.UNIT           DATA             DESCRIPTION OF MNEMONIC
#---------         -----------     ------------------------------
GL  .M        560.497              : gl           - GROUND LEVEL ELEVATION      
EREF.M        564.185              : kb           - ELEVATION OF DEPTH REFERENCE
DATM.M        560.497              : datum        - DATUM ELEVATION             
TDD .M        513.893              : tdd          - TOTAL DEPTH DRILLER         
RUN .         ONE                  : Run          - RUN NUMBER                  
ENG .         BILL                 : Engineer     - RECORDING ENGINEER          
WIT .         JIM                  : Witness      - WITNESSED BY                
MUD .         GEL                  : Mud_type     - MUD TYPE                    
MATR.         SANDSTONE            : Logunit      - NEUTRON MATRIX              
TMAX.C        23.8889              : BHT          - MAXIMUM RECORDED TEMPERATURE
BHTD.M        513.893              : BHTDEP       - MAXIMUM RECORDED TEMPERATURE
RMT .C        18.8889              : MDTP         - TEMPERATURE OF MUD          
MUDD.KG/M     9900                 : MWT          - MUD DENSITY                 
NEUT.         1                    : NEUTRON      - NEUTRON TYPE                
RESI.         0                    : RESIST       - RESISTIVITY TYPE            
RM  .OHMM     3.74                 : RM           - RESISTIVITY OF MUD          
RMC .OHMM     1.86                 : RMC          - RESISTIVITY OF MUD CAKE     
RMF .OHMM     2.12                 : RMF          - RESISTIVITY OF MUD FILTRATE 
SUFT.C        -12.2222             : SUFT         - SURFACE TEMPERATURE         
~A  DEPTH     RESD     PHIN     PHID      CAL       GR
# ...
  444.780    5.350    0.385    0.155  146.588  101.375
  445.030    5.302    0.380    0.153  146.071  105.308
  445.280    5.207    0.378    0.158  146.070  109.846
  445.530    5.068    0.384    0.176  146.069  113.173
  445.780    4.977    0.385    0.164  146.068  115.592
  446.030    4.933    0.389    0.167  146.067  117.709
  446.280    4.888    0.399    0.170  148.642  117.707
  446.530    4.844    0.400    0.165  150.702  115.283
  446.780    4.933    0.381    0.160  151.216  113.465
  447.030    5.115    0.360    0.143  149.154  104.988
  447.280    5.451    0.345    0.118  146.576   94.090
  447.530    5.755    0.334    0.122  145.544   94.088
  447.780    6.077    0.343    0.142  145.543   90.756
  448.030    6.189    0.359    0.130  146.057   81.977
  448.280    6.133    0.363    0.120  147.087   81.066
  448.530    5.809    0.368    0.129  148.116   89.539
  448.780    5.502    0.379    0.154  151.207   99.828
  449.030    5.164    0.393    0.173  150.691  104.669
  449.280    4.803    0.396    0.188  150.174  106.483
  449.530    4.508    0.405    0.171  148.627  108.599
  449.780    4.193    0.409    0.188  148.110  111.019
  450.030    3.693    0.450    0.200  147.594  113.135
  450.280    3.138    0.503    0.206  147.593  116.765
  450.530    2.815    0.520    0.202  147.076  114.342
  450.780    2.690    0.496    0.213  146.560  111.918
  451.030    2.815    0.463    0.192  145.528   96.177
  451.280    3.110    0.404    0.167  145.527   86.792
  451.530    4.469    0.315    0.116  145.526   80.131
  451.780    4.719    0.278    0.060  145.525   73.470
  452.030    5.357    0.294    0.048  145.523   75.889
  452.280    5.760    0.331    0.066  145.007   83.454
  452.530    6.250    0.394    0.097  145.006   92.835
  452.780    6.028    0.407    0.129  145.004   97.070
  453.030    5.606    0.399    0.156  145.519  101.911
  453.280    4.894    0.410    0.154  148.609  108.567
  453.530    4.430    0.421    0.153  152.731  109.473
  453.780    4.158    0.421    0.159  158.913  107.352
  454.030    4.196    0.413    0.157  165.096  103.718
  454.280    4.471    0.382    0.142  164.064   97.663
  454.530    4.636    0.319    0.117  160.456   87.975
  454.780    4.851    0.305    0.102  147.056   88.881
  455.030    5.076    0.360    0.123  144.479   95.538
  455.280    5.077    0.379    0.141  144.479   96.746
  455.530    5.031    0.379    0.164  144.476   98.257
  455.780    4.896    0.360    0.166  144.475   99.466
  456.030    4.680    0.371    0.163  144.989  101.583
  456.280    4.274    0.380    0.152  147.049  105.818
  456.530    4.122    0.382    0.178  150.656  109.448
  456.780    4.122    0.398    0.164  155.808  113.381
  457.030    3.940    0.434    0.168  158.898  117.616
  457.280    3.302    0.456    0.170  163.312  118.564
  457.530    3.547    0.438    0.192  164.340  113.657
  457.780    4.021    0.431    0.175  163.810  110.281
  458.030    4.280    0.437    0.168  163.803  110.582
  458.280    4.476    0.422    0.159  162.753  109.962
  458.530    4.722    0.413    0.166  162.742  111.488
  458.780    4.806    0.414    0.167  162.733  109.338
  459.030    4.848    0.428    0.161  162.206  105.961
  459.280    4.890    0.437    0.165  161.676  109.324
  459.530    4.933    0.445    0.164  161.147  111.464
  459.780    5.021    0.442    0.171  159.061  111.765
  460.030    5.111    0.440    0.159  156.458  109.920
  460.280    5.202    0.442    0.135  158.521  111.445
  460.530    5.343    0.437    0.125  159.031  112.052
  460.780    5.438    0.428    0.115  159.022  110.209
  461.030    5.340    0.422    0.106  157.974  108.670
  461.280    4.750    0.418    0.147  156.405  112.034
  461.530    4.263    0.437    0.135  155.877  115.093
  461.780    3.967    0.461    0.157  155.868  117.844
  462.030    3.860    0.461    0.180  156.377  118.143
  462.280    3.859    0.471    0.173  156.366  117.832
  462.530    3.963    0.468    0.170  155.837  116.906
  462.780    4.144    0.455    0.171  154.270  115.981
  463.030    4.492    0.464    0.167  152.704  114.442
  463.280    4.697    0.440    0.161  151.136  110.761
  463.530    4.653    0.376    0.102  150.089  105.547
  463.780    4.488    0.392    0.071  149.561  105.541
  464.030    4.138    0.430    0.159  149.031  113.193
  464.280    3.956    0.456    0.199  148.503  118.703
  464.530    3.849    0.464    0.186  147.453  126.356
  464.780    3.953    0.444    0.175  147.444  119.610
  465.030    4.246    0.430    0.176  148.991  116.538
  465.280    4.561    0.415    0.154  153.130  116.533
  465.530    4.727    0.403    0.151  154.158  113.464
  465.780    4.518    0.398    0.131  153.629  110.395
  466.030    4.204    0.417    0.160  152.581  114.370
  466.280    3.876    0.446    0.175  151.534  119.880
  466.530    3.639    0.469    0.176  151.005  127.839
  466.780    3.671    0.471    0.175  151.513  119.868
  467.030    3.804    0.453    0.158  152.541  117.410
  467.280    4.198    0.422    0.141  153.050  114.954
  467.530    4.591    0.404    0.113  150.445  111.578
  467.780    5.066    0.420    0.088  148.878  114.329
  468.030    5.442    0.432    0.139  150.425  114.630
  468.280    5.846    0.429    0.143  154.565  114.317
  468.530    6.112    0.408    0.142  156.109  114.312
  468.780    6.111    0.391    0.124  156.102  116.448
  469.030    6.000    0.393    0.118  151.939  118.894
  469.280    5.945    0.387    0.130  150.893  119.195
  469.530    5.890    0.360    0.132  155.552  117.350
  469.780    5.889    0.341    0.116  155.541  113.055
  470.030    5.993    0.340    0.104  152.937  113.968
  470.280    6.100    0.335    0.101  150.852  116.106
  470.530    6.154    0.324    0.103  151.360  114.875
  470.780    6.206    0.317    0.114  152.387  113.031
  471.030    6.262    0.317    0.112  152.894  114.251
  471.280    6.316    0.319    0.116  153.403  115.164
  471.530    6.314    0.322    0.114  153.395  113.933
  471.780    5.981    0.350    0.115  152.866  110.557
  472.030    5.515    0.350    0.126  151.817   99.215
  472.280    5.225    0.343    0.143  151.806   87.260
  472.530    4.774    0.334    0.150  151.796   78.063
  472.780    4.442    0.348    0.157  151.786   69.785
  473.030    4.133    0.353    0.180  149.703   64.571
  473.280    4.022    0.357    0.226  148.655   71.305
  473.530    4.021    0.359    0.243  147.605   79.265
  473.780    4.056    0.357    0.218  146.559  109.589
  474.030    4.055    0.376    0.194  146.547  118.162
  474.280    4.165    0.377    0.210  146.539  121.220
  474.530    4.355    0.374    0.217  146.523  111.409
  474.780    4.472    0.375    0.204  146.518  110.791
  475.030    4.676    0.372    0.179  146.508  109.560
  475.280    4.803    0.358    0.165  146.491   98.830
  475.530    4.977    0.341    0.184  146.487   96.985
  475.780    5.157    0.336    0.182  146.995  104.639
  476.030    5.202    0.346    0.175  148.022  118.420
  476.280    5.201    0.345    0.156  148.013  119.026
  476.530    5.153    0.346    0.166  146.966  114.119
  476.780    4.881    0.373    0.170  145.398  114.113
  477.030    4.708    0.349    0.164  144.869  110.431
  477.280    4.622    0.334    0.201  144.860  103.684
  477.530    4.620    0.331    0.192  145.885  104.597
  477.780    4.620    0.335    0.183  146.394  107.654
  478.030    4.619    0.349    0.173  146.903  111.019
  478.280    4.786    0.352    0.171  146.374  114.383
  478.530    4.960    0.339    0.173  144.289  114.071
  478.780    5.140    0.332    0.180  140.646  111.001
  479.030    5.326    0.332    0.159  140.120  114.058
  479.280    5.421    0.351    0.128  144.259  116.808
  479.530    5.518    0.350    0.154  143.729  112.208
  479.780    5.617    0.350    0.173  141.643  110.364
  480.030    5.768    0.351    0.149  142.673  113.728
  480.280    5.766    0.344    0.153  148.886  113.413
  480.530    5.713    0.336    0.141  153.026  113.410
  480.780    5.610    0.334    0.151  154.053  115.241
  481.030    5.459    0.339    0.141  155.602  118.605
