~VERSION INFORMATION
 VERS.                 2.0:   CWLS LOG ASCII STANDARD -VERSION 2.0
 WRAP.                  NO:   ONE LINE PER DEPTH STEP
~WELL INFORMATION BLOCK
#MNEM.UNIT           DATA                    DESCRIPTION OF MNEMONIC
#---------    -------------------            -------------------------------
# Generated from Intellog Unique Number	CS_77_79/WELL/840
WELL.         DOME COWPAR                    : Well_name    - WELL
LOC .         00/02-17-079-03W4/0            : Location     - LOCATION
UWI .         00/02-17-079-03W4/0            : Uwi          - UNIQUE WELL ID
ENTR.         JHS                            : Entered      - ENTERED BY
SRVC.         SCHLUMBERGER                   : Scn          - SERVICE COMPANY
STRT.M        140                            : top_depth    - START DEPTH
STOP.M        400                            : bot_depth    - STOP DEPTH
STEP.M        0.25                           : increment    - STEP LENGTH
 NULL. -999.2500:NULL Value
~CURVE INFORMATION BLOCK
#MNEM UNIT       ERCB CURVE CODE    CURVE DESCRIPTION
#-----------   ------------------   ----------------------------------
DEPT.M        00 001 00 00         : DEPTH        - DEPTH
DPHI.V/V      00 890 00 00         : PHID         - DENSITY POROSITY (LIMESTONE)
NPHI.V/V      00 330 00 00         : PHIN         - NEUTRON POROSITY (LIMESTONE)
GR  .API      00 310 00 00         : GR           - GAMMA RAY
ILD .OHMM     00 120 00 00         : RESD         - DEEP RESISTIVITY (DIL)
RHOB.KG/M3    00 350 00 00         : DENS         - BULK DENSITY
~PARAMETER INFORMATION
#MNEM.UNIT           DATA             DESCRIPTION OF MNEMONIC
#---------         -----------     ------------------------------
GL  .M        549.2                : gl           - GROUND LEVEL ELEVATION
EREF.M        553.1                : kb           - ELEVATION OF DEPTH REFERENCE
DATM.M        553.1                : datum        - DATUM ELEVATION
TDD .M        402                  : tdd          - TOTAL DEPTH DRILLER
RUN .         ONE                  : Run          - RUN NUMBER
ENG .         BILL                 : Engineer     - RECORDING ENGINEER
WIT .         JIM                  : Witness      - WITNESSED BY
MUD .         GEL                  : Mud_type     - MUD TYPE
MATR.         LIMESTONE            : Logunit      - NEUTRON MATRIX
TMAX.C        24.4                 : BHT          - MAXIMUM RECORDED TEMPERATURE
BHTD.M        402                  : BHTDEP       - MAXIMUM RECORDED TEMPERATURE
MATR.         1                    : LOGUNIT      - NEUTRON MATRIX
RMT .C        25                   : MDTP         - TEMPERATURE OF MUD
NEUT.         1                    : NEUTRON      - NEUTRON TYPE
RESI.         0                    : RESIST       - RESISTIVITY TYPE
RMC .OHMM     0.25                 : RMC          - RESISTIVITY OF MUD CAKE
RMF .OHMM     0.25                 : RMF          - RESISTIVITY OF MUD FILTRATE
SUFT.C        15                   : SUFT         - SURFACE TEMPERATURE
~A  DEPTH     PHID     PHIN       GR     RESD     DENS
# ...
  249.500    0.296    0.490   73.259    9.701    0.000
  249.750    0.294    0.483   73.865   10.450    0.000
  250.000    0.282    0.489   74.470   10.451    0.000
  250.250    0.290    0.478   76.897   10.451    0.000
  250.500    0.282    0.473   77.503   10.259    0.000
  250.750    0.274    0.489   78.108   10.260    0.000
  251.000    0.284    0.465   77.499    9.887    0.000
  251.250    0.264    0.475   75.674    9.887    0.000
  251.500    0.271    0.493   76.281    9.706    0.000
  251.750    0.275    0.499   77.493    9.706    0.000
  252.000    0.269    0.483   78.705    9.528    0.000
  252.250    0.262    0.461   76.882    9.529    0.000
  252.500    0.230    0.458   78.702    9.182    0.000
  252.750    0.234    0.460   82.344    8.848    0.000
  253.000    0.242    0.470   84.164    8.215    0.000
  253.250    0.230    0.481   85.984    7.770    0.000
  253.500    0.230    0.477   84.766    7.214    0.000
  253.750    0.246    0.470   84.158    6.824    0.000
  254.000    0.244    0.470   83.549    6.824    0.000
  254.250    0.230    0.486   82.939    6.953    0.000
  254.500    0.247    0.496   82.331    6.953    0.000
  254.750    0.262    0.495   82.328    6.953    0.000
  255.000    0.258    0.510   80.505    6.954    0.000
  255.250    0.247    0.501   77.467    6.826    0.000
  255.500    0.252    0.494   79.286    6.578    0.000
  255.750    0.244    0.494   81.714    6.338    0.000
  256.000    0.249    0.495   81.712    6.107    0.000
  256.250    0.247    0.497   82.924    5.885    0.000
  256.500    0.235    0.505   84.137    5.886    0.000
  256.750    0.242    0.524   82.314    6.109    0.000
  257.000    0.258    0.506   78.668    6.340    0.000
  257.250    0.281    0.503   72.593    6.957    0.000
  257.500    0.317    0.511   73.198    8.072    0.000
  257.750    0.328    0.527   72.589    8.695    0.000
  258.000    0.321    0.539   71.373    9.366    0.000
  258.250    0.315    0.529   70.157    9.721    0.000
  258.500    0.305    0.501   71.976    9.543    0.000
  258.750    0.310    0.487   73.796    9.543    0.000
  259.000    0.304    0.470   76.224    9.905    0.000
  259.250    0.315    0.474   77.436    9.544    0.000
  259.500    0.307    0.488   78.649    8.538    0.000
  259.750    0.304    0.500   81.076    7.498    0.000
  260.000    0.287    0.511   85.325    6.344    0.000
  260.250    0.272    0.507   93.218    5.676    0.000
  260.500    0.235    0.514   96.253    4.984    0.000
  260.750    0.232    0.526   98.680    4.628    0.000
  261.000    0.229    0.526   99.893    4.297    0.000
  261.250    0.226    0.518   98.676    3.844    0.000
  261.500    0.221    0.527   95.638    3.704    0.000
  261.750    0.235    0.532   95.635    3.636    0.000
  262.000    0.229    0.538   98.670    3.439    0.000
  262.250    0.228    0.537   99.883    3.314    0.000
  262.500    0.239    0.546  101.096    3.020    0.000
  262.750    0.243    0.558  103.523    2.804    0.000
  263.000    0.230    0.580  104.735    2.702    0.000
  263.250    0.243    0.592  104.734    2.463    0.000
  263.500    0.232    0.581  107.768    2.509    0.000
  263.750    0.227    0.590  108.373    2.604    0.000
  264.000    0.222    0.574  105.335    2.753    0.000
  264.250    0.226    0.570   99.868    2.911    0.000
  264.500    0.217    0.587  100.473    2.966    0.000
  264.750    0.216    0.603  102.293    2.912    0.000
  265.000    0.224    0.602  102.291    2.858    0.000
  265.250    0.226    0.585  102.289    2.806    0.000
  265.500    0.240    0.568  101.073    2.806    0.000
  265.750    0.249    0.578   98.642    2.967    0.000
  266.000    0.232    0.566   95.603    3.317    0.000
  266.250    0.228    0.554   93.780    3.573    0.000
  266.500    0.227    0.543   93.171    4.069    0.000
  266.750    0.223    0.534   88.918    4.549    0.000
  267.000    0.239    0.532   84.058    4.810    0.000
  267.250    0.266    0.522   81.627    5.086    0.000
  267.500    0.255    0.516   80.410    5.278    0.000
  267.750    0.246    0.534   79.194    5.478    0.000
  268.000    0.262    0.515   76.762    5.686    0.000
  268.250    0.280    0.494   77.975    5.902    0.000
  268.500    0.275    0.475   77.973    6.240    0.000
  268.750    0.245    0.468   77.365    6.847    0.000
  269.000    0.229    0.481   71.897    7.514    0.000
  269.250    0.238    0.488   74.324    7.799    0.000
  269.500    0.279    0.487   74.322    7.946    0.000
  269.750    0.264    0.499   71.284    8.095    0.000
  270.000    0.274    0.470   67.638    8.559    0.000
  270.250    0.254    0.457   65.207    9.393    0.000
  270.500    0.233    0.431   65.813    9.569    0.000
  270.750    0.232    0.439   67.025    9.749    0.000
  271.000    0.261    0.464   65.202   10.308    0.000
  271.250    0.216    0.424   62.163   10.899    0.000
  271.500    0.186    0.410   65.198   12.184    0.000
  271.750    0.112    0.379   65.196   14.137    0.000
  272.000    0.026    0.291   61.551   17.022    0.000
  272.250    0.007    0.221   58.512   19.386    0.000
  272.500    0.059    0.205   59.725   21.274    0.000
  272.750    0.093    0.217   62.152   20.499    0.000
  273.000    0.137    0.275   67.008   15.517    0.000
  273.250    0.209    0.340   72.472   13.129    0.000
  273.500    0.275    0.459   77.328   11.317    0.000
  273.750    0.277    0.471   79.148    9.939    0.000
  274.000    0.268    0.463   74.288    9.577    0.000
  274.250    0.242    0.470   68.821    9.757    0.000
  274.500    0.203    0.425   65.783    9.757    0.000
  274.750    0.180    0.392   70.639    9.758    0.000
  275.000    0.213    0.392   76.709    9.403    0.000
  275.250    0.260    0.422   78.530    8.412    0.000
  275.500    0.290    0.465   78.528    7.251    0.000
  275.750    0.277    0.476   76.704    7.118    0.000
  276.000    0.277    0.479   78.524    7.252    0.000
  276.250    0.245    0.476   77.915    7.811    0.000
  276.500    0.210    0.436   77.305    8.414    0.000
  276.750    0.185    0.428   81.554    8.733    0.000
  277.000    0.208    0.438   85.196    8.573    0.000
  277.250    0.274    0.452   87.017    8.109    0.000
  277.500    0.251    0.463   88.836    7.670    0.000
  277.750    0.242    0.473   87.620    7.255    0.000
  278.000    0.248    0.479   86.404    6.736    0.000
  278.250    0.250    0.471   88.223    6.491    0.000
  278.500    0.225    0.473   91.258    6.372    0.000
  278.750    0.226    0.509   90.649    6.372    0.000
  279.000    0.225    0.513   87.610    6.864    0.000
  279.250    0.236    0.493   86.393    6.993    0.000
  279.500    0.221    0.479   86.392    6.738    0.000
  279.750    0.226    0.467   88.819    6.141    0.000
  280.000    0.243    0.459   90.032    5.702    0.000
  280.250    0.262    0.464   91.244    5.393    0.000
  280.500    0.248    0.474   90.635    4.915    0.000
  280.750    0.244    0.507   90.026    4.736    0.000
  281.000    0.242    0.528   89.417    4.737    0.000
  281.250    0.240    0.501   88.808    4.737    0.000
  281.500    0.227    0.486   90.021    4.650    0.000
  281.750    0.220    0.492   91.840    4.317    0.000
  282.000    0.219    0.519   92.446    4.160    0.000
  282.250    0.231    0.553   91.230    3.863    0.000
  282.500    0.244    0.566   90.013    3.654    0.000
  282.750    0.263    0.585   93.048    3.654    0.000
  283.000    0.248    0.600   97.297    3.521    0.000
  283.250    0.254    0.606   97.295    3.150    0.000
  283.500    0.253    0.582  100.329    2.924    0.000
  283.750    0.239    0.565  101.542    2.766    0.000
  284.000    0.250    0.561  101.540    2.818    0.000
  284.250    0.249    0.579   99.109    2.871    0.000
  284.500    0.259    0.590   96.678    3.210    0.000
  284.750    0.245    0.583   91.818    3.588    0.000
  285.000    0.238    0.539   90.601    4.011 2302.890
  285.250    0.225    0.499   88.778    4.830 2325.640
  285.500    0.204    0.502   82.703    5.816 2360.800
  285.750    0.167    0.444   72.985    6.748 2424.920
