~VERSION INFORMATION
 VERS.                 2.0:   CWLS LOG ASCII STANDARD -VERSION 2.0
 WRAP.                  NO:   ONE LINE PER DEPTH STEP
~WELL INFORMATION BLOCK
#MNEM.UNIT           DATA                    DESCRIPTION OF MNEMONIC
#---------    -------------------            -------------------------------
# Generated from Intellog Unique Number	CS_73_76/WELL/2164
WELL.         PEX KIRBY                      : Well_name    - WELL
LOC .         00/06-15-074-08W4/0            : Location     - LOCATION
UWI .         00/06-15-074-08W4/0            : Uwi          - UNIQUE WELL ID
ENTR.         SP                             : Entered      - ENTERED BY
SRVC.         SCHLUMBERGER                   : Scn          - SERVICE COMPANY
STRT.M        305                            : top_depth    - START DEPTH
STOP.M        525                            : bot_depth    - STOP DEPTH
STEP.M        0.25                           : increment    - STEP LENGTH
 NULL. -999.2500:NULL Value
~CURVE INFORMATION BLOCK
#MNEM UNIT       ERCB CURVE CODE    CURVE DESCRIPTION
#-----------   ------------------   ----------------------------------
DEPT.M        00 001 00 00         : DEPTH        - DEPTH
ILD .OHMM     00 120 00 00         : RESD         - DEEP RESISTIVITY (DIL)
DPHI.V/V      00 890 00 00         : PHID         - DENSITY POROSITY (LIMESTONE)
NPHI.V/V      00 330 00 00         : PHIN         - NEUTRON POROSITY (LIMESTONE)
GR  .API      00 310 00 00         : GR           - GAMMA RAY
~PARAMETER INFORMATION
#MNEM.UNIT           DATA             DESCRIPTION OF MNEMONIC
#---------         -----------     ------------------------------
GL  .M        683.67               : gl           - GROUND LEVEL ELEVATION
EREF.M        686.87               : kb           - ELEVATION OF DEPTH REFERENCE
DATM.M        683.67               : datum        - DATUM ELEVATION
TDD .M        534                  : tdd          - TOTAL DEPTH DRILLER
RUN .         ONE                  : Run          - RUN NUMBER
ENG .         BILL                 : Engineer     - RECORDING ENGINEER
WIT .         JIM                  : Witness      - WITNESSED BY
MUD .         GEL                  : Mud_type     - MUD TYPE
MATR.         LIMESTONE            : Logunit      - NEUTRON MATRIX
TMAX.C        34                   : BHT          - MAXIMUM RECORDED TEMPERATURE
BHTD.M        534                  : BHTDEP       - MAXIMUM RECORDED TEMPERATURE
MATR.         1                    : LOGUNIT      - NEUTRON MATRIX
RMT .C        25                   : MDTP         - TEMPERATURE OF MUD
NEUT.         1                    : NEUTRON      - NEUTRON TYPE
RESI.         0                    : RESIST       - RESISTIVITY TYPE
RMC .OHMM     0.25                 : RMC          - RESISTIVITY OF MUD CAKE
RMF .OHMM     0.25                 : RMF          - RESISTIVITY OF MUD FILTRATE
SUFT.C        15                   : SUFT         - SURFACE TEMPERATURE
~A  DEPTH     RESD     PHID     PHIN       GR
# ...
  435.500   10.641    0.043    0.330   78.487
  435.750    9.871    0.034    0.343   74.788
  436.000    8.986    0.147    0.355   77.879
  436.250    8.180    0.181    0.363   84.675
  436.500    8.029    0.200    0.361   90.235
  436.750    8.033    0.187    0.353   91.474
  437.000    7.885    0.189    0.349   91.481
  437.250    7.888    0.207    0.352   91.486
  437.500    7.892    0.201    0.361   91.489
  437.750    7.895    0.190    0.364   89.024
  438.000    7.750    0.190    0.371   84.091
  438.250    7.900    0.180    0.375   84.098
  438.500    7.903    0.175    0.369   85.953
  438.750    8.056    0.170    0.363   87.811
  439.000    8.059    0.170    0.379   89.049
  439.250    8.061    0.191    0.391   87.819
  439.500    8.065    0.202    0.398   82.886
  439.750    7.916    0.223    0.391   82.274
  440.000    7.771    0.229    0.384   84.749
  440.250    7.487    0.205    0.377   90.927
  440.500    7.348    0.171    0.381   94.635
  440.750    6.690    0.180    0.387   94.021
  441.000    6.444    0.192    0.382   88.474
  441.250    6.091    0.190    0.381   86.625
  441.500    5.240    0.184    0.375   87.864
  441.750    4.860    0.181    0.367   91.573
  442.000    4.026    0.185    0.363   94.665
  442.250    3.463    0.187    0.369   94.051
  442.500    3.152    0.195    0.376   91.587
  442.750    2.870    0.207    0.396   90.975
  443.000    2.765    0.251    0.401   90.364
  443.250    2.765    0.264    0.414   89.750
  443.500    2.819    0.269    0.448   86.669
  443.750    2.874    0.266    0.460   86.674
  444.000    2.875    0.251    0.466   85.443
  444.250    2.930    0.232    0.456   82.362
  444.500    2.988    0.240    0.445   86.689
  444.750    3.104    0.232    0.441   89.163
  445.000    3.544    0.220    0.423   91.018
  445.250    3.895    0.188    0.414   89.791
  445.500    4.364    0.222    0.412   89.794
  445.750    4.889    0.181    0.413   89.183
  446.000    5.477    0.165    0.419   87.335
  446.250    6.136    0.165    0.422   85.488
  446.500    7.275    0.172    0.392   82.407
  446.750    8.624    0.218    0.370   78.708
  447.000   11.668    0.240    0.353   73.158
  447.250   19.430    0.268    0.313   70.076
  447.500   26.791    0.299    0.287   67.611
  447.750   29.452    0.360    0.276   65.764
  448.000   27.842    0.343    0.301   62.683
  448.250   22.630    0.336    0.306   61.455
  448.500   19.465    0.318    0.318   62.695
  448.750   16.744    0.312    0.328   63.932
  449.000   15.533    0.340    0.343   68.258
  449.250   14.962    0.236    0.367   68.264
  449.500   16.142    0.268    0.370   65.181
  449.750   18.431    0.289    0.365   61.483
  450.000   19.509    0.239    0.367   58.402
  450.250   21.855    0.192    0.376   60.259
  450.500   25.427    0.241    0.384   62.115
  450.750   29.587    0.289    0.396   63.971
  451.000   31.320    0.312    0.391   62.124
  451.250   32.532    0.295    0.398   60.895
  451.500   33.163    0.315    0.395   62.135
  451.750   32.559    0.323    0.395   60.905
  452.000   29.082    0.315    0.393   59.675
  452.250   26.976    0.318    0.387   59.681
  452.500   25.502    0.309    0.379   60.919
  452.750   26.494    0.315    0.373   62.158
  453.000   30.249    0.315    0.361   62.164
  453.250   31.419    0.241    0.350   61.552
  453.500   33.262    0.192    0.342   60.940
  453.750   31.445    0.184    0.346   60.329
  454.000   28.092    0.209    0.346   60.949
  454.250   27.056    0.237    0.361   62.805
  454.500   23.719    0.273    0.381   63.428
  454.750   22.420    0.311    0.372   62.199
  455.000   22.427    0.290    0.383   62.203
  455.250   23.742    0.287    0.371   62.208
  455.500   24.666    0.303    0.386   62.830
  455.750   23.317    0.299    0.394   64.070
  456.000   21.225    0.310    0.394   63.458
  456.250   19.320    0.314    0.387   60.376
  456.500   17.258    0.319    0.377   59.147
  456.750   16.008    0.316    0.369   61.621
  457.000   14.574    0.297    0.385   63.477
  457.250   14.038    0.276    0.399   64.099
  457.500   14.861    0.255    0.410   61.635
  457.750   17.958    0.290    0.399   57.937
  458.000   19.740    0.289    0.393   61.029
  458.250   21.700    0.288    0.384   62.266
  458.500   23.409    0.304    0.371   62.272
  458.750   26.227    0.321    0.351   61.659
  459.000   27.764    0.300    0.336   59.813
  459.250   27.253    0.031    0.316   56.731
  459.500   24.347    0.063    0.325   53.649
  459.750   24.818    0.210    0.353   55.506
  460.000   26.277    0.300    0.377   61.068
  460.250   27.297    0.326    0.382   62.923
  460.500   27.828    0.336    0.364   66.632
  460.750   28.907    0.317    0.356   64.785
  461.000   29.466    0.191    0.361   62.939
  461.250   30.041    0.121    0.345   62.326
  461.500   31.804    0.104    0.366   59.862
  461.750   32.416    0.288    0.374   61.101
  462.000   34.317    0.312    0.377   60.489
  462.250   38.452    0.319    0.389   60.493
  462.500   39.941    0.311    0.396   57.413
  462.750   41.492    0.288    0.386   54.330
  463.000   40.736    0.286    0.373   53.101
  463.250   37.787    0.280    0.361   58.044
  463.500   35.715    0.284    0.345   59.901
  463.750   30.150    0.158    0.319   59.906
  464.000   24.507    0.152    0.341   59.293
  464.250   19.546    0.320    0.342   61.767
  464.500   16.190    0.322    0.338   61.155
  464.750   14.462    0.327    0.329   59.310
  465.000   12.919    0.315    0.327   58.078
  465.250   12.211    0.195    0.309   56.231
  465.500   11.764    0.170    0.345   59.324
  465.750   11.992    0.209    0.341   61.181
  466.000   12.937    0.199    0.341   61.802
  466.250   14.771    0.218    0.333   60.572
  466.500   17.512    0.211    0.346   59.343
  466.750   21.971    0.220    0.363   59.348
  467.000   25.081    0.249    0.364   58.735
  467.250   29.179    0.297    0.358   58.740
  467.500   34.597    0.310    0.360   53.806
  467.750   38.032    0.317    0.373   53.194
  468.000   41.030    0.320    0.378   51.964
  468.250   42.625    0.320    0.384   50.118
  468.500   41.842    0.312    0.383   48.273
  468.750   39.551    0.324    0.372   47.658
  469.000   36.692    0.313    0.367   47.046
  469.250   34.041    0.322    0.365   47.051
  469.500   32.787    0.317    0.368   47.673
  469.750   31.584    0.308    0.368   48.912
  470.000   31.595    0.319    0.364   48.300
  470.250   32.209    0.321    0.358   48.922
  470.500   32.221    0.302    0.364   50.163
  470.750   33.474    0.297    0.353   50.166
  471.000   33.484    0.300    0.354   47.705
  471.250   32.869    0.323    0.375   46.474
  471.500   31.072    0.322    0.394   45.861
  471.750   24.784    0.317    0.406   44.631
  472.000   19.768    0.349    0.407   43.401
  472.250   15.185    0.385    0.405   43.408
  472.500   13.823    0.390    0.405   44.646
  472.750   13.315    0.380    0.395   47.120
  473.000   13.573    0.330    0.382   48.977
  473.250   14.370    0.305    0.371   50.216
  473.500   14.927    0.287    0.364   51.456
  473.750   15.802    0.304    0.371   51.462
  474.000   16.416    0.317    0.371   51.465
  474.250   16.423    0.298    0.369   47.766
  474.500   15.524    0.287    0.387   50.242
  474.750   13.608    0.285    0.398   52.097
  475.000   11.928    0.287    0.380   53.954
  475.250   11.933    0.296    0.374   54.576
  475.500   12.396    0.269    0.369   55.199
  475.750   13.374    0.259    0.361   53.351
  476.000   14.429    0.290    0.342   49.035
  476.250   15.274    0.303    0.332   46.571
  476.500   15.569    0.303    0.334   43.491
  476.750   16.482    0.325    0.342   47.816
  477.000   17.123    0.309    0.352   54.610
  477.250   15.586    0.245    0.340   66.343
  477.500   13.407    0.192    0.331   77.459
  477.750   12.204    0.206    0.324   74.378
  478.000   11.538    0.218    0.327   81.173
  478.250   11.114    0.204    0.332   83.647
  478.500   10.910    0.191    0.326   85.504
  478.750   10.914    0.178    0.319   88.596
