~VERSION INFORMATION
 VERS.                 2.0:   CWLS LOG ASCII STANDARD -VERSION 2.0
 WRAP.                  NO:   ONE LINE PER DEPTH STEP
~WELL INFORMATION BLOCK
#MNEM.UNIT           DATA                    DESCRIPTION OF MNEMONIC
#---------    -------------------            -------------------------------
# Generated from Intellog Unique Number	CW_76_78/WELL/549
WELL.         07-04-077-04W5                 : Well_name    - WELL
LOC .         00/07-04-077-04W5/0            : Location     - LOCATION
UWI .         00/07-04-077-04W5/0            : Uwi          - UNIQUE WELL ID
ENTR.         JAYE                           : Entered      - ENTERED BY
SRVC.         SCHLUMBERGER                   : Scn          - SERVICE COMPANY
DATE.         11 MAR 75                      : Date         - LOG DATE
STRT.M        432.816                        : top_depth    - START DEPTH
STOP.M        658.316                        : bot_depth    - STOP DEPTH
STEP.M        0.25                           : increment    - STEP LENGTH
 NULL. -999.2500:NULL Value
~CURVE INFORMATION BLOCK
#MNEM UNIT       ERCB CURVE CODE    CURVE DESCRIPTION
#-----------   ------------------   ----------------------------------
DEPT.M        00 001 00 00         : DEPTH        - DEPTH
DPHI.V/V      00 890 00 00         : PHID         - DENSITY POROSITY (SANDSTONE)
NPHI.V/V      00 330 00 00         : PHIN         - NEUTRON POROSITY (SANDSTONE)
GR  .API      00 310 00 00         : GR           - GAMMA RAY
CALI.MM       00 280 01 00         : CAL          - CALIPER
ILD .OHMM     00 120 00 00         : RESD         - DEEP RESISTIVITY (DIL)
~PARAMETER INFORMATION
#MNEM.UNIT           DATA             DESCRIPTION OF MNEMONIC
#---------         -----------     ------------------------------
GL  .M        726.338              : gl           - GROUND LEVEL ELEVATION
EREF.M        729.905              : kb           - ELEVATION OF DEPTH REFERENCE
DATM.M        726.338              : datum        - DATUM ELEVATION
TDD .M        670.255              : tdd          - TOTAL DEPTH DRILLER
RUN .         ONE                  : Run          - RUN NUMBER
ENG .         SMILEY               : Engineer     - RECORDING ENGINEER
WIT .         KIS/STEIDEL          : Witness      - WITNESSED BY
BASE.         EDMONTON             : Branch       - HOME BASE OF LOGGING UNIT
MUD .         GEL CHEM             : Mud_type     - MUD TYPE
MATR.         SANDSTONE            : Logunit      - NEUTRON MATRIX
TMAX.C        26.1111              : BHT          - MAXIMUM RECORDED TEMPERATURE
BHTD.M        670.865              : BHTDEP       - MAXIMUM RECORDED TEMPERATURE
RMT .C        16.1111              : MDTP         - TEMPERATURE OF MUD
MUDD.KG/M     1128                 : MWT          - MUD DENSITY
NEUT.         1                    : NEUTRON      - NEUTRON TYPE
RESI.         0                    : RESIST       - RESISTIVITY TYPE
RM  .OHMM     3.16                 : RM           - RESISTIVITY OF MUD
RMC .OHMM     5.23                 : RMC          - RESISTIVITY OF MUD CAKE
RMF .OHMM     4.07                 : RMF          - RESISTIVITY OF MUD FILTRATE
SUFT.C        4.5                  : SUFT         - SURFACE TEMPERATURE
~A  DEPTH     PHID     PHIN       GR      CAL     RESD
# ...
  578.816    0.204    0.479   95.701  164.293    3.954
  579.066    0.184    0.482   97.391  164.549    3.951
  579.316    0.207    0.474   98.463  163.674    4.008
  579.566    0.226    0.481   97.638  162.074    4.132
  579.816    0.250    0.471   92.033  160.878    4.593
  580.066    0.246    0.450   85.017  159.072    5.097
  580.316    0.239    0.433   77.206  159.642    5.975
  580.566    0.220    0.414   72.395  162.089    6.803
  580.816    0.211    0.394   70.901  163.083    8.108
  581.066    0.212    0.401   72.587  163.242    8.816
  581.316    0.219    0.416   75.194  163.404    8.572
  581.566    0.264    0.438   77.740  163.457    7.520
  581.816    0.266    0.479   80.228  163.102    6.769
  582.066    0.257    0.464   81.855  162.537    6.229
  582.316    0.250    0.453   83.053  161.663    5.935
  582.566    0.251    0.455   83.394  160.688    5.760
  582.816    0.254    0.447   82.997  160.009    5.652
  583.066    0.261    0.463   82.111  159.340    5.506
  583.316    0.271    0.466   80.858  158.776    5.402
  583.566    0.269    0.461   78.442  158.933    5.399
  583.816    0.250    0.448   76.143  159.507    5.466
  584.066    0.223    0.433   72.687  159.672    5.543
  584.316    0.199    0.384   70.510  160.036    5.907
  584.566    0.141    0.314   69.195  161.134    6.725
  584.816    0.134    0.299   69.412  161.604    7.769
  585.066    0.161    0.404   71.897  161.659    7.851
  585.316    0.197    0.431   76.345  160.685    7.358
  585.566    0.225    0.452   79.385  159.501    6.269
  585.816    0.256    0.491   81.138  158.408    5.530
  586.066    0.259    0.485   81.656  158.047    5.260
  586.316    0.256    0.478   81.137  157.481    5.086
  586.566    0.258    0.468   78.473  157.124    4.972
  586.816    0.269    0.456   76.853  157.080    4.887
  587.066    0.258    0.453   77.253  157.035    4.867
  587.316    0.249    0.457   78.762  157.296    4.908
  587.566    0.255    0.438   77.507  158.182    4.978
  587.816    0.258    0.443   75.578  159.071    5.105
  588.066    0.247    0.449   74.753  159.649    5.341
  588.316    0.215    0.419   74.177  160.019    5.745
  588.566    0.167    0.371   75.311  160.173    6.224
  588.816    0.152    0.343   77.243  159.606    6.441
  589.066    0.158    0.388   78.812  158.834    6.461
  589.316    0.217    0.422   79.033  157.960    6.351
  589.566    0.242    0.438   79.984  158.014    5.717
  589.816    0.246    0.448   80.872  158.278    5.165
  590.066    0.252    0.469   83.052  159.059    4.850
  590.316    0.256    0.476   84.434  159.430    4.724
  590.566    0.251    0.468   84.471  159.801    4.871
  590.816    0.241    0.446   81.008  159.963    5.162
  591.066    0.227    0.427   80.368  159.604    5.352
  591.316    0.231    0.441   81.444  159.553    5.388
  591.566    0.241    0.452   83.807  159.722    5.365
  591.816    0.237    0.453   88.803  160.918    5.274
  592.066    0.223    0.447   93.189  161.700    5.184
  592.316    0.210    0.448   94.757  162.168    5.143
  592.566    0.203    0.451   94.054  162.125    5.112
  592.816    0.206    0.451   91.515  161.561    5.109
  593.066    0.202    0.457   91.856  161.616    5.106
  593.316    0.225    0.450   92.745  161.153    5.047
  593.566    0.233    0.440   94.312  161.523    4.989
  593.816    0.222    0.425   98.266  162.724    4.905
  594.066    0.195    0.412  102.043  163.708    4.866
  594.316    0.169    0.426  102.749  163.871    4.845
  594.566    0.177    0.441  100.636  163.719    4.860
  594.816    0.190    0.450   99.507  163.360    4.919
  595.066    0.198    0.442   99.538  163.631    4.953
  595.316    0.210    0.427   96.755  163.576    5.014
  595.566    0.196    0.429   96.172  164.059    5.104
  595.816    0.186    0.449   96.207  164.109    5.252
  596.066    0.196    0.442   89.129  163.544    5.337
  596.316    0.194    0.422   88.550  163.184    5.482
  596.566    0.203    0.399   92.323  163.238    5.580
  596.816    0.209    0.412   99.590  163.405    5.608
  597.066    0.188    0.431  103.980  163.989    5.574
  597.316    0.194    0.444  104.869  164.555    5.439
  597.566    0.198    0.460  105.212  165.128    5.328
  597.816    0.187    0.446  104.324  165.189    5.217
  598.066    0.174    0.442  103.927  165.351    5.111
  598.316    0.167    0.458  104.636  165.401    4.996
  598.566    0.178    0.467  106.141  165.782    4.912
  598.816    0.171    0.466  108.992  165.941    4.837
  599.066    0.163    0.454  112.641  166.207    4.808
  599.316    0.168    0.435  112.552  166.361    4.813
  599.566    0.197    0.418  107.807  166.313    4.864
  599.816    0.204    0.432  106.677  166.468    4.924
  600.066    0.193    0.438  109.223  166.421    5.030
  600.316    0.174    0.423  109.623  165.969    5.149
  600.566    0.176    0.413  106.161  165.705    5.367
  600.816    0.184    0.430  104.606  165.253    5.637
  601.066    0.181    0.426  106.048  165.202    5.855
  601.316    0.179    0.408  108.654  164.954    6.126
  601.566    0.177    0.427  107.831  164.800    6.247
  601.816    0.172    0.458  103.572  164.641    5.801
  602.066    0.174    0.470  101.155  164.492    5.477
  602.316    0.177    0.465   99.472  164.344    5.296
  602.566    0.180    0.458   98.032  163.469    5.255
  602.816    0.187    0.448   94.880  162.277    5.339
  603.066    0.202    0.436   88.844  161.292    5.752
  603.316    0.241    0.426   86.367  160.736    6.186
  603.566    0.247    0.427   91.549  161.106    6.509
  603.816    0.232    0.445   86.496  161.890    6.626
  604.066    0.206    0.460   82.665  162.563    6.454
  604.316    0.207    0.462   76.813  163.248    6.344
  604.566    0.221    0.460   76.909  163.504    6.282
  604.816    0.225    0.461   75.656  163.885    6.244
  605.066    0.222    0.472   73.298  164.045    6.263
  605.316    0.227    0.445   70.697  164.100    6.329
  605.566    0.225    0.391   67.731  164.147    6.622
  605.816    0.208    0.358   64.879  164.514    7.443
  606.066    0.152    0.312   63.384  164.881    8.426
  606.316    0.105    0.263   63.785  164.421    9.282
  606.566    0.119    0.293   65.473  163.129    9.855
  606.816    0.210    0.360   73.106  163.191    9.723
  607.066    0.245    0.398   76.266  163.245    8.997
  607.316    0.244    0.407   76.605  163.720    8.432
  607.566    0.242    0.418   75.658  163.778    8.020
  607.816    0.236    0.446   75.142  163.834    7.698
  608.066    0.223    0.450   73.457  163.894    7.457
  608.316    0.232    0.442   72.572  163.746    7.357
  608.566    0.242    0.437   73.771  163.584    7.259
  608.816    0.249    0.432   76.070  163.644    7.084
  609.066    0.256    0.427   77.947  163.593    6.874
  609.316    0.243    0.423   77.916  163.765    6.771
  609.566    0.244    0.422   77.708  163.825    6.644
  609.816    0.245    0.420   77.004  164.178    6.567
  610.066    0.237    0.418   76.423  163.819    6.539
  610.316    0.225    0.417   75.541  163.775    6.583
  610.566    0.212    0.409   73.363  163.628    6.676
  610.816    0.189    0.377   69.044  163.680    6.884
  611.066    0.158    0.322   65.589  163.430    7.296
  611.316    0.150    0.332   69.540  163.482    7.676
  611.566    0.236    0.405   74.602  163.233    7.899
  611.816    0.239    0.397   77.394  163.290    7.837
  612.066    0.226    0.400   81.104  163.350    7.675
  612.316    0.210    0.397   88.065  163.196    7.560
  612.566    0.193    0.387   92.513  163.151    7.418
  612.816    0.182    0.415   94.200  163.100    7.212
  613.066    0.182    0.430   95.159  162.960    6.999
  613.316    0.171    0.441   96.292  163.003    6.767
  613.566    0.178    0.444   99.206  162.855    6.629
  613.816    0.168    0.444   98.566  162.914    6.468
  614.066    0.162    0.440   98.353  162.874    6.277
  614.316    0.180    0.432  101.699  162.827    6.159
  614.566    0.174    0.427  104.120  162.872    6.055
  614.816    0.174    0.423  103.359  162.725    6.007
  615.066    0.176    0.435  102.656  162.781    5.949
