~VERSION INFORMATION
 VERS.                 2.0:   CWLS LOG ASCII STANDARD -VERSION 2.0
 WRAP.                  NO:   ONE LINE PER DEPTH STEP
~WELL INFORMATION BLOCK
#MNEM.UNIT           DATA                    DESCRIPTION OF MNEMONIC
#---------    -------------------            -------------------------------
# Generated from Intellog Unique Number	CS_77_79/WELL/873
WELL.         CDN-SUP PORTAGE                : Well_name    - WELL
LOC .         00/06-12-078-15W4/0            : Location     - LOCATION
UWI .         00/06-12-078-15W4/0            : Uwi          - UNIQUE WELL ID
ENTR.         JHS                            : Entered      - ENTERED BY
SRVC.         SCHLUMBERGER                   : Scn          - SERVICE COMPANY
STRT.M        220                            : top_depth    - START DEPTH
STOP.M        459                            : bot_depth    - STOP DEPTH
STEP.M        0.25                           : increment    - STEP LENGTH
 NULL. -999.2500:NULL Value
~CURVE INFORMATION BLOCK
#MNEM UNIT       ERCB CURVE CODE    CURVE DESCRIPTION
#-----------   ------------------   ----------------------------------
DEPT.M        00 001 00 00         : DEPTH        - DEPTH
DPHI.V/V      00 890 00 00         : PHID         - DENSITY POROSITY (LIMESTONE)
NPHI.V/V      00 330 00 00         : PHIN         - NEUTRON POROSITY (LIMESTONE)
GR  .API      00 310 00 00         : GR           - GAMMA RAY
ILD .OHMM     00 120 00 00         : RESD         - DEEP RESISTIVITY (DIL)
~PARAMETER INFORMATION
#MNEM.UNIT           DATA             DESCRIPTION OF MNEMONIC
#---------         -----------     ------------------------------
GL  .M        620.5                : gl           - GROUND LEVEL ELEVATION
EREF.M        624.85               : kb           - ELEVATION OF DEPTH REFERENCE
DATM.M        624.85               : datum        - DATUM ELEVATION
TDD .M        506                  : tdd          - TOTAL DEPTH DRILLER
RUN .         ONE                  : Run          - RUN NUMBER
ENG .         BILL                 : Engineer     - RECORDING ENGINEER
WIT .         JIM                  : Witness      - WITNESSED BY
MUD .         GEL                  : Mud_type     - MUD TYPE
MATR.         LIMESTONE            : Logunit      - NEUTRON MATRIX
TMAX.C        23                   : BHT          - MAXIMUM RECORDED TEMPERATURE
BHTD.M        506                  : BHTDEP       - MAXIMUM RECORDED TEMPERATURE
MATR.         1                    : LOGUNIT      - NEUTRON MATRIX
RMT .C        25                   : MDTP         - TEMPERATURE OF MUD
NEUT.         1                    : NEUTRON      - NEUTRON TYPE
RESI.         0                    : RESIST       - RESISTIVITY TYPE
RMC .OHMM     0.25                 : RMC          - RESISTIVITY OF MUD CAKE
RMF .OHMM     0.25                 : RMF          - RESISTIVITY OF MUD FILTRATE
SUFT.C        15                   : SUFT         - SURFACE TEMPERATURE
~A  DEPTH     PHID     PHIN       GR     RESD
  220.000    0.255    0.545   90.374    2.771
  220.250    0.263    0.551   91.001    2.721
  220.500    0.267    0.536   92.857    2.722
  220.750    0.259    0.515   94.714    2.724
  221.000    0.260    0.515   89.195    2.778
  221.250    0.255    0.518   87.365    2.779
  221.500    0.238    0.520   86.146    2.781
  221.750    0.245    0.536   84.929    2.783
  222.000    0.250    0.575   91.090    2.785
  222.250    0.253    0.549   91.719    2.786
  222.500    0.268    0.532   86.198    2.736
  222.750    0.284    0.533   83.752    2.790
  223.000    0.279    0.552   85.611    2.845
  223.250    0.276    0.565   87.469    2.901
  223.500    0.267    0.571   89.940    2.958
  223.750    0.255    0.552   93.027    3.016
  224.000    0.236    0.555   94.269    3.018
  224.250    0.212    0.539   91.823    3.020
  224.500    0.139    0.528   92.453    3.079
  224.750    0.187    0.522   93.692    3.140
  225.000    0.207    0.506   90.631    3.201
  225.250    0.209    0.521   91.875    3.327
  225.500    0.222    0.564   96.191    3.329
  225.750    0.224    0.548   94.360    3.395
  226.000    0.221    0.521   92.529    3.462
  226.250    0.218    0.499   90.699    3.529
  226.500    0.220    0.497   91.324    3.599
  226.750    0.221    0.512   95.026    3.670
  227.000    0.220    0.516   98.112    3.813
  227.250    0.219    0.528   98.741    3.889
  227.500    0.221    0.542   96.909    3.965
  227.750    0.224    0.540   94.463    4.043
  228.000    0.215    0.516   92.017    4.122
  228.250    0.208    0.487   93.876    4.125
  228.500    0.205    0.474   93.888    4.128
  228.750    0.208    0.514   93.285    4.053
  229.000    0.215    0.535   93.299    3.980
  229.250    0.220    0.536   94.542    3.834
  229.500    0.219    0.506   97.628    3.695
  229.750    0.221    0.489   98.870    3.697
  230.000    0.217    0.476   95.810    3.699
  230.250    0.217    0.468   91.520    3.772
  230.500    0.222    0.486   90.302    3.846
  230.750    0.223    0.480   89.701    3.849
  231.000    0.218    0.468   86.641    3.925
  231.250    0.210    0.466   85.424    4.001
  231.500    0.190    0.488   82.978    4.237
  231.750    0.156    0.485   75.613    4.659
  232.000    0.108    0.437   70.708    5.221
  232.250    0.119    0.410   77.484    5.962
  232.500    0.182    0.401   85.488    7.205
  232.750    0.193    0.396   92.262    8.075
  233.000    0.189    0.415   96.580    7.928
  233.250    0.200    0.469   97.209    6.951
  233.500    0.210    0.486   92.917    6.095
  233.750    0.205    0.509   93.545    5.343
  234.000    0.191    0.531   97.246    4.959
  234.250    0.189    0.482   97.260    4.778
  234.500    0.187    0.466  100.346    4.603
  234.750    0.180    0.464  101.589    4.353
  235.000    0.182    0.482  103.446    4.194
  235.250    0.216    0.517  106.533    4.118
  235.500    0.222    0.538  105.318    4.120
  235.750    0.214    0.499  100.410    4.363
  236.000    0.212    0.450   95.506    4.708
  236.250    0.228    0.438   93.675    5.377
  236.500    0.233    0.441   93.075    6.257
  236.750    0.244    0.393   85.094    7.561
  237.000    0.262    0.334   78.345    8.966
  237.250    0.266    0.315   85.119   10.632
  237.500    0.241    0.333   90.665   11.915
  237.750    0.213    0.386   86.992   12.150
  238.000    0.198    0.424   85.772   11.273
  238.250    0.188    0.431   93.164    9.884
  238.500    0.178    0.421  101.784    8.831
  238.750    0.177    0.418  104.873    8.041
  239.000    0.189    0.445  101.196    7.461
  239.250    0.198    0.451   98.135    7.054
  239.500    0.198    0.443   99.377    7.471
  239.750    0.208    0.440   93.242    8.215
  240.000    0.236    0.429   81.574    9.381
  240.250    0.259    0.404   76.054   10.711
  240.500    0.273    0.376   76.070   12.232
  240.750    0.260    0.381   75.466   13.707
  241.000    0.240    0.419   71.176   14.790
  241.250    0.215    0.404   69.961   14.801
  241.500    0.219    0.401   71.816   14.261
  241.750    0.242    0.412   76.133   14.005
  242.000    0.250    0.392   79.219   14.012
  242.250    0.254    0.414   76.772   14.560
  242.500    0.265    0.432   78.016   15.128
  242.750    0.277    0.416   79.259   15.428
  243.000    0.287    0.415   80.500   16.029
  243.250    0.283    0.423   86.660   16.348
  243.500    0.276    0.437   91.591   16.667
  243.750    0.261    0.450   92.222   16.367
  244.000    0.254    0.442   91.617   16.375
  244.250    0.243    0.417   91.630   16.388
  244.500    0.239    0.401   91.028   16.396
  244.750    0.249    0.393   92.275   16.099
  245.000    0.264    0.435   94.128   16.417
  245.250    0.266    0.449   91.067   16.429
  245.500    0.266    0.435   87.395   16.437
  245.750    0.260    0.429   89.250   16.141
  246.000    0.249    0.429   88.649   15.261
  246.250    0.232    0.421   91.123   14.159
  246.500    0.213    0.410   93.591   12.893
  246.750    0.208    0.412   89.915   12.660
  247.000    0.213    0.413   73.944   12.666
  247.250    0.223    0.392   53.055   14.194
  247.500    0.098    0.266   43.234   17.481
  247.750    0.035    0.203   38.941   21.124
  248.000    0.039    0.185   35.880   24.121
  248.250    0.207    0.200   34.050   26.030
  248.500    0.268    0.380   32.218   27.047
  248.750    0.283    0.402   29.157   25.098
  249.000    0.279    0.375   26.711   23.286
  249.250    0.278    0.360   27.956   21.611
  249.500    0.275    0.360   29.814   21.619
  249.750    0.271    0.374   30.442   21.633
  250.000    0.258    0.356   30.456   21.645
  250.250    0.257    0.350   29.236   21.658
  250.500    0.277    0.386   26.790   21.268
  250.750    0.284    0.383   23.729   21.281
  251.000    0.284    0.377   23.745   21.294
  251.250    0.275    0.382   24.985   20.518
  251.500    0.265    0.400   25.613   20.533
  251.750    0.259    0.404   25.627   20.546
  252.000    0.260    0.382   25.637   20.172
  252.250    0.265    0.362   25.653   20.183
  252.500    0.271    0.349   26.279   20.199
  252.750    0.278    0.375   25.064   20.209
  253.000    0.290    0.401   25.694   19.842
  253.250    0.297    0.406   24.475   19.120
  253.500    0.297    0.388   23.259   17.408
  253.750    0.292    0.370   30.031   13.124
  254.000    0.270    0.352   52.176    7.742
  254.250    0.210    0.356   84.156    5.621
  254.500    0.163    0.513  108.761    5.118
  254.750    0.152    0.541  111.849    4.839
  255.000    0.151    0.517  113.704    4.934
  255.250    0.169    0.502  116.177    5.031
  255.500    0.151    0.497  107.583    5.228
  255.750    0.114    0.496   99.604    5.433
  256.000    0.103    0.502  105.766    5.136
  256.250    0.142    0.504  111.925    4.589
  256.500    0.153    0.508  111.941    4.101
  256.750    0.157    0.534  109.495    3.951
  257.000    0.163    0.542  109.507    4.029
  257.250    0.184    0.521  111.362    4.601
  257.500    0.196    0.475  106.458    5.560
  257.750    0.203    0.449  100.939    7.384
  258.000    0.207    0.434   98.494    9.266
  258.250    0.201    0.424   99.119   10.582
  258.500    0.196    0.419  104.665   11.418
  258.750    0.190    0.418  105.295   12.091
  259.000    0.185    0.430  101.620   11.650
  259.250    0.202    0.429   96.098   10.608
  259.500    0.227    0.422   88.733    9.477
  259.750    0.220    0.418   94.279    7.852
  260.000    0.177    0.452  104.743    7.425
  260.250    0.155    0.480  112.749    7.571
  260.500    0.163    0.480  115.221    8.646
  260.750    0.185    0.471  112.162    9.688
  261.000    0.191    0.450  103.566   11.064
  261.250    0.199    0.429   95.588   12.399
  261.500    0.220    0.404   92.526   13.130
  261.750    0.231    0.397   95.612   13.387
  262.000    0.217    0.420   96.242   12.899
  262.250    0.213    0.430   89.492   12.430
  262.500    0.223    0.424   93.194   11.975
  262.750    0.220    0.414  100.583   11.324
  263.000    0.208    0.418  105.515   11.118
  263.250    0.207    0.421  104.914   11.125
