~VERSION INFORMATION
 VERS.                 2.0:   CWLS LOG ASCII STANDARD -VERSION 2.0
 WRAP.                  NO:   ONE LINE PER DEPTH STEP
~WELL INFORMATION BLOCK
#MNEM.UNIT           DATA                    DESCRIPTION OF MNEMONIC
#---------    -------------------            -------------------------------
# Generated from Intellog Unique Number	CW_82_90/WELL/3069
WELL.         GULF LIVOCK EV                 : Well_name    - WELL
LOC .         00/08-05-086-22W4/0            : Location     - LOCATION
UWI .         00/08-05-086-22W4/0            : Uwi          - UNIQUE WELL ID
ENTR.         MAX                            : Entered      - ENTERED BY
SRVC.         SCHLUMBERGER                   : Scn          - SERVICE COMPANY
STRT.M        167.64                         : top_depth    - START DEPTH
STOP.M        371.89                         : bot_depth    - STOP DEPTH
STEP.M        0.25                           : increment    - STEP LENGTH
 NULL. -999.2500:NULL Value
~CURVE INFORMATION BLOCK
#MNEM UNIT       ERCB CURVE CODE    CURVE DESCRIPTION
#-----------   ------------------   ----------------------------------
DEPT.M        00 001 00 00         : DEPTH        - DEPTH
ILD .OHMM     00 120 00 00         : RESD         - DEEP RESISTIVITY (DIL)
NPHI.V/V      00 330 00 00         : PHIN         - NEUTRON POROSITY (SANDSTONE)
DPHI.V/V      00 890 00 00         : PHID         - DENSITY POROSITY (SANDSTONE)
CALI.MM       00 280 01 00         : CAL          - CALIPER
GR  .API      00 310 00 00         : GR           - GAMMA RAY
~PARAMETER INFORMATION
#MNEM.UNIT           DATA             DESCRIPTION OF MNEMONIC
#---------         -----------     ------------------------------
GL  .M        575.767              : gl           - GROUND LEVEL ELEVATION
EREF.M        577.291              : kb           - ELEVATION OF DEPTH REFERENCE
DATM.M        575.767              : datum        - DATUM ELEVATION
TDD .M        374.904              : tdd          - TOTAL DEPTH DRILLER
RUN .         ONE                  : Run          - RUN NUMBER
ENG .         BILL                 : Engineer     - RECORDING ENGINEER
WIT .         JIM                  : Witness      - WITNESSED BY
MUD .         GEL                  : Mud_type     - MUD TYPE
MATR.         SANDSTONE            : Logunit      - NEUTRON MATRIX
TMAX.C        21.1111              : BHT          - MAXIMUM RECORDED TEMPERATURE
BHTD.M        374.904              : BHTDEP       - MAXIMUM RECORDED TEMPERATURE
MATR.         1                    : LOGUNIT      - NEUTRON MATRIX
RMT .C        16.6667              : MDTP         - TEMPERATURE OF MUD
NEUT.         1                    : NEUTRON      - NEUTRON TYPE
RESI.         0                    : RESIST       - RESISTIVITY TYPE
RMC .OHMM     6.2                  : RMC          - RESISTIVITY OF MUD CAKE
RMF .OHMM     6.2                  : RMF          - RESISTIVITY OF MUD FILTRATE
SUFT.C        -23.3333             : SUFT         - SURFACE TEMPERATURE
~A  DEPTH     RESD     PHIN     PHID      CAL       GR
# ...
  204.140   24.088    0.507    0.306  154.692   53.773
  204.390   23.206    0.492    0.302  155.100   53.416
  204.640   22.772    0.486    0.298  159.453   53.065
  204.890   22.738    0.478    0.292  159.837   53.584
  205.140   22.306    0.463    0.290  160.246   53.241
  205.390   22.076    0.466    0.286  162.620   53.475
  205.640   23.064    0.470    0.296  164.983   54.585
  205.890   24.978    0.471    0.308  166.356   58.025
  206.140   26.808    0.475    0.321  166.752   55.338
  206.390   28.012    0.478    0.326  166.654   52.352
  206.640   28.481    0.472    0.325  166.048   49.372
  206.890   27.936    0.465    0.324  165.962   48.145
  207.140   27.160    0.464    0.319  165.344   47.204
  207.390   26.173    0.475    0.322  165.270   47.737
  207.640   24.544    0.483    0.327  164.170   51.184
  207.890   24.077    0.505    0.328  162.576   55.508
  208.140   23.616    0.526    0.323  161.500   58.948
  208.390   23.164    0.526    0.327  158.916   58.882
  208.640   23.136    0.526    0.329  158.818   59.423
  208.890   23.112    0.519    0.330  159.708   60.227
  209.140   23.289    0.525    0.334  163.567   60.753
  209.390   23.471    0.551    0.335  165.423   60.979
  209.640   23.648    0.544    0.333  166.326   60.936
  209.890   23.840    0.530    0.332  165.226   60.279
  210.140   24.236    0.546    0.332  163.161   59.936
  210.390   24.643    0.569    0.332  162.543   59.863
  210.640   24.621    0.569    0.331  163.434   60.688
  210.890   24.806    0.552    0.330  163.348   61.207
  211.140   24.780    0.544    0.326  161.753   61.449
  211.390   24.747    0.539    0.323  161.160   62.544
  211.640   24.492    0.521    0.332  160.072   62.501
  211.890   24.247    0.508    0.337  158.972   61.851
  212.140   23.783    0.557    0.339  158.379   60.617
  212.390   23.545    0.557    0.338  157.773   59.975
  212.640   23.095    0.534    0.337  157.192   59.033
  212.890   22.245    0.524    0.334  157.094   58.091
  213.140   21.631    0.519    0.328  159.951   57.463
  213.390   20.838    0.515    0.319  163.303   56.507
  213.640   20.443    0.505    0.296  163.699   56.171
  213.890   20.232    0.496    0.298  163.118   55.529
  214.140   20.024    0.492    0.301  163.490   54.879
  214.390   20.006    0.526    0.307  162.884   53.937
  214.640   19.982    0.543    0.309  162.291   54.171
  214.890   19.952    0.536    0.306  162.217   55.574
  215.140   20.108    0.530    0.308  162.119   56.976
  215.390   20.081    0.526    0.318  160.524   58.663
  215.640   20.238    0.524    0.329  156.950   60.073
  215.890   20.397    0.529    0.322  154.366   62.629
  216.140   20.190    0.524    0.324  154.268   64.623
  216.390   20.345    0.521    0.325  156.160   66.902
  216.640   20.507    0.517    0.318  160.019   67.720
  216.890   20.479    0.526    0.313  154.467   66.786
  217.140   20.455    0.523    0.320  150.906   66.728
  217.390   20.609    0.527    0.299  148.334   69.883
  217.640   20.590    0.544    0.284  148.199   75.090
  217.890   20.565    0.539    0.282  152.577   80.874
  218.140   20.354    0.541    0.291  158.414   82.569
  218.390   20.329    0.560    0.273  155.348   78.706
  218.640   20.123    0.591    0.275  153.765   74.258
  218.890   20.099    0.582    0.291  154.619   73.908
  219.140   20.069    0.569    0.301  156.029   81.153
  219.390   20.042    0.561    0.310  156.425   85.192
  219.640   19.842    0.557    0.320  156.809   93.313
  219.890   19.462    0.540    0.323  159.666   95.591
  220.140   19.267    0.508    0.309  163.513   91.436
  220.390   18.732    0.526    0.291  162.932   83.783
  220.640   18.204    0.563    0.290  162.846   79.913
  220.890   17.703    0.580    0.321  162.747   77.219
  221.140   17.212    0.575    0.337  162.636   75.115
  221.390   16.137    0.566    0.332  162.031   73.889
  221.640   14.997    0.552    0.324  161.945   73.539
  221.890   14.066    0.537    0.315  161.846   72.020
  222.140   12.501    0.554    0.296  162.218   69.917
  222.390    8.871    0.560    0.280  163.603   68.676
  222.640    5.911    0.577    0.263  164.494   71.831
  222.890    4.976    0.592    0.249  169.342   78.499
  223.140    4.584    0.596    0.223  174.202   83.414
  223.390    4.222    0.577    0.198  179.533   82.472
  223.640    4.142    0.530    0.141  172.979   79.785
  223.890    4.026    0.408    0.090  172.905   89.658
  224.140    3.776    0.538    0.159  177.246  105.090
  224.390    3.541    0.614    0.190  180.128  107.076
  224.640    3.320    0.684    0.193  182.985  107.018
  224.890    3.200    0.674    0.195  181.885  108.698
  225.140    3.225    0.695    0.182  179.326  109.816
  225.390    3.220    0.728    0.189  182.195  108.589
  225.640    3.274    0.736    0.177  182.591  111.153
  225.890    3.329    0.689    0.191  179.500  112.555
  226.140    3.356    0.673    0.190  180.886  111.336
  226.390    3.413    0.688    0.211  179.315  111.562
  226.640    3.502    0.711    0.219  178.228  113.549
  226.890    3.593    0.721    0.205  173.665  113.776
  227.140    3.687    0.697    0.194  171.588  111.096
  227.390    3.782    0.683    0.185  170.463  109.263
  227.640    3.881    0.690    0.199  170.377  110.665
  227.890    4.018    0.692    0.203  170.773  110.914
  228.140    4.161    0.670    0.200  170.168  110.564
  228.390    4.193    0.637    0.209  169.575  109.921
  228.640    4.187    0.621    0.205  169.971  108.096
  228.890    4.182    0.624    0.209  168.388  105.708
  229.140    4.253    0.609    0.218  168.265   99.508
  229.390    4.324    0.604    0.229  165.718   97.106
  229.640    4.357    0.620    0.248  161.155   95.879
  229.890    4.472    0.621    0.254  164.037   93.484
  230.140    4.672    0.597    0.260  164.903   87.868
  230.390    4.925    0.554    0.267  164.817   83.998
  230.640    5.285    0.527    0.266  163.729   83.933
  230.890    5.622    0.529    0.258  162.617   85.050
  231.140    5.981    0.519    0.252  164.509   85.584
  231.390    6.652    0.517    0.253  165.400   85.511
  231.640    7.205    0.523    0.259  164.795   83.999
  231.890    7.945    0.528    0.262  164.696   81.590
  232.140    8.838    0.531    0.260  164.078   79.494
  232.390    9.745    0.515    0.243  163.485   76.508
  232.640   10.461    0.503    0.236  162.904   74.405
  232.890   11.635    0.471    0.231  163.264   71.425
  233.140   12.602    0.431    0.215  163.190   72.229
  233.390   14.021    0.375    0.158  163.079   75.391
  233.640   14.783    0.385    0.131  163.005   77.371
  233.890   15.166    0.512    0.220  162.870   77.020
  234.140   15.148    0.548    0.241  162.796   75.801
  234.390   14.861    0.534    0.258  162.697   74.560
  234.640   14.574    0.527    0.267  163.069   74.509
  234.890   14.295    0.522    0.267  163.947   74.728
  235.140   14.027    0.553    0.266  164.368   74.677
  235.390   13.393    0.559    0.261  164.752   74.035
  235.640   12.904    0.556    0.260  165.160   72.801
  235.890   12.101    0.541    0.266  165.050   71.859
  236.140   11.247    0.527    0.262  164.951   70.918
  236.390   10.359    0.517    0.247  165.335   69.983
  236.640    9.541    0.509    0.232  165.236   69.640
  236.890    9.193    0.496    0.232  165.113   74.555
  237.140    8.778    0.512    0.228  165.039   80.339
  237.390    8.382    0.518    0.227  164.929   82.910
  237.640    8.077    0.535    0.227  164.830   82.845
  237.890    7.574    0.520    0.231  164.719   83.955
  238.140    6.974    0.504    0.238  164.633   84.189
  238.390    6.425    0.520    0.243  164.028   83.532
  238.640    5.813    0.531    0.243  163.422   84.065
  238.890    5.403    0.573    0.239  163.324   86.351
  239.140    5.066    0.569    0.240  163.225   85.410
  239.390    5.016    0.561    0.257  163.139   80.963
  239.640    5.101    0.563    0.269  163.016   78.268
  239.890    5.521    0.578    0.275  162.917   77.918
  240.140    5.927    0.586    0.276  162.324   80.197
  240.390    6.594    0.587    0.275  163.203   79.269
