~VERSION INFORMATION
 VERS.                 2.0:   CWLS LOG ASCII STANDARD -VERSION 2.0
 WRAP.                  NO:   ONE LINE PER DEPTH STEP
~WELL INFORMATION BLOCK
#MNEM.UNIT           DATA                    DESCRIPTION OF MNEMONIC
#---------    -------------------            -------------------------------
# Generated from Intellog Unique Number	CX_WELLS/WELL/3134
WELL.         UNEX RES CANOXY WATCHUK        : Well_name    - WELL
LOC .         00/06-18-083-03W4/0            : Location     - LOCATION
UWI .         00/06-18-083-03W400            : Uwi          - UNIQUE WELL ID
ENTR.         TIM                            : Entered      - ENTERED BY
SRVC.         SCHLUMBERGER                   : Scn          - SERVICE COMPANY
STRT.F        350                            : top_depth    - START DEPTH
STOP.F        1029.95                        : bot_depth    - STOP DEPTH
STEP.F        0.82                           : increment    - STEP LENGTH
 NULL. -999.2500:NULL Value
~CURVE INFORMATION BLOCK
#MNEM UNIT       ERCB CURVE CODE    CURVE DESCRIPTION
#-----------   ------------------   ----------------------------------
DEPT.F        00 001 00 00         : DEPTH        - DEPTH
GR  .API      00 310 00 00         : GR           - GAMMA RAY
NPHI.V/V      00 330 00 00         : PHIN         - NEUTRON POROSITY (SANDSTONE)
DPHI.V/V      00 890 00 00         : PHID         - DENSITY POROSITY (SANDSTONE)
ILD .OHMM     00 120 00 00         : RESD         - DEEP RESISTIVITY (OTHER)
~PARAMETER INFORMATION
#MNEM.UNIT           DATA             DESCRIPTION OF MNEMONIC
#---------         -----------     ------------------------------
GL  .F        1569                 : gl           - GROUND LEVEL ELEVATION
EREF.F        1581                 : kb           - ELEVATION OF DEPTH REFERENCE
DATM.F        1581                 : datum        - DATUM ELEVATION
TDD .F        1080                 : tdd          - TOTAL DEPTH DRILLER
RUN .         ONE                  : Run          - RUN NUMBER
ENG .         BILL                 : Engineer     - RECORDING ENGINEER
WIT .         JIM                  : Witness      - WITNESSED BY
MUD .         GEL                  : Mud_type     - MUD TYPE
MATR.         SANDSTONE            : Logunit      - NEUTRON MATRIX
TMAX.F        71.6                 : BHT          - MAXIMUM RECORDED TEMPERATURE
BHTD.F        1080                 : BHTDEP       - MAXIMUM RECORDED TEMPERATURE
MATR.         1                    : LOGUNIT      - NEUTRON MATRIX
RMT .F        77                   : MDTP         - TEMPERATURE OF MUD
NEUT.         1                    : NEUTRON      - NEUTRON TYPE
RESI.         5.1                  : RESIST       - RESISTIVITY TYPE
RMC .OHMM     6                    : RMC          - RESISTIVITY OF MUD CAKE
RMF .OHMM     6                    : RMF          - RESISTIVITY OF MUD FILTRATE
SUFT.F        32                   : SUFT         - SURFACE TEMPERATURE
~A  DEPTH       GR     PHIN     PHID     RESD
# ...
  778.150   56.324    0.415    0.284    2.873
  778.970   55.788    0.415    0.297    2.722
  779.790   55.268    0.413    0.305    2.584
  780.610   53.003    0.411    0.305    2.493
  781.430   53.678    0.411    0.302    2.453
  782.251   56.649    0.408    0.296    2.458
  783.071   58.441    0.402    0.283    2.418
  783.891   62.009    0.400    0.249    2.469
  784.711   68.470    0.398    0.222    2.473
  785.531   75.513    0.396    0.235    2.523
  786.352   74.443    0.390    0.238    2.672
  787.172   75.653    0.385    0.233    3.219
  787.992   76.878    0.393    0.226    3.411
  788.812   76.956    0.405    0.226    3.481
  789.633   76.436    0.411    0.238    3.552
  790.453   78.228    0.413    0.230    3.696
  791.273   85.287    0.417    0.210    3.912
  792.093   90.003    0.421    0.199    4.144
  792.913   93.571    0.430    0.187    4.304
  793.734   93.648    0.437    0.187    4.646
  794.554   93.710    0.437    0.184    5.104
  795.374   92.609    0.432    0.183    5.209
  796.194   92.073    0.429    0.185    5.124
  797.014   92.166    0.427    0.189    5.132
  797.835   92.213    0.425    0.179    4.960
  798.655   92.290    0.425    0.176    4.968
  799.475   92.337    0.419    0.178    4.889
  800.295   91.848    0.406    0.180    4.809
  801.115   91.894    0.400    0.183    4.816
  801.936   92.522    0.401    0.181    4.915
  802.756   93.763    0.401    0.171    5.016
  803.576   93.275    0.401    0.171    5.217
  804.396   93.305    0.405    0.178    5.327
  805.217   92.786    0.409    0.174    5.434
  806.037   94.011    0.414    0.169    5.545
  806.857   94.670    0.421    0.167    5.556
  807.677   94.717    0.423    0.168    5.468
  808.497   94.228    0.423    0.168    5.379
  809.318   94.290    0.417    0.168    5.392
  810.138   94.367    0.408    0.167    5.400
  810.958   93.817    0.404    0.169    5.314
  811.778   91.551    0.402    0.170    5.322
  812.598   90.450    0.407    0.173    5.335
  813.419   91.093    0.411    0.174    5.253
  814.239   92.334    0.413    0.177    5.260
  815.059   91.830    0.416    0.180    5.177
  815.879   91.295    0.416    0.175    5.184
  816.699   90.790    0.411    0.170    5.097
  817.520   90.837    0.402    0.173    5.014
  818.340   92.093    0.401    0.179    4.934
  819.160   92.124    0.411    0.185    4.944
  819.980   93.947    0.415    0.188    4.863
  820.801   95.172    0.415    0.192    4.873
  821.621   95.816    0.415    0.189    4.882
  822.441   95.878    0.417    0.176    4.894
  823.261   95.956    0.421    0.163    4.903
  824.081   96.033    0.424    0.165    4.651
  824.902   95.513    0.429    0.166    4.327
  825.722   95.575    0.433    0.174    4.181
  826.542   95.622    0.438    0.181    4.191
  827.362   97.444    0.434    0.191    4.277
  828.182   98.670    0.429    0.189    4.442
  829.003   98.150    0.429    0.183    4.795
  829.823   98.809    0.430    0.174    4.894
  830.643   98.871    0.430    0.169    4.997
  831.463   98.933    0.425    0.166    5.004
  832.283   97.250    0.418    0.169    5.014
  833.104   96.714    0.413    0.180    4.754
  833.924   96.195    0.412    0.183    4.589
  834.744   95.690    0.409    0.181    4.197
  835.564   94.022    0.408    0.180    3.767
  836.385   91.191    0.409    0.185    3.503
  837.205   89.492    0.409    0.211    3.143
  838.025   86.063    0.406    0.254    2.718
  838.845   82.619    0.400    0.284    2.350
  839.665   75.102    0.392    0.297    2.069
  840.486   32.679    0.384    0.301    1.823
  841.306   27.520    0.379    0.298    1.696
  842.126   27.000    0.367    0.296    1.579
  842.946   27.644    0.358    0.288    1.471
  843.766   30.033    0.353    0.287    1.420
  844.587   30.677    0.354    0.287    1.397
  845.407   30.157    0.361    0.287    1.374
  846.227   30.801    0.369    0.290    1.378
  847.047   30.281    0.374    0.294    1.405
  847.867   30.956    0.377    0.295    1.407
  848.688   30.986    0.372    0.292    1.437
  849.508   32.809    0.366    0.291    1.467
  850.328   35.214    0.371    0.291    1.498
  851.148   37.587    0.377    0.289    1.586
  851.969   40.558    0.385    0.289    1.648
  852.789   47.035    0.387    0.286    1.812
  853.609   53.512    0.385    0.277    1.917
  854.429   58.795    0.377    0.262    2.146
  855.249   65.869    0.383    0.236    2.492
  856.070   76.985    0.390    0.206    2.948
  856.890   80.537    0.396    0.196    3.239
  857.710   81.181    0.401    0.205    3.367
  858.530   81.243    0.403    0.207    3.438
  859.350   80.157    0.406    0.215    3.509
  860.171   79.668    0.407    0.225    3.517
  860.991   79.117    0.407    0.225    3.395
  861.811   78.597    0.406    0.224    3.046
  862.631   77.511    0.405    0.223    2.782
  863.451   75.262    0.403    0.218    2.637
  864.272   74.129    0.399    0.207    2.596
  865.092   70.700    0.396    0.220    2.602
  865.912   66.108    0.388    0.237    2.607
  866.732   66.185    0.374    0.231    2.613
  867.552   69.141    0.373    0.224    2.568
  868.373   76.781    0.381    0.209    2.305
  869.193   76.261    0.381    0.239    2.105
  870.013   70.506    0.388    0.253    1.960
  870.833   61.259    0.392    0.264    1.825
  871.654   56.667    0.398    0.268    1.794
  872.474   50.911    0.398    0.279    1.642
  873.294   46.900    0.394    0.285    1.614
  874.114   48.708    0.393    0.281    1.618
  874.934   49.933    0.391    0.276    1.620
  875.755   50.011    0.390    0.266    1.624
  876.575   48.327    0.391    0.270    1.626
  877.395   44.301    0.393    0.288    1.661
  878.215   45.527    0.391    0.292    1.665
  879.035   48.529    0.389    0.293    1.667
  879.856   50.918    0.389    0.293    1.671
  880.676   49.234    0.387    0.294    1.673
  881.496   46.387    0.385    0.295    1.648
  882.316   45.270    0.385    0.296    1.650
  883.136   45.914    0.384    0.299    1.624
  883.957   46.558    0.385    0.296    1.626
  884.777   46.651    0.385    0.295    1.600
  885.597   47.861    0.385    0.301    1.574
  886.417   50.281    0.384    0.298    1.548
  887.238   50.893    0.383    0.291    1.552
  888.058   52.134    0.381    0.283    1.555
  888.878   51.614    0.384    0.289    1.558
  889.698   51.095    0.392    0.294    1.561
  890.518   49.993    0.402    0.296    1.536
  891.339   48.310    0.407    0.300    1.539
  892.159   46.044    0.408    0.302    1.541
  892.979   43.795    0.408    0.302    1.545
  893.799   43.259    0.407    0.300    1.549
  894.619   42.755    0.405    0.298    1.552
  895.440   42.801    0.400    0.295    1.554
  896.260   43.461    0.397    0.295    1.559
  897.080   45.881    0.393    0.294    1.533
  897.900   48.254    0.390    0.285    1.535
  898.720   51.225    0.387    0.276    1.538
  899.541   54.778    0.385    0.279    1.541
  900.361   56.600    0.386    0.286    1.544
  901.181   54.335    0.385    0.286    1.547
  902.001   52.652    0.384    0.283    1.551
  902.822   52.117    0.388    0.287    1.553
  903.642   52.179    0.388    0.288    1.558
  904.462   52.256    0.382    0.277    1.560
  905.282   51.736    0.386    0.282    1.564
  906.102   49.471    0.387    0.286    1.539
  906.923   48.369    0.389    0.287    1.540
  907.743   48.447    0.391    0.286    1.517
  908.563   51.418    0.392    0.281    1.518
  909.383   56.716    0.388    0.278    1.522
  910.203   62.595    0.380    0.270    1.583
  911.024   69.670    0.375    0.264    1.615
  911.844   68.584    0.375    0.269    1.618
  912.664   66.885    0.376    0.271    1.562
  913.484   65.186    0.377    0.273    1.537
  914.304   58.848    0.378    0.277    1.512
  915.125   50.168    0.380    0.279    1.488
  915.945   43.830    0.383    0.282    1.491
  916.765   39.238    0.385    0.287    1.466
  917.585   41.045    0.385    0.292    1.471
  918.406   43.465    0.388    0.294    1.446
  919.226   44.093    0.388    0.299    1.449
  920.046   43.605    0.390    0.306    1.425
