~VERSION INFORMATION
 VERS.                 2.0:   CWLS LOG ASCII STANDARD -VERSION 2.0
 WRAP.                  NO:   ONE LINE PER DEPTH STEP
~WELL INFORMATION BLOCK
#MNEM.UNIT           DATA                    DESCRIPTION OF MNEMONIC
#---------    -------------------            -------------------------------
# Generated from Intellog Unique Number	CS_67_68/WELL/701
WELL.         AMOCO CANADA PETROLEUM         : Well_name    - WELL
LOC .         00/06-27-068-18W4/0            : Location     - LOCATION
UWI .         00/06-27-068-18W4/0            : Uwi          - UNIQUE WELL ID
ENTR.         SP                             : Entered      - ENTERED BY
SRVC.         SCHLUMBERGER                   : Scn          - SERVICE COMPANY
STRT.M        274.32                         : top_depth    - START DEPTH
STOP.M        514.82                         : bot_depth    - STOP DEPTH
STEP.M        0.25                           : increment    - STEP LENGTH
 NULL. -999.2500:NULL Value
~CURVE INFORMATION BLOCK
#MNEM UNIT       ERCB CURVE CODE    CURVE DESCRIPTION
#-----------   ------------------   ----------------------------------
DEPT.M        00 001 00 00         : DEPTH        - DEPTH
GR  .API      00 310 00 00         : GR           - GAMMA RAY
DPHI.V/V      00 890 00 00         : PHID         - DENSITY POROSITY (SANDSTONE)
NPHI.V/V      00 330 00 00         : PHIN         - NEUTRON POROSITY (SANDSTONE)
ILD .OHMM     00 120 00 00         : RESD         - DEEP RESISTIVITY (DIL)
~PARAMETER INFORMATION
#MNEM.UNIT           DATA             DESCRIPTION OF MNEMONIC
#---------         -----------     ------------------------------
GL  .M        546.659              : gl           - GROUND LEVEL ELEVATION
EREF.M        550.164              : kb           - ELEVATION OF DEPTH REFERENCE
DATM.M        546.659              : datum        - DATUM ELEVATION
TDD .M        521.208              : tdd          - TOTAL DEPTH DRILLER
RUN .         ONE                  : Run          - RUN NUMBER
ENG .         BILL                 : Engineer     - RECORDING ENGINEER
WIT .         JIM                  : Witness      - WITNESSED BY
MUD .         GEL                  : Mud_type     - MUD TYPE
MATR.         SANDSTONE            : Logunit      - NEUTRON MATRIX
TMAX.C        22.2222              : BHT          - MAXIMUM RECORDED TEMPERATURE
BHTD.M        521.208              : BHTDEP       - MAXIMUM RECORDED TEMPERATURE
MATR.         1                    : LOGUNIT      - NEUTRON MATRIX
RMT .C        25                   : MDTP         - TEMPERATURE OF MUD
NEUT.         1                    : NEUTRON      - NEUTRON TYPE
RESI.         0                    : RESIST       - RESISTIVITY TYPE
RMC .OHMM     0.25                 : RMC          - RESISTIVITY OF MUD CAKE
RMF .OHMM     0.25                 : RMF          - RESISTIVITY OF MUD FILTRATE
SUFT.C        15                   : SUFT         - SURFACE TEMPERATURE
~A  DEPTH       GR     PHID     PHIN     RESD
# ...
  448.320   93.221    0.153    0.364    6.606
  448.570   95.131    0.159    0.382    6.059
  448.820   95.731    0.159    0.416    5.726
  449.070   94.592    0.185    0.426    5.357
  449.320   90.996    0.183    0.414    5.298
  449.570   87.178    0.163    0.385    5.704
  449.820   82.569    0.146    0.299    6.091
  450.070   78.586    0.133    0.259    6.407
  450.320   74.904    0.108    0.258    6.791
  450.570   76.245    0.093    0.384    7.062
  450.820   82.412    0.134    0.405    6.684
  451.070   87.121    0.168    0.428    6.061
  451.320   92.151    0.183    0.442    5.684
  451.570   94.132    0.174    0.444    5.235
  451.820   96.451    0.175    0.439    4.995
  452.070   98.010    0.175    0.428    5.042
  452.320   99.594    0.159    0.409    5.448
  452.570   93.046    0.147    0.388    5.791
  452.820   87.954    0.125    0.369    6.026
  453.070   90.694    0.105    0.349    6.142
  453.320   96.645    0.090    0.342    6.081
  453.570   98.780    0.175    0.382    5.875
  453.820  101.188    0.196    0.405    5.645
  454.070  102.565    0.193    0.419    5.404
  454.320  103.653    0.187    0.425    5.157
  454.570  105.063    0.185    0.425    4.936
  454.820  105.844    0.194    0.421    4.816
  455.070  103.198    0.193    0.416    4.763
  455.320  101.813    0.196    0.434    4.691
  455.570  102.396    0.201    0.452    4.662
  455.820  103.252    0.182    0.443    4.617
  456.070  103.677    0.174    0.452    4.634
  456.320  102.596    0.186    0.461    4.649
  456.570   98.242    0.195    0.450    4.645
  456.820  103.600    0.191    0.431    4.710
  457.070  107.841    0.193    0.402    4.800
  457.320  109.416    0.179    0.388    4.850
  457.570  103.849    0.166    0.393    4.840
  457.820   97.599    0.156    0.404    4.740
  458.070   97.146    0.163    0.409    4.700
  458.320   99.028    0.186    0.405    4.605
  458.570   99.382    0.171    0.410    4.400
  458.820   96.926    0.174    0.410    4.129
  459.070   96.282    0.176    0.426    3.710
  459.320   97.346    0.199    0.456    3.141
  459.570  100.269    0.230    0.520    2.773
  459.820  104.961    0.226    0.568    2.461
  460.070  108.340    0.236    0.577    2.278
  460.320  108.276    0.252    0.560    2.210
  460.570  104.316    0.262    0.542    2.388
  460.820  101.021    0.268    0.516    2.595
  461.070   97.942    0.247    0.480    2.892
  461.320   94.977    0.215    0.456    3.214
  461.570   93.702    0.220    0.437    3.616
  461.820   93.138    0.201    0.427    4.160
  462.070   93.886    0.181    0.430    4.584
  462.320   94.927    0.169    0.446    5.006
  462.570   95.394    0.172    0.451    5.368
  462.820   94.042    0.151    0.427    5.788
  463.070   91.191    0.125    0.393    6.166
  463.320   88.910    0.109    0.372    6.376
  463.570   87.815    0.084    0.365    6.408
  463.820   90.245    0.191    0.381    6.282
  464.070   93.848    0.200    0.396    6.134
  464.320   98.972    0.194    0.410    6.019
  464.570   98.134    0.177    0.411    5.915
  464.820   97.483    0.168    0.391    5.816
  465.070   99.818    0.164    0.381    5.637
  465.320  102.781    0.166    0.402    5.202
  465.570  105.407    0.180    0.428    4.838
  465.820  106.382    0.168    0.441    4.552
  466.070   99.103    0.175    0.425    4.336
  466.320   97.211    0.207    0.426    4.260
  466.570   98.957    0.190    0.443    4.267
  466.820   99.393    0.179    0.458    4.305
  467.070   98.960    0.175    0.464    4.344
  467.320  100.201    0.188    0.464    4.357
  467.570  101.339    0.179    0.453    4.325
  467.820  101.919    0.191    0.445    4.292
  468.070  101.061    0.181    0.448    4.239
  468.320  100.082    0.178    0.455    4.173
  468.570  101.927    0.168    0.447    4.086
  468.820  103.801    0.164    0.459    4.022
  469.070  105.765    0.160    0.467    3.968
  469.320  107.355    0.173    0.451    3.929
  469.570  106.462    0.162    0.444    3.900
  469.820  106.205    0.146    0.462    3.823
  470.070  107.204    0.138    0.490    3.748
  470.320  107.759    0.130    0.503    3.640
  470.570  107.359    0.186    0.503    3.529
  470.820  105.380    0.176    0.490    3.432
  471.070  101.905    0.189    0.483    3.357
  471.320  113.201    0.195    0.499    3.343
  471.570  113.256    0.187    0.507    3.422
  471.820  111.022    0.168    0.488    3.512
  472.070  109.892    0.151    0.476    3.649
  472.320  109.637    0.137    0.466    3.792
  472.570  111.310    0.143    0.458    3.983
  472.820  112.332    0.142    0.467    4.111
  473.070  112.743    0.141    0.463    4.125
  473.320  107.673    0.179    0.443    3.908
  473.570  105.241    0.185    0.424    3.625
  473.820  110.765    0.182    0.409    3.432
  474.070  112.206    0.172    0.431    3.205
  474.320  112.664    0.165    0.461    2.985
  474.570  112.091    0.211    0.479    2.829
  474.820  112.215    0.200    0.484    3.423
  475.070  112.985    0.206    0.468    3.874
  475.320  101.970    0.191    0.443    4.750
  475.570   92.866    0.173    0.400    5.781
  475.820   83.229    0.156    0.365    6.833
  476.070   78.096    0.143    0.338    8.148
  476.320   75.880    0.120    0.321    9.465
  476.570   74.523    0.157    0.334    9.811
  476.820   72.525    0.203    0.349    9.321
  477.070   70.312    0.210    0.350    9.194
  477.320   67.148    0.197    0.354    9.392
  477.570   64.966    0.200    0.364   10.258
  477.820   65.788    0.222    0.370   11.034
  478.070   66.403    0.235    0.378   11.896
  478.320   66.334    0.241    0.385   12.181
  478.570   64.840    0.235    0.385   12.447
  478.820   64.570    0.219    0.384   11.643
  479.070   64.402    0.201    0.380   11.031
  479.320   63.757    0.182    0.371   10.408
  479.570   64.145    0.158    0.363    9.809
  479.820   65.455    0.195    0.362    9.383
  480.070   66.246    0.214    0.359    8.967
  480.320   67.052    0.214    0.354    8.556
  480.570   67.405    0.209    0.351    8.159
  480.820   67.750    0.205    0.352    7.740
  481.070   67.958    0.226    0.359    7.475
  481.320   67.930    0.219    0.364    7.105
  481.570   67.545    0.206    0.366    7.013
  481.820   68.672    0.185    0.364    7.181
  482.070   71.256    0.165    0.360    7.475
  482.320   73.226    0.163    0.349    7.363
  482.570   74.805    0.163    0.336    7.538
  482.820   77.339    0.160    0.328    7.595
  483.070   80.394    0.152    0.335    7.412
  483.320   86.971    0.175    0.339    7.032
  483.570   93.040    0.185    0.340    6.727
  483.820  100.029    0.174    0.343    6.260
  484.070  107.657    0.160    0.361    5.803
  484.320  117.701    0.164    0.409    5.253
  484.570  128.343    0.186    0.429    5.032
  484.820  135.023    0.189    0.448    4.880
  485.070  140.034    0.184    0.467    5.079
  485.320  130.185    0.192    0.487    5.277
  485.570  113.676    0.208    0.498    5.425
  485.820  120.419    0.236    0.506    5.695
  486.070  106.650    0.256    0.504    5.897
  486.320   95.289    0.275    0.466    6.047
  486.570   94.027    0.211    0.409    5.690
  486.820   93.420    0.187    0.375    5.104
  487.070   97.740    0.126    0.362    4.927
  487.320  103.334    0.169    0.362    5.011
  487.570  109.456    0.183    0.373    5.444
  487.820  116.140    0.147    0.381    6.049
  488.070  120.682    0.143    0.377    6.660
  488.320  122.569    0.140    0.375    6.944
  488.570  121.606    0.128    0.387    7.116
  488.820  121.208    0.122    0.402    6.866
  489.070  122.034    0.141    0.406    6.561
  489.320  123.936    0.157    0.414    6.311
  489.570  126.091    0.160    0.427    6.419
  489.820  127.675    0.164    0.401    6.811
  490.070  122.706    0.150    0.374    7.276
  490.320  122.722    0.135    0.375    7.959
  490.570  125.359    0.121    0.370    8.315
  490.820  116.793    0.098    0.349    8.596
  491.070  112.098    0.078    0.332    8.695
  491.320  113.391    0.088    0.322    8.497
  491.570  116.084    0.119    0.323    8.180
