~VERSION INFORMATION
 VERS.                 2.0:   CWLS LOG ASCII STANDARD -VERSION 2.0
 WRAP.                  NO:   ONE LINE PER DEPTH STEP
~WELL INFORMATION BLOCK
#MNEM.UNIT           DATA                    DESCRIPTION OF MNEMONIC
#---------    -------------------            -------------------------------
# Generated from Intellog Unique Number	CS_69_70/WELL/783
WELL.         PARAMOUNT RESOURCES            : Well_name    - WELL
LOC .         00/06-30-069-17W4/0            : Location     - LOCATION
UWI .         00/06-30-069-17W4/0            : Uwi          - UNIQUE WELL ID
ENTR.         SP                             : Entered      - ENTERED BY
SRVC.         SCHLUMBERGER                   : Scn          - SERVICE COMPANY
STRT.M        300                            : top_depth    - START DEPTH
STOP.M        495                            : bot_depth    - STOP DEPTH
STEP.M        0.25                           : increment    - STEP LENGTH
 NULL. -999.2500:NULL Value
~CURVE INFORMATION BLOCK
#MNEM UNIT       ERCB CURVE CODE    CURVE DESCRIPTION
#-----------   ------------------   ----------------------------------
DEPT.M        00 001 00 00         : DEPTH        - DEPTH
ILD .OHMM     00 120 00 00         : RESD         - DEEP RESISTIVITY (DIL)
DPHI.V/V      00 890 00 00         : PHID         - DENSITY POROSITY (LIMESTONE)
NPHI.V/V      00 330 00 00         : PHIN         - NEUTRON POROSITY (LIMESTONE)
GR  .API      00 310 00 00         : GR           - GAMMA RAY
~PARAMETER INFORMATION
#MNEM.UNIT           DATA             DESCRIPTION OF MNEMONIC
#---------         -----------     ------------------------------
GL  .M        564.5                : gl           - GROUND LEVEL ELEVATION
EREF.M        567.5                : kb           - ELEVATION OF DEPTH REFERENCE
DATM.M        564.5                : datum        - DATUM ELEVATION
TDD .M        497                  : tdd          - TOTAL DEPTH DRILLER
RUN .         ONE                  : Run          - RUN NUMBER
ENG .         BILL                 : Engineer     - RECORDING ENGINEER
WIT .         JIM                  : Witness      - WITNESSED BY
MUD .         GEL                  : Mud_type     - MUD TYPE
MATR.         LIMESTONE            : Logunit      - NEUTRON MATRIX
TMAX.C        28                   : BHT          - MAXIMUM RECORDED TEMPERATURE
BHTD.M        597                  : BHTDEP       - MAXIMUM RECORDED TEMPERATURE
MATR.         1                    : LOGUNIT      - NEUTRON MATRIX
RMT .C        25                   : MDTP         - TEMPERATURE OF MUD
NEUT.         1                    : NEUTRON      - NEUTRON TYPE
RESI.         0                    : RESIST       - RESISTIVITY TYPE
RMC .OHMM     0.25                 : RMC          - RESISTIVITY OF MUD CAKE
RMF .OHMM     0.25                 : RMF          - RESISTIVITY OF MUD FILTRATE
SUFT.C        15                   : SUFT         - SURFACE TEMPERATURE
~A  DEPTH     RESD     PHID     PHIN       GR
# ...
  343.500    2.480    0.299    0.359   64.301
  343.750    2.501    0.292    0.367   59.230
  344.000    2.485    0.292    0.368   55.977
  344.250    2.492    0.299    0.359   53.511
  344.500    2.527    0.301    0.352   58.638
  344.750    2.946    0.296    0.384   64.434
  345.000    3.681    0.074    0.321   65.306
  345.250    4.398    0.020    0.241   58.169
  345.500    5.235    0.004    0.202   53.643
  345.750    5.730    0.045    0.181   47.353
  346.000    5.920    0.138    0.168   38.697
  346.250    4.845    0.187    0.259   43.641
  346.500    4.265    0.225    0.297   56.598
  346.750    3.760    0.244    0.318   61.846
  347.000    3.384    0.254    0.353   64.116
  347.250    3.138    0.259    0.354   71.489
  347.500    2.937    0.243    0.344   61.436
  347.750    2.843    0.245    0.342   64.316
  348.000    2.767    0.252    0.358   68.896
  348.250    2.755    0.267    0.362   71.957
  348.500    2.752    0.274    0.358   67.611
  348.750    2.749    0.276    0.360   61.990
  349.000    2.752    0.272    0.364   58.070
  349.250    2.766    0.268    0.361   57.126
  349.500    2.767    0.265    0.351   56.423
  349.750    2.764    0.260    0.346   63.189
  350.000    2.772    0.259    0.347   69.710
  350.250    2.831    0.258    0.351   68.582
  350.500    2.947    0.255    0.358   70.796
  350.750    3.056    0.250    0.369   72.519
  351.000    3.158    0.238    0.368   66.838
  351.250    3.202    0.220    0.358   73.360
  351.500    3.247    0.205    0.351   77.697
  351.750    3.250    0.192    0.351   83.793
  352.000    3.259    0.231    0.342   74.531
  352.250    3.249    0.304    0.345   74.494
  352.500    3.271    0.311    0.352   88.731
  352.750    3.348    0.268    0.331   87.117
  353.000    3.420    0.239    0.329   85.926
  353.250    3.488    0.248    0.348   79.216
  353.500    3.510    0.253    0.356   71.833
  353.750    3.501    0.244    0.355   66.697
  354.000    3.465    0.243    0.349   71.217
  354.250    3.417    0.225    0.334   70.333
  354.500    3.388    0.208    0.336   72.545
  354.750    3.347    0.216    0.360   81.796
  355.000    3.313    0.248    0.370   85.707
  355.250    3.292    0.240    0.349   85.066
  355.500    3.271    0.226    0.339   87.341
  355.750    3.231    0.260    0.335   87.911
  356.000    3.144    0.279    0.346   84.235
  356.250    3.071    0.295    0.353   80.737
  356.500    3.306    0.249    0.346   85.319
  356.750    3.559    0.221    0.350   85.464
  357.000    3.794    0.215    0.368   89.743
  357.250    4.047    0.201    0.364   93.775
  357.500    4.157    0.197    0.359   90.825
  357.750    4.161    0.198    0.353   84.778
  358.000    4.243    0.186    0.345   79.946
  358.250    4.491    0.164    0.311   80.216
  358.500    4.780    0.194    0.289   80.364
  358.750    4.939    0.514    0.388   79.417
  359.000    4.772    0.557    0.456   56.799
  359.250    4.558    0.585    0.485   37.155
  359.500    4.188    0.334    0.381   38.030
  359.750    3.749    0.282    0.348   53.112
  360.000    3.393    0.261    0.321   46.946
  360.250    3.277    0.259    0.321   50.196
  360.500    3.023    0.266    0.341   55.139
  360.750    2.936    0.276    0.356   56.979
  361.000    2.868    0.284    0.367   61.197
  361.250    2.797    0.275    0.346   64.013
  361.500    2.758    0.291    0.354   63.978
  361.750    2.665    0.308    0.365   60.604
  362.000    2.574    0.317    0.360   56.200
  362.250    2.506    0.318    0.356   52.583
  362.500    2.443    0.316    0.362   52.000
  362.750    2.395    0.313    0.355   54.697
  363.000    2.371    0.305    0.346   57.879
  363.250    2.377    0.304    0.342   52.928
  363.500    2.397    0.304    0.341   58.298
  363.750    2.440    0.294    0.340   66.579
  364.000    2.535    0.284    0.356   70.855
  364.250    2.614    0.276    0.368   61.048
  364.500    2.676    0.274    0.377   59.188
  364.750    2.678    0.268    0.388   65.471
  365.000    2.573    0.281    0.381   58.270
  365.250    2.413    0.304    0.362   51.982
  365.500    2.242    0.317    0.348   47.273
  365.750    2.182    0.320    0.338   49.665
  366.000    2.184    0.322    0.326   43.378
  366.250    2.227    0.295    0.311   51.236
  366.500    2.365    0.267    0.329   65.712
  366.750    2.609    0.248    0.347   71.868
  367.000    2.782    0.235    0.325   74.321
  367.250    2.928    0.248    0.328   77.140
  367.500    3.065    0.256    0.363   76.438
  367.750    3.149    0.265    0.380   66.689
  368.000    3.158    0.260    0.373   60.036
  368.250    3.137    0.255    0.366   66.622
  368.500    3.111    0.253    0.379   70.227
  368.750    3.108    0.242    0.393   63.878
  369.000    3.145    0.230    0.369   69.308
  369.250    3.201    0.235    0.349   74.983
  369.500    3.264    0.243    0.342   77.860
  369.750    3.335    0.271    0.356   78.612
  370.000    3.376    0.291    0.366   75.239
  370.250    3.366    0.313    0.345   77.454
  370.500    3.382    0.330    0.360   82.029
  370.750    3.297    0.346    0.364   76.835
  371.000    3.150    0.325    0.369   67.146
  371.250    2.971    0.312    0.364   56.246
  371.500    2.839    0.299    0.361   63.073
  371.750    2.668    0.288    0.368   66.738
  372.000    2.611    0.275    0.377   65.125
  372.250    2.559    0.259    0.370   57.744
  372.500    2.495    0.272    0.365   55.223
  372.750    2.420    0.286    0.360   56.763
  373.000    2.382    0.290    0.360   50.480
  373.250    2.332    0.288    0.360   45.523
  373.500    2.299    0.290    0.361   52.957
  373.750    2.267    0.293    0.361   54.197
  374.000    2.236    0.296    0.360   52.704
  374.250    2.212    0.301    0.350   56.980
  374.500    2.198    0.307    0.344   56.581
  374.750    2.224    0.309    0.341   63.408
  375.000    2.303    0.305    0.347   63.921
  375.250    2.357    0.296    0.353   59.148
  375.500    2.449    0.289    0.359   62.877
  375.750    2.511    0.283    0.362   68.490
  376.000    2.594    0.265    0.366   72.398
  376.250    2.660    0.253    0.349   69.030
  376.500    2.733    0.245    0.343   66.198
  376.750    2.834    0.244    0.357   62.767
  377.000    2.977    0.228    0.275   57.873
  377.250    3.139    0.109    0.219   51.522
  377.500    3.249    0.094    0.223   47.845
  377.750    3.211    0.132    0.263   56.319
  378.000    3.124    0.164    0.298   59.980
  378.250    2.860    0.209    0.327   63.647
  378.500    2.672    0.241    0.338   59.666
  378.750    2.610    0.266    0.346   64.489
  379.000    2.593    0.285    0.343   62.754
  379.250    2.649    0.288    0.354   65.573
  379.500    2.701    0.283    0.367   72.458
  379.750    2.740    0.281    0.364   70.117
  380.000    2.758    0.254    0.352   72.206
  380.250    2.781    0.237    0.346   83.040
  380.500    2.809    0.257    0.363   86.040
  380.750    2.827    0.265    0.368   80.966
  381.000    2.819    0.266    0.372   73.646
  381.250    2.801    0.275    0.372   71.065
  381.500    2.793    0.281    0.384   74.305
  381.750    2.791    0.277    0.377   73.236
  382.000    2.798    0.270    0.359   67.920
  382.250    2.838    0.269    0.354   68.312
  382.500    2.861    0.274    0.363   68.340
  382.750    2.901    0.278    0.366   68.059
  383.000    2.975    0.258    0.365   73.487
  383.250    3.103    0.239    0.362   84.017
  383.500    3.175    0.229    0.347   88.231
  383.750    3.281    0.219    0.332   82.793
  384.000    3.364    0.212    0.335   74.441
  384.250    3.430    0.219    0.348   73.741
  384.500    3.479    0.214    0.351   76.132
  384.750    3.514    0.207    0.342   77.858
  385.000    3.591    0.203    0.346   72.848
  385.250    3.683    0.198    0.354   69.473
  385.500    3.726    0.194    0.359   73.206
  385.750    3.786    0.192    0.361   75.959
  386.000    3.796    0.189    0.358   77.808
  386.250    3.779    0.189    0.354   77.892
  386.500    3.734    0.192    0.349   79.131
  386.750    3.660    0.194    0.336   74.605
