~VERSION INFORMATION
 VERS.                 2.0:   CWLS LOG ASCII STANDARD -VERSION 2.0
 WRAP.                  NO:   ONE LINE PER DEPTH STEP
~WELL INFORMATION BLOCK
#MNEM.UNIT           DATA                    DESCRIPTION OF MNEMONIC
#---------    -------------------            -------------------------------
# Generated from Intellog Unique Number	CW_76_78/WELL/416
WELL.         RR CHIEFCO PELICAN 06-03       : Well_name    - WELL
LOC .         00/06-03-077-22W4/0            : Location     - LOCATION
UWI .         00/06-03-077-22W4/0            : Uwi          - UNIQUE WELL ID
ENTR.         os                             : Entered      - ENTERED BY
SRVC.         SCHLUMBERGER                   : Scn          - SERVICE COMPANY
DATE.         25 JAN 1974                    : Date         - LOG DATE
STRT.M        438.912                        : top_depth    - START DEPTH
STOP.M        661.412                        : bot_depth    - STOP DEPTH
STEP.M        0.25                           : increment    - STEP LENGTH
 NULL. -999.2500:NULL Value
~CURVE INFORMATION BLOCK
#MNEM UNIT       ERCB CURVE CODE    CURVE DESCRIPTION
#-----------   ------------------   ----------------------------------
DEPT.M        00 001 00 00         : DEPTH        - DEPTH
ILD .OHMM     00 120 00 00         : RESD         - DEEP RESISTIVITY (DIL)
NPHI.V/V      00 330 00 00         : PHIN         - NEUTRON POROSITY (SANDSTONE)
DPHI.V/V      00 890 00 00         : PHID         - DENSITY POROSITY (SANDSTONE)
GR  .API      00 310 00 00         : GR           - GAMMA RAY
CALI.MM       00 280 01 00         : CAL          - CALIPER
~PARAMETER INFORMATION
#MNEM.UNIT           DATA             DESCRIPTION OF MNEMONIC
#---------         -----------     ------------------------------
GL  .M        756.94               : gl           - GROUND LEVEL ELEVATION
EREF.M        760.293              : kb           - ELEVATION OF DEPTH REFERENCE
DATM.M        756.94               : datum        - DATUM ELEVATION
TDD .M        675.742              : tdd          - TOTAL DEPTH DRILLER
RUN .         ONE                  : Run          - RUN NUMBER
ENG .         SIROIS & SMILEY      : Engineer     - RECORDING ENGINEER
WIT .         TAHMAZIAN            : Witness      - WITNESSED BY
BASE.         EDMONTON             : Branch       - HOME BASE OF LOGGING UNIT
MUD .         GEL CHEM             : Mud_type     - MUD TYPE
MATR.         SANDSTONE            : Logunit      - NEUTRON MATRIX
TMAX.C        28.8889              : BHT          - MAXIMUM RECORDED TEMPERATURE
BHTD.M        675.742              : BHTDEP       - MAXIMUM RECORDED TEMPERATURE
RMT .C        8.88889              : MDTP         - TEMPERATURE OF MUD
MUDD.KG/M     1080                 : MWT          - MUD DENSITY
NEUT.         1                    : NEUTRON      - NEUTRON TYPE
RESI.         0                    : RESIST       - RESISTIVITY TYPE
RM  .OHMM     4.42                 : RM           - RESISTIVITY OF MUD
RMC .OHMM     2.5                  : RMC          - RESISTIVITY OF MUD CAKE
RMF .OHMM     4.8                  : RMF          - RESISTIVITY OF MUD FILTRATE
SUFT.C        4.5                  : SUFT         - SURFACE TEMPERATURE
~A  DEPTH     RESD     PHIN     PHID       GR      CAL
# ...
  511.912    5.886    0.463    0.326   76.878  160.932
  512.162    5.850    0.477    0.323   76.485  160.688
  512.412    5.790    0.480    0.295   74.565  161.892
  512.662    5.735    0.483    0.320   72.942  162.269
  512.912    5.730    0.492    0.326   73.843  161.623
  513.162    5.714    0.494    0.343   73.944  160.849
  513.412    5.700    0.500    0.342   75.215  161.433
  513.662    5.676    0.508    0.337   76.794  162.040
  513.912    5.671    0.503    0.338   76.773  162.516
  514.162    5.657    0.497    0.333   74.540  160.723
  514.412    5.653    0.504    0.334   73.412  161.206
  514.662    5.649    0.500    0.332   74.989  162.316
  514.912    5.643    0.479    0.331   75.524  161.860
  515.162    5.693    0.470    0.337   77.528  162.750
  515.412    5.666    0.468    0.335   79.223  162.411
  515.662    5.998    0.456    0.332   80.130  161.859
  515.912    7.217    0.442    0.324   80.595  161.907
  516.162    8.813    0.412    0.306   77.629  161.996
  516.412   10.781    0.319    0.189   74.169  164.045
  516.662   15.245    0.211    0.141   66.652  166.610
  516.912   20.889    0.168    0.089   61.656  168.761
  517.162   30.205    0.158    0.002   60.220  170.910
  517.412   23.403    0.171    0.005   63.515  171.394
  517.662   17.183    0.210    0.038   66.938  170.945
  517.912   12.178    0.246    0.105   68.270  170.598
  518.162    8.777    0.319    0.246   69.968  169.004
  518.412    7.163    0.384    0.305   73.696  166.359
  518.662    6.392    0.498    0.342   80.190  163.936
  518.912    5.865    0.490    0.340   81.393  162.018
  519.162    5.442    0.480    0.334   81.560  163.446
  519.412    5.211    0.467    0.294   83.444  163.096
  519.662    5.064    0.462    0.284   85.698  162.852
  519.912    4.911    0.466    0.286   88.196  162.618
  520.162    4.659    0.460    0.271   90.695  162.478
  520.412    4.419    0.453    0.255   94.358  163.156
  520.662    4.264    0.456    0.230   97.412  164.380
  520.912    4.244    0.475    0.212  101.998  166.741
  521.162    4.257    0.489    0.198  107.693  169.306
  521.412    4.309    0.491    0.208  109.394  171.041
  521.662    4.404    0.482    0.203  106.791  171.633
  521.912    4.475    0.474    0.217  103.944  172.214
  522.162    4.581    0.470    0.208  102.995  172.186
  522.412    4.664    0.454    0.199  103.535  172.874
  522.662    4.686    0.451    0.196  104.927  172.843
  522.912    4.699    0.451    0.196  101.466  171.762
  523.162    4.670    0.442    0.214   96.893  170.061
  523.412    4.607    0.431    0.224   96.074  168.990
  523.662    4.527    0.444    0.211  100.173  168.847
  523.912    4.465    0.466    0.210  103.349  169.638
  524.162    4.307    0.478    0.206  105.352  171.377
  524.412    4.194    0.469    0.207  105.520  173.105
  524.662    4.091    0.462    0.213  104.574  173.696
  524.912    3.859    0.479    0.219  102.775  172.525
  525.162    3.541    0.493    0.220   99.739  171.235
  525.412    3.340    0.496    0.225   98.673  172.033
  525.662    3.198    0.494    0.209  100.254  171.480
  525.912    3.160    0.479    0.196  100.473  171.759
  526.162    3.309    0.467    0.205  101.196  173.165
  526.412    3.621    0.470    0.210  100.498  173.563
  526.662    4.089    0.480    0.224   97.527  174.255
  526.912    4.929    0.485    0.223   95.969  174.014
  527.162    5.704    0.498    0.248   92.940  171.684
  527.412    6.515    0.506    0.276   88.371  168.424
  527.662    7.346    0.503    0.306   85.892  164.541
  527.912    8.040    0.495    0.298   86.302  164.508
  528.162    8.185    0.481    0.299   85.848  163.212
  528.412    8.013    0.477    0.293   85.952  161.940
  528.662    7.324    0.475    0.301   84.335  161.176
  528.912    6.720    0.478    0.314   81.425  161.545
  529.162    5.940    0.486    0.304   76.856  162.557
  529.412    5.350    0.497    0.295   74.931  163.983
  529.662    5.095    0.486    0.286   75.153  164.360
  529.912    5.081    0.472    0.306   76.918  164.121
  530.162    5.224    0.463    0.314   77.568  162.728
  530.412    5.326    0.461    0.321   78.474  163.218
  530.662    5.452    0.480    0.296   77.532  163.278
  530.912    5.457    0.498    0.297   76.405  162.206
  531.162    5.503    0.486    0.312   75.090  162.165
  531.412    5.563    0.483    0.312   77.590  163.168
  531.662    5.630    0.483    0.298   79.600  163.658
  531.912    5.972    0.476    0.313   75.766  163.304
  532.162    6.512    0.466    0.303   72.922  162.864
  532.412    7.019    0.438    0.279   70.013  163.243
  532.662    8.138    0.370    0.258   68.882  164.870
  532.912    8.598    0.300    0.203   68.554  167.128
  533.162    8.436    0.296    0.134   65.893  170.212
  533.412    8.150    0.335    0.141   64.521  172.259
  533.662    7.436    0.436    0.217   65.913  169.941
  533.912    6.835    0.421    0.274   67.183  163.972
  534.162    5.866    0.406    0.250   67.040  160.814
  534.412    5.391    0.434    0.248   69.658  162.752
  534.662    4.948    0.446    0.287   72.528  162.915
  534.912    4.780    0.446    0.315   74.535  162.690
  535.162    4.553    0.447    0.293   74.758  161.402
  535.412    4.416    0.451    0.270   77.008  161.055
  535.662    4.307    0.453    0.279   79.017  162.062
  535.912    4.250    0.456    0.277   82.617  161.706
  536.162    4.253    0.462    0.272   85.244  161.249
  536.412    4.290    0.461    0.238   89.279  161.224
  536.662    4.351    0.465    0.237   92.085  160.874
  536.912    4.380    0.472    0.217   96.181  162.084
  537.162    4.360    0.467    0.244   97.329  162.478
  537.412    4.199    0.462    0.276   92.701  161.501
  537.662    4.050    0.459    0.272   90.097  162.192
  537.912    3.893    0.457    0.271   90.074  163.610
  538.162    3.728    0.478    0.261   92.022  165.444
  538.412    3.636    0.495    0.248   93.478  167.179
  538.662    3.585    0.502    0.240   94.195  168.287
  538.912    3.686    0.492    0.238   93.559  168.988
  539.162    3.830    0.483    0.229   93.600  168.647
  539.412    3.993    0.468    0.243   93.518  168.501
  539.662    4.369    0.479    0.237   93.246  169.186
  539.912    4.845    0.479    0.227   91.940  169.666
  540.162    4.913    0.463    0.194   90.500  169.431
  540.412    4.586    0.358    0.176   87.106  169.711
  540.662    4.398    0.388    0.156   87.577  170.513
  540.912    4.203    0.447    0.230   93.022  170.481
  541.162    4.017    0.446    0.233   98.964  169.404
  541.412    4.014    0.449    0.243  101.215  168.638
  541.662    4.055    0.454    0.238  101.932  167.554
  541.912    4.067    0.471    0.239  101.661  167.107
  542.162    3.997    0.472    0.247  100.232  165.821
  542.412    3.920    0.472    0.254  101.992  164.859
  542.662    3.790    0.475    0.246  104.488  166.891
  542.912    3.696    0.473    0.235  104.410  167.799
  543.162    3.680    0.471    0.244  105.557  168.381
  543.412    3.718    0.476    0.252  107.192  168.136
  543.662    3.886    0.466    0.241  104.778  167.904
  543.912    3.992    0.461    0.237  106.048  168.484
  544.162    4.072    0.455    0.229  107.991  168.349
  544.412    4.023    0.461    0.222  109.072  168.415
  544.662    3.888    0.468    0.217  109.179  169.425
  544.912    3.821    0.474    0.217  108.296  170.541
  545.162    3.805    0.470    0.218  106.374  171.329
  545.412    3.781    0.473    0.211  104.141  170.574
  545.662    3.778    0.467    0.199  106.143  171.464
  545.912    3.734    0.457    0.196  106.741  172.374
  546.162    3.828    0.453    0.184  106.782  172.964
  546.412    4.024    0.465    0.213  104.788  173.972
  546.662    4.064    0.475    0.209  105.512  171.644
  546.912    3.973    0.457    0.223  105.058  167.763
  547.162    3.925    0.445    0.236  105.346  163.253
  547.412    3.915    0.453    0.233  105.324  164.048
  547.662    3.934    0.457    0.227  105.367  167.438
  547.912    3.998    0.471    0.215  105.959  168.968
  548.162    4.031    0.469    0.207  105.691  170.290
