~VERSION INFORMATION
 VERS.                 2.0:   CWLS LOG ASCII STANDARD -VERSION 2.0
 WRAP.                  NO:   ONE LINE PER DEPTH STEP
~WELL INFORMATION BLOCK
#MNEM.UNIT           DATA                    DESCRIPTION OF MNEMONIC
#---------    -------------------            -------------------------------
# Generated from Intellog Unique Number	CC_84_87/WELL/1064
NULL.         -999.25                        : NULL_VALUE
WELL.         PARA ET AL GRANOR              : Well_name    - WELL              
LOC .         06-06-084-17W4                 : Location     - LOCATION          
UWI .         00/06-06-084-17W400            : Uwi          - UNIQUE WELL ID    
ENTR.         JHS                            : Entered      - ENTERED BY        
SRVC.         COMPUTALOG                     : Scn          - SERVICE COMPANY   
DATE.         25 JAN 82                      : Date         - LOG DATE
STRT.M        97                             : top_depth    - START DEPTH       
STOP.M        290.5                          : bot_depth    - STOP DEPTH        
STEP.M        0.3                            : increment    - STEP LENGTH       
~CURVE INFORMATION BLOCK
#MNEM UNIT       ERCB CURVE CODE    CURVE DESCRIPTION
#-----------   ------------------   ----------------------------------
DEPT.M        00 001 00 00         : DEPTH        - DEPTH                       
DPHI.V/V      00 890 00 00         : PHID         - DENSITY POROSITY (LIMESTONE)
NPHI.V/V      00 330 00 00         : PHIN         - NEUTRON POROSITY (LIMESTONE)
GR  .API      00 310 00 00         : GR           - GAMMA RAY                   
ILD .OHMM     00 120 00 00         : RESD         - DEEP RESISTIVITY (DIL)      
~PARAMETER INFORMATION       
#MNEM.UNIT           DATA             DESCRIPTION OF MNEMONIC
#---------         -----------     ------------------------------
GL  .M        536.88               : gl           - GROUND LEVEL ELEVATION      
EREF.M        540.48               : kb           - ELEVATION OF DEPTH REFERENCE
DATM.M        540.48               : datum        - DATUM ELEVATION             
TDD .M        291                  : tdd          - TOTAL DEPTH DRILLER         
RUN .         ONE                  : Run          - RUN NUMBER                  
ENG .         BILL                 : Engineer     - RECORDING ENGINEER          
WIT .         JIM                  : Witness      - WITNESSED BY                
MUD .         GEL                  : Mud_type     - MUD TYPE                    
MATR.         LIMESTONE            : Logunit      - NEUTRON MATRIX              
TMAX.C        22                   : BHT          - MAXIMUM RECORDED TEMPERATURE
BHTD.M        291                  : BHTDEP       - MAXIMUM RECORDED TEMPERATURE
MATR.         1                    : LOGUNIT      - NEUTRON MATRIX              
RMT .C        25                   : MDTP         - TEMPERATURE OF MUD          
NEUT.         1                    : NEUTRON      - NEUTRON TYPE                
RESI.         0                    : RESIST       - RESISTIVITY TYPE            
RMC .OHMM     0.25                 : RMC          - RESISTIVITY OF MUD CAKE     
RMF .OHMM     0.25                 : RMF          - RESISTIVITY OF MUD FILTRATE 
SUFT.C        15                   : SUFT         - SURFACE TEMPERATURE         
~A  DEPTH     PHID     PHIN       GR     RESD
# ...
  201.401    0.207    0.405  101.226    6.962
  201.701    0.220    0.377  108.609    6.832
  202.001    0.236    0.349  107.384    6.962
  202.301    0.232    0.398  100.625    7.231
  202.601    0.231    0.458   93.868    7.800
  202.901    0.232    0.474   93.873    8.256
  203.201    0.223    0.450   92.033    8.905
  203.501    0.228    0.415   87.735    9.426
  203.801    0.251    0.432   85.895    9.790
  204.101    0.240    0.408   90.203   10.168
  204.401    0.241    0.499   93.282   11.830
  204.701    0.204    0.456   85.909   13.506
  205.001    0.018    0.211   69.930   14.569
  205.301    0.066    0.205   61.943   15.131
  205.601    0.197    0.271   73.628   14.297
  205.901    0.229    0.340   85.313   12.762
  206.201    0.232    0.419   89.007   10.170
  206.501    0.232    0.488   87.781    9.429
  206.801    0.229    0.458   87.787    9.252
  207.101    0.222    0.445   89.635    9.253
  207.401    0.209    0.471   89.640    9.253
  207.701    0.206    0.474   89.031    9.610
  208.001    0.216    0.422   89.034    9.794
  208.301    0.221    0.390   89.654    9.794
  208.601    0.209    0.417   88.430    9.611
  208.901    0.205    0.446   90.279    9.611
  209.201    0.210    0.442   90.283    9.611
  209.501    0.220    0.440   89.058    9.612
  209.801    0.219    0.441   90.907    9.612
  210.101    0.229    0.363   90.911    9.612
  210.401    0.236    0.375   87.843    9.612
  210.701    0.226    0.411   90.307    9.613
  211.001    0.184    0.393   92.155    9.613
  211.301    0.177    0.372   89.701    9.613
  211.601    0.232    0.394   89.706    9.613
  211.901    0.245    0.427   91.554    9.614
  212.201    0.242    0.432   92.174    9.614
  212.501    0.243    0.430   97.712    9.434
  212.801    0.230    0.417   98.331    9.434
  213.101    0.209    0.382   95.262    9.435
  213.401    0.207    0.323   90.348    9.615
  213.701    0.206    0.330   88.509    9.616
  214.001    0.206    0.343   86.670    9.616
  214.301    0.232    0.381   89.133    9.800
  214.601    0.225    0.432   94.056    9.616
  214.901    0.212    0.484   91.601    9.617
  215.201    0.219    0.494   90.377    9.437
  215.501    0.222    0.456   90.996    9.260
  215.801    0.217    0.418   94.689    9.087
  216.101    0.216    0.454   95.309    8.917
  216.401    0.214    0.474   96.543    8.917
  216.701    0.212    0.486   95.933    8.917
  217.001    0.212    0.437   96.552    8.750
  217.301    0.204    0.364   98.402    8.586
  217.601    0.197    0.348   96.562    8.586
  217.901    0.204    0.420   97.796    8.268
  218.201    0.205    0.452   95.956    8.113
  218.501    0.212    0.462   96.576    7.961
  218.801    0.213    0.469  102.728    7.961
  219.101    0.211    0.501   98.430    8.269
  219.401    0.233    0.489   86.754    8.919
  219.701    0.259    0.508   77.537    9.621
  220.001    0.248    0.516   77.542   10.576
  220.301    0.217    0.478   81.850   11.848
  220.601    0.234    0.457   82.470   12.306
  220.901    0.258    0.439   79.400   12.306
  221.201    0.253    0.407   78.790   12.076
  221.501    0.196    0.437   82.483   11.850
  221.801    0.201    0.463   80.644   11.410
  222.101    0.248    0.448   78.189   11.196
  222.401    0.274    0.405   75.736   10.987
  222.701    0.271    0.453   77.585   10.781
  223.001    0.275    0.518   78.819   10.987
  223.301    0.279    0.513   76.979   10.782
  223.601    0.264    0.453   77.598   10.580
  223.901    0.242    0.419   81.906   10.580
  224.201    0.247    0.417   85.600   10.382
  224.501    0.245    0.415   84.990   10.188
  224.801    0.238    0.433   83.764    9.997
  225.101    0.235    0.459   88.688    9.997
  225.401    0.252    0.452   85.618   10.189
  225.701    0.227    0.360   76.402   10.384
  226.001    0.223    0.370   74.563   10.582
  226.301    0.256    0.405   77.640   10.583
  226.601    0.237    0.429   79.490   10.583
  226.901    0.202    0.392   80.110   10.385
  227.201    0.217    0.401   82.573   10.385
  227.501    0.253    0.409   83.808   10.191
  227.801    0.248    0.385   83.197    9.812
  228.101    0.219    0.390   84.431    9.271
  228.401    0.202    0.451   89.969    8.434
  228.701    0.207    0.507   96.736    7.250
  229.001    0.191    0.495  107.192    6.850
  229.301    0.187    0.450  105.967    6.850
  229.601    0.211    0.421   98.594    7.250
  229.901    0.229    0.395   91.222    8.761
  230.201    0.208    0.323   86.308   10.002
  230.501    0.188    0.332   85.698   10.995
  230.801    0.211    0.362   85.088   10.996
  231.101    0.224    0.362   87.552   10.003
  231.401    0.211    0.401   94.319    8.930
  231.701    0.193    0.425   96.168    8.279
  232.001    0.197    0.391   96.787    7.822
  232.301    0.204    0.353  104.784    7.532
  232.601    0.202    0.391  109.092    7.532
  232.901    0.166    0.380  103.564    7.532
  233.201    0.169    0.382   98.035    7.972
  233.501    0.196    0.439  101.114    8.438
  233.801    0.191    0.396  101.734    8.439
  234.101    0.190    0.388  101.124    8.281
  234.401    0.203    0.438  100.514    7.973
  234.701    0.176    0.387   98.059    7.677
  235.001    0.145    0.335  101.138    7.678
  235.301    0.199    0.348  103.602    7.825
  235.601    0.204    0.347  109.754    7.678
  235.901    0.193    0.361  114.062    7.393
  236.201    0.197    0.378  114.067    7.393
  236.501    0.207    0.401  119.605    7.535
  236.801    0.210    0.475  116.535    7.826
  237.101    0.213    0.419  107.318    9.279
  237.401    0.172    0.331   96.257   10.594
  237.701    0.173    0.365  106.098   11.868
  238.001    0.155    0.324  100.570   13.296
  238.301    0.167    0.299   90.124   13.047
  238.601    0.204    0.363   95.661   12.096
  238.901    0.199    0.394  103.658   11.004
  239.201    0.179    0.461  107.352   10.202
  239.501    0.186    0.457  109.815   10.203
  239.801    0.189    0.434  103.057   10.799
  240.101    0.181    0.465   91.382   11.648
  240.401    0.204    0.457   93.845   12.565
  240.701    0.240    0.398   95.080   13.812
  241.001    0.257    0.367   92.625   14.620
  241.301    0.246    0.334   88.941   14.899
  241.601    0.247    0.321   85.872   14.347
  241.901    0.223    0.394   88.951   14.621
  242.201    0.223    0.399   87.726   15.475
  242.501    0.057    0.153   75.435   17.337
  242.801    0.015    0.116   65.603   22.597
  243.101    0.000    0.105   59.460   30.589
  243.401    0.000    0.107   60.080   43.006
  243.701    0.000    0.115   60.085   44.666
  244.001    0.000    0.140   60.704   43.008
  244.301    0.041    0.239   63.783   34.927
  244.602    0.126    0.294   67.476   27.310
  244.902    0.188    0.302   66.866   20.175
  245.202    0.251    0.405   71.789   16.697
  245.502    0.239    0.441   80.401   14.626
  245.802    0.236    0.450   84.709   13.056
  246.102    0.242    0.427   82.869   12.336
  246.402    0.225    0.424   84.103   11.878
  246.702    0.216    0.434   83.493   11.656
  247.002    0.193    0.438   80.424   11.656
  247.302    0.238    0.447   82.273   11.656
  247.602    0.194    0.473   86.581   11.880
  247.902    0.136    0.462   79.208   12.814
  248.202    0.083    0.256   75.525   13.563
  248.502    0.158    0.304   77.374   13.563
  248.802    0.203    0.408   84.755   11.881
  249.102    0.209    0.425   92.752   10.606
  249.402    0.219    0.408   90.913   10.212
  249.702    0.229    0.371   90.918   10.213
  250.002    0.210    0.410   90.921   10.021
  250.302    0.203    0.405   89.697    9.834
  250.602    0.216    0.395   87.242    9.291
  250.902    0.211    0.421   84.788    8.453
  251.202    0.201    0.426   87.867    8.294
  251.502    0.199    0.440   91.561    8.295
  251.802    0.201    0.414   90.335    8.295
  252.102    0.206    0.390   89.725    8.295
  252.402    0.164    0.412   92.189    8.140
  252.702    0.140    0.374   89.120    7.838
  253.002    0.183    0.374   87.895    7.547
  253.302    0.196    0.411   90.359    7.267
