~VERSION INFORMATION
 VERS.                 2.0:   CWLS LOG ASCII STANDARD -VERSION 2.0
 WRAP.                  NO:   ONE LINE PER DEPTH STEP
~WELL INFORMATION BLOCK
#MNEM.UNIT           DATA                    DESCRIPTION OF MNEMONIC
#---------    -------------------            -------------------------------
# Generated from Intellog Unique Number	CX_WELLS/WELL/3294
WELL.         NEWBY                          : Well_name    - WELL
LOC .         00/09-32-084-05W4/0            : Location     - LOCATION
UWI .         00/09-32-084-05W400            : Uwi          - UNIQUE WELL ID
ENTR.         T                              : Entered      - ENTERED BY
SRVC.         SCHLUMBERGER                   : Scn          - SERVICE COMPANY
STRT.M        80                             : top_depth    - START DEPTH
STOP.M        280                            : bot_depth    - STOP DEPTH
STEP.M        0.25                           : increment    - STEP LENGTH
 NULL. -999.2500:NULL Value
~CURVE INFORMATION BLOCK
#MNEM UNIT       ERCB CURVE CODE    CURVE DESCRIPTION
#-----------   ------------------   ----------------------------------
DEPT.M        00 001 00 00         : DEPTH        - DEPTH
GR  .API      00 310 00 00         : GR           - GAMMA RAY
NPHI.V/V      00 330 00 00         : PHIN         - NEUTRON POROSITY (SANDSTONE)
DPHI.V/V      00 890 00 00         : PHID         - DENSITY POROSITY (SANDSTONE)
ILD .OHMM     00 120 00 00         : RESD         - DEEP RESISTIVITY (DIL)
~PARAMETER INFORMATION
#MNEM.UNIT           DATA             DESCRIPTION OF MNEMONIC
#---------         -----------     ------------------------------
GL  .M        454.8                : gl           - GROUND LEVEL ELEVATION
EREF.M        458.3                : kb           - ELEVATION OF DEPTH REFERENCE
DATM.M        458.3                : datum        - DATUM ELEVATION
TDD .M        294                  : tdd          - TOTAL DEPTH DRILLER
RUN .         ONE                  : Run          - RUN NUMBER
ENG .         BILL                 : Engineer     - RECORDING ENGINEER
WIT .         JIM                  : Witness      - WITNESSED BY
MUD .         GEL                  : Mud_type     - MUD TYPE
MATR.         SANDSTONE            : Logunit      - NEUTRON MATRIX
TMAX.C        26                   : BHT          - MAXIMUM RECORDED TEMPERATURE
BHTD.M        294                  : BHTDEP       - MAXIMUM RECORDED TEMPERATURE
MATR.         1                    : LOGUNIT      - NEUTRON MATRIX
RMT .C        16                   : MDTP         - TEMPERATURE OF MUD
NEUT.         1                    : NEUTRON      - NEUTRON TYPE
RESI.         4.8                  : RESIST       - RESISTIVITY TYPE
RMC .OHMM     4                    : RMC          - RESISTIVITY OF MUD CAKE
RMF .OHMM     3.5                  : RMF          - RESISTIVITY OF MUD FILTRATE
SUFT.C        4                    : SUFT         - SURFACE TEMPERATURE
~A  DEPTH       GR     PHIN     PHID     RESD
# ...
  210.500   54.292    0.385    0.323    1.385
  210.750   51.429    0.384    0.328    1.388
  211.000   49.157    0.378    0.321    1.418
  211.250   52.801    0.376    0.314    1.421
  211.500   55.285    0.377    0.312    1.425
  211.750   52.398    0.380    0.318    1.455
  212.000   53.107    0.381    0.316    1.458
  212.250   56.751    0.380    0.285    1.490
  212.500   59.189    0.373    0.273    1.522
  212.750   62.880    0.372    0.251    1.583
  213.000   61.199    0.372    0.239    1.681
  213.250   58.927    0.375    0.294    1.623
  213.500   59.613    0.379    0.326    1.565
  213.750   62.050    0.380    0.339    1.454
  214.000   66.901    0.381    0.340    1.401
  214.250   71.752    0.381    0.341    1.352
  214.500   74.189    0.377    0.337    1.305
  214.750   74.922    0.368    0.327    1.307
  215.000   70.828    0.375    0.320    1.363
  215.250   59.090    0.384    0.307    1.418
  215.500   52.654    0.382    0.277    1.448
  215.750   43.874    0.376    0.256    1.627
  216.000   36.846    0.366    0.247    1.761
  216.250   38.785    0.356    0.239    1.869
  216.500   40.016    0.354    0.243    1.944
  216.750   44.251    0.358    0.250    1.912
  217.000   49.102    0.361    0.260    1.810
  217.250   55.113    0.365    0.284    1.650
  217.500   62.921    0.370    0.299    1.562
  217.750   70.115    0.376    0.312    1.505
  218.000   73.215    0.377    0.328    1.452
  218.250   70.374    0.370    0.336    1.376
  218.500   68.055    0.364    0.338    1.326
  218.750   63.393    0.355    0.340    1.304
  219.000   56.388    0.355    0.336    1.307
  219.250   48.792    0.361    0.322    1.336
  219.500   44.153    0.364    0.311    1.391
  219.750   40.130    0.374    0.287    1.420
  220.000   38.994    0.374    0.270    1.451
  220.250   37.953    0.370    0.256    1.539
  220.500   38.047    0.365    0.251    1.602
  220.750   41.691    0.366    0.254    1.703
  221.000   45.926    0.367    0.259    1.705
  221.250   51.345    0.368    0.261    1.744
  221.500   57.355    0.365    0.261    1.747
  221.750   63.413    0.359    0.260    1.717
  222.000   67.057    0.359    0.257    1.720
  222.250   68.311    0.363    0.253    1.692
  222.500   67.222    0.366    0.251    1.696
  222.750   66.133    0.373    0.250    1.701
  223.000   66.843    0.373    0.250    1.704
  223.250   66.346    0.365    0.250    1.741
  223.500   64.665    0.360    0.250    1.744
  223.750   62.393    0.356    0.250    1.747
  224.000   59.553    0.357    0.261    1.687
  224.250   60.831    0.358    0.278    1.627
  224.500   65.066    0.360    0.300    1.568
  224.750   67.527    0.361    0.307    1.485
  225.000   69.396    0.362    0.320    1.380
  225.250   70.674    0.362    0.335    1.357
  225.500   69.585    0.361    0.350    1.335
  225.750   63.172    0.359    0.359    1.337
  226.000   53.777    0.368    0.359    1.339
  226.250   47.364    0.370    0.352    1.396
  226.500   42.110    0.363    0.324    1.425
  226.750   33.922    0.352    0.305    1.512
  227.000   28.124    0.356    0.285    1.635
  227.250   28.786    0.369    0.260    1.703
  227.500   30.655    0.383    0.240    1.741
  227.750   32.525    0.395    0.253    1.778
  228.000   36.784    0.400    0.281    1.781
  228.250   54.650    0.402    0.305    1.892
  228.500   66.008    0.402    0.259    1.967
  228.750   72.042    0.399    0.239    2.128
  229.000   68.563    0.398    0.228    2.301
  229.250   64.516    0.397    0.224    2.490
  229.500   65.202    0.398    0.233    2.592
  229.750   75.377    0.402    0.235    2.597
  230.000   78.453    0.408    0.226    2.458
  230.250   80.323    0.412    0.215    2.329
  230.500   82.807    0.414    0.201    2.246
  230.750   85.268    0.416    0.196    2.207
  231.000   88.320    0.416    0.204    2.131
  231.250   91.964    0.414    0.216    2.057
  231.500   96.791    0.412    0.245    2.059
  231.750   95.111    0.409    0.278    1.950
  232.000   89.289    0.408    0.254    1.883
  232.250   80.509    0.406    0.248    1.814
  232.500   75.847    0.404    0.258    1.719
  232.750   68.843    0.398    0.293    1.689
  233.000   67.162    0.392    0.312    1.663
  233.250   77.337    0.383    0.278    1.665
  233.500   79.230    0.377    0.232    1.733
  233.750   68.676    0.401    0.221    1.911
  234.000   66.403    0.404    0.235    2.106
  234.250   64.676    0.407    0.257    2.071
  234.500   65.977    0.406    0.281    1.783
  234.750   79.702    0.404    0.297    1.656
  235.000   84.553    0.397    0.311    1.628
  235.250   86.398    0.389    0.311    1.662
  235.500   81.760    0.381    0.274    1.765
  235.750   74.755    0.374    0.250    1.910
  236.000   65.360    0.367    0.237    2.026
  236.250   51.824    0.367    0.225    2.191
  236.500   62.591    0.373    0.212    2.325
  236.750   75.156    0.377    0.206    2.375
  237.000   77.001    0.381    0.203    2.124
  237.250   80.078    0.383    0.204    2.047
  237.500   83.769    0.385    0.221    1.865
  237.750   84.407    0.386    0.286    1.701
  238.000   87.531    0.384    0.308    1.581
  238.250   88.761    0.378    0.325    1.523
  238.500   92.996    0.367    0.318    1.415
  238.750   82.442    0.357    0.311    1.340
  239.000   70.089    0.349    0.307    1.292
  239.250   50.045    0.345    0.304    1.270
  239.500   41.834    0.347    0.304    1.249
  239.750   37.219    0.352    0.308    1.206
  240.000   36.745    0.358    0.315    1.185
  240.250   37.384    0.362    0.322    1.165
  240.500   36.910    0.363    0.322    1.147
  240.750   34.638    0.365    0.324    1.148
  241.000   34.117    0.377    0.334    1.151
  241.250   34.212    0.384    0.349    1.222
  241.500   34.922    0.392    0.371    1.296
  241.750   33.833    0.395    0.379    1.375
  242.000   33.359    0.391    0.369    1.460
  242.250   35.252    0.386    0.356    1.519
  242.500   36.506    0.370    0.329    1.613
  242.750   39.582    0.356    0.306    1.680
  243.000   40.859    0.352    0.295    1.652
  243.250   42.113    0.352    0.300    1.593
  243.500   44.598    0.358    0.303    1.536
  243.750   45.852    0.366    0.299    1.482
  244.000   60.215    0.380    0.291    1.457
  244.250   65.019    0.370    0.271    1.433
  244.500   66.320    0.345    0.272    1.410
  244.750   65.231    0.332    0.286    1.412
  245.000   65.302    0.326    0.300    1.442
  245.250   64.237    0.327    0.307    1.530
  245.500   49.494    0.327    0.278    1.753
  245.750   33.591    0.325    0.242    2.008
  246.000   25.403    0.325    0.185    2.256
  246.250   23.131    0.332    0.170    2.488
  246.500   29.142    0.347    0.151    2.691
  246.750   38.725    0.357    0.158    2.908
  247.000   61.939    0.365    0.167    3.336
  247.250   76.847    0.371    0.174    3.469
  247.500   87.614    0.372    0.175    3.752
  247.750   94.807    0.376    0.174    3.983
  248.000   98.475    0.378    0.174    4.069
  248.250   99.752    0.380    0.175    4.001
  248.500   99.847    0.380    0.177    3.788
  248.750  100.533    0.380    0.178    3.722
  249.000  100.627    0.375    0.180    3.392
  249.250   98.947    0.367    0.181    3.211
  249.500   97.882    0.363    0.184    3.041
  249.750   96.793    0.363    0.187    2.990
  250.000   95.704    0.363    0.201    2.995
  250.250   92.840    0.362    0.225    3.120
  250.500   89.361    0.362    0.219    3.186
  250.750   84.746    0.368    0.207    3.382
  251.000   81.859    0.375    0.186    3.521
  251.250   77.221    0.373    0.177    3.736
  251.500   78.498    0.365    0.206    3.815
  251.750   89.857    0.348    0.215    3.899
  252.000   89.359    0.345    0.211    3.761
  252.250   74.640    0.347    0.205    3.426
  252.500   62.287    0.348    0.210    3.122
  252.750   54.099    0.351    0.228    2.898
  253.000   58.926    0.349    0.238    2.743
  253.250   57.838    0.343    0.233    2.547
  253.500   53.814    0.330    0.229    2.459
  253.750   51.542    0.326    0.227    2.371
