~VERSION INFORMATION
 VERS.                 2.0:   CWLS LOG ASCII STANDARD -VERSION 2.0
 WRAP.                  NO:   ONE LINE PER DEPTH STEP
~WELL INFORMATION BLOCK
#MNEM.UNIT           DATA                    DESCRIPTION OF MNEMONIC
#---------    -------------------            -------------------------------
# Generated from Intellog Unique Number	CC_80_83/WELL/1044
NULL.         -999.25                        : NULL_VALUE
LOC .         01-27-080-14W4                 : Location     - LOCATION          
UWI .         00/01-27-080-14W4/0            : Uwi          - UNIQUE WELL ID    
ENTR.         DW                             : Entered      - ENTERED BY        
SRVC.         SCHLUMBERGER                   : Scn          - SERVICE COMPANY   
STRT.M        240                            : top_depth    - START DEPTH       
STOP.M        474.75                         : bot_depth    - STOP DEPTH        
STEP.M        0.25                           : increment    - STEP LENGTH       
~CURVE INFORMATION BLOCK
#MNEM UNIT       ERCB CURVE CODE    CURVE DESCRIPTION
#-----------   ------------------   ----------------------------------
DEPT.M        00 001 00 00         : DEPTH        - DEPTH                       
GR  .API      00 310 00 00         : GR           - GAMMA RAY                   
DPHI.V/V      00 890 00 00         : PHID         - DENSITY POROSITY (SANDSTONE)
NPHI.V/V      00 330 00 00         : PHIN         - NEUTRON POROSITY (SANDSTONE)
ILD .OHMM     00 120 00 00         : RESD         - DEEP RESISTIVITY (DIL)      
~PARAMETER INFORMATION       
#MNEM.UNIT           DATA             DESCRIPTION OF MNEMONIC
#---------         -----------     ------------------------------
GL  .M        663.1                : gl           - GROUND LEVEL ELEVATION      
EREF.M        667.1                : kb           - ELEVATION OF DEPTH REFERENCE
DATM.M        667.1                : datum        - DATUM ELEVATION             
TDD .M        477                  : tdd          - TOTAL DEPTH DRILLER         
RUN .         ONE                  : Run          - RUN NUMBER                  
ENG .         BILL                 : Engineer     - RECORDING ENGINEER          
WIT .         JIM                  : Witness      - WITNESSED BY                
MUD .         GEL                  : Mud_type     - MUD TYPE                    
MATR.         SANDSTONE            : Logunit      - NEUTRON MATRIX              
TMAX.C        21.1                 : BHT          - MAXIMUM RECORDED TEMPERATURE
BHTD.M        477                  : BHTDEP       - MAXIMUM RECORDED TEMPERATURE
MATR.         1                    : LOGUNIT      - NEUTRON MATRIX              
RMT .C        25                   : MDTP         - TEMPERATURE OF MUD          
NEUT.         1                    : NEUTRON      - NEUTRON TYPE                
RESI.         0                    : RESIST       - RESISTIVITY TYPE            
RMC .OHMM     0.25                 : RMC          - RESISTIVITY OF MUD CAKE     
RMF .OHMM     0.25                 : RMF          - RESISTIVITY OF MUD FILTRATE 
SUFT.C        15                   : SUFT         - SURFACE TEMPERATURE         
~A  DEPTH       GR     PHID     PHIN     RESD
  240.000   97.386    0.255    0.568    2.820
  240.250  100.246    0.256    0.563    2.761
  240.500  103.824    0.265    0.571    2.803
  240.750  100.436    0.261    0.584    2.816
  241.000   95.744    0.248    0.589    2.836
  241.250   98.439    0.241    0.573    2.956
  241.500  102.369    0.244    0.539    3.097
  241.750   98.499    0.260    0.523    3.139
  242.000  100.238    0.265    0.520    3.284
  242.250  104.651    0.267    0.511    3.373
  242.500  102.019    0.272    0.496    3.463
  242.750   98.220    0.273    0.494    3.629
  243.000  103.630    0.263    0.508    3.674
  243.250  105.634    0.250    0.524    3.674
  243.500  104.792    0.240    0.541    3.667
  243.750  108.435    0.249    0.525    3.693
  244.000  106.298    0.236    0.496    3.784
  244.250   94.913    0.203    0.484    3.909
  244.500   89.386    0.220    0.484    4.035
  244.750   87.242    0.239    0.497    4.179
  245.000   91.374    0.235    0.515    4.149
  245.250   96.183    0.221    0.511    4.066
  245.500   96.232    0.216    0.498    3.995
  245.750   94.148    0.223    0.508    3.832
  246.000   95.610    0.241    0.535    3.588
  246.250   99.198    0.252    0.557    3.456
  246.500   97.163    0.230    0.566    3.509
  246.750   97.277    0.212    0.551    3.742
  247.000  103.391    0.226    0.512    3.895
  247.250  107.566    0.251    0.477    3.862
  247.500  104.315    0.256    0.475    3.865
  247.750  100.751    0.246    0.494    3.869
  248.000  102.294    0.248    0.510    3.817
  248.250  105.220    0.244    0.521    3.761
  248.500  103.341    0.231    0.525    3.848
  248.750   96.764    0.224    0.529    4.044
  249.000   93.171    0.231    0.533    4.165
  249.250   98.483    0.256    0.501    4.243
  249.500  104.605    0.245    0.467    4.242
  249.750  102.109    0.253    0.457    4.640
  250.000   93.123    0.223    0.494    5.282
  250.250   80.954    0.151    0.497    6.275
  250.500   69.001    0.180    0.407    7.831
  250.750   72.553    0.243    0.415    8.396
  251.000   77.796    0.248    0.435    8.772
  251.250   80.417    0.257    0.416    9.197
  251.500   84.932    0.263    0.401    9.710
  251.750   87.150    0.240    0.413   10.354
  252.000   80.809    0.255    0.425   10.829
  252.250   78.208    0.297    0.437   11.000
  252.500   79.235    0.313    0.432   11.220
  252.750   73.691    0.326    0.426   11.067
  253.000   63.340    0.306    0.415   10.163
  253.250   65.160    0.239    0.402    9.118
  253.500   82.690    0.206    0.422    8.919
  253.750   87.299    0.237    0.451    9.472
  254.000   80.027    0.284    0.419   10.268
  254.250   75.347    0.322    0.407   11.052
  254.500   75.166    0.332    0.427   11.613
  254.750   74.514    0.316    0.434   11.935
  255.000   74.028    0.305    0.442   12.099
  255.250   73.213    0.299    0.446   11.892
  255.500   70.030    0.312    0.447   11.878
  255.750   66.507    0.308    0.430   11.674
  256.000   65.168    0.287    0.421   11.248
  256.250   67.394    0.276    0.429   10.900
  256.500   71.568    0.269    0.418   10.354
  256.750   72.488    0.260    0.405    9.195
  257.000   76.268    0.248    0.396    7.435
  257.250   83.890    0.243    0.412    6.060
  257.500   92.049    0.248    0.440    5.082
  257.750   97.941    0.260    0.455    4.095
  258.000  102.603    0.268    0.465    3.458
  258.250  107.522    0.252    0.493    3.309
  258.500   97.394    0.240    0.534    3.617
  258.750   85.091    0.251    0.523    5.060
  259.000   78.498    0.283    0.482    6.645
  259.250   73.079    0.310    0.463    7.225
  259.500   70.991    0.296    0.449    7.157
  259.750   76.192    0.249    0.440    6.402
  260.000   78.865    0.236    0.441    6.057
  260.250   79.838    0.227    0.466    7.502
  260.500   84.834    0.219    0.436    9.946
  260.750   87.994    0.237    0.375   11.520
  261.000   83.418    0.265    0.407   11.765
  261.250   87.603    0.280    0.403   11.433
  261.500   94.000    0.202    0.387   10.622
  261.750  100.394    0.177    0.400    9.041
  262.000  105.547    0.215    0.439    7.875
  262.250  107.011    0.230    0.462    7.638
  262.500  105.769    0.235    0.446    7.263
  262.750  103.831    0.223    0.447    7.335
  263.000  100.124    0.234    0.441    7.707
  263.250   93.059    0.237    0.427    7.993
  263.500   86.018    0.221    0.426    9.115
  263.750   82.272    0.246    0.417   11.271
  264.000   79.738    0.323    0.373   12.892
  264.250   77.995    0.335    0.361   13.598
  264.500   84.098    0.316    0.376   13.689
  264.750   89.672    0.299    0.409   13.613
  265.000   86.940    0.296    0.417   14.401
  265.250   79.632    0.314    0.387   15.814
  265.500   74.797    0.337    0.373   16.513
  265.750   72.265    0.337    0.385   17.308
  266.000   69.496    0.341    0.416   18.071
  266.250   73.437    0.341    0.408   17.909
  266.500   79.749    0.333    0.380   17.216
  266.750   81.106    0.331    0.385   16.694
  267.000   81.642    0.332    0.406   16.157
  267.250   84.679    0.322    0.413   15.861
  267.500   92.703    0.313    0.417   15.864
  267.750   93.551    0.309    0.421   15.680
  268.000   88.784    0.318    0.433   15.539
  268.250   87.016    0.336    0.456   15.947
  268.500   89.107    0.338    0.457   16.438
  268.750   99.083    0.325    0.405   16.179
  269.000  104.667    0.302    0.394   16.073
  269.250  105.564    0.283    0.392   16.189
  269.500  104.280    0.269    0.422   16.730
  269.750   87.598    0.286    0.436   18.030
  270.000   48.809    0.347    0.340   19.497
  270.250   22.417    0.353    0.321   20.163
  270.500   16.200    0.343    0.324   20.582
  270.750   22.494    0.315    0.323   20.433
  271.000   32.242    0.280    0.323   19.243
  271.250   44.290    0.273    0.326   17.255
  271.500   58.135    0.293    0.342   15.452
  271.750   61.436    0.315    0.367   14.888
  272.000   59.802    0.305    0.382   14.889
  272.250   56.999    0.319    0.383   15.916
  272.500   55.316    0.346    0.391   16.867
  272.750   53.832    0.349    0.415   17.046
  273.000   50.082    0.345    0.422   16.966
  273.250   50.751    0.333    0.397   14.780
  273.500   62.804    0.320    0.388   12.362
  273.750   94.356    0.233    0.413    9.473
  274.000  113.713    0.169    0.432    7.204
  274.250  107.312    0.193    0.439    6.507
  274.500  108.441    0.192    0.464    6.002
  274.750  114.041    0.199    0.461    5.603
  275.000  114.034    0.218    0.466    5.479
  275.250  113.937    0.224    0.478    5.349
  275.500  119.239    0.211    0.483    5.195
  275.750  125.423    0.196    0.493    5.123
  276.000  125.800    0.195    0.511    5.138
  276.250  121.404    0.208    0.497    5.543
  276.500  115.166    0.194    0.479    6.084
  276.750  110.077    0.180    0.496    6.246
  277.000  112.871    0.181    0.505    5.926
  277.250  118.767    0.193    0.483    5.275
  277.500  117.773    0.215    0.490    4.393
  277.750  122.796    0.239    0.522    3.632
  278.000  127.041    0.254    0.559    3.623
  278.250  127.839    0.254    0.582    4.360
  278.500  124.376    0.246    0.564    5.785
  278.750  114.643    0.250    0.497    7.814
  279.000  102.871    0.278    0.428   10.025
  279.250  101.265    0.297    0.412   11.872
  279.500  109.298    0.282    0.414   12.739
  279.750  116.411    0.205    0.428   12.866
  280.000  119.227    0.179    0.435   12.836
  280.250  112.311    0.243    0.420   12.810
  280.500   94.814    0.268    0.415   12.104
  280.750   95.081    0.268    0.431    9.907
  281.000  110.199    0.249    0.444    7.862
  281.250  120.650    0.225    0.453    7.533
  281.500  119.262    0.207    0.469    8.163
  281.750  111.794    0.219    0.474    8.939
  282.000  104.787    0.262    0.451   10.168
  282.250  103.200    0.271    0.438   11.001
  282.500  106.511    0.272    0.431   12.130
  282.750  108.556    0.276    0.419   12.902
  283.000  102.152    0.278    0.423   13.059
  283.250   92.278    0.279    0.451   12.993
