~VERSION INFORMATION
 VERS.                 2.0:   CWLS LOG ASCII STANDARD -VERSION 2.0
 WRAP.                  NO:   ONE LINE PER DEPTH STEP
~WELL INFORMATION BLOCK
#MNEM.UNIT           DATA                    DESCRIPTION OF MNEMONIC
#---------    -------------------            -------------------------------
# Generated from Intellog Unique Number	CS_69_70/WELL/623
NULL.         -999.25                        : NULL_VALUE
WELL.         BVI HEART LAKE                 : Well_name    - WELL              
LOC .         00/04-11-070-10W4/0            : Location     - LOCATION          
UWI .         00/04-11-070-10W4/0            : Uwi          - UNIQUE WELL ID    
ENTR.         SP                             : Entered      - ENTERED BY        
SRVC.         SCHLUMBERGER                   : Scn          - SERVICE COMPANY   
STRT.M        275                            : top_depth    - START DEPTH       
STOP.M        495                            : bot_depth    - STOP DEPTH        
STEP.M        0.25                           : increment    - STEP LENGTH       
~CURVE INFORMATION BLOCK
#MNEM UNIT       ERCB CURVE CODE    CURVE DESCRIPTION
#-----------   ------------------   ----------------------------------
DEPT.M        00 001 00 00         : DEPTH        - DEPTH                       
ILD .OHMM     00 120 00 00         : RESD         - DEEP RESISTIVITY (DIL)      
DPHI.V/V      00 890 00 00         : PHID         - DENSITY POROSITY (LIMESTONE)
NPHI.V/V      00 330 00 00         : PHIN         - NEUTRON POROSITY (LIMESTONE)
GR  .API      00 310 00 00         : GR           - GAMMA RAY                   
~PARAMETER INFORMATION       
#MNEM.UNIT           DATA             DESCRIPTION OF MNEMONIC
#---------         -----------     ------------------------------
GL  .M        614.6                : gl           - GROUND LEVEL ELEVATION      
EREF.M        617.8                : kb           - ELEVATION OF DEPTH REFERENCE
DATM.M        614.6                : datum        - DATUM ELEVATION             
TDD .M        520                  : tdd          - TOTAL DEPTH DRILLER         
RUN .         ONE                  : Run          - RUN NUMBER                  
ENG .         BILL                 : Engineer     - RECORDING ENGINEER          
WIT .         JIM                  : Witness      - WITNESSED BY                
MUD .         GEL                  : Mud_type     - MUD TYPE                    
MATR.         LIMESTONE            : Logunit      - NEUTRON MATRIX              
TMAX.C        23                   : BHT          - MAXIMUM RECORDED TEMPERATURE
BHTD.M        520                  : BHTDEP       - MAXIMUM RECORDED TEMPERATURE
MATR.         1                    : LOGUNIT      - NEUTRON MATRIX              
RMT .C        25                   : MDTP         - TEMPERATURE OF MUD          
NEUT.         1                    : NEUTRON      - NEUTRON TYPE                
RESI.         0                    : RESIST       - RESISTIVITY TYPE            
RMC .OHMM     0.25                 : RMC          - RESISTIVITY OF MUD CAKE     
RMF .OHMM     0.25                 : RMF          - RESISTIVITY OF MUD FILTRATE 
SUFT.C        15                   : SUFT         - SURFACE TEMPERATURE         
~A  DEPTH     RESD     PHID     PHIN       GR
# ...
  405.500    5.755    0.204    0.427   97.641
  405.750    5.896    0.204    0.440   97.500
  406.000    5.984    0.205    0.449  101.272
  406.250    5.948    0.206    0.433  103.090
  406.500    5.673    0.209    0.423  100.011
  406.750    5.503    0.216    0.443   98.100
  407.000    5.288    0.224    0.461  101.689
  407.250    5.072    0.233    0.476  104.970
  407.500    4.632    0.238    0.487  105.810
  407.750    4.036    0.244    0.496  105.976
  408.000    3.477    0.247    0.496  108.282
  408.250    3.046    0.239    0.493  112.114
  408.500    2.782    0.235    0.493  115.032
  408.750    2.503    0.254    0.497  118.005
  409.000    2.214    0.266    0.554  119.213
  409.250    2.037    0.273    0.597  116.384
  409.500    1.987    0.272    0.562  111.717
  409.750    2.028    0.264    0.546  110.417
  410.000    2.109    0.255    0.553  112.171
  410.250    2.198    0.249    0.538  112.765
  410.500    2.291    0.244    0.513  110.240
  410.750    2.414    0.242    0.515  110.098
  411.000    2.559    0.246    0.515  111.671
  411.250    2.758    0.251    0.489  111.164
  411.500    3.030    0.247    0.471  104.848
  411.750    3.229    0.243    0.464   98.958
  412.000    3.547    0.241    0.458   96.617
  412.250    3.781    0.245    0.444   95.376
  412.500    3.992    0.251    0.428   89.854
  412.750    4.106    0.255    0.422   89.775
  413.000    4.074    0.255    0.418   93.852
  413.250    3.907    0.254    0.422   95.915
  413.500    3.755    0.251    0.429   97.731
  413.750    3.732    0.247    0.428   98.875
  414.000    3.846    0.240    0.428   96.839
  414.250    4.008    0.231    0.432   97.371
  414.500    4.520    0.218    0.431   97.841
  414.750    5.040    0.194    0.409   94.216
  415.000    5.803    0.170    0.379   87.227
  415.250    6.292    0.144    0.358   84.273
  415.500    6.860    0.160    0.345   86.637
  415.750    7.230    0.184    0.337   87.540
  416.000    7.534    0.168    0.348   83.486
  416.250    7.617    0.134    0.361   81.328
  416.500    7.473    0.148    0.358   86.993
  416.750    7.222    0.180    0.360   91.925
  417.000    6.746    0.202    0.384   94.541
  417.250    6.161    0.214    0.406   98.312
  417.500    5.954    0.230    0.421  100.862
  417.750    5.798    0.227    0.407  102.559
  418.000    5.698    0.215    0.390  103.397
  418.250    5.665    0.207    0.389  105.518
  418.500    5.599    0.203    0.386  106.662
  418.750    5.556    0.207    0.380  104.320
  419.000    5.482    0.212    0.385  101.978
  419.250    5.429    0.216    0.416  102.631
  419.500    5.345    0.218    0.436  102.493
  419.750    5.314    0.218    0.440   99.356
  420.000    5.293    0.217    0.431   96.220
  420.250    5.252    0.215    0.426   95.467
  420.500    5.231    0.215    0.426   96.243
  420.750    5.209    0.218    0.433   99.345
  421.000    5.208    0.218    0.402  112.228
  421.250    5.276    0.218    0.384  125.968
  421.500    5.365    0.216    0.379  143.927
  421.750    5.455    0.208    0.390  148.618
  422.000    5.547    0.202    0.409  135.208
  422.250    5.525    0.200    0.396  117.518
  422.500    5.339    0.217    0.380  105.577
  422.750    5.054    0.229    0.384   94.246
  423.000    4.810    0.239    0.393   89.153
  423.250    4.729    0.238    0.396   93.965
  423.500    4.648    0.229    0.401   96.821
  423.750    4.629    0.221    0.416   97.415
  424.000    4.645    0.218    0.432  102.226
  424.250    4.670    0.215    0.411  105.693
  424.500    4.643    0.214    0.389  100.601
  424.750    4.320    0.214    0.393   95.630
  425.000    4.059    0.215    0.419   98.606
  425.250    3.543    0.215    0.441   99.443
  425.500    3.164    0.216    0.461   97.652
  425.750    2.736    0.226    0.458   94.212
  426.000    2.420    0.237    0.445   90.522
  426.250    2.248    0.245    0.453   91.179
  426.500    2.103    0.249    0.489   95.560
  426.750    2.060    0.251    0.511   99.092
  427.000    2.032    0.251    0.511  103.109
  427.250    2.126    0.242    0.486  103.397
  427.500    2.348    0.225    0.451   96.039
  427.750    2.694    0.209    0.409   92.841
  428.000    3.096    0.192    0.371   96.677
  428.250    3.612    0.176    0.352   97.515
  428.500    4.074    0.162    0.343   89.059
  428.750    4.604    0.149    0.343   91.915
  429.000    4.926    0.182    0.360   97.028
  429.250    5.181    0.210    0.377   96.953
  429.500    5.339    0.208    0.392   94.673
  429.750    5.287    0.194    0.401   98.627
  430.000    5.023    0.184    0.400  101.971
  430.250    4.746    0.214    0.403  103.665
  430.500    4.442    0.224    0.419  103.038
  430.750    4.252    0.225    0.413   96.721
  431.000    4.235    0.216    0.401   92.973
  431.250    4.540    0.204    0.393   90.322
  431.500    4.959    0.164    0.390   89.266
  431.750    5.336    0.133    0.374   91.816
  432.000    5.571    0.110    0.361   96.262
  432.250    5.485    0.153    0.351   98.325
  432.500    5.362    0.182    0.368   98.548
  432.750    4.742    0.212    0.400  102.384
  433.000    3.927    0.204    0.419  108.604
  433.250    3.460    0.197    0.422  111.582
  433.500    3.166    0.191    0.430  110.402
  433.750    3.025    0.186    0.439  107.388
  434.000    3.082    0.178    0.441  103.639
  434.250    3.199    0.167    0.428  105.577
  434.500    3.223    0.162    0.421  109.712
  434.750    3.246    0.161    0.434  112.389
  435.000    3.203    0.171    0.443  115.184
  435.250    3.124    0.185    0.447  115.534
  435.500    3.036    0.188    0.459  114.170
  435.750    2.940    0.189    0.473  116.597
  436.000    2.934    0.188    0.482  119.270
  436.250    3.011    0.188    0.466  119.067
  436.500    3.167    0.192    0.434  112.019
  436.750    3.263    0.183    0.409  105.336
  437.000    3.250    0.102    0.388  102.626
  437.250    3.159    0.100    0.402  106.888
  437.500    2.923    0.142    0.448  112.680
  437.750    2.685    0.160    0.479  119.570
  438.000    2.561    0.180    0.498  124.566
  438.250    2.678    0.189    0.506  128.951
  438.500    3.067    0.192    0.524  131.256
  438.750    3.479    0.193    0.549  131.238
  439.000    4.005    0.190    0.478  126.267
  439.250    4.612    0.189    0.402  108.394
  439.500    5.153    0.179    0.371   93.883
  439.750    5.856    0.171    0.352   84.450
  440.000    6.768    0.169    0.340   74.526
  440.250    7.520    0.197    0.321   63.868
  440.500    8.000    0.233    0.308   65.807
  440.750    8.479    0.243    0.322   71.290
  441.000    8.851    0.247    0.335   73.536
  441.250    8.950    0.245    0.341   70.397
  441.500    8.965    0.240    0.350   67.751
  441.750    8.979    0.231    0.361   65.716
  442.000    9.252    0.217    0.371   64.412
  442.250    9.992    0.210    0.375   64.824
  442.500   11.163    0.212    0.364   67.129
  442.750   11.944    0.221    0.351   67.111
  443.000   13.547    0.236    0.338   63.300
  443.250   14.714    0.078    0.325   60.224
  443.500   15.952    0.056    0.315   58.617
  443.750   17.003    0.075    0.307   59.028
  444.000   17.818    0.140    0.300   60.538
  444.250   15.999    0.169    0.307   60.459
  444.500   11.765    0.187    0.332   65.453
  444.750    9.651    0.187    0.353   73.202
  445.000    8.914    0.188    0.349   81.500
  445.250    8.761    0.207    0.350   87.413
  445.500    8.909    0.223    0.360   89.168
  445.750    9.214    0.236    0.380   92.513
  446.000    9.619    0.222    0.391   98.304
  446.250   10.448    0.212    0.381  104.277
  446.500   11.739    0.209    0.371  103.403
  446.750   13.042    0.230    0.364   97.882
  447.000   13.875    0.243    0.361   88.324
  447.250   14.486    0.245    0.364   80.847
  447.500   13.946    0.240    0.375   80.584
  447.750   12.128    0.236    0.383   82.826
  448.000   10.911    0.234    0.370   84.032
  448.250   10.040    0.236    0.362   84.381
  448.500    9.485    0.239    0.355   86.992
  448.750    9.132    0.236    0.367   89.725
