~VERSION INFORMATION
 VERS.                 2.0:   CWLS LOG ASCII STANDARD -VERSION 2.0
 WRAP.                  NO:   ONE LINE PER DEPTH STEP
~WELL INFORMATION BLOCK
#MNEM.UNIT           DATA                    DESCRIPTION OF MNEMONIC
#---------    -------------------            -------------------------------
# Generated from Intellog Unique Number	CW_76_78/WELL/2802
WELL.         NOVALTA PORTAGE 08-06          : Well_name    - WELL
LOC .         00/08-06-078-19W4/0            : Location     - LOCATION
UWI .         00/08-06-078-19W4/0            : Uwi          - UNIQUE WELL ID
ENTR.         JJ                             : Entered      - ENTERED BY
SRVC.         WESTERN ATLAS                  : Scn          - SERVICE COMPANY
DATE.         20 JAN 83                      : Date         - LOG DATE
STRT.M        287                            : top_depth    - START DEPTH
STOP.M        415                            : bot_depth    - STOP DEPTH
STEP.M        0.25                           : increment    - STEP LENGTH
 NULL. -999.2500:NULL Value
~CURVE INFORMATION BLOCK
#MNEM UNIT       ERCB CURVE CODE    CURVE DESCRIPTION
#-----------   ------------------   ----------------------------------
DEPT.M        00 001 00 00         : DEPTH        - DEPTH
DELT.US/F     00 520 00 00         : DELT         - SONIC TRAVEL TIME
GR  .API      00 310 00 00         : GR           - GAMMA RAY
CALI.MM       00 280 01 00         : CAL          - CALIPER
ILD .OHMM     00 120 00 00         : RESD         - DEEP RESISTIVITY (DIL)
~PARAMETER INFORMATION
#MNEM.UNIT           DATA             DESCRIPTION OF MNEMONIC
#---------         -----------     ------------------------------
GL  .M        562.4                : gl           - GROUND LEVEL ELEVATION
EREF.M        565.92               : kb           - ELEVATION OF DEPTH REFERENCE
DATM.M        562.4                : datum        - DATUM ELEVATION
TDD .M        460                  : tdd          - TOTAL DEPTH DRILLER
RUN .         ONE                  : Run          - RUN NUMBER
ENG .         ANTOLOVICH           : Engineer     - RECORDING ENGINEER
WIT .         RAGHEB               : Witness      - WITNESSED BY
BASE.         RED DEER             : Branch       - HOME BASE OF LOGGING UNIT
MUD .         GEL-CHEM             : Mud_type     - MUD TYPE
MATR.         SANDSTONE            : Logunit      - NEUTRON MATRIX
TMAX.C        24                   : BHT          - MAXIMUM RECORDED TEMPERATURE
BHTD.M        457.7                : BHTDEP       - MAXIMUM RECORDED TEMPERATURE
RMT .C        13                   : MDTP         - TEMPERATURE OF MUD
MUDD.KG/M     1060                 : MWT          - MUD DENSITY
NEUT.         1                    : NEUTRON      - NEUTRON TYPE
RESI.         0                    : RESIST       - RESISTIVITY TYPE
RM  .OHMM     5                    : RM           - RESISTIVITY OF MUD
RMC .OHMM     4.1                  : RMC          - RESISTIVITY OF MUD CAKE
RMF .OHMM     4.5                  : RMF          - RESISTIVITY OF MUD FILTRATE
SUFT.C        5                    : SUFT         - SURFACE TEMPERATURE
~A  DEPTH     DELT       GR      CAL     RESD
# ...
  374.000  314.529   68.759  182.635   10.106
  374.250  332.513   73.058  181.436    9.516
  374.500  350.577   77.101  181.280    8.977
  374.750  369.704   81.205  182.789    8.761
  375.000  382.530   84.996  186.389    8.762
  375.250  379.623   81.828  189.785    8.962
  375.500  371.729   74.393  190.874    9.168
  375.750  363.339   66.085  191.660    9.220
  376.000  355.111   61.909  192.335    9.238
  376.250  361.712   71.157  192.905    9.274
  376.500  367.900   80.219  193.372    9.310
  376.750  369.502   81.818  194.993    9.416
  377.000  368.974   81.657  199.115    9.524
  377.250  366.397   83.697  202.619    9.543
  377.500  363.336   83.474  202.255    9.525
  377.750  358.058   80.178  202.296    9.455
  378.000  356.301   76.508  204.123    9.349
  378.250  362.327   79.990  206.056    9.210
  378.500  367.697   81.835  208.404    8.988
  378.750  366.264   83.434  210.330    8.576
  379.000  364.266   82.775  212.786    8.121
  379.250  376.681   84.184  215.030    7.690
  379.500  397.036   87.536  216.644    7.519
  379.750  411.417   87.001  217.221    7.352
  380.000  409.335   85.024  216.120    7.229
  380.250  403.484   84.801  214.088    7.081
  380.500  396.815   85.397  214.654    6.950
  380.750  399.482   84.609  218.147    6.795
  381.000  405.916   81.444  229.065    6.631
  381.250  406.367   77.898  232.357    6.435
  381.500  398.474   74.854  228.748    5.869
  381.750  394.342   73.506  224.725    5.342
  382.000  397.502   73.095  228.222    4.657
  382.250  397.463   73.376  233.809    3.939
  382.500  416.432   73.029  240.859    3.191
  382.750  463.325   71.304  254.290    2.699
  383.000  481.306   68.633  267.089    2.300
  383.250  493.554   65.092  284.486    1.934
  383.500  495.889   62.363  309.313    2.024
  383.750  486.605   58.941  347.714    2.362
  384.000  455.036   57.465  343.794    2.911
  384.250  424.862   57.620  268.798    3.725
  384.500  398.455   58.152  241.465    5.227
  384.750  384.578   59.497  225.729    8.029
  385.000  374.797   62.662  230.381   10.352
  385.250  355.760   61.191  218.619   12.686
  385.500  340.491   58.024  202.990   13.124
  385.750  378.867   56.671  192.694   11.746
  386.000  390.952   58.583  189.088   10.297
  386.250  398.861   59.112  189.966    8.710
  386.500  408.487   63.720  199.840    6.923
  386.750  412.140   67.949  234.700    4.916
  387.000  413.085   71.434  250.321    4.004
  387.250  418.620   75.411  250.367    3.452
  387.500  424.891   77.508  230.767    3.419
  387.750  429.933   75.783  210.437    4.051
  388.000  409.341   74.376  197.839    5.362
  388.250  381.376   73.146  191.318    6.747
  388.500  358.573   69.726  189.164    7.933
  388.750  333.312   66.686  187.437    8.586
  389.000  316.651   68.091  187.796    8.254
  389.250  339.301   73.579  189.307    7.570
  389.500  372.353   78.059  197.825    6.917
  389.750  397.541   82.603  209.583    6.320
  390.000  399.307   87.022  220.395    5.635
  390.250  381.827   85.236  230.898    5.593
  390.500  396.042   83.445  240.560    5.808
  390.750  405.752   85.609  250.327    6.146
  391.000  418.002   85.576  244.941    7.118
  391.250  399.294   80.464  231.931    8.307
  391.500  371.003   75.101  218.705    9.353
  391.750  344.678   73.747  207.886    9.712
  392.000  372.079   75.916  204.795    9.805
  392.250  368.685   75.814  216.342    9.605
  392.500  349.894   75.028  221.929    9.216
  392.750  350.840   74.116  209.544    8.629
  393.000  371.441   75.966  203.633    8.141
  393.250  392.620   80.638  206.302    7.753
  393.500  402.329   82.609  213.665    7.439
  393.750  406.715   81.322  220.927    7.356
  394.000  401.850   82.983  227.455    7.553
  394.250  388.379   87.278  229.388    7.784
  394.500  378.763   97.465  223.477    7.859
  394.750  364.069  110.038  211.927    7.874
  395.000  367.964  115.334  203.926    7.889
  395.250  369.566  115.865  203.872    7.875
  395.500  372.801  111.881  205.182    7.905
  395.750  376.535  115.428  206.687    8.148
  396.000  380.680  118.150  208.935    8.461
  396.250  386.376  120.124  208.040    8.903
  396.500  390.928  120.719  206.207    9.367
  396.750  387.125  120.246  203.229    9.636
  397.000  376.934  118.959  200.039    9.637
  397.250  364.936  115.853  198.832    9.766
  397.500  355.568  110.677  199.827    9.915
  397.750  365.771  104.687  202.588   10.123
  398.000  373.839  109.609  203.996   10.413
  398.250  378.557  115.156  204.043   10.672
  398.500  372.950  118.886  203.365   10.593
  398.750  364.395  120.169  203.519    9.770
  399.000  359.694  116.124  204.610    9.079
  399.250  358.677  115.711  206.437    8.453
  399.500  362.818  116.749  207.323    7.826
  399.750  370.315  115.460  206.956    7.901
  400.000  377.078  113.041  206.483    8.698
  400.250  383.514  115.768  204.869    9.521
  400.500  386.419  121.566  202.397   10.227
  400.750  377.464  125.047  196.385   10.620
  401.000  354.822  116.861  192.256   11.008
  401.250  350.608   96.823  192.516   11.155
  401.500  355.898   86.692  198.313   11.155
  401.750  345.626   96.317  203.167   11.135
  402.000  333.712  104.373  201.240   10.949
  402.250  337.855  111.491  198.358   10.726
  402.500  337.900  107.068  194.124   10.389
  402.750  337.701   96.812  190.093    9.949
  403.000  342.991   95.148  188.789    9.475
  403.250  345.329  106.280  189.674    9.247
  403.500  343.245  111.640  189.405    9.638
  403.750  348.693  116.624  184.960   10.276
  404.000  355.212  120.353  187.318   11.018
  404.250  356.654  124.209  187.355   11.463
  404.500  341.871  127.562  182.702   11.616
  404.750  340.196  131.980  178.784   11.617
  405.000  347.454  130.881  175.080   11.380
  405.250  351.672   91.088  173.028   11.022
  405.500  351.312   76.129  173.917   10.340
  405.750  354.307   81.242  177.517    9.627
  406.000  361.072   86.853  182.478    9.502
  406.250  366.278   86.505  188.487    9.756
  406.500  354.528   81.014  191.981   10.579
  406.750  347.206   81.612  191.099   10.741
  407.000  344.793   84.587  190.827   10.661
  407.250  347.789   88.191  191.405   10.542
  407.500  343.249   86.403  191.553   10.385
  407.750  341.330   85.493  191.819   10.135
  408.000  347.434   87.212  192.907    9.891
  408.250  345.840   88.685  198.182    9.689
  408.500  344.008   87.399  202.831    9.438
  408.750  347.574   89.876  197.444    9.245
  409.000  359.170   92.723  194.787    9.108
  409.250  372.318   93.381  193.884    8.905
  409.500  380.392   81.434  199.576    8.822
  409.750  383.386   75.380  209.034    8.757
  410.000  361.063   75.910  209.290    8.741
  410.250  345.304   80.520  199.412    8.824
  410.500  330.687   83.873  190.995    9.129
  410.750  341.621   86.225  187.191    9.825
  411.000  340.882   80.795  190.574   10.938
  411.250  307.327   78.818  194.069   12.621
  411.500  258.018   82.299  188.057   15.008
  411.750  202.748   83.079  183.088   21.502
  412.000  179.724   71.193  178.435   26.350
  412.250  161.271   55.358  177.020   30.176
  412.500  162.327   43.408  178.537   33.849
  412.750  166.487   34.974  179.845   37.685
  413.000  168.850   27.224  180.729   40.482
  413.250  165.499   22.619  180.884   42.917
  413.500  168.025   21.452  180.194   44.316
  413.750  179.939   20.921  177.635   44.992
  414.000  183.118   21.329  173.500   43.170
  414.250  181.155   21.603  170.626   39.968
  414.500  179.273   22.197  170.469   36.794
  414.750  190.044   23.294  172.184   32.134
  415.000  204.570   27.525  173.491   27.437
