~VERSION INFORMATION
 VERS.                 2.0:   CWLS LOG ASCII STANDARD -VERSION 2.0
 WRAP.                  NO:   ONE LINE PER DEPTH STEP
~WELL INFORMATION BLOCK
#MNEM.UNIT           DATA                    DESCRIPTION OF MNEMONIC
#---------    -------------------            -------------------------------
# Generated from Intellog Unique Number	CS_77_79/WELL/854
WELL.         HB THORNBURY                   : Well_name    - WELL
LOC .         00/05-10-078-12W4/0            : Location     - LOCATION
UWI .         00/05-10-078-12W4/0            : Uwi          - UNIQUE WELL ID
ENTR.         JHS                            : Entered      - ENTERED BY
SRVC.         SCHLUMBERGER                   : Scn          - SERVICE COMPANY
STRT.M        256.032                        : top_depth    - START DEPTH
STOP.M        478.282                        : bot_depth    - STOP DEPTH
STEP.M        0.25                           : increment    - STEP LENGTH
 NULL. -999.2500:NULL Value
~CURVE INFORMATION BLOCK
#MNEM UNIT       ERCB CURVE CODE    CURVE DESCRIPTION
#-----------   ------------------   ----------------------------------
DEPT.M        00 001 00 00         : DEPTH        - DEPTH
RHOB.KG/M3    00 350 00 00         : DENS         - BULK DENSITY
GR  .API      00 310 00 00         : GR           - GAMMA RAY
DPHI.V/V      00 890 00 00         : PHID         - DENSITY POROSITY (SANDSTONE)
NPHI.V/V      00 330 00 00         : PHIN         - NEUTRON POROSITY (SANDSTONE)
ILD .OHMM     00 120 00 00         : RESD         - DEEP RESISTIVITY (DIL)
~PARAMETER INFORMATION
#MNEM.UNIT           DATA             DESCRIPTION OF MNEMONIC
#---------         -----------     ------------------------------
GL  .M        674.797              : gl           - GROUND LEVEL ELEVATION
EREF.M        674.797              : kb           - ELEVATION OF DEPTH REFERENCE
DATM.M        674.797              : datum        - DATUM ELEVATION
TDD .M        484.632              : tdd          - TOTAL DEPTH DRILLER
RUN .         ONE                  : Run          - RUN NUMBER
ENG .         BILL                 : Engineer     - RECORDING ENGINEER
WIT .         JIM                  : Witness      - WITNESSED BY
MUD .         GEL                  : Mud_type     - MUD TYPE
MATR.         SANDSTONE            : Logunit      - NEUTRON MATRIX
TMAX.C        21.6667              : BHT          - MAXIMUM RECORDED TEMPERATURE
BHTD.M        484.632              : BHTDEP       - MAXIMUM RECORDED TEMPERATURE
MATR.         1                    : LOGUNIT      - NEUTRON MATRIX
RMT .C        25                   : MDTP         - TEMPERATURE OF MUD
NEUT.         1                    : NEUTRON      - NEUTRON TYPE
RESI.         0                    : RESIST       - RESISTIVITY TYPE
RMC .OHMM     0.25                 : RMC          - RESISTIVITY OF MUD CAKE
RMF .OHMM     0.25                 : RMF          - RESISTIVITY OF MUD FILTRATE
SUFT.C        15                   : SUFT         - SURFACE TEMPERATURE
~A  DEPTH     DENS       GR     PHID     PHIN     RESD
# ...
  438.532 2230.600   79.671    0.280    0.461   17.639
  438.782 2198.630   76.547    0.299    0.441   21.344
  439.032 2213.580   76.486    0.290    0.421   24.908
  439.282 2196.430   78.189    0.300    0.396   26.384
  439.532 2187.870   84.050    0.305    0.399   24.262
  439.782 2276.500   90.328    0.254    0.419   20.265
  440.032 2309.290   95.776    0.234    0.418   16.522
  440.282 2304.560  103.710    0.237    0.427   12.858
  440.532 2267.080  111.780    0.259    0.442   11.317
  440.782 2321.340  117.219    0.227    0.454    9.249
  441.032 2294.480  120.595    0.243    0.454    7.989
  441.282 2308.520  125.608    0.235    0.437    7.241
  441.532 2354.160  128.238    0.208    0.431    7.222
  441.782 2374.790  129.252    0.196    0.440    7.739
  442.032 2391.700  128.949    0.186    0.442    9.379
  442.282 2363.390  126.172    0.203    0.433   11.100
  442.532 2353.370  120.611    0.209    0.444   13.371
  442.782 2303.670  109.579    0.238    0.455   16.139
  443.032 2248.830   96.184    0.270    0.438   19.396
  443.282 2261.040   89.616    0.263    0.412   22.358
  443.532 2252.460   87.572    0.268    0.396   23.699
  443.782 2210.410   82.005    0.292    0.403   22.897
  444.032 2241.810   79.669    0.274    0.411   22.244
  444.282 2247.630   82.264    0.270    0.393   21.059
  444.532 2260.940   85.775    0.263    0.398   20.101
  444.782 2294.020   86.195    0.243    0.380   19.900
  445.032 2332.550   82.643    0.221    0.372   19.692
  445.282 2346.820   79.996    0.212    0.396   18.555
  445.532 2272.790   83.530    0.256    0.415   16.799
  445.782 2294.950   90.322    0.243    0.396   15.475
  446.032 2317.860   97.927    0.229    0.383   14.493
  446.282 2347.350  101.357    0.212    0.377   14.793
  446.532 2369.900  101.691    0.199    0.393   16.290
  446.782 2337.220  102.788    0.218    0.423   19.979
  447.032 2263.010  107.961    0.261    0.401   28.265
  447.282 2215.660  112.965    0.289    0.395   37.535
  447.532 2227.550  113.787    0.282    0.395   40.370
  447.782 2241.290  106.983    0.274    0.405   38.394
  448.032 2240.320   98.577    0.275    0.408   31.086
  448.282 2245.900  101.073    0.271    0.392   23.359
  448.532 2283.200  102.263    0.250    0.391   18.372
  448.782 2322.070   99.184    0.227    0.392   15.780
  449.032 2340.780   98.464    0.216    0.379   14.446
  449.282 2358.670  100.592    0.205    0.374   14.043
  449.532 2397.490  101.205    0.183    0.388   13.797
  449.782 2436.190  100.983    0.160    0.400   13.499
  450.032 2438.240   98.834    0.159    0.382   13.520
  450.282 2334.890   98.162    0.219    0.381   13.374
  450.532 2371.570   96.793    0.198    0.388   13.270
  450.782 2378.680   95.279    0.194    0.382   13.258
  451.032 2398.280   94.604    0.182    0.385   13.254
  451.282 2399.230   93.956    0.182    0.398   13.250
  451.532 2338.680   94.426    0.217    0.415   13.045
  451.782 2312.930   96.415    0.232    0.411   13.000
  452.032 2337.290   97.038    0.218    0.398   12.988
  452.282 2354.010   95.581    0.208    0.386   13.008
  452.532 2319.830   94.258    0.228    0.387   12.732
  452.782 2331.780   93.440    0.221    0.392   12.506
  453.032 2341.140   93.040    0.216    0.397   12.477
  453.282 2331.120   92.636    0.222    0.397   12.745
  453.532 2354.630   91.141    0.208    0.398   12.718
  453.782 2357.770   89.409    0.206    0.398   12.813
  454.032 2347.350   89.194    0.212    0.392   13.191
  454.282 2354.730   88.227    0.208    0.390   13.344
  454.532 2365.040   85.015    0.202    0.388   14.063
  454.782 2361.450   83.126    0.204    0.380   14.476
  455.032 2322.380   80.576    0.227    0.378   15.161
  455.282 2316.670   78.116    0.230    0.377   16.054
  455.532 2320.690   76.600    0.228    0.369   16.698
  455.782 2318.530   75.649    0.229    0.361   17.019
  456.032 2331.260   74.762    0.221    0.368   17.028
  456.282 2344.440   75.328    0.214    0.379   16.398
  456.532 2303.270   79.172    0.238    0.388   15.560
  456.782 2314.880   84.689    0.231    0.391   14.834
  457.032 2325.600   88.474    0.225    0.402   13.931
  457.282 2325.120   92.110    0.225    0.393   13.229
  457.532 2345.270   95.778    0.213    0.385   12.572
  457.782 2350.040   99.427    0.211    0.398   12.408
  458.032 2389.780   98.155    0.187    0.415   12.136
  458.282 2367.130   93.364    0.201    0.390   12.153
  458.532 2330.490   83.753    0.222    0.375   12.319
  458.782 2300.770   83.140    0.239    0.385   12.419
  459.032 2275.690   85.771    0.254    0.384   12.826
  459.282 2313.150   87.125    0.232    0.381   12.821
  459.532 2323.980   87.323    0.226    0.404   12.824
  459.782 2304.240   91.999    0.237    0.422   12.617
  460.032 2281.800  101.533    0.250    0.412   11.981
  460.282 2337.080  115.064    0.218    0.400   11.647
  460.532 2327.110  120.414    0.224    0.395   11.095
  460.782 2340.750  116.288    0.216    0.397   10.974
  461.032 2367.860  110.277    0.200    0.397   10.615
  461.282 2398.450  102.709    0.182    0.394   10.450
  461.532 2423.090   98.678    0.168    0.400   10.219
  461.782 2399.800   97.398    0.181    0.385   10.238
  462.032 2429.270   98.383    0.164    0.377   10.034
  462.282 2404.510  100.271    0.179    0.396   10.032
  462.532 2374.960  101.066    0.196    0.393   10.223
  462.782 2392.490   99.540    0.186    0.392   10.338
  463.032 2398.310   95.821    0.182    0.375   10.441
  463.282 2393.670   95.011    0.185    0.379   10.592
  463.532 2381.760   96.875    0.192    0.385   10.909
  463.782 2373.260   98.715    0.197    0.396   10.976
  464.032 2415.310   97.332    0.172    0.418   11.131
  464.282 2406.160   94.361    0.178    0.392   11.473
  464.532 2405.090   90.717    0.178    0.373   11.819
  464.782 2378.710   88.884    0.194    0.370   12.176
  465.032 2420.810   84.963    0.169    0.386   12.543
  465.282 2349.160   81.188    0.211    0.381   12.919
  465.532 2381.360   85.353    0.192    0.367   13.330
  465.782 2324.190   88.670    0.226    0.367   13.390
  466.032 2384.070   89.647    0.191    0.382   13.389
  466.282 2362.470   89.793    0.203    0.379   13.332
  466.532 2395.610   93.114    0.184    0.372   13.931
  466.782 2420.810   93.515    0.169    0.378   13.649
  467.032 2365.600   89.820    0.201    0.392   13.618
  467.282 2324.710   85.944    0.225    0.393   13.604
  467.532 2337.770   89.734    0.218    0.369   13.775
  467.782 2362.280   94.204    0.203    0.364   14.129
  468.032 2336.170   98.265    0.219    0.367   14.103
  468.282 2331.490   96.778    0.221    0.376   14.560
  468.532 2349.820   92.130    0.211    0.388   14.646
  468.782 2326.420   89.243    0.224    0.398   15.420
  469.032 2286.680   89.299    0.248    0.400   15.555
  469.282 2327.230   94.494    0.224    0.377   16.001
  469.532 2370.970   93.204    0.198    0.375   16.261
  469.782 2379.990   88.310    0.193    0.388   16.400
  470.032 2361.090   82.485    0.203    0.391   16.924
  470.282 2362.060   72.041    0.212    0.386   17.658
  470.532 2567.560   61.629    0.212    0.365   19.221
  470.782 -104.348   50.545    0.173    0.315   24.101
  471.032   39.156   46.144    0.055    0.187   24.530
  471.282    4.938   52.242    0.015    0.141   22.285
  471.532    0.000   75.961    0.000    0.140   19.865
  471.782   -0.069   82.734    0.009    0.185   16.657
  472.032   -0.006   85.765    0.047    0.261   14.097
  472.282    0.000   85.669    0.037    0.295   12.340
  472.532    0.000   86.168    0.034    0.324   11.620
  472.782    0.000   89.837    0.045    0.326   10.960
  473.032   -0.000   92.829    0.076    0.317   10.628
  473.282   -0.000   92.219    0.074    0.317   10.588
  473.532   -0.000   89.151    0.060    0.330   10.804
  473.782    0.000   88.052    0.068    0.339   10.934
  474.032    0.000   89.033    0.071    0.340   11.290
  474.282    0.000   89.353    0.067    0.330   11.397
  474.532   -0.000   87.907    0.058    0.322   11.613
  474.782   -0.000   86.700    0.064    0.322   11.591
