~VERSION INFORMATION
 VERS.                 2.0:   CWLS LOG ASCII STANDARD -VERSION 2.0
 WRAP.                  NO:   ONE LINE PER DEPTH STEP
~WELL INFORMATION BLOCK
#MNEM.UNIT           DATA                    DESCRIPTION OF MNEMONIC
#---------    -------------------            -------------------------------
# Generated from Intellog Unique Number	CN_94_101/WELL/2864
WELL.         NORTHSTAR ENERGY CORP.         : Well_name    - WELL
LOC .         00/03-12-095-16W4/0            : Location     - LOCATION
UWI .         00/03-12-095-16W400            : Uwi          - UNIQUE WELL ID
ENTR.         JOETTE                         : Entered      - ENTERED BY
SRVC.         SCHLUMBERGER                   : Scn          - SERVICE COMPANY
DATE.         07/09/92                       : Date         - LOG DATE
STRT.M        170                            : top_depth    - START DEPTH
STOP.M        305                            : bot_depth    - STOP DEPTH
STEP.M        0.25                           : increment    - STEP LENGTH
 NULL. -999.2500:NULL Value
~CURVE INFORMATION BLOCK
#MNEM UNIT       ERCB CURVE CODE    CURVE DESCRIPTION
#-----------   ------------------   ----------------------------------
DEPT.M        00 001 00 00         : DEPTH        - DEPTH
CALI.MM       00 280 01 00         : CAL          - CALIPER
GR  .API      00 310 00 00         : GR           - GAMMA RAY
NPHI.V/V      00 330 00 00         : PHIN         - NEUTRON POROSITY (SANDSTONE)
DPHI.V/V      00 890 00 00         : PHID         - DENSITY POROSITY (SANDSTONE)
ILD .OHMM     00 120 00 00         : RESD         - DEEP RESISTIVITY (DIL)
~PARAMETER INFORMATION
#MNEM.UNIT           DATA             DESCRIPTION OF MNEMONIC
#---------         -----------     ------------------------------
GL  .M        559.3                : gl           - GROUND LEVEL ELEVATION
EREF.M        562.9                : kb           - ELEVATION OF DEPTH REFERENCE
DATM.M        562.9                : datum        - DATUM ELEVATION
TDD .M        320                  : tdd          - TOTAL DEPTH DRILLER
RUN .         ONE                  : Run          - RUN NUMBER
ENG .         JO                   : Engineer     - RECORDING ENGINEER
WIT .         TIM                  : Witness      - WITNESSED BY
MUD .         GEL                  : Mud_type     - MUD TYPE
MATR.         SANDSTONE            : Logunit      - NEUTRON MATRIX
TMAX.C        21                   : BHT          - MAXIMUM RECORDED TEMPERATURE
BHTD.M        320                  : BHTDEP       - MAXIMUM RECORDED TEMPERATURE
RMT .C        15                   : MDTP         - TEMPERATURE OF MUD
MUDD.KG/M     1030                 : MWT          - MUD DENSITY
NEUT.         1                    : NEUTRON      - NEUTRON TYPE
RESI.         0                    : RESIST       - RESISTIVITY TYPE
RM  .OHMM     0.33                 : RM           - RESISTIVITY OF MUD
RMC .OHMM     0.58                 : RMC          - RESISTIVITY OF MUD CAKE
RMF .OHMM     0.32                 : RMF          - RESISTIVITY OF MUD FILTRATE
SUFT.C        4                    : SUFT         - SURFACE TEMPERATURE
~A  DEPTH      CAL       GR     PHIN     PHID     RESD
# ...
  243.000  169.458   92.092    0.386    0.145    9.887
  243.250  169.514   97.382    0.412    0.167    9.200
  243.500  170.529  106.769    0.436    0.197    8.257
  243.750  170.612  114.980    0.448    0.215    7.547
  244.000  170.640  110.340    0.468    0.229    7.281
  244.250  167.789  105.701    0.485    0.224    7.025
  244.500  166.857  100.469    0.478    0.224    6.780
  244.750  166.857  101.087    0.457    0.229    6.660
  245.000  165.008  101.704    0.451    0.236    6.664
  245.250  165.077   99.985    0.452    0.191    6.549
  245.500  166.106   95.930    0.452    0.178    6.671
  245.750  169.096   95.379    0.448    0.187    6.797
  246.000  171.099   98.333    0.451    0.200    6.800
  246.250  172.141  101.879    0.460    0.207    6.682
  246.500  171.210  101.912    0.456    0.199    6.684
  246.750  170.278   99.618    0.446    0.202    6.569
  247.000  169.346   98.475    0.435    0.202    6.571
  247.250  168.428   96.747    0.428    0.195    6.942
  247.500  166.565   98.533    0.425    0.194    7.604
  247.750  166.592  100.903    0.435    0.198    8.483
  248.000  166.662  100.352    0.438    0.198    8.799
  248.250  166.704  100.385    0.431    0.194    9.128
  248.500  165.800  102.179    0.405    0.184    8.650
  248.750  165.841  103.372    0.394    0.173    8.346
  249.000  165.911  101.654    0.384    0.148    8.350
  249.250  165.952   97.598    0.368    0.099    8.205
  249.500  166.008   94.127    0.365    0.162    8.060
  249.750  167.037   96.497    0.373    0.187    7.778
  250.000  167.093  101.211    0.395    0.198    7.238
  250.250  167.148  103.572    0.406    0.195    6.859
  250.500  168.205  102.438    0.415    0.201    6.499
  250.750  169.234   98.975    0.410    0.206    6.270
  251.000  169.276  100.176    0.400    0.201    6.388
  251.250  169.345  100.210    0.401    0.188    6.627
  251.500  169.387   99.067    0.408    0.181    6.631
  251.750  169.429   93.259    0.419    0.194    6.283
  252.000  168.511   94.461    0.442    0.208    5.438
  252.250  168.594   99.175    0.462    0.224    4.707
  252.500  168.622  101.536    0.474    0.241    4.380
  252.750  168.691  100.986    0.491    0.235    4.304
  253.000  168.761   98.683    0.464    0.228    4.546
  253.250  168.789   99.884    0.441    0.216    5.164
  253.500  165.938   88.236    0.404    0.207    6.193
  253.750  163.073   70.738    0.373    0.211    7.293
  254.000  163.114   62.594    0.336    0.221    8.590
  254.250  162.210   56.787    0.304    0.247   10.302
  254.500  162.266   51.564    0.298    0.274   11.917
  254.750  162.308   47.508    0.298    0.284   13.052
  255.000  162.377   48.134    0.299    0.316   14.040
  255.250  162.447   50.504    0.303    0.311   15.380
  255.500  162.488   51.705    0.295    0.288   17.155
  255.750  162.558   49.402    0.262    0.258   19.842
  256.000  162.586   45.923    0.241    0.244   24.231
  256.250  162.655   42.452    0.248    0.255   29.064
  256.500  162.697   41.317    0.268    0.351   33.007
  256.750  161.793   41.943    0.270    0.352   37.496
  257.000  161.848   42.560    0.265    0.360   42.589
  257.250  161.904   42.018    0.264    0.371   47.505
  257.500  161.973   41.467    0.288    0.370   52.031
  257.750  162.015   41.484    0.311    0.364   59.098
  258.000  163.058   42.685    0.340    0.362   72.172
  258.250  163.086   46.807    0.367    0.357   79.078
  258.500  164.129   50.929    0.388    0.349   80.545
  258.750  164.198   49.210    0.407    0.323   63.672
  259.000  164.254   46.907    0.421    0.316   51.254
  259.250  164.281   44.604    0.426    0.312   43.569
  259.500  164.337   44.053    0.397    0.305   42.803
  259.750  165.366   45.255    0.359    0.313   49.513
  260.000  165.422   45.297    0.331    0.330   55.221
  260.250  165.477   44.729    0.374    0.314   57.288
  260.500  165.547   42.426    0.406    0.295   52.353
  260.750  165.588   41.876    0.420    0.286   44.497
  261.000  165.644   43.661    0.417    0.278   36.479
  261.250  164.754   45.455    0.408    0.278   33.946
  261.500  163.808   46.665    0.404    0.288   32.754
  261.750  161.917   46.681    0.401    0.300   33.370
  262.000  156.132   46.723    0.402    0.301   33.383
  262.250  153.281   45.588    0.414    0.304   34.633
  262.500  153.336   44.453    0.429    0.310   35.930
  262.750  155.339   44.495    0.422    0.310   37.280
  263.000  159.288   45.096    0.413    0.306   38.666
  263.250  161.291   45.713    0.404    0.299   39.398
  263.500  162.334   45.171    0.410    0.292   39.423
  263.750  162.375   42.860    0.420    0.294   39.434
  264.000  162.417   39.389    0.417    0.300   37.366
  264.250  163.474   36.502    0.406    0.305   34.771
  264.500  163.529   34.199    0.399    0.309   32.357
  264.750  163.571   33.648    0.404    0.312   30.110
  265.000  164.600   33.681    0.409    0.314   28.019
  265.250  164.656   32.555    0.412    0.315   26.550
  265.500  165.671   33.180    0.411    0.322   25.621
  265.750  165.740   33.781    0.404    0.317   24.278
  266.000  165.810   36.743    0.395    0.300   21.788
  266.250  165.838   37.945    0.392    0.284   21.020
  266.500  165.893   36.818    0.399    0.279   19.919
  266.750  164.989   36.259    0.407    0.289   19.931
  267.000  165.031   36.877    0.414    0.298   20.304
  267.250  164.113   34.574    0.414    0.304   20.686
  267.500  164.168   32.262    0.410    0.309   20.696
  267.750  164.238   35.216    0.407    0.317   20.338
  268.000  164.294   39.346    0.402    0.327   20.345
  268.250  164.335   41.124    0.402    0.332   20.731
  268.500  164.391   45.245    0.406    0.328   22.301
  268.750  164.460   42.951    0.412    0.326   23.559
  269.000  164.516   40.639    0.413    0.327   24.438
  269.250  164.571   36.593    0.408    0.328   24.457
  269.500  163.653   36.042    0.407    0.327   24.027
  269.750  163.723   37.828    0.408    0.324   24.036
  270.000  163.751   38.453    0.411    0.314   23.192
  270.250  162.847   37.886    0.413    0.314   23.210
  270.500  161.915   35.599    0.414    0.314   23.219
  270.750  162.012   34.456    0.403    0.306   23.225
  271.000  162.040   37.402    0.397    0.302   24.095
  271.250  162.082   43.284    0.393    0.306   26.393
  271.500  161.164   41.565    0.398    0.319   28.912
  271.750  161.233   39.262    0.396    0.330   31.678
  272.000  161.275   36.968    0.395    0.334   32.860
  272.250  161.330   35.816    0.406    0.334   34.090
  272.500  161.386   35.266    0.408    0.331   34.727
  272.750  161.428   37.051    0.404    0.327   34.130
  273.000  161.483   38.845    0.406    0.326   32.923
  273.250  161.539   39.462    0.410    0.320   29.550
  273.500  161.594   39.487    0.408    0.307   28.001
  273.750  161.664   38.945    0.408    0.304   25.589
  274.000  161.720   38.394    0.413    0.308   24.244
  274.250  161.775   37.835    0.419    0.315   22.973
  274.500  160.857   37.285    0.414    0.320   20.999
  274.750  160.899   33.813    0.403    0.327   20.627
  275.000  160.954   34.439    0.394    0.329   19.903
  275.250  161.010   37.401    0.397    0.329   19.558
  275.500  161.066   38.586    0.403    0.329   19.215
  275.750  161.135   40.964    0.402    0.322   18.882
  276.000  161.191   41.573    0.399    0.311   18.891
  276.250  161.232   42.775    0.403    0.305   19.249
  276.500  161.302   44.569    0.406    0.301   19.254
  276.750  161.343   45.186    0.410    0.301   19.264
  277.000  161.399   46.963    0.409    0.300   18.256
  277.250  160.495   49.917    0.403    0.297   16.989
  277.500  160.551   51.703    0.401    0.293   16.098
  277.750  160.620   49.408    0.395    0.293   15.815
  278.000  160.648   51.185    0.382    0.294   15.823
  278.250  161.677   57.068    0.381    0.295   16.418
  278.500  161.746   61.181    0.388    0.285   16.724
  278.750  161.802   65.303    0.396    0.270   17.037
  279.000  161.844   63.584    0.406    0.251   17.998
  279.250  161.899   58.953    0.409    0.253   18.672
