~VERSION INFORMATION
 VERS.                 2.0:   CWLS LOG ASCII STANDARD -VERSION 2.0
 WRAP.                  NO:   ONE LINE PER DEPTH STEP
~WELL INFORMATION BLOCK
#MNEM.UNIT           DATA                    DESCRIPTION OF MNEMONIC
#---------    -------------------            -------------------------------
# Generated from Intellog Unique Number	CS_69_70/WELL/906
NULL.         -999.25                        : NULL_VALUE
WELL.         HUSKY OIL OPERATION LTD.       : Well_name    - WELL              
LOC .         00/09-12-070-06W4/0            : Location     - LOCATION          
UWI .         00/09-12-070-06W4/0            : Uwi          - UNIQUE WELL ID    
ENTR.         SP                             : Entered      - ENTERED BY        
SRVC.         SCHLUMBERGER                   : Scn          - SERVICE COMPANY   
STRT.M        315                            : top_depth    - START DEPTH       
STOP.M        560                            : bot_depth    - STOP DEPTH        
STEP.M        0.25                           : increment    - STEP LENGTH       
~CURVE INFORMATION BLOCK
#MNEM UNIT       ERCB CURVE CODE    CURVE DESCRIPTION
#-----------   ------------------   ----------------------------------
DEPT.M        00 001 00 00         : DEPTH        - DEPTH                       
ILD .OHMM     00 120 00 00         : RESD         - DEEP RESISTIVITY (DIL)      
DPHI.V/V      00 890 00 00         : PHID         - DENSITY POROSITY (LIMESTONE)
NPHI.V/V      00 330 00 00         : PHIN         - NEUTRON POROSITY (LIMESTONE)
GR  .API      00 310 00 00         : GR           - GAMMA RAY                   
~PARAMETER INFORMATION       
#MNEM.UNIT           DATA             DESCRIPTION OF MNEMONIC
#---------         -----------     ------------------------------
GL  .M        675.2                : gl           - GROUND LEVEL ELEVATION      
EREF.M        678.8                : kb           - ELEVATION OF DEPTH REFERENCE
DATM.M        675.2                : datum        - DATUM ELEVATION             
TDD .M        567                  : tdd          - TOTAL DEPTH DRILLER         
RUN .         ONE                  : Run          - RUN NUMBER                  
ENG .         BILL                 : Engineer     - RECORDING ENGINEER          
WIT .         JIM                  : Witness      - WITNESSED BY                
MUD .         GEL                  : Mud_type     - MUD TYPE                    
MATR.         LIMESTONE            : Logunit      - NEUTRON MATRIX              
TMAX.C        25                   : BHT          - MAXIMUM RECORDED TEMPERATURE
BHTD.M        567                  : BHTDEP       - MAXIMUM RECORDED TEMPERATURE
MATR.         1                    : LOGUNIT      - NEUTRON MATRIX              
RMT .C        25                   : MDTP         - TEMPERATURE OF MUD          
NEUT.         1                    : NEUTRON      - NEUTRON TYPE                
RESI.         0                    : RESIST       - RESISTIVITY TYPE            
RMC .OHMM     0.25                 : RMC          - RESISTIVITY OF MUD CAKE     
RMF .OHMM     0.25                 : RMF          - RESISTIVITY OF MUD FILTRATE 
SUFT.C        15                   : SUFT         - SURFACE TEMPERATURE         
~A  DEPTH     RESD     PHID     PHIN       GR
# ...
  532.500    5.331    0.287    0.337   53.612
  532.750    5.043    0.298    0.364   46.974
  533.000    4.861    0.307    0.379   45.171
  533.250    4.772    0.308    0.368   44.581
  533.500    4.686    0.309    0.359   44.592
  533.750    4.687    0.308    0.344   50.053
  534.000    4.868    0.303    0.332   56.115
  534.250    4.962    0.292    0.324   59.755
  534.500    5.057    0.291    0.332   60.974
  534.750    5.059    0.299    0.348   60.381
  535.000    5.061    0.297    0.356   60.999
  535.250    4.969    0.285    0.353   62.832
  535.500    4.701    0.274    0.361   62.841
  535.750    4.615    0.267    0.371   51.970
  536.000    4.532    0.299    0.365   46.537
  536.250    4.450    0.320    0.346   41.104
  536.500    4.452    0.326    0.339   45.356
  536.750    4.371    0.321    0.350   47.178
  537.000    4.373    0.320    0.362   46.586
  537.250    4.293    0.319    0.363   45.995
  537.500    4.138    0.321    0.368   47.826
  537.750    3.988    0.328    0.377   47.834
  538.000    3.916    0.333    0.396   37.568
  538.250    3.774    0.341    0.403   38.186
  538.500    3.776    0.361    0.387   41.219
  538.750    3.707    0.350    0.378   44.258
  539.000    3.639    0.337    0.374   42.456
  539.250    3.574    0.327    0.376   38.234
  539.500    3.509    0.353    0.386   35.223
  539.750    3.510    0.364    0.397   36.445
  540.000    3.784    0.374    0.401   43.114
  540.250    4.004    0.376    0.385   48.570
  540.500    4.316    0.351    0.361   52.819
  540.750    4.399    0.327    0.346   54.643
  541.000    4.568    0.280    0.339   46.188
  541.250    4.485    0.286    0.344   32.896
  541.500    4.243    0.325    0.356   26.253
  541.750    4.166    0.342    0.362   27.479
  542.000    3.941    0.351    0.351   28.698
  542.250    3.798    0.352    0.335   26.300
  542.500    3.799    0.351    0.347   25.703
  542.750    3.731    0.353    0.369   25.716
  543.000    3.802    0.354    0.382   31.175
  543.250    3.948    0.342    0.380   39.047
  543.500    4.418    0.265    0.318   50.550
  543.750    5.037    0.220    0.305   64.475
  544.000    5.743    0.190    0.305   73.560
  544.250    6.190    0.179    0.312   65.715
  544.500    6.550    0.196    0.326   59.677
  544.750    6.676    0.220    0.334   56.662
  545.000    6.804    0.232    0.319   60.909
  545.250    7.066    0.220    0.325   68.181
  545.500    7.202    0.204    0.336   74.848
  545.750    7.620    0.186    0.342   77.885
  546.000    7.913    0.180    0.349   80.926
  546.250    8.218    0.173    0.345   82.143
  546.500    8.377    0.163    0.340   88.204
  546.750    8.380    0.152    0.353   91.241
  547.000    8.382    0.138    0.349   88.234
  547.250    8.387    0.116    0.343   89.461
  547.500    8.234    0.135    0.350   90.685
  547.750    8.086    0.157    0.357   90.695
  548.000    8.088    0.165    0.349   90.704
  548.250    7.795    0.171    0.348   90.110
  548.500    7.653    0.176    0.341   87.098
  548.750    7.376    0.182    0.337   79.250
  549.000    7.108    0.187    0.356   73.214
  549.250    6.850    0.198    0.362   70.805
  549.500    6.603    0.220    0.347   78.687
  549.750    6.605    0.232    0.338   81.113
  550.000    6.732    0.200    0.345   85.967
  550.250    6.861    0.181    0.370   84.770
  550.500    6.864    0.192    0.376   82.363
  550.750    6.741    0.203    0.364   82.374
  551.000    6.617    0.197    0.360   85.414
  551.250    6.030    0.191    0.374   83.612
  551.500    5.294    0.207    0.390   68.504
  551.750    4.824    0.229    0.401   57.024
  552.000    4.396    0.244    0.395   48.567
  552.250    4.081    0.263    0.379   54.026
  552.500    3.789    0.273    0.384   40.731
  552.750    3.584    0.279    0.396   27.436
  553.000    3.454    0.326    0.340   14.143
  553.250    3.329    0.345    0.346   11.736
  553.500    3.269    0.357    0.371   16.590
  553.750    3.209    0.327    0.388   21.439
  554.000    3.271    0.303    0.377   26.294
  554.250    3.334    0.287    0.362   24.491
  554.500    3.398    0.293    0.358   17.246
  554.750    3.337    0.321    0.356   14.233
  555.000    3.338    0.338    0.350   12.434
  555.250    3.278    0.341    0.343   12.448
  555.500    3.279    0.334    0.334   13.668
  555.750    3.405    0.328    0.344   15.500
  556.000    3.603    0.322    0.351   18.532
  556.250    3.741    0.311    0.321   23.990
  556.500    4.771    0.280    0.299   27.629
  556.750    6.678    0.249    0.255   31.878
  557.000   12.142    0.133    0.212   33.705
  557.250   20.873   -0.008    0.197   36.139
  557.500   24.702   -0.009    0.188   38.575
  557.750   26.631   -0.010    0.189   38.581
  558.000   27.142   -0.010    0.191   39.807
  558.250   28.186   -0.011    0.185   40.428
  558.500   28.729   -0.011    0.174   41.649
  558.750   29.835   -0.011    0.167   42.266
  559.000   30.980   -0.011    0.163   43.485
  559.250   32.780   -0.011    0.166   44.706
  559.500   34.041   -0.010    0.172   45.329
  559.750   35.352   -0.004    0.173   45.948
  560.000   36.027    0.001    0.172   45.955
