~VERSION INFORMATION
 VERS.                 2.0:   CWLS LOG ASCII STANDARD -VERSION 2.0
 WRAP.                  NO:   ONE LINE PER DEPTH STEP
~WELL INFORMATION BLOCK
#MNEM.UNIT           DATA                    DESCRIPTION OF MNEMONIC
#---------    -------------------            -------------------------------
# Generated from Intellog Unique Number	CS_73_76/WELL/4141
WELL.         BVI ET AL DUNCAN               : Well_name    - WELL
LOC .         00/03-30-074-10W4/0            : Location     - LOCATION
UWI .         00/03-30-074-10W4/0            : Uwi          - UNIQUE WELL ID
ENTR.         SP                             : Entered      - ENTERED BY
SRVC.         SCHLUMBERGER                   : Scn          - SERVICE COMPANY
STRT.M        304.8                          : top_depth    - START DEPTH
STOP.M        521.3                          : bot_depth    - STOP DEPTH
STEP.M        0.25                           : increment    - STEP LENGTH
 NULL. -999.2500:NULL Value
~CURVE INFORMATION BLOCK
#MNEM UNIT       ERCB CURVE CODE    CURVE DESCRIPTION
#-----------   ------------------   ----------------------------------
DEPT.M        00 001 00 00         : DEPTH        - DEPTH
GR  .API      00 310 00 00         : GR           - GAMMA RAY
DELT.US/F     00 520 00 00         : DELT         - SONIC TRAVEL TIME
ILD .OHMM     00 120 00 00         : RESD         - DEEP RESISTIVITY (DIL)
~PARAMETER INFORMATION
#MNEM.UNIT           DATA             DESCRIPTION OF MNEMONIC
#---------         -----------     ------------------------------
GL  .M        678.028              : gl           - GROUND LEVEL ELEVATION
EREF.M        681.533              : kb           - ELEVATION OF DEPTH REFERENCE
DATM.M        681.533              : datum        - DATUM ELEVATION
TDD .M        787.908              : tdd          - TOTAL DEPTH DRILLER
RUN .         ONE                  : Run          - RUN NUMBER
ENG .         BILL                 : Engineer     - RECORDING ENGINEER
WIT .         JIM                  : Witness      - WITNESSED BY
MUD .         GEL                  : Mud_type     - MUD TYPE
MATR.         SANDSTONE            : Logunit      - NEUTRON MATRIX
TMAX.C        26.6667              : BHT          - MAXIMUM RECORDED TEMPERATURE
BHTD.M        787.908              : BHTDEP       - MAXIMUM RECORDED TEMPERATURE
MATR.         1                    : LOGUNIT      - NEUTRON MATRIX
RMT .C        25                   : MDTP         - TEMPERATURE OF MUD
NEUT.         1                    : NEUTRON      - NEUTRON TYPE
RESI.         0                    : RESIST       - RESISTIVITY TYPE
RMC .OHMM     1.13                 : RMC          - RESISTIVITY OF MUD CAKE
RMF .OHMM     0.82                 : RMF          - RESISTIVITY OF MUD FILTRATE
SUFT.C        15                   : SUFT         - SURFACE TEMPERATURE
~A  DEPTH       GR     DELT     RESD
# ...
  413.300   69.269  422.471    6.384
  413.550   67.457  423.139    6.501
  413.800   69.262  427.129    6.618
  414.050   71.069  430.453    6.741
  414.300   73.477  430.458    6.864
  414.550   75.284  427.141    6.989
  414.800   76.486  423.159    6.851
  415.050   75.881  423.162    6.847
  415.300   74.672  423.166    6.714
  415.550   73.463  423.170    6.582
  415.800   71.049  425.831    6.452
  416.050   70.443  429.156    6.450
  416.300   71.043  433.809    6.444
  416.550   71.642  437.798    6.438
  416.800   72.243  439.795    6.433
  417.050   72.240  442.456    6.552
  417.300   72.237  445.116    6.547
  417.550   72.234  441.135    6.420
  417.800   72.231  424.534    6.060
  418.050   72.228  415.903    5.614
  418.300   72.828  410.594    4.822
  418.550   74.029  415.911    4.220
  418.800   75.233  429.199    3.557
  419.050   78.243  463.740    2.997
  419.300   78.845  473.043    2.525
  419.550   81.254  485.666    2.252
  419.800   81.251  490.319    2.293
  420.050   80.041  491.651    2.519
  420.300   78.832  490.327    2.768
  420.550   78.227  483.025    3.218
  420.800   77.019  465.095    3.959
  421.050   76.413  430.562    4.349
  421.300   75.204  429.901    4.599
  421.550   73.995  428.577    4.864
  421.800   72.785  427.917    5.546
  422.050   72.784  430.577    5.867
  422.300   71.575  430.581    6.206
  422.550   69.763  425.936    6.814
  422.800   67.951  419.298    7.072
  423.050   65.535  410.003    7.478
  423.300   64.931  391.409    7.618
  423.550   62.516  374.809    7.902
  423.800   58.895  300.424    7.898
  424.050   55.878  289.137    7.892
  424.300   54.669  289.141    7.591
  424.550   54.064  311.727    7.444
  424.800   54.061  339.627    7.164
  425.050   52.851  354.242    6.891
  425.300   52.849  396.090    6.758
  425.550   51.639  421.332    6.626
  425.800   51.638  423.329    6.497
  426.050   51.031  422.669    6.370
  426.300   51.029  416.695    6.365
  426.550   51.026  412.049    6.122
  426.800   51.023  411.390    6.004
  427.050   51.020  412.059    5.774
  427.300   51.619  411.398    5.664
  427.550   51.617  410.737    5.552
  427.800   52.216  409.412    5.443
  428.050   52.817  407.425    5.441
  428.300   53.417  406.763    5.436
  428.550   54.619  405.438    5.431
  428.800   56.425  404.115    5.531
  429.050   58.834  403.454    5.525
  429.300   60.640  403.457    5.523
  429.550   63.651  403.461    5.518
  429.800   66.662  403.465    5.513
  430.050   68.469  404.133    5.509
  430.300   69.671  405.466    5.505
  430.550   68.463  407.462    5.606
  430.800   67.857  408.131    5.601
  431.050   66.648  408.133    5.597
  431.300   66.043  409.466    5.591
  431.550   65.436  412.126    5.589
  431.800   65.434  412.131    5.584
  432.050   64.828  410.142    5.578
  432.300   63.015  408.818    5.574
  432.550   62.410  407.494    5.676
  432.800   61.201  406.832    5.781
  433.050   60.595  404.179    6.000
  433.300   60.592  398.870    6.466
  433.550   59.987  391.567    7.376
  433.800   58.778  377.623    8.575
  434.050   55.760  260.731   10.160
  434.300   54.551  224.869   10.150
  434.550   52.740  224.872    9.582
  434.800   51.532  326.497    8.545
  435.050   50.323  343.105    7.918
  435.300   50.922  380.967    7.335
  435.550   52.125  394.255    6.926
  435.800   53.931  402.893    6.413
  436.050   55.737  408.210    6.171
  436.300   56.940  408.216    6.052
  436.550   58.745  402.241    5.823
  436.800   59.346  400.917    5.601
  437.050   60.549  400.922    5.389
  437.300   61.149  400.926    5.284
  437.550   61.145  401.594    5.280
  437.800   61.143  400.933    5.375
  438.050   61.140  399.610    5.685
  438.300   61.137  395.627    6.013
  438.550   61.135  391.645    6.605
  438.800   60.528  385.007    7.120
  439.050   60.526  375.713    7.820
  439.300   59.920  360.440    8.754
  439.550   57.504  230.263   10.176
  439.800   56.900  219.640   10.968
  440.050   55.088  219.644   10.160
  440.300   52.673  223.633    9.592
  440.550   51.464  232.935    8.395
  440.800   52.667  273.454    7.488
  441.050   55.677  303.347    6.806
  441.300   57.484  317.299    6.303
  441.550   59.290  379.736    6.182
  441.800   61.095  392.360    5.835
  442.050   62.901  396.348    5.830
  442.300   63.501  400.338    5.827
  442.550   64.101  401.672    5.932
  442.800   63.495  401.673    6.041
  443.050   62.286  402.343    6.037
  443.300   61.682  402.345    5.808
  443.550   62.885  403.013    5.279
  443.800   64.690  404.346    4.985
  444.050   64.688  406.343    4.363
  444.300   62.874  409.668    3.965
  444.550   62.270  416.977    3.815
  444.800   61.664  434.249    3.534
  445.050   62.866  425.619    3.465
  445.300   63.466  401.712    3.664
  445.550   65.272  400.388    4.260
  445.800   66.475  399.728    4.953
  446.050   65.267  398.403    5.441
  446.300   62.249  395.086    5.435
  446.550   60.438  401.067    5.329
  446.800   64.052  407.713    5.635
  447.050   68.872  414.359    5.962
  447.300   69.472  416.355    6.801
  447.550   68.264  322.044    6.796
  447.800   64.041  302.123    6.789
  448.050   56.803  318.067    6.656
  448.300   54.388  336.668    6.404
  448.550   60.414  353.277    6.399
  448.800   64.029  375.198    6.395
  449.050   66.438  405.091    6.389
  449.300   68.243  410.409    6.385
  449.550   69.447  413.069    6.141
  449.800   71.252  416.394    6.023
  450.050   72.456  423.040    5.474
  450.300   72.453  429.685    5.070
  450.550   73.052  436.995    4.880
  450.800   72.445  438.328    4.521
  451.050   71.237  433.681    4.348
  451.300   70.028  427.043    4.428
  451.550   70.629  423.063    4.596
  451.800   73.037  419.746    5.143
  452.050   74.240  415.100    5.545
  452.300   74.237  408.462    5.976
  452.550   72.425  407.137    6.086
  452.800   70.612  407.141    6.081
  453.050   70.008  419.100    6.076
  453.300   70.005  415.119    5.845
  453.550   71.811  401.840    5.624
  453.800   73.616  402.508    5.309
  454.050   71.805  403.840    5.306
  454.300   74.214  406.500    5.300
  454.550   74.211  408.496    5.500
  454.800   76.620  413.150    5.708
  455.050   77.219  416.475    5.813
  455.300   76.613  421.129    5.920
  455.550   74.802  415.819    6.143
  455.800   76.608  405.860    6.138
  456.050   78.414  401.215    6.133
  456.300   80.219  401.218    6.128
  456.550   80.818  402.551    6.123
  456.800   81.419  403.218    6.005
  457.050   79.607  403.886    5.669
  457.300   75.988  405.884    5.251
  457.550   72.367  407.880    4.958
  457.800   73.570  411.204    4.507
  458.050   75.978  419.842    3.798
  458.300   75.976  450.399    3.324
  458.550   75.370  458.373    2.748
  458.800   73.558  465.018    2.499
  459.050   71.746  471.000    2.271
  459.300   71.140  472.996    2.185
  459.550   70.534  473.002    2.141
  459.800   70.531  474.332    2.140
  460.050   71.131  476.993    2.139
  460.300   72.938  477.662    2.178
  460.550   75.950  477.666    2.218
  460.800   79.564  477.670    2.218
  461.050   79.561  477.008    2.344
  461.300   78.956  474.355    2.479
  461.550   77.746  467.054    2.775
  461.800   76.537  457.758    3.106
  462.050   76.534  427.874    3.348
  462.300   77.135  409.945    3.966
  462.550   78.337  399.987    4.275
  462.800   78.335  401.319    4.877
  463.050   77.126  401.324    5.356
  463.300   73.506  399.998    5.454
  463.550   69.281  394.688    5.450
  463.800   68.072  383.401    5.550
  464.050   68.070  372.777    5.339
  464.300   67.464  378.095    5.236
  464.550   67.461  385.405    4.849
  464.800   69.267  394.707    4.579
  465.050   72.278  408.659    4.161
  465.300   74.084  418.625    3.929
  465.550   75.287  425.935    3.571
  465.800   75.283  429.260    3.246
  466.050   75.281  430.592    3.123
  466.300   74.676  431.925    3.062
  466.550   74.673  434.586    3.060
  466.800   74.670  437.247    3.115
  467.050   74.667  438.579    3.173
  467.300   75.267  438.583    3.356
