~VERSION INFORMATION
 VERS.                 2.0:   CWLS LOG ASCII STANDARD -VERSION 2.0
 WRAP.                  NO:   ONE LINE PER DEPTH STEP
~WELL INFORMATION BLOCK
#MNEM.UNIT           DATA                    DESCRIPTION OF MNEMONIC
#---------    -------------------            -------------------------------
# Generated from Intellog Unique Number	CS_77_79/WELL/880
WELL.         CWWE HARDY                     : Well_name    - WELL
LOC .         00/06-22-078-04W4/0            : Location     - LOCATION
UWI .         00/06-22-078-04W4/0            : Uwi          - UNIQUE WELL ID
ENTR.         JHS                            : Entered      - ENTERED BY
SRVC.         SCHLUMBERGER                   : Scn          - SERVICE COMPANY
STRT.M        140                            : top_depth    - START DEPTH
STOP.M        400                            : bot_depth    - STOP DEPTH
STEP.M        0.25                           : increment    - STEP LENGTH
 NULL. -999.2500:NULL Value
~CURVE INFORMATION BLOCK
#MNEM UNIT       ERCB CURVE CODE    CURVE DESCRIPTION
#-----------   ------------------   ----------------------------------
DEPT.M        00 001 00 00         : DEPTH        - DEPTH
DPHI.V/V      00 890 00 00         : PHID         - DENSITY POROSITY (LIMESTONE)
NPHI.V/V      00 330 00 00         : PHIN         - NEUTRON POROSITY (LIMESTONE)
GR  .API      00 310 00 00         : GR           - GAMMA RAY
ILD .OHMM     00 120 00 00         : RESD         - DEEP RESISTIVITY (DIL)
RHOB.KG/M3    00 350 00 00         : DENS         - BULK DENSITY
~PARAMETER INFORMATION
#MNEM.UNIT           DATA             DESCRIPTION OF MNEMONIC
#---------         -----------     ------------------------------
GL  .M        554.5                : gl           - GROUND LEVEL ELEVATION
EREF.M        558.4                : kb           - ELEVATION OF DEPTH REFERENCE
DATM.M        558.4                : datum        - DATUM ELEVATION
TDD .M        410                  : tdd          - TOTAL DEPTH DRILLER
RUN .         ONE                  : Run          - RUN NUMBER
ENG .         BILL                 : Engineer     - RECORDING ENGINEER
WIT .         JIM                  : Witness      - WITNESSED BY
MUD .         GEL                  : Mud_type     - MUD TYPE
MATR.         LIMESTONE            : Logunit      - NEUTRON MATRIX
TMAX.C        26                   : BHT          - MAXIMUM RECORDED TEMPERATURE
BHTD.M        410                  : BHTDEP       - MAXIMUM RECORDED TEMPERATURE
MATR.         1                    : LOGUNIT      - NEUTRON MATRIX
RMT .C        25                   : MDTP         - TEMPERATURE OF MUD
NEUT.         1                    : NEUTRON      - NEUTRON TYPE
RESI.         0                    : RESIST       - RESISTIVITY TYPE
RMC .OHMM     0.25                 : RMC          - RESISTIVITY OF MUD CAKE
RMF .OHMM     0.25                 : RMF          - RESISTIVITY OF MUD FILTRATE
SUFT.C        15                   : SUFT         - SURFACE TEMPERATURE
~A  DEPTH     PHID     PHIN       GR     RESD     DENS
# ...
  322.500    0.215    0.309   78.734    4.439 2341.840
  322.750    0.214    0.301   69.971    4.522 2343.910
  323.000    0.218    0.296   65.582    4.783 2337.520
  323.250    0.220    0.293   71.188    4.872 2333.250
  323.500    0.229    0.295   73.678    4.779 2318.390
  323.750    0.248    0.306   58.038    4.430 2286.610
  324.000    0.284    0.322   45.526    4.185 2225.210
  324.250    0.298    0.326   34.888    3.879 2199.790
  324.500    0.318    0.329   32.375    3.462 2165.890
  324.750    0.326    0.337   33.611    3.032 2153.150
  325.000    0.352    0.355   37.347    2.758 2108.680
  325.250    0.373    0.359   42.332    2.655 2072.680
  325.500    0.393    0.360   34.189    2.555 2038.780
  325.750    0.358    0.370   31.053    2.554 2097.960
  326.000    0.326    0.354   28.541    2.506 2152.910
  326.250    0.310    0.334   29.148    2.504 2180.370
  326.500    0.304    0.334   29.758    2.503 2190.900
  326.750    0.301    0.323   29.745    2.455 2195.080
  327.000    0.295    0.305   29.732    2.455 2205.590
  327.250    0.296    0.296   28.468    2.408 2203.450
  327.500    0.300    0.297   28.456    2.407 2197.060
  327.750    0.298    0.305   30.943    2.451 2201.220
  328.000    0.296    0.312   29.678    2.450 2203.290
  328.250    0.295    0.312   29.663    2.449 2205.370
  328.500    0.296    0.309   29.651    2.448 2203.200
  328.750    0.298    0.305   29.636    2.447 2201.050
  329.000    0.301    0.314   28.373    2.400 2194.650
  329.250    0.305    0.314   28.980    2.445 2188.260
  329.500    0.308    0.308   32.719    2.444 2183.970
  329.750    0.313    0.309   33.953    2.443 2175.470
  330.000    0.318    0.319   31.441    2.442 2166.970
  330.250    0.323    0.323   28.926    2.395 2158.460
  330.500    0.321    0.323   30.162    2.394 2160.520
  330.750    0.315    0.320   30.773    2.393 2171.050
  331.000    0.308    0.310   27.637    2.392 2183.700
  331.250    0.303    0.307   27.621    2.437 2192.110
  331.500    0.303    0.305   32.603    2.482 2192.070
  331.750    0.304    0.307   33.218    2.481 2189.900
  332.000    0.303    0.305   27.576    2.576 2191.960
  332.250    0.298    0.300   25.063    2.574 2200.380
  332.500    0.287    0.297   26.927    2.622 2219.370
  332.750    0.282    0.293   29.410    2.671 2227.780
  333.000    0.285    0.293   28.772    2.670 2223.500
  333.250    0.287    0.299   27.510    2.720 2219.230
  333.500    0.286    0.299   30.621    2.718 2221.300
  333.750    0.278    0.291   38.106    2.718 2233.940
  334.000    0.282    0.288   44.341    2.768 2227.540
  334.250    0.287    0.301   48.701    2.715 2219.040
  334.500    0.295    0.309   46.186    2.663 2206.300
  334.750    0.302    0.313   40.548    2.563 2193.560
  335.000    0.302    0.319   36.786    2.467 2193.510
  335.250    0.300    0.318   35.518    2.420 2197.690
  335.500    0.302    0.311   36.758    2.374 2193.410
  335.750    0.306    0.307   39.868    2.329 2187.030
  336.000    0.303    0.302   40.480    2.327 2191.210
  336.250    0.287    0.297   33.589    2.371 2218.660
  336.500    0.281    0.297   29.826    2.370 2229.190
  336.750    0.299    0.300   27.934    2.414 2199.520
  337.000    0.301    0.305   31.047    2.413 2195.250
  337.250    0.295    0.306   34.785    2.412 2205.780
  337.500    0.289    0.309   35.395    2.411 2216.310
  337.750    0.306    0.315   31.630    2.410 2186.650
  338.000    0.310    0.316   32.865    2.409 2180.250
  338.250    0.302    0.314   32.853    2.363 2192.900
  338.500    0.296    0.309   30.340    2.362 2203.430
  338.750    0.302    0.307   30.327    2.317 2192.810
  339.000    0.319    0.316   32.813    2.230 2165.250
  339.250    0.319    0.315   34.045    2.229 2165.210
  339.500    0.312    0.309   35.285    2.228 2175.740
  339.750    0.288    0.299   44.644    2.270 2218.000
  340.000    0.267    0.293   60.880    2.401 2253.920
  340.250    0.242    0.288   65.866    2.492 2296.170
  340.500    0.242    0.292   59.602    2.636 2296.130
  340.750    0.261    0.296   51.463    2.842 2264.350
  341.000    0.266    0.301   53.947    2.950 2255.840
  341.250    0.261    0.299   58.308    3.062 2264.260
  341.500    0.253    0.304   55.170    3.239 2276.900
  341.750    0.285    0.318   47.656    3.238 2221.850
  342.000    0.302    0.324   42.016    3.176 2194.300
  342.250    0.311    0.321   44.504    3.057 2177.330
  342.500    0.300    0.318   48.865    2.887 2196.330
  342.750    0.277    0.319   50.725    2.727 2236.460
  343.000    0.277    0.334   47.587    2.625 2236.420
  343.250    0.315    0.345   43.199    2.527 2170.800
  343.500    0.312    0.340   48.184    2.432 2177.100
  343.750    0.298    0.323   56.295    2.297 2200.310
  344.000    0.294    0.318   51.282    2.253 2206.610
  344.250    0.297    0.304   48.142    2.211 2202.340
  344.500    0.304    0.307   44.378    2.168 2189.600
  344.750    0.322    0.332   38.740    2.167 2159.930
  345.000    0.325    0.335   39.973    2.166 2153.530
  345.250    0.324    0.329   40.585    2.165 2155.610
  345.500    0.317    0.324   38.697    2.124 2168.240
  345.750    0.317    0.330   35.558    2.123 2168.210
  346.000    0.323    0.334   34.295    2.122 2157.590
  346.250    0.313    0.329   41.781    2.121 2174.460
  346.500    0.301    0.335   48.642    2.121 2195.560
  346.750    0.308    0.363   42.376    2.119 2182.820
  347.000    0.323    0.381   33.611    2.118 2157.390
  347.250    0.341    0.365   32.974    2.118 2127.730
  347.500    0.348    0.354   36.081    2.077 2114.990
  347.750    0.369    0.352   37.323    2.037 2078.980
  348.000    0.381    0.353   39.807    2.036 2057.780
  348.250    0.370    0.353   44.790    2.036 2076.770
  348.500    0.394    0.349   46.654    2.035 2036.540
  348.750    0.399    0.356   44.766    2.073 2028.020
  349.000    0.358    0.368   39.750    2.072 2097.790
  349.250    0.339    0.367   35.986    2.071 2129.460
  349.500    0.337    0.358   34.099    2.032 2133.650
  349.750    0.337    0.342   35.960    2.030 2133.600
  350.000    0.332    0.336   40.319    2.030 2142.010
  350.250    0.317    0.328   44.057    2.067 2167.350
  350.500    0.293    0.320   46.540    2.106 2209.610
  350.750    0.262    0.309   46.526    2.186 2262.460
  351.000    0.243    0.306   50.264    2.313 2294.140
  351.250    0.247    0.315   58.373    2.493 2287.740
  351.500    0.261    0.327   63.985    2.637 2264.430
  351.750    0.288    0.339   55.845    2.636 2217.840
  352.000    0.325    0.348   47.081    2.537 2154.340
  352.250    0.335    0.367   41.444    2.489 2137.360
  352.500    0.336    0.374   36.430    2.351 2135.190
  352.750    0.341    0.366   36.413    2.220 2126.690
  353.000    0.336    0.344   37.027    2.058 2135.100
  353.250    0.329    0.340   36.389    1.981 2147.750
  353.500    0.330    0.344   35.123    1.907 2145.590
  353.750    0.323    0.350   33.235    1.871 2158.220
  354.000    0.323    0.347   31.344    1.835 2158.190
  354.250    0.344    0.351   31.333    1.834 2122.180
  354.500    0.355    0.354   31.317    1.833 2103.090
  354.750    0.346    0.348   32.554    1.832 2117.850
  355.000    0.335    0.341   33.790    1.832 2136.840
  355.250    0.339    0.338   35.652    1.865 2130.450
  355.500    0.346    0.343   35.637    1.865 2117.700
  355.750    0.339    0.343   36.249    1.864 2130.340
  356.000    0.320    0.335   42.484    1.899 2162.030
  356.250    0.308    0.335   46.844    1.898 2183.140
  356.500    0.313    0.339   45.582    1.970 2174.630
  356.750    0.335    0.340   43.691    2.007 2136.510
  357.000    0.345    0.333   41.178    2.006 2119.540
  357.250    0.339    0.333   36.789    1.968 2130.070
  357.500    0.329    0.340   29.901    1.967 2146.940
  357.750    0.328    0.347   26.763    1.929 2149.000
  358.000    0.334    0.350   26.123    1.892 2138.390
  358.250    0.342    0.344   27.982    1.891 2125.650
  358.500    0.336    0.342   30.469    1.855 2136.180
  358.750    0.320    0.344   34.830    1.854 2163.630
