~VERSION INFORMATION
 VERS.                 2.0:   CWLS LOG ASCII STANDARD -VERSION 2.0
 WRAP.                  NO:   ONE LINE PER DEPTH STEP
~WELL INFORMATION BLOCK
#MNEM.UNIT           DATA                    DESCRIPTION OF MNEMONIC
#---------    -------------------            -------------------------------
# Generated from Intellog Unique Number	CS_77_79/WELL/906
WELL.         SUNCOR ET AL PORTAGE           : Well_name    - WELL
LOC .         00/07-23-078-17W4/0            : Location     - LOCATION
UWI .         00/07-23-078-17W4/0            : Uwi          - UNIQUE WELL ID
ENTR.         JHS                            : Entered      - ENTERED BY
SRVC.         SCHLUMBERGER                   : Scn          - SERVICE COMPANY
STRT.M        165                            : top_depth    - START DEPTH
STOP.M        347                            : bot_depth    - STOP DEPTH
STEP.M        0.25                           : increment    - STEP LENGTH
 NULL. -999.2500:NULL Value
~CURVE INFORMATION BLOCK
#MNEM UNIT       ERCB CURVE CODE    CURVE DESCRIPTION
#-----------   ------------------   ----------------------------------
DEPT.M        00 001 00 00         : DEPTH        - DEPTH
DPHI.V/V      00 890 00 00         : PHID         - DENSITY POROSITY (LIMESTONE)
NPHI.V/V      00 330 00 00         : PHIN         - NEUTRON POROSITY (LIMESTONE)
GR  .API      00 310 00 00         : GR           - GAMMA RAY
ILD .OHMM     00 120 00 00         : RESD         - DEEP RESISTIVITY (DIL)
~PARAMETER INFORMATION
#MNEM.UNIT           DATA             DESCRIPTION OF MNEMONIC
#---------         -----------     ------------------------------
GL  .M        559.6                : gl           - GROUND LEVEL ELEVATION
EREF.M        562.9                : kb           - ELEVATION OF DEPTH REFERENCE
DATM.M        562.9                : datum        - DATUM ELEVATION
TDD .M        348                  : tdd          - TOTAL DEPTH DRILLER
RUN .         ONE                  : Run          - RUN NUMBER
ENG .         BILL                 : Engineer     - RECORDING ENGINEER
WIT .         JIM                  : Witness      - WITNESSED BY
MUD .         GEL                  : Mud_type     - MUD TYPE
MATR.         LIMESTONE            : Logunit      - NEUTRON MATRIX
TMAX.C        26                   : BHT          - MAXIMUM RECORDED TEMPERATURE
BHTD.M        348                  : BHTDEP       - MAXIMUM RECORDED TEMPERATURE
MATR.         1                    : LOGUNIT      - NEUTRON MATRIX
RMT .C        25                   : MDTP         - TEMPERATURE OF MUD
NEUT.         1                    : NEUTRON      - NEUTRON TYPE
RESI.         0                    : RESIST       - RESISTIVITY TYPE
RMC .OHMM     0.25                 : RMC          - RESISTIVITY OF MUD CAKE
RMF .OHMM     0.25                 : RMF          - RESISTIVITY OF MUD FILTRATE
SUFT.C        15                   : SUFT         - SURFACE TEMPERATURE
~A  DEPTH     PHID     PHIN       GR     RESD
# ...
  295.500    0.256    0.366  110.618    9.395
  295.750    0.245    0.356  111.826    9.952
  296.000    0.239    0.349  114.262   10.745
  296.250    0.234    0.344  109.932   10.959
  296.500    0.225    0.349  103.768   11.611
  296.750    0.213    0.368   93.293   12.298
  297.000    0.209    0.383   92.042   13.530
  297.250    0.209    0.376  101.852   15.171
  297.500    0.212    0.338  109.820   15.475
  297.750    0.219    0.315  111.027   15.490
  298.000    0.239    0.294   98.094   14.649
  298.250    0.289    0.306   89.463   14.384
  298.500    0.314    0.347   84.523   13.603
  298.750    0.314    0.358   82.655   12.153
  299.000    0.311    0.352   81.399   10.457
  299.250    0.313    0.346   80.148   10.077
  299.500    0.306    0.340   79.504    9.711
  299.750    0.300    0.348   78.254    9.721
  300.000    0.298    0.357   77.623    9.916
  300.250    0.297    0.360   77.593   10.115
  300.500    0.298    0.359   76.344   10.514
  300.750    0.304    0.364   75.091   10.720
  301.000    0.307    0.372   76.914   10.937
  301.250    0.309    0.369   79.962   10.743
  301.500    0.308    0.360   83.010   10.352
  301.750    0.309    0.356   84.213   10.165
  302.000    0.312    0.365   82.350    9.614
  302.250    0.311    0.379   75.565    9.444
  302.500    0.306    0.380   73.698    9.453
  302.750    0.298    0.375   74.902    9.459
  303.000    0.300    0.361   76.108    9.467
  303.250    0.302    0.355   77.312    9.656
  303.500    0.298    0.359   75.443    9.665
  303.750    0.294    0.376   73.578    9.673
  304.000    0.292    0.381   74.786    9.682
  304.250    0.297    0.381   77.222    9.690
  304.500    0.301    0.378   79.655    9.701
  304.750    0.305    0.356   79.016    9.710
  305.000    0.305    0.343   75.915    9.717
  305.250    0.304    0.342   75.282    9.725
  305.500    0.305    0.353   80.792    9.733
  305.750    0.308    0.364   85.684    9.742
  306.000    0.306    0.368   89.345    9.389
  306.250    0.301    0.368   86.864    9.049
  306.500    0.298    0.378   81.311    8.887
  306.750    0.300    0.384   72.066    8.565
  307.000    0.309    0.383   72.041    8.413
  307.250    0.305    0.389   73.859    8.417
  307.500    0.305    0.398   73.222    8.587
  307.750    0.309    0.388   73.200    8.924
  308.000    0.314    0.376   75.022    9.456
  308.250    0.311    0.369   77.453   10.016
  308.500    0.296    0.369   79.894   11.447
  308.750    0.290    0.385   82.328   12.354
  309.000    0.288    0.412   81.691   13.854
  309.250    0.283    0.410   79.820   14.674
  309.500    0.269    0.350   77.341   15.254
  309.750    0.217    0.303   75.471   15.266
  310.000    0.201    0.243   74.833   14.166
  310.250    0.218    0.253   70.502   12.899
  310.500    0.240    0.317   71.097   11.973
  310.750    0.264    0.356   85.826   11.321
  311.000    0.283    0.364   88.264   10.705
  311.250    0.302    0.369   80.246    9.746
  311.500    0.309    0.374   71.620    9.043
  311.750    0.300    0.380   69.751    8.393
  312.000    0.295    0.392   75.256    7.936
  312.250    0.290    0.388   78.306    7.793
  312.500    0.288    0.379   77.664    7.802
  312.750    0.288    0.370   75.801    8.266
  313.000    0.293    0.370   74.546    8.757
  313.250    0.308    0.376   75.138    8.929
  313.500    0.310    0.396   77.578    9.460
  313.750    0.295    0.403   78.785   10.021
  314.000    0.281    0.390   76.295   10.416
  314.250    0.270    0.372   75.044   11.036
  314.500    0.262    0.362   73.181   11.256
  314.750    0.250    0.349   71.929   11.699
  315.000    0.238    0.353   74.973   11.712
  315.250    0.238    0.353   76.796   11.502
  315.500    0.249    0.344   76.773   11.084
  315.750    0.260    0.334   79.823   10.480
  316.000    0.271    0.334   79.182    9.727
  316.250    0.285    0.338   79.161    9.372
  316.500    0.286    0.338   82.212    8.865
  316.750    0.284    0.336   82.189    8.543
  317.000    0.281    0.357   80.933    8.390
  317.250    0.278    0.351   77.219    8.085
  317.500    0.273    0.341   75.356    8.093
  317.750    0.267    0.340   76.559    8.098
  318.000    0.263    0.357   80.833    8.581
  318.250    0.269    0.382   82.042    8.919
  318.500    0.274    0.380   80.795    9.274
  318.750    0.270    0.371   81.996    9.640
  319.000    0.262    0.365   86.891    9.644
  319.250    0.257    0.362   89.944    9.654
  319.500    0.251    0.353   88.076    9.482
  319.750    0.245    0.354   83.750    9.139
  320.000    0.247    0.362   81.875    8.642
  320.250    0.252    0.368   83.082    8.485
  320.500    0.255    0.366   86.748    8.496
  320.750    0.246    0.357   90.416    8.501
  321.000    0.240    0.354   96.540    8.671
  321.250    0.236    0.358  102.044    8.846
  321.500    0.235    0.372  103.249    8.854
  321.750    0.233    0.380  100.771    8.695
  322.000    0.229    0.379   95.824    8.378
  322.250    0.225    0.380   93.962    7.923
  322.500    0.222    0.373   96.396    7.214
  322.750    0.218    0.364   97.605    6.694
  323.000    0.219    0.365   99.424    6.452
  323.250    0.223    0.380  105.543    6.580
  323.500    0.228    0.399  111.054    7.240
  323.750    0.228    0.410  119.023    7.815
  324.000    0.224    0.386  123.299    8.438
  324.250    0.211    0.356  122.661    9.285
  324.500    0.203    0.348  118.952    9.835
  324.750    0.197    0.340  126.917   10.617
  325.000    0.196    0.335  129.970   11.682
  325.250    0.190    0.335  129.332   12.374
  325.500    0.169    0.342  115.783   13.110
  325.750    0.148    0.337  105.308   13.628
  326.000    0.133    0.334   99.139   13.639
  326.250    0.149    0.331   99.109   13.145
  326.500    0.167    0.354  101.553   13.156
  326.750    0.162    0.349  104.597   13.420
  327.000    0.151    0.339  105.810   13.947
  327.250    0.146    0.336  105.784   14.502
  327.500    0.153    0.341  100.842   14.788
  327.750    0.162    0.333   98.977   14.532
  328.000    0.171    0.330  101.407   14.266
  328.250    0.178    0.325   99.537   14.011
  328.500    0.193    0.314   98.290   14.024
  328.750    0.209    0.314  100.728   14.035
  329.000    0.208    0.324  103.156   14.048
  329.250    0.206    0.340  104.356   14.327
  329.500    0.204    0.344  106.187   15.178
  329.750    0.200    0.338  111.079   16.080
  330.000    0.192    0.332  114.129   16.399
  330.250    0.184    0.334  111.027   16.416
  330.500    0.164    0.323  107.317   15.530
  330.750    0.153    0.316  110.368   14.684
  331.000    0.148    0.314  110.957   13.367
  331.250    0.148    0.315  110.937   11.942
  331.500    0.152    0.319  112.759   10.470
  331.750    0.152    0.321  113.952    9.715
  332.000    0.158    0.324  115.167    9.189
  332.250    0.164    0.347  118.836    8.691
  332.500    0.169    0.360  126.189    8.695
  332.750    0.173    0.346  128.621    8.223
  333.000    0.180    0.319  126.140    7.348
  333.250    0.188    0.333  120.587    6.817
  333.500    0.194    0.360  116.261    6.090
  333.750    0.200    0.365  121.149    4.951
  334.000    0.194    0.351  122.968    3.948
  334.250    0.197    0.343  122.330    2.758
  334.500    0.221    0.361  119.235    2.373
  334.750    0.271    0.429  115.522    2.161
  335.000    0.290    0.455  113.043    2.289
  335.250    0.306    0.473  114.251    2.717
  335.500    0.307    0.479  114.832    3.413
  335.750    0.295    0.477  116.048    4.126
  336.000    0.282    0.467  117.254    5.590
  336.250    0.255    0.432  115.998    7.432
  336.500    0.229    0.358  109.215   10.457
  336.750    0.211    0.327  103.656   13.640
  337.000    0.187    0.307  101.176   15.883
  337.250    0.158    0.301  104.842   18.151
  337.500    0.163    0.305  108.506   19.225
  337.750    0.173    0.317  102.335   18.184
  338.000    0.162    0.307   93.707   15.348
  338.250    0.147    0.289   95.525   11.786
  338.500    0.133    0.280  104.104    8.079
  338.750    0.155    0.304  112.689    6.950
