~VERSION INFORMATION
 VERS.                 2.0:   CWLS LOG ASCII STANDARD -VERSION 2.0
 WRAP.                  NO:   ONE LINE PER DEPTH STEP
~WELL INFORMATION BLOCK
#MNEM.UNIT           DATA                    DESCRIPTION OF MNEMONIC
#---------    -------------------            -------------------------------
# Generated from Intellog Unique Number	CW_76_78/WELL/2571
WELL.         07-07-078-23W4                 : Well_name    - WELL
LOC .         00/07-07-078-23W4/0            : Location     - LOCATION
UWI .         00/07-07-078-23W4/0            : Uwi          - UNIQUE WELL ID
ENTR.         MAX                            : Entered      - ENTERED BY
SRVC.         WESTERN ATLAS                  : Scn          - SERVICE COMPANY
STRT.M        290                            : top_depth    - START DEPTH
STOP.M        562                            : bot_depth    - STOP DEPTH
STEP.M        0.25                           : increment    - STEP LENGTH
 NULL. -999.2500:NULL Value
~CURVE INFORMATION BLOCK
#MNEM UNIT       ERCB CURVE CODE    CURVE DESCRIPTION
#-----------   ------------------   ----------------------------------
DEPT.M        00 001 00 00         : DEPTH        - DEPTH
ILD .OHMM     00 120 00 00         : RESD         - DEEP RESISTIVITY (DIL)
NPHI.V/V      00 330 00 00         : PHIN         - NEUTRON POROSITY (SANDSTONE)
DPHI.V/V      00 890 00 00         : PHID         - DENSITY POROSITY (SANDSTONE)
CALI.MM       00 280 01 00         : CAL          - CALIPER
GR  .API      00 310 00 00         : GR           - GAMMA RAY
~PARAMETER INFORMATION
#MNEM.UNIT           DATA             DESCRIPTION OF MNEMONIC
#---------         -----------     ------------------------------
GL  .M        601.9                : gl           - GROUND LEVEL ELEVATION
EREF.M        606                  : kb           - ELEVATION OF DEPTH REFERENCE
DATM.M        601.9                : datum        - DATUM ELEVATION
TDD .M        566                  : tdd          - TOTAL DEPTH DRILLER
RUN .         ONE                  : Run          - RUN NUMBER
ENG .         BILL                 : Engineer     - RECORDING ENGINEER
WIT .         JIM                  : Witness      - WITNESSED BY
MUD .         GEL                  : Mud_type     - MUD TYPE
MATR.         SANDSTONE            : Logunit      - NEUTRON MATRIX
TMAX.C        27                   : BHT          - MAXIMUM RECORDED TEMPERATURE
BHTD.M        566                  : BHTDEP       - MAXIMUM RECORDED TEMPERATURE
RMT .C        20                   : MDTP         - TEMPERATURE OF MUD
MUDD.KG/M     1110                 : MWT          - MUD DENSITY
NEUT.         1                    : NEUTRON      - NEUTRON TYPE
RESI.         0                    : RESIST       - RESISTIVITY TYPE
RM  .OHMM     5                    : RM           - RESISTIVITY OF MUD
RMC .OHMM     5.5                  : RMC          - RESISTIVITY OF MUD CAKE
RMF .OHMM     4.8                  : RMF          - RESISTIVITY OF MUD FILTRATE
SUFT.C        -20                  : SUFT         - SURFACE TEMPERATURE
~A  DEPTH     RESD     PHIN     PHID      CAL       GR
# ...
  509.000   28.850    0.323    0.287  205.498   62.589
  509.250   27.290    0.323    0.297  205.474   69.963
  509.500   26.053    0.337    0.296  206.426   67.876
  509.750   25.337    0.330    0.286  207.377   67.858
  510.000   23.529    0.319    0.285  208.336   73.755
  510.250   21.652    0.312    0.276  208.305   76.398
  510.500   20.297    0.312    0.269  207.777   84.070
  510.750   18.003    0.310    0.233  207.753   94.700
  511.000   16.265    0.306    0.226  207.699   93.499
  511.250   14.560    0.302    0.216  207.684   98.508
  511.500   13.398    0.294    0.210  208.643  105.882
  511.750   12.791    0.291    0.216  209.594  109.413
  512.000   13.512    0.287    0.227  210.056  112.651
  512.250   15.649    0.265    0.235  210.025  104.350
  512.500   20.801    0.245    0.261  209.497   99.007
  512.750   25.930    0.226    0.303  208.981   91.887
  513.000   28.159    0.163    0.268  208.950   76.485
  513.250   36.416    0.118    0.026  208.919   69.663
  513.500   41.402    0.122    0.007  208.383   64.025
  513.750   43.337    0.157    0.013  207.863   64.893
  514.000   42.925    0.203    0.018  207.836   76.113
  514.250   39.136    0.240    0.027  207.805   82.306
  514.500   27.839    0.282    0.049  207.766   93.529
  514.750   19.622    0.295    0.086  207.735   98.542
  515.000   12.966    0.305    0.186  207.708  102.361
  515.250   10.985    0.307    0.174  207.677  105.601
  515.500    9.052    0.317    0.165  208.132  114.755
  515.750    8.884    0.332    0.176  209.090  126.272
  516.000    8.881    0.345    0.184  209.556  123.887
  516.250    8.877    0.334    0.208  210.018  112.034
  516.500    8.955    0.320    0.191  209.987  108.762
  516.750    8.953    0.300    0.194  209.952  101.050
  517.000    8.706    0.303    0.186  209.925  101.330
  517.250    8.085    0.308    0.183  209.401  105.453
  517.500    7.305    0.327    0.166  209.367  107.502
  517.750    6.974    0.343    0.169  209.328  112.810
  518.000    7.101    0.362    0.185  209.798  118.412
  518.250    7.710    0.359    0.212  211.246  107.446
  518.500    8.930    0.342    0.217  210.722   98.554
  518.750    9.877    0.313    0.219  208.711   93.209
  519.000   10.530    0.321    0.235  207.205   89.345
  519.250   11.021    0.308    0.312  206.192   86.366
  519.500   10.916    0.265    0.269  206.157   88.421
  519.750   10.422    0.293    0.266  206.615   94.614
  520.000    9.859    0.293    0.235  207.570   98.440
  520.250    9.072    0.307    0.218  207.535  104.633
  520.500    8.272    0.321    0.202  207.508  115.559
  520.750    7.612    0.335    0.200  207.481  115.834
  521.000    7.402    0.340    0.215  208.432  115.818
  521.250    7.265    0.348    0.218  208.894  124.969
  521.500    7.329    0.331    0.238  209.853  137.967
  521.750    7.327    0.305    0.172  210.307  136.467
  522.000    7.391    0.283    0.163  210.280  123.730
  522.250    7.388    0.295    0.165  210.245  118.683
  522.500    7.454    0.293    0.146  210.214  106.532
  522.750    7.520    0.282    0.128  210.187   98.825
  523.000    7.587    0.282    0.136  209.663   92.297
  523.250    7.446    0.286    0.176  209.139   99.675
  523.500    7.109    0.289    0.174  209.108  103.204
  523.750    6.482    0.292    0.177  209.074  106.735
  524.000    6.303    0.291    0.178  208.550  101.688
  524.250    6.418    0.289    0.165  208.523   95.457
  524.500    6.905    0.289    0.121  208.484   92.185
  524.750    7.637    0.289    0.168  208.453  102.519
  525.000    7.921    0.289    0.185  208.426  109.304
  525.250    7.917    0.305    0.181  207.898  111.647
  525.500    7.771    0.314    0.171  208.360  114.589
  525.750    7.151    0.323    0.175  209.319  113.389
  526.000    6.580    0.331    0.181  210.759  110.413
  526.250    5.473    0.382    0.164  211.221  114.535
  526.500    4.510    0.404    0.093  211.691  111.559
  526.750    4.227    0.389    0.136  212.141  111.536
  527.000    4.111    0.363    0.150  212.118  113.590
  527.250    3.997    0.351    0.146  212.087  121.260
  527.500    3.887    0.337    0.136  212.048  126.866
  527.750    3.815    0.321    0.132  212.025  124.478
  528.000    3.815    0.308    0.125  211.497  121.206
  528.250    4.416    0.290    0.073  210.480  113.793
  528.500    4.752    0.269    0.018  208.481   98.391
  528.750    5.606    0.279    0.152  205.981   83.582
  529.000    6.432    0.313    0.181  204.964  100.424
  529.250    6.921    0.316    0.227  203.944  103.363
  529.500    6.918    0.301    0.211  203.913  102.162
  529.750    6.789    0.300    0.177  204.375   87.055
  530.000    6.541    0.302    0.240  205.330   84.668
  530.250    6.245    0.301    0.272  205.796   85.539
  530.500    5.908    0.299    0.261  207.240   82.563
  530.750    5.589    0.298    0.240  208.191   83.136
  531.000    5.385    0.317    0.208  209.639  107.076
  531.250    5.188    0.327    0.127  211.087  118.892
  531.500    5.045    0.314    0.149  211.549  115.615
  531.750    5.042    0.308    0.160  212.504  104.950
  532.000    4.996    0.291    0.209  211.483   80.672
  532.250    5.040    0.292    0.182  210.959   93.076
  532.500    5.037    0.297    0.134  211.425   97.497
  532.750    5.083    0.312    0.112  211.883  106.946
  533.000    5.271    0.311    0.098  212.353  117.867
  533.250    5.568    0.301    0.117  212.811  115.191
  533.500    5.828    0.298    0.139  212.780   97.719
  533.750    6.045    0.290    0.152  212.745   97.106
  534.000    6.098    0.284    0.174  212.718   95.611
  534.250    6.209    0.287    0.195  212.687   76.659
  534.500    6.322    0.289    0.215  212.648   71.612
  534.750    6.378    0.285    0.226  212.617   71.889
  535.000    6.433    0.288    0.189  212.586   75.124
  535.250    6.491    0.294    0.156  211.573  105.572
  535.500    6.609    0.300    0.132  211.049  116.794
  535.750    6.918    0.330    0.130  211.511  103.462
  536.000    7.241    0.309    0.139  210.983   92.206
  536.250    7.441    0.304    0.164  209.966   78.579
  536.500    8.006    0.307    0.252  209.443   66.433
  536.750    8.457    0.324    0.227  208.919   67.003
  537.000    8.224    0.328    0.223  208.884   65.208
  537.250    7.997    0.324    0.284  208.853   66.374
  537.500    7.635    0.319    0.280  209.315   74.936
  537.750    7.424    0.335    0.205  209.777  139.403
  538.000    7.220    0.383    0.122  210.728  174.290
  538.250    7.220    0.399    0.127  211.691  169.243
  538.500    6.889    0.409    0.111  212.153  165.379
  538.750    6.518    0.403    0.076  212.615  159.146
  539.000    6.223    0.385    0.054  212.580  149.660
  539.250    6.051    0.376    0.079  212.056  144.024
  539.500    5.884    0.390    0.108  211.536  140.158
  539.750    5.775    0.376    0.116  211.008  136.590
  540.000    5.668    0.382    0.122  210.973  135.092
  540.250    5.511    0.386    0.136  210.938  130.341
  540.500    5.262    0.381    0.112  210.911  131.210
  540.750    5.023    0.377    0.045  210.884  136.515
  541.000    4.885    0.351    0.027  210.352  141.821
  541.250    4.837    0.337    0.031  210.325  146.237
  541.500    4.749    0.312    0.026  210.298  150.362
  541.750    4.835    0.271    0.012  210.267  153.294
  542.000    5.060    0.235    0.005  210.267  155.055
  542.250    5.346    0.253    0.008  210.194  134.922
  542.500    5.544    0.267    0.038  209.677  126.326
  542.750    5.542    0.276    0.143  209.677  117.725
  543.000    5.389    0.279    0.148  209.604  106.170
  543.250    5.145    0.271    0.164  209.584  102.900
  543.500    5.003    0.275    0.179  209.546   91.933
  543.750    4.821    0.287    0.167  210.012   92.508
  544.000    4.821    0.297    0.145  210.477  104.023
  544.250    4.642    0.295    0.129  210.936  100.161
  544.500    4.557    0.302    0.185  209.915   88.311
  544.750    4.431    0.291    0.218  208.405   85.037
  545.000    4.349    0.284    0.195  205.416   92.413
  545.250    4.229    0.291    0.222  202.924   90.324
