~VERSION INFORMATION
 VERS.                 2.0:   CWLS LOG ASCII STANDARD -VERSION 2.0
 WRAP.                  NO:   ONE LINE PER DEPTH STEP
~WELL INFORMATION BLOCK
#MNEM.UNIT           DATA                    DESCRIPTION OF MNEMONIC
#---------    -------------------            -------------------------------
# Generated from Intellog Unique Number	CX_WELLS/WELL/3386
WELL.         ANDERSON ET AL NEWBY           : Well_name    - WELL
LOC .         00/06-20-084-05W4/0            : Location     - LOCATION
UWI .         00/06-20-084-05W400            : Uwi          - UNIQUE WELL ID
ENTR.         T                              : Entered      - ENTERED BY
SRVC.         SCHLUMBERGER                   : Scn          - SERVICE COMPANY
DATE.         03/04/92                       : Date         - LOG DATE
STRT.M        80                             : top_depth    - START DEPTH
STOP.M        275                            : bot_depth    - STOP DEPTH
STEP.M        0.25                           : increment    - STEP LENGTH
 NULL. -999.2500:NULL Value
~CURVE INFORMATION BLOCK
#MNEM UNIT       ERCB CURVE CODE    CURVE DESCRIPTION
#-----------   ------------------   ----------------------------------
DEPT.M        00 001 00 00         : DEPTH        - DEPTH
GR  .API      00 310 00 00         : GR           - GAMMA RAY
NPHI.V/V      00 330 00 00         : PHIN         - NEUTRON POROSITY (SANDSTONE)
DPHI.V/V      00 890 00 00         : PHID         - DENSITY POROSITY (SANDSTONE)
ILD .OHMM     00 120 00 00         : RESD         - DEEP RESISTIVITY (DIL)
~PARAMETER INFORMATION
#MNEM.UNIT           DATA             DESCRIPTION OF MNEMONIC
#---------         -----------     ------------------------------
GL  .M        471                  : gl           - GROUND LEVEL ELEVATION
EREF.M        474.6                : kb           - ELEVATION OF DEPTH REFERENCE
DATM.M        474.6                : datum        - DATUM ELEVATION
TDD .M        275                  : tdd          - TOTAL DEPTH DRILLER
RUN .         ONE                  : Run          - RUN NUMBER
ENG .         JO                   : Engineer     - RECORDING ENGINEER
WIT .         TIM                  : Witness      - WITNESSED BY
MUD .         GEL                  : Mud_type     - MUD TYPE
MATR.         SANDSTONE            : Logunit      - NEUTRON MATRIX
TMAX.C        31                   : BHT          - MAXIMUM RECORDED TEMPERATURE
BHTD.M        275                  : BHTDEP       - MAXIMUM RECORDED TEMPERATURE
RMT .C        14.4                 : MDTP         - TEMPERATURE OF MUD
MUDD.KG/M     1                    : MWT          - MUD DENSITY
NEUT.         1                    : NEUTRON      - NEUTRON TYPE
RESI.         3.5                  : RESIST       - RESISTIVITY TYPE
RM  .OHMM     2.4                  : RM           - RESISTIVITY OF MUD
RMC .OHMM     2.4                  : RMC          - RESISTIVITY OF MUD CAKE
RMF .OHMM     2.4                  : RMF          - RESISTIVITY OF MUD FILTRATE
SUFT.C        4                    : SUFT         - SURFACE TEMPERATURE
~A  DEPTH       GR     PHIN     PHID     RESD
   80.000  122.076    0.445    0.239   11.652
   80.250  122.795    0.436    0.255   12.595
   80.500  121.062    0.429    0.270   13.346
   80.750  115.146    0.425    0.308   14.159
   81.000  103.870    0.420    0.331   14.461
   81.250   96.758    0.415    0.326   15.631
   81.500   87.893    0.410    0.313   16.563
   81.750   89.747    0.411    0.311   17.915
   82.000   97.618    0.415    0.317   18.275
   82.250   97.699    0.421    0.318   18.664
   82.500   97.202    0.426    0.314   17.358
   82.750   97.263    0.434    0.306   15.864
   83.000   97.962    0.437    0.301   15.588
   83.250  100.433    0.430    0.291   16.221
   83.500  101.709    0.425    0.282   17.534
   83.750  103.006    0.437    0.271   18.256
   84.000  101.871    0.449    0.266   18.289
   84.250   88.782    0.450    0.261   18.689
   84.500   69.715    0.444    0.261   20.572
   84.750   62.644    0.434    0.291   22.211
   85.000   62.704    0.419    0.296   26.396
   85.250   62.825    0.412    0.295   27.435
   85.500   62.288    0.407    0.300   28.583
   85.750   60.576    0.405    0.311   28.634
   86.000   58.884    0.411    0.323   28.169
   86.250   57.151    0.404    0.324   28.769
   86.500   54.821    0.386    0.329   29.955
   86.750   50.738    0.379    0.331   31.171
   87.000   49.623    0.384    0.329   33.070
   87.250   50.302    0.385    0.329   33.109
   87.500   52.176    0.384    0.333   33.834
   87.750   52.874    0.383    0.339   34.555
   88.000   52.935    0.386    0.344   34.616
   88.250   52.398    0.388    0.345   36.086
   88.500   51.303    0.392    0.346   37.529
   88.750   51.384    0.396    0.346   39.030
   89.000   52.103    0.401    0.346   40.687
   89.250   52.761    0.397    0.346   40.711
   89.500   53.420    0.391    0.347   40.050
   89.750   52.903    0.383    0.349   38.669
   90.000   52.386    0.381    0.348   37.336
   90.250   51.869    0.380    0.346   35.380
   90.500   50.774    0.380    0.343   32.333
   90.750   52.050    0.385    0.332   31.182
   91.000   54.522    0.397    0.311   28.479
   91.250   56.396    0.411    0.311   25.529
   91.500   58.290    0.421    0.297   24.177
   91.750   58.949    0.431    0.273   22.897
   92.000   63.213    0.426    0.259   19.759
   92.250   67.478    0.418    0.266   18.036
   92.500   74.752    0.422    0.273   15.858
   92.750   85.612    0.425    0.262   14.475
   93.000   78.500    0.433    0.251   13.220
   93.250   76.190    0.435    0.241   12.528
   93.500   73.879    0.436    0.231   12.550
   93.750   69.796    0.431    0.232   12.825
   94.000   68.064    0.423    0.232   13.091
   94.250   68.742    0.414    0.232   13.129
   94.500   70.039    0.408    0.232   12.916
   94.750   70.099    0.412    0.232   12.714
   95.000   72.612    0.419    0.235   12.493
   95.250   75.103    0.440    0.240   12.062
   95.500   76.957    0.451    0.252   11.225
   95.750   78.811    0.463    0.264   10.637
   96.000   81.303    0.471    0.272    9.887
   96.250   82.579    0.462    0.277    8.863
   96.500   83.257    0.452    0.280    8.399
   96.750   83.956    0.443    0.280    8.577
   97.000   83.439    0.431    0.279    9.094
   97.250   82.942    0.437    0.275    9.831
   97.500   83.581    0.450    0.270   10.429
   97.750   83.661    0.458    0.272   10.840
   98.000   83.144    0.467    0.283   11.710
   98.250   79.659    0.462    0.303   13.651
   98.500   77.329    0.440    0.326   15.310
   98.750   72.628    0.412    0.340   16.529
   99.000   67.329    0.398    0.351   18.194
   99.250   60.217    0.393    0.355   20.062
   99.500   56.732    0.397    0.357   20.466
   99.750   55.637    0.401    0.358   21.309
  100.000   55.100    0.400    0.355   21.347
  100.250   54.006    0.394    0.354   21.802
  100.500   54.107    0.383    0.351   21.866
  100.750   54.765    0.384    0.355   21.499
  101.000   56.041    0.387    0.358   21.162
  101.250   56.720    0.394    0.359   20.807
  101.500   57.398    0.401    0.359   20.469
  101.750   57.479    0.417    0.359   20.173
  102.000   57.560    0.422    0.361   19.822
  102.250   57.661    0.428    0.362   19.523
  102.500   57.701    0.437    0.366   19.546
  102.750   57.822    0.448    0.373   19.593
  103.000   57.923    0.453    0.386   19.650
  103.250   57.964    0.451    0.382   19.697
  103.500   57.447    0.450    0.383   19.743
  103.750   56.352    0.433    0.396   19.790
  104.000   54.042    0.413    0.409   19.469
  104.250   51.712    0.414    0.404   19.515
  104.500   52.411    0.416    0.393   19.561
  104.750   53.069    0.416    0.391   19.607
  105.000   53.747    0.416    0.391   19.289
  105.250   53.828    0.410    0.388   19.335
  105.500   52.734    0.410    0.382   19.021
  105.750   50.424    0.417    0.378   19.066
  106.000   51.720    0.424    0.372   18.768
  106.250   52.956    0.425    0.364   18.463
  106.500   55.468    0.416    0.343   18.507
  106.750   56.146    0.409    0.315   18.206
  107.000   56.825    0.408    0.318   18.239
  107.250   57.504    0.406    0.323   17.964
  107.500   56.986    0.400    0.329   17.996
  107.750   56.470    0.391    0.338   18.038
  108.000   55.932    0.377    0.336   17.766
  108.250   56.611    0.383    0.334   17.798
  108.500   57.907    0.388    0.332   17.840
  108.750   59.204    0.401    0.332   18.220
  109.000   59.862    0.397    0.332   18.252
  109.250   59.963    0.392    0.332   17.956
  109.500   59.446    0.387    0.331   17.665
  109.750   58.909    0.390    0.336   17.378
  110.000   59.628    0.395    0.353   16.478
  110.250   59.071    0.404    0.373   15.032
  110.500   56.761    0.412    0.394   12.036
  110.750   56.243    0.417    0.412   10.193
  111.000   71.885    0.423    0.373    8.628
  111.250   87.527    0.432    0.298    6.410
  111.500   95.996    0.460    0.283    5.636
  111.750  102.074    0.478    0.281    4.863
  112.000  103.948    0.498    0.285    4.609
  112.250  103.411    0.511    0.292    5.172
  112.500  102.914    0.514    0.294    5.584
  112.750  102.377    0.507    0.294    6.266
  113.000  102.498    0.499    0.293    7.032
  113.250  100.148    0.489    0.291    8.030
  113.500   93.654    0.472    0.293    9.182
  113.750   85.366    0.450    0.297    9.378
  114.000   78.892    0.450    0.297    9.405
  114.250   77.160    0.452    0.297    9.433
  114.500   77.859    0.453    0.302    9.269
  114.750   80.330    0.453    0.308    8.784
  115.000   83.400    0.454    0.297    7.874
  115.250   86.449    0.457    0.285    6.668
  115.500   92.527    0.476    0.268    5.860
  115.750   97.389    0.480    0.259    5.346
  116.000   99.861    0.477    0.260    4.789
  116.250   99.385    0.483    0.268    4.216
  116.500   98.868    0.516    0.277    4.068
  116.750   99.546    0.545    0.285    3.928
  117.000  100.822    0.563    0.287    3.862
  117.250   99.708    0.522    0.287    3.944
  117.500   99.191    0.513    0.283    3.958
  117.750   98.694    0.509    0.281    4.121
  118.000   98.734    0.501    0.279    4.283
  118.250   98.815    0.496    0.284    4.717
  118.500   98.896    0.489    0.286    4.999
  118.750   98.399    0.484    0.290    5.824
  119.000   97.862    0.476    0.291    6.781
  119.250   97.365    0.470    0.288    8.196
  119.500   98.044    0.468    0.289    9.548
  119.750   99.320    0.462    0.293   10.709
  120.000   84.438    0.455    0.295   11.787
  120.250   79.737    0.452    0.298   13.227
  120.500   75.036    0.445    0.312   14.569
  120.750   72.108    0.452    0.327   14.611
  121.000   67.407    0.445    0.332   14.637
  121.250   65.695    0.427    0.332   14.663
  121.500   63.982    0.430    0.330   14.425
  121.750   61.692    0.442    0.329   14.460
  122.000   61.155    0.453    0.327   14.225
  122.250   60.638    0.450    0.327   14.275
  122.500   60.162    0.442    0.327   14.309
  122.750   60.202    0.437    0.327   14.351
  123.000   60.921    0.429    0.328   14.368
  123.250   61.599    0.432    0.329   14.411
