~VERSION INFORMATION
 VERS.                 2.0:   CWLS LOG ASCII STANDARD -VERSION 2.0
 WRAP.                  NO:   ONE LINE PER DEPTH STEP
~WELL INFORMATION BLOCK
#MNEM.UNIT           DATA                    DESCRIPTION OF MNEMONIC
#---------    -------------------            -------------------------------
# Generated from Intellog Unique Number	CW_76_78/WELL/637
WELL.         GULF POC DROWNED 07-23         : Well_name    - WELL
LOC .         00/07-23-076-22W4/0            : Location     - LOCATION
UWI .         00/07-23-076-22W4/0            : Uwi          - UNIQUE WELL ID
ENTR.         JAYE                           : Entered      - ENTERED BY
SRVC.         WESTERN ATLAS                  : Scn          - SERVICE COMPANY
DATE.         5 JAN 77                       : Date         - LOG DATE
STRT.M        435.864                        : top_depth    - START DEPTH
STOP.M        649.114                        : bot_depth    - STOP DEPTH
STEP.M        0.25                           : increment    - STEP LENGTH
 NULL. -999.2500:NULL Value
~CURVE INFORMATION BLOCK
#MNEM UNIT       ERCB CURVE CODE    CURVE DESCRIPTION
#-----------   ------------------   ----------------------------------
DEPT.M        00 001 00 00         : DEPTH        - DEPTH
ILD .OHMM     00 120 00 00         : RESD         - DEEP RESISTIVITY (DIL)
NPHI.V/V      00 330 00 00         : PHIN         - NEUTRON POROSITY (SANDSTONE)
DPHI.V/V      00 890 00 00         : PHID         - DENSITY POROSITY (SANDSTONE)
GR  .API      00 310 00 00         : GR           - GAMMA RAY
CALI.MM       00 280 01 00         : CAL          - CALIPER
~PARAMETER INFORMATION
#MNEM.UNIT           DATA             DESCRIPTION OF MNEMONIC
#---------         -----------     ------------------------------
GL  .M        749.198              : gl           - GROUND LEVEL ELEVATION
EREF.M        752.551              : kb           - ELEVATION OF DEPTH REFERENCE
DATM.M        749.198              : datum        - DATUM ELEVATION
TDD .M        647.7                : tdd          - TOTAL DEPTH DRILLER
RUN .         ONE                  : Run          - RUN NUMBER
ENG .         CROCKFORD            : Engineer     - RECORDING ENGINEER
WIT .         HUGHES               : Witness      - WITNESSED BY
BASE.         EDM                  : Branch       - HOME BASE OF LOGGING UNIT
MATR.         SANDSTONE            : Logunit      - NEUTRON MATRIX
TMAX.C        30.5556              : BHT          - MAXIMUM RECORDED TEMPERATURE
BHTD.M        648.31               : BHTDEP       - MAXIMUM RECORDED TEMPERATURE
RMT .C        14.4444              : MDTP         - TEMPERATURE OF MUD
MUDD.KG/M     1080                 : MWT          - MUD DENSITY
NEUT.         1                    : NEUTRON      - NEUTRON TYPE
RESI.         0                    : RESIST       - RESISTIVITY TYPE
RM  .OHMM     3.89                 : RM           - RESISTIVITY OF MUD
RMC .OHMM     0                    : RMC          - RESISTIVITY OF MUD CAKE
RMF .OHMM     5.84                 : RMF          - RESISTIVITY OF MUD FILTRATE
SUFT.C        -17.7778             : SUFT         - SURFACE TEMPERATURE
~A  DEPTH     RESD     PHIN     PHID       GR      CAL
# ...
  618.364    7.525    0.422    0.088  137.535  179.584
  618.614    6.813    0.398    0.155  133.594  179.400
  618.864    6.992    0.336    0.145  114.015  172.007
  619.114    7.574    0.323    0.162   97.053  167.598
  619.364    8.427    0.313    0.200   84.654  161.442
  619.614    9.292    0.305    0.216   84.789  158.475
  619.864   10.619    0.300    0.229   92.592  156.438
  620.114   11.503    0.312    0.208  100.029  156.460
  620.364   11.699    0.322    0.179  103.145  157.517
  620.614   11.484    0.326    0.178  101.090  158.363
  620.864   11.680    0.322    0.183   95.019  159.729
  621.114   12.316    0.315    0.225   88.279  160.575
  621.364   12.984    0.302    0.231   85.068  160.808
  621.614   13.938    0.303    0.216   85.022  160.620
  621.864   15.098    0.314    0.210   85.218  160.645
  622.114   15.916    0.329    0.211   85.718  160.461
  622.364   15.906    0.338    0.202   86.280  160.278
  622.614   15.610    0.340    0.201   88.788  166.999
  622.864   15.184    0.329    0.199   91.418  170.732
  623.114   14.635    0.321    0.192   84.921  170.859
  623.364   13.983    0.316    0.193   84.935  167.068
  623.614   13.481    0.319    0.197   88.904  166.165
  623.864   12.997    0.325    0.204   92.752  168.869
  624.114   11.979    0.333    0.190   95.625  171.878
  624.364   11.042    0.331    0.180   99.412  174.066
  624.614   10.551    0.325    0.187  102.589  172.240
  624.864    9.991    0.320    0.174  104.672  170.918
  625.114    9.632    0.327    0.160  108.337  169.811
  625.364    9.285    0.340    0.149  111.027  169.007
  625.614    9.112    0.340    0.133  112.380  169.035
  625.864    9.022    0.324    0.120  113.369  168.744
  626.114    9.262    0.300    0.111  114.050  168.563
  626.364    9.337    0.307    0.091  116.011  168.277
  626.614    9.163    0.317    0.071  118.945  167.995
  626.864    8.754    0.323    0.120  122.550  168.323
  627.114    8.216    0.332    0.160  125.180  168.861
  627.364    7.574    0.345    0.157  128.357  169.196
  627.614    7.108    0.348    0.148  130.987  169.319
  627.864    6.914    0.338    0.155  127.958  169.143
  628.114    6.847    0.325    0.144  122.679  168.957
  628.364    6.965    0.316    0.154  118.616  168.774
  628.614    7.022    0.321    0.128  115.891  169.004
  628.864    7.080    0.337    0.125  117.122  169.027
  629.114    7.074    0.339    0.124  121.091  169.051
  629.364    6.942    0.341    0.130  124.269  169.279
  629.614    6.515    0.368    0.155  126.839  170.641
  629.864    6.225    0.384    0.138  128.982  172.209
  630.114    6.001    0.367    0.151  129.970  173.572
  630.364    5.942    0.371    0.166  130.408  174.316
  630.614    6.045    0.399    0.175  129.753  173.103
  630.864    6.374    0.455    0.169  128.124  170.962
  631.114    6.661    0.440    0.202  123.757  167.277
  631.364    7.022    0.415    0.281  114.583  162.973
  631.614    7.337    0.387    0.270  106.260  160.936
  631.864    7.465    0.393    0.242  114.672  161.578
  632.114    7.326    0.401    0.199  122.352  163.354
  632.364    6.514    0.422    0.172  126.503  165.436
  632.614    6.059    0.432    0.144  130.472  168.652
  632.864    5.737    0.445    0.174  128.356  170.428
  633.114    5.582    0.463    0.214  122.896  168.804
  633.364    5.678    0.491    0.269  118.526  166.765
  633.614    6.489    0.475    0.374  108.927  165.449
  633.864    7.687    0.437    0.407   88.556  164.549
  634.114   10.796    0.393    0.304   59.302  164.365
  634.364   12.560    0.374    0.261   57.918  164.284
  634.614   14.485    0.380    0.275   60.304  163.998
  634.864   16.259    0.383    0.279   64.213  163.920
  635.114   18.581    0.351    0.283   65.138  164.047
  635.364   20.675    0.338    0.292   56.027  164.276
  635.614   23.004    0.349    0.298   56.222  164.507
  635.864   24.471    0.380    0.305   61.896  164.735
  636.114   22.964    0.382    0.308   67.568  165.685
  636.364   20.424    0.375    0.300   73.848  166.429
  636.614   17.215    0.376    0.283   83.718  166.866
  636.864   13.627    0.399    0.265   91.156  167.198
  637.114   12.902    0.418    0.245   97.801  167.222
  637.364   13.363    0.438    0.264   99.154  166.004
  637.614   14.473    0.386    0.307   82.800  163.659
  637.864   15.815    0.364    0.314   67.541  161.108
  638.114   17.285    0.354    0.290   76.621  160.205
  638.364   17.741    0.381    0.278   88.927  160.845
  638.614   16.208    0.377    0.287   97.338  161.488
  638.864   12.602    0.374    0.285  106.418  162.539
  639.114    9.369    0.398    0.269  119.634  163.902
  639.364    7.350    0.504    0.274  140.154  164.854
  639.614    6.364    0.485    0.261  146.130  165.289
  639.864    5.813    0.465    0.210  132.879  165.830
  640.114    5.504    0.447    0.185  116.891  166.365
  640.364    5.403    0.423    0.151   93.600  165.257
  640.614    5.398    0.395    0.126   63.738  164.558
  640.864    5.394    0.410    0.194   96.000  164.071
  641.114    5.342    0.387    0.213  106.905  163.677
  641.364    5.289    0.378    0.234  106.555  162.981
  641.614    5.238    0.383    0.230  106.994  162.591
  641.864    5.141    0.364    0.221  109.564  162.098
  642.114    5.046    0.341    0.206  111.160  161.813
  642.364    4.778    0.321    0.195  111.720  162.560
  642.614    4.565    0.305    0.203  111.978  163.714
  642.864    4.361    0.269    0.190  111.323  168.064
  643.114    4.242    0.299    0.178  108.842  171.590
  643.364    4.089    0.290    0.233  103.196  163.165
  643.614    3.942    0.295    0.264   99.378  156.080
  643.864    3.835    0.288    0.273   99.878  153.632
  644.114    3.664    0.282    0.272  100.622  152.830
  644.364    3.500    0.276    0.261   99.541  152.338
  644.614    3.344    0.266    0.207   97.121  152.259
  644.864    3.253    0.300    0.192   94.213  152.489
  645.114    3.164    0.291    0.175   91.245  152.614
  645.364    3.133    0.282    0.247   86.027  153.256
  645.614    3.103    0.274    0.264   82.085  153.588
  645.864    3.100    0.265    0.245   78.388  154.023
  646.114    3.070    0.272    0.203   74.628  154.458
  646.364    3.013    0.268    0.160   71.295  154.485
  646.614    2.984    0.262    0.169   69.727  154.196
  646.864    2.955    0.255    0.157   68.282  153.806
  647.114    2.926    0.242    0.090   67.140  153.005
  647.364    2.924    0.235    0.090   66.544  151.281
  647.614    2.921    0.231    0.092   66.132  149.757
  647.864    2.972    0.235    0.073   66.209  147.924
  648.114    2.996    0.233    0.076   66.646  145.785
  648.364    3.075    0.228    0.081   67.209  143.954
  648.614    3.129    0.221    0.077   67.648  142.121
  648.864    3.211    0.213    0.071   67.843  141.012
  649.114    3.267    0.208    0.067   67.858  139.191
