~VERSION INFORMATION
 VERS.                 2.0:   CWLS LOG ASCII STANDARD -VERSION 2.0
 WRAP.                  NO:   ONE LINE PER DEPTH STEP
~WELL INFORMATION BLOCK
#MNEM.UNIT           DATA                    DESCRIPTION OF MNEMONIC
#---------    -------------------            -------------------------------
# Generated from Intellog Unique Number	CN_91_93/WELL/2644
WELL.         07-33-091-18W4                 : Well_name    - WELL
LOC .         00/07-33-091-18W4/0            : Location     - LOCATION
UWI .         00/07-33-091-18W400            : Uwi          - UNIQUE WELL ID
ENTR.         joette                         : Entered      - ENTERED BY
SRVC.         SCHLUMBERGER                   : Scn          - SERVICE COMPANY
DATE.         02/05/92                       : Date         - LOG DATE
STRT.M        90                             : top_depth    - START DEPTH
STOP.M        250                            : bot_depth    - STOP DEPTH
STEP.M        0.25                           : increment    - STEP LENGTH
 NULL. -999.2500:NULL Value
~CURVE INFORMATION BLOCK
#MNEM UNIT       ERCB CURVE CODE    CURVE DESCRIPTION
#-----------   ------------------   ----------------------------------
DEPT.M        00 001 00 00         : DEPTH        - DEPTH
GR  .API      00 310 00 00         : GR           - GAMMA RAY
CALI.MM       00 280 01 00         : CAL          - CALIPER
NPHI.V/V      00 330 00 00         : PHIN         - NEUTRON POROSITY (SANDSTONE)
ILD .OHMM     00 120 00 00         : RESD         - DEEP RESISTIVITY (DIL)
DPHI.V/V      00 890 00 00         : PHID         - DENSITY POROSITY (SANDSTONE)
~PARAMETER INFORMATION
#MNEM.UNIT           DATA             DESCRIPTION OF MNEMONIC
#---------         -----------     ------------------------------
GL  .M        517.2                : gl           - GROUND LEVEL ELEVATION
EREF.M        520.4                : kb           - ELEVATION OF DEPTH REFERENCE
DATM.M        520.4                : datum        - DATUM ELEVATION
TDD .M        249.5                : tdd          - TOTAL DEPTH DRILLER
RUN .         ONE                  : Run          - RUN NUMBER
ENG .         JO                   : Engineer     - RECORDING ENGINEER
WIT .         TIM                  : Witness      - WITNESSED BY
MUD .         GEL                  : Mud_type     - MUD TYPE
MATR.         SANDSTONE            : Logunit      - NEUTRON MATRIX
TMAX.C        28                   : BHT          - MAXIMUM RECORDED TEMPERATURE
BHTD.M        249.5                : BHTDEP       - MAXIMUM RECORDED TEMPERATURE
RMT .C        18                   : MDTP         - TEMPERATURE OF MUD
MUDD.KG/M     1140                 : MWT          - MUD DENSITY
NEUT.         1                    : NEUTRON      - NEUTRON TYPE
RESI.         0                    : RESIST       - RESISTIVITY TYPE
RM  .OHMM     4.81                 : RM           - RESISTIVITY OF MUD
RMC .OHMM     4.81                 : RMC          - RESISTIVITY OF MUD CAKE
RMF .OHMM     4.81                 : RMF          - RESISTIVITY OF MUD FILTRATE
SUFT.C        4                    : SUFT         - SURFACE TEMPERATURE
~A  DEPTH       GR      CAL     PHIN     RESD     PHID
   90.000   68.692  169.913    0.484    6.413    0.303
   90.250   79.381  165.036    0.513    6.536    0.309
   90.500   86.518  162.618    0.527    7.602    0.313
   90.750   88.624  161.194    0.525   11.085    0.318
   91.000   86.289  160.756    0.537   18.099    0.321
   91.250   68.263  162.299    0.549   30.114    0.323
   91.500   48.464  164.821    0.491   31.874    0.350
   91.750   41.690  162.903    0.448   33.106    0.371
   92.000   38.163  160.979    0.421   33.745    0.376
   92.250   34.645  160.541    0.429   35.050    0.376
   92.500   33.202  161.090    0.453   35.726    0.398
   92.750   30.863  164.120    0.463   37.107    0.425
   93.000   30.601  165.649    0.433   38.545    0.386
   93.250   33.307  162.244    0.413   38.552    0.371
   93.500   33.336  159.833    0.403   39.298    0.356
   93.750   32.481  159.402    0.405   39.311    0.355
   94.000   31.627  159.951    0.403   39.318    0.354
   94.250   31.360  160.487    0.403   38.594    0.355
   94.500   32.290  161.536    0.408   38.606    0.356
   94.750   32.315  161.592    0.387   38.611    0.334
   95.000   29.989  161.654    0.359   39.360    0.211
   95.250   29.422  162.697    0.373   39.368    0.213
   95.500   30.939  163.732    0.408   40.127    0.249
   95.750   33.040  164.774    0.414   40.142    0.299
   96.000   34.554  167.311    0.407   40.150    0.354
   96.250   34.883  168.339    0.410   40.158    0.357
   96.500   34.625  169.395    0.444   40.168    0.363
   96.750   34.358  173.391    0.453   40.945    0.372
   97.000   34.992  175.913    0.448   40.953    0.373
   97.250   35.313  175.913    0.430   41.748    0.369
   97.500   35.313  176.546    0.415   42.550    0.355
   97.750   35.100  176.087    0.409   42.558    0.345
   98.000   34.229  175.642    0.419   43.384    0.341
   98.250   32.491  175.205    0.406   44.215    0.336
   98.500   31.936  174.274    0.407   44.235    0.332
   98.750   31.674  173.829    0.417   44.238    0.338
   99.000   31.115  173.885    0.424   44.249    0.345
   99.250   31.441  173.948    0.417   44.260    0.346
   99.500   31.770  173.996    0.411   44.277    0.345
   99.750   31.216  174.052    0.412   44.285    0.345
  100.000   31.245  174.108    0.408   44.294    0.346
  100.250   32.466  174.170    0.400   44.308    0.352
  100.500   33.384  174.226    0.410   44.316    0.355
  100.750   31.637  174.324    0.418   44.333    0.355
  101.000   29.307  174.345    0.423   44.339    0.360
  101.250   29.632  174.393    0.425   44.358    0.354
  101.500   31.441  174.456    0.435   44.367    0.351
  101.750   33.255  174.512    0.421   44.378    0.352
  102.000   33.880  173.581    0.424   44.389    0.352
  102.250   34.205  172.149    0.428   44.398    0.351
  102.500   35.719  171.212    0.415   44.412    0.349
  102.750   34.568  171.274    0.401   44.420    0.348
  103.000   32.834  173.797    0.407   44.440    0.350
  103.250   32.271  175.325    0.416   44.449    0.353
  103.500   32.009  175.881    0.421   44.454    0.353
  103.750   32.338  175.444    0.418   44.468    0.351
  104.000   32.372  174.999    0.418   44.480    0.352
  104.250   31.813  175.562    0.420   44.491    0.358
  104.500   31.254  176.111    0.419   44.505    0.361
  104.750   30.696  176.660    0.406   44.513    0.352
  105.000   30.433  176.709    0.401   44.528    0.336
  105.250   30.462  175.278    0.402   44.536    0.314
  105.500   28.720  173.367    0.390   44.544    0.291
  105.750   28.753  170.956    0.394   44.561    0.267
  106.000   28.791  166.078    0.414   44.567    0.243
  106.250   28.820  162.195    0.420   44.581    0.288
  106.500   31.522  160.763    0.419   44.590    0.316
  106.750   33.919  160.819    0.427   44.607    0.332
  107.000   36.325  160.374    0.430   43.785    0.342
  107.250   36.650  160.437    0.410   43.799    0.342
  107.500   34.315  159.993    0.405   43.807    0.348
  107.750   30.505  159.555    0.396   43.000    0.349
  108.000   32.610  158.624    0.427   43.011    0.343
  108.250   34.712  158.179    0.435   42.219    0.355
  108.500   33.861  157.749    0.420   42.232    0.358
  108.750   33.002  156.825    0.407   42.238    0.351
  109.000   34.516  156.373    0.406   41.460    0.352
  109.250   35.145  155.943    0.413   40.696    0.353
  109.500   32.511  155.547    0.435   40.709    0.352
  109.750   30.176  155.575    0.417   39.956    0.326
  110.000   32.578  155.575    0.401   39.220    0.304
  110.250   34.979  155.693    0.426   37.779    0.298
  110.500   36.797  156.707    0.433   36.391    0.328
  110.750   36.822  156.777    0.429   31.903    0.346
  111.000   37.155  156.833    0.437   30.155    0.353
  111.250   39.849  157.368    0.449   25.457    0.358
  111.500   46.098  157.430    0.455   22.317    0.354
  111.750   48.207  157.486    0.429   19.564    0.344
  112.000   55.641  157.549    0.407   16.830    0.322
  112.250   66.338  157.591    0.407   14.478    0.296
  112.500   73.175  158.147    0.403   12.692    0.262
  112.750   77.649  158.202    0.480   10.918    0.233
  113.000   82.418  158.744    0.476    9.754    0.257
  113.250  105.247  160.280    0.474    8.391    0.294
  113.500  108.833  161.322    0.489    7.356    0.301
  113.750  111.830  162.858    0.506    6.696    0.294
  114.000  114.231  163.907    0.512    6.096    0.273
  114.250  115.453  164.950    0.512    5.762    0.258
  114.500  114.298  165.499    0.538    5.550    0.263
  114.750  115.224  165.561    0.559    5.448    0.266
  115.000  115.557  166.104    0.580    5.348    0.262
  115.250  113.215  166.653    0.580    5.249    0.261
  115.500  110.880  167.695    0.557    5.251    0.261
  115.750  107.954  168.737    0.521    5.252    0.258
  116.000  104.431  168.300    0.509    5.253    0.216
  116.250  110.388  167.369    0.515    5.255    0.214
  116.500  112.794  165.944    0.512    5.256    0.237
  116.750  110.747  165.500    0.558    5.257    0.248
  117.000  106.340  165.069    0.577    5.359    0.257
  117.250  108.446  165.125    0.585    5.462    0.261
  117.500  110.264  165.174    0.560    5.568    0.272
  117.750  107.329  164.736    0.573    5.569    0.270
  118.000  100.850  163.812    0.533    5.676    0.244
  118.250  100.292  162.874    0.498    5.786    0.205
  118.500  103.877  161.950    0.528    5.898    0.218
  118.750  107.467  162.006    0.537    6.011    0.238
  119.000  107.792  162.548    0.483    6.127    0.246
  119.250  107.533  163.590    0.497    6.245    0.265
  119.500  105.491  164.640    0.513    6.366    0.281
  119.750   97.532  164.702    0.518    6.612    0.278
  120.000   92.238  164.272    0.527    6.999    0.276
  120.250   86.647  163.327    0.489    7.269    0.279
  120.500   82.537  161.895    0.443    7.550    0.213
  120.750   87.006  160.971    0.440    7.842    0.183
  121.000   93.260  160.527    0.487    8.145    0.221
  121.250   90.625  161.576    0.508    8.147    0.264
  121.500   84.150  161.632    0.485    8.149    0.266
  121.750   79.148  161.187    0.471    7.704    0.224
  122.000   80.665  160.750    0.489    7.420    0.200
  122.250   87.207  160.319    0.499    6.755    0.223
  122.500   94.648  159.874    0.501    6.034    0.248
  122.750  101.489  159.930    0.509    5.597    0.270
  123.000  107.439  160.486    0.530    5.095    0.186
  123.250  109.844  161.042    0.556    4.639    0.216
  123.500  107.801  161.084    0.577    4.468    0.234
  123.750  107.539  161.633    0.565    4.223    0.239
  124.000  105.500  161.703    0.550    4.068    0.236
  124.250  110.566  161.744    0.564    3.993    0.232
  124.500  111.787  162.300    0.581    3.920    0.247
  124.750  110.045  162.849    0.582    3.776    0.273
  125.000  102.378  163.398    0.594    3.706    0.293
  125.250   98.564  164.934    0.572    3.707    0.303
  125.500   97.713  166.463    0.564    3.708    0.301
  125.750   99.222  167.505    0.584    3.709    0.302
  126.000  101.036  167.505    0.592    3.710    0.302
  126.250  101.370  168.117    0.590    3.711    0.278
