~VERSION INFORMATION
 VERS.                 2.0:   CWLS LOG ASCII STANDARD -VERSION 2.0
 WRAP.                  NO:   ONE LINE PER DEPTH STEP
~WELL INFORMATION BLOCK
#MNEM.UNIT           DATA                    DESCRIPTION OF MNEMONIC
#---------    -------------------            -------------------------------
# Generated from Intellog Unique Number	CW_70_72/WELL/3304
NULL.         -999.25                        : NULL_VALUE
WELL.         CHEVRON MGSU 1 MITSUE          : Well_name    - WELL              
LOC .         07-30-071-04W5                 : Location     - LOCATION          
UWI .         00/07-30-071-04W5/0            : Uwi          - UNIQUE WELL ID    
ENTR.         CAMPBELL                       : Entered      - ENTERED BY        
SRVC.         SCHLUMBERGER                   : Scn          - SERVICE COMPANY   
DATE.         24 MARCH 1982                  : Date         - LOG DATE          
STRT.M        610                            : top_depth    - START DEPTH       
STOP.M        755                            : bot_depth    - STOP DEPTH        
STEP.M        0.25                           : increment    - STEP LENGTH       
~CURVE INFORMATION BLOCK
#MNEM UNIT       ERCB CURVE CODE    CURVE DESCRIPTION
#-----------   ------------------   ----------------------------------
DEPT.M        00 001 00 00         : DEPTH        - DEPTH                       
ILD .OHMM     00 120 00 00         : RESD         - DEEP RESISTIVITY (DIL)      
DELT.US/F     00 520 00 00         : DELT         - SONIC TRAVEL TIME           
GR  .API      00 310 00 00         : GR           - GAMMA RAY                   
CALI.MM       00 280 01 00         : CAL          - CALIPER                     
~PARAMETER INFORMATION       
#MNEM.UNIT           DATA             DESCRIPTION OF MNEMONIC
#---------         -----------     ------------------------------
GL  .M        719.4                : gl           - GROUND LEVEL ELEVATION      
EREF.M        725.4                : kb           - ELEVATION OF DEPTH REFERENCE
DATM.M        725.4                : datum        - DATUM ELEVATION             
TDD .M        1835                 : tdd          - TOTAL DEPTH DRILLER         
RUN .         ONE                  : Run          - RUN NUMBER                  
ENG .         LOEWEN               : Engineer     - RECORDING ENGINEER          
WIT .         HALAS                : Witness      - WITNESSED BY                
MUD .         GEL                  : Mud_type     - MUD TYPE                    
MATR.         SANDSTONE            : Logunit      - NEUTRON MATRIX              
TMAX.C        52.7                 : BHT          - MAXIMUM RECORDED TEMPERATURE
BHTD.M        1835                 : BHTDEP       - MAXIMUM RECORDED TEMPERATURE
RMT .C        22.2222              : MDTP         - TEMPERATURE OF MUD          
MUDD.KG/M     1130                 : MWT          - MUD DENSITY                 
NEUT.         1                    : NEUTRON      - NEUTRON TYPE                
RESI.         0                    : RESIST       - RESISTIVITY TYPE            
RM  .OHMM     1.1                  : RM           - RESISTIVITY OF MUD          
RMC .OHMM     1.27                 : RMC          - RESISTIVITY OF MUD CAKE     
RMF .OHMM     1.1                  : RMF          - RESISTIVITY OF MUD FILTRATE 
SUFT.C        10                   : SUFT         - SURFACE TEMPERATURE         
~A  DEPTH     RESD     DELT       GR      CAL
  610.000    3.308  164.509   72.017  248.726
  610.250    3.279  149.613   70.257  248.787
  610.500    3.250  165.675   71.485  252.865
  610.750    3.222  178.923   73.311  250.909
  611.000    3.135  185.134   73.340  244.420
  611.250    3.079  171.645   67.996  232.406
  611.500    2.996  159.161   65.942  225.421
  611.750    2.997  149.692   66.867  225.476
  612.000    2.944  151.683   70.497  225.538
  612.250    2.918  153.271   70.227  225.593
  612.500    2.892  155.062   64.879  225.648
  612.750    2.841  157.856   59.232  225.709
  613.000    2.764  157.635   57.771  226.253
  613.250    2.690  156.807   65.576  226.336
  613.500    2.617  156.588   65.314  226.873
  613.750    2.524  156.566   62.360  226.934
  614.000    2.456  158.157   61.497  226.989
  614.250    2.434  158.137   61.833  227.037
  614.500    2.413  156.509   62.459  227.099
  614.750    2.459  156.286   63.994  227.147
  615.000    2.483  158.077   64.317  227.209
  615.250    2.484  161.474   62.259  227.270
  615.500    2.485  162.658   61.695  227.318
  615.750    2.463  160.832   63.222  227.876
  616.000    2.396  159.402   62.657  227.931
  616.250    2.354  158.978   58.512  227.986
  616.500    2.290  160.368   58.541  228.041
  616.750    2.291  160.750   57.085  228.095
  617.000    2.292  161.735   56.520  228.667
  617.250    2.293  151.867   56.255  228.722
  617.500    2.294  141.996   55.387  229.266
  617.750    2.295  146.197   53.632  229.334
  618.000    2.382  159.646   53.068  229.382
  618.250    2.496  159.626   52.798  229.437
  618.500    2.615  155.182   52.835  229.492
  618.750    2.765  152.951   55.557  229.554
  619.000    2.897  147.906   63.058  229.608
  619.250    2.979  140.246   63.096  230.173
  619.500    3.064  138.820   63.423  230.228
  619.750    3.122  138.398   62.863  230.276
  620.000    3.153  138.576   60.805  230.338
  620.250    3.154  139.966   60.535  230.392
  620.500    3.155  146.177   61.477  230.440
  620.750    3.099  150.378   62.099  230.495
  621.000    3.044  152.971   60.041  230.557
  621.250    2.962  152.348   57.385  230.619
  621.500    2.855  150.519   54.730  230.667
  621.750    2.753  147.686   54.165  230.219
  622.000    2.630  144.648   54.198  229.771
  622.250    2.631  137.192   53.339  229.330
  622.500    2.681  125.713   42.614  228.875
  622.750    2.732  122.475   37.269  228.936
  623.000    2.784  121.850   37.307  228.495
  623.250    2.786  121.835   36.738  228.550
  623.500    2.736  121.611   33.485  228.088
  623.750    2.662  121.190   33.219  227.654
  624.000    2.567  120.567   34.750  227.206
  624.250    2.429  120.346   36.874  227.261
  624.500    2.342  120.728   38.700  227.309
  624.750    2.279  120.306   39.629  227.371
  625.000    2.259  119.879   39.658  227.432
  625.250    2.302  119.865   38.197  227.487
  625.500    2.325  120.043   38.836  227.528
  625.750    2.369  120.626   38.571  228.086
  626.000    2.414  121.210   37.703  228.155
  626.250    2.437  121.391   37.741  228.196
  626.500    2.484  121.170   39.566  228.264
  626.750    2.508  120.145   42.284  228.319
  627.000    2.532  119.321   47.105  228.367
  627.250    2.557  119.301   42.657  228.415
  627.500    2.605  119.684   39.694  228.484
  627.750    2.680  121.071   37.935  228.532
  628.000    2.731  123.865   39.764  229.599
  628.250    2.783  128.468   41.590  230.660
  628.500    2.836  135.483   46.702  233.725
  628.750    2.917  143.304   57.493  241.322
  629.000    2.945  156.351   61.709  252.949
  629.250    3.029  164.974   65.331  260.546
  629.500    3.144  174.803   68.351  261.104
  629.750    3.263  171.567   69.886  252.108
  630.000    3.419  165.919   67.824  235.569
  630.250    3.549  160.269   67.256  233.613
  630.500    3.718  154.622   66.397  233.674
  630.750    3.932  145.354   66.434  232.717
  631.000    4.006  143.322   67.355  228.749
  631.250    3.971  143.304   67.388  227.302
  631.500    3.724  143.485   59.654  227.350
  631.750    3.493  146.279   53.114  227.412
  632.000    3.276  151.887   51.654  227.460
  632.250    3.044  158.098   48.106  228.038
  632.500    2.854  160.086   46.944  229.085
  632.750    2.628  161.275   48.168  229.649
  633.000    2.488  162.461   51.487  230.200
  633.250    2.421  162.642   56.902  233.788
  633.500    2.444  159.607   60.221  238.362
  633.750    2.561  153.155   63.242  242.440
  634.000    2.809  147.706   66.262  248.032
  634.250    2.943  165.577   71.083  252.613
  634.500    2.944  206.768   74.398  259.701
  634.750    2.813  217.602   78.618  262.786
  635.000    2.234  207.128   81.937  261.828
  635.250    2.076  190.424   79.576  248.300
  635.500    2.175  176.131   73.933  236.287
  635.750    2.321  162.441   64.415  237.354
  636.000    2.409  158.198   62.348  237.409
  636.250    2.478  159.386   62.979  238.469
  636.500    2.525  161.577   64.804  241.541
  636.750    2.526  160.754   66.032  246.122
  637.000    2.436  161.337   63.978  252.713
  637.250    2.064  166.744   62.526  260.311
  637.500    1.508  205.520   62.555  267.915
  637.750    1.376  259.176   67.364  274.514
  638.000    1.232  306.997   71.878  276.070
  638.250    1.135  323.059   73.703  271.103
  638.500    1.054  322.233   69.554  272.157
  638.750    1.045  314.779   65.704  272.722
  639.000    1.105  307.923   65.139  271.268
  639.250    1.168  302.878   65.172  268.816
  639.500    1.247  295.821   66.703  264.848
  639.750    1.406  282.332   64.350  259.364
  640.000    1.756  195.672   64.682  253.385
  640.250    2.274  173.538   66.504  252.937
  640.500    2.589  169.096   68.034  260.535
  640.750    2.948  160.029   65.674  266.624
  641.000    3.145  154.583   63.018  266.678
  641.250    3.147  148.933   60.661  271.762
  641.500    3.177  147.506   59.798  280.372
  641.750    3.179  150.300   64.013  284.449
  642.000    3.180  150.077   68.532  285.014
  642.250    3.152  150.459   72.452  285.062
  642.500    3.124  151.846   75.477  285.117
  642.750    3.097  153.637   76.398  285.674
  643.000    3.042  152.007   70.460  287.251
  643.250    2.826  147.568   68.402  289.318
  643.500    2.245  156.593   70.224  285.853
  643.750    1.267  160.794   70.257  283.386
  644.000    0.868  164.995   69.697  280.927
  644.250    0.709  168.995   69.734  276.470
  644.500    0.750  166.362   70.663  275.512
  644.750    0.869  160.916   71.289  272.550
  645.000    1.106  158.283   68.040  269.078
  645.250    1.542  159.667   68.069  259.083
  645.500    2.054  159.846   69.600  254.606
  645.750    2.517  159.625   70.227  243.598
  646.000    2.736  159.404   69.666  234.595
  646.250    2.737  159.789   67.309  234.657
  646.500    2.664  160.573   64.056  235.221
  646.750    2.498  160.955   63.189  235.779
  647.000    2.365  161.536   62.334  236.343
  647.250    2.259  161.315   61.766  236.887
  647.500    2.118  160.092   62.994  237.948
  647.750    2.042  156.248   65.118  239.015
  648.000    2.081  155.427   65.749  239.077
  648.250    2.121  154.400   58.612  239.125
  648.500    2.222  154.181   55.662  239.125
  648.750    2.285  153.154   58.678  239.241
  649.000    2.372  150.725   61.105  239.303
  649.250    2.508  146.080   61.437  239.344
  649.500    2.652  141.839   62.673  239.909
  649.750    2.804  142.221   61.802  239.957
  650.000    2.993  141.598   63.329  240.515
  650.250    3.165  139.767   65.154  241.086
  650.500    3.285  139.946   66.083  241.644
  650.750    3.286  141.330   62.830  241.196
  651.000    3.318  141.315   60.482  240.754
  651.250    3.350  140.891   59.312  240.754
  651.500    3.383  140.268   57.560  240.850
  651.750    3.415  140.048   57.585  240.402
  652.000    3.481  140.633   57.623  239.452
  652.250    3.613  143.427   61.240  239.010
  652.500    3.615  146.623   64.261  239.065
  652.750    3.650  148.814   65.489  238.611
  653.000    3.618  144.775   61.344  237.667
  653.250    3.586  140.130   60.178  237.225
