~VERSION INFORMATION
 VERS.                 2.0:   CWLS LOG ASCII STANDARD -VERSION 2.0
 WRAP.                  NO:   ONE LINE PER DEPTH STEP
~WELL INFORMATION BLOCK
#MNEM.UNIT           DATA                    DESCRIPTION OF MNEMONIC
#---------    -------------------            -------------------------------
# Generated from Intellog Unique Number	CW_70_72/WELL/3010
NULL.         -999.25                        : NULL_VALUE
WELL.         GULF POC CALLS 6-25            : Well_name    - WELL              
LOC .         06-25-070-22W4                 : Location     - LOCATION          
UWI .         00/06-25-070-22W4/0            : Uwi          - UNIQUE WELL ID    
ENTR.         dgm                            : Entered      - ENTERED BY        
SRVC.         SCHLUMBERGER                   : Scn          - SERVICE COMPANY   
DATE.         18 DEC 1982                    : Date         - LOG DATE          
STRT.M        425                            : top_depth    - START DEPTH       
STOP.M        606                            : bot_depth    - STOP DEPTH        
STEP.M        0.25                           : increment    - STEP LENGTH       
~CURVE INFORMATION BLOCK
#MNEM UNIT       ERCB CURVE CODE    CURVE DESCRIPTION
#-----------   ------------------   ----------------------------------
DEPT.M        00 001 00 00         : DEPTH        - DEPTH                       
DPHI.V/V      00 890 00 00         : PHID         - DENSITY POROSITY (SANDSTONE)
NPHI.V/V      00 330 00 00         : PHIN         - NEUTRON POROSITY (SANDSTONE)
GR  .API      00 310 00 00         : GR           - GAMMA RAY                   
CALI.MM       00 280 01 00         : CAL          - CALIPER                     
ILD .OHMM     00 120 00 00         : RESD         - DEEP RESISTIVITY (DIL)      
~PARAMETER INFORMATION       
#MNEM.UNIT           DATA             DESCRIPTION OF MNEMONIC
#---------         -----------     ------------------------------
GL  .M        676.9                : gl           - GROUND LEVEL ELEVATION      
EREF.M        680.17               : kb           - ELEVATION OF DEPTH REFERENCE
DATM.M        680.17               : datum        - DATUM ELEVATION             
TDD .M        635                  : tdd          - TOTAL DEPTH DRILLER         
RUN .         ONE                  : Run          - RUN NUMBER                  
ENG .         WRIGHT               : Engineer     - RECORDING ENGINEER          
WIT .         KERESTES             : Witness      - WITNESSED BY                
BASE.         EDMONTON             : Branch       - HOME BASE OF LOGGING UNIT   
MUD .         GEL CHEM             : Mud_type     - MUD TYPE                    
MATR.         SANDSTONE            : Logunit      - NEUTRON MATRIX              
TMAX.C        23.3                 : BHT          - MAXIMUM RECORDED TEMPERATURE
BHTD.M        635.3                : BHTDEP       - MAXIMUM RECORDED TEMPERATURE
RMT .C        23.3                 : MDTP         - TEMPERATURE OF MUD          
MUDD.KG/M     1140                 : MWT          - MUD DENSITY                 
NEUT.         1                    : NEUTRON      - NEUTRON TYPE                
RESI.         0                    : RESIST       - RESISTIVITY TYPE            
RM  .OHMM     3.422                : RM           - RESISTIVITY OF MUD          
RMC .OHMM     2.675                : RMC          - RESISTIVITY OF MUD CAKE     
RMF .OHMM     3.173                : RMF          - RESISTIVITY OF MUD FILTRATE 
SUFT.C        5                    : SUFT         - SURFACE TEMPERATURE         
~A  DEPTH     PHID     PHIN       GR      CAL     RESD
# ...
  461.500    0.233    0.449   74.883  153.110    5.637
  461.750    0.265    0.463   66.463  152.380    5.608
  462.000    0.292    0.450   64.465  152.064    5.436
  462.250    0.306    0.407   68.389  151.541    5.181
  462.500    0.292    0.411   74.122  152.053    4.695
  462.750    0.273    0.425   78.108  153.704    4.207
  463.000    0.261    0.434   82.906  156.390    3.571
  463.250    0.253    0.448   89.012  159.283    3.391
  463.500    0.234    0.462   93.684  162.694    3.425
  463.750    0.227    0.481   98.357  166.001    3.624
  464.000    0.233    0.473  102.530  165.996    3.813
  464.250    0.231    0.408  103.213  159.883    3.894
  464.500    0.225    0.412  103.708  159.361    3.910
  464.750    0.231    0.417  111.061  160.080    3.840
  465.000    0.241    0.409  118.913  160.489    3.792
  465.250    0.201    0.428  123.586  160.898    3.737
  465.500    0.201    0.441  117.473  165.240    3.760
  465.750    0.224    0.445  101.821  167.823    4.001
  466.000    0.237    0.450   89.661  165.229    4.562
  466.250    0.237    0.461   81.428  160.048    5.143
  466.500    0.279    0.479   77.372  154.660    5.974
  466.750    0.253    0.432   74.127  148.443    6.736
  467.000    0.235    0.402   70.570  148.127    7.566
  467.250    0.211    0.372   70.006  148.640    8.756
  467.500    0.178    0.333   69.254  150.497    9.817
  467.750    0.159    0.311   68.004  153.391    9.896
  468.000    0.142    0.298   64.011  155.146    9.467
  468.250    0.140    0.290   62.511  156.797    8.547
  468.500    0.159    0.362   65.500  156.377    7.833
  468.750    0.260    0.386   68.551  153.888    6.825
  469.000    0.319    0.420   71.229  152.433    5.815
  469.250    0.332    0.462   74.218  151.703    4.845
  469.500    0.319    0.483   78.516  150.455    4.045
  469.750    0.301    0.471   81.319  149.829    3.625
  470.000    0.302    0.471   83.497  149.720    3.390
  470.250    0.310    0.463   84.803  145.678    3.348
  470.500    0.286    0.440   81.994  148.675    3.413
  470.750    0.262    0.429   87.165  150.429    3.525
  471.000    0.241    0.434   89.344  151.355    3.681
  471.250    0.242    0.455   85.351  151.454    3.809
  471.500    0.253    0.462   82.230  150.413    3.904
  471.750    0.252    0.447   82.975  149.683    4.009
  472.000    0.246    0.451   85.777  146.676    3.915
  472.250    0.244    0.457   92.694  147.809    3.752
  472.500    0.218    0.448   97.117  151.220    3.664
  472.750    0.223    0.432   95.804  154.424    3.578
  473.000    0.255    0.426   95.115  153.798    3.527
  473.250    0.247    0.430   95.237  152.136    3.608
  473.500    0.246    0.440   91.804  152.027    3.685
  473.750    0.246    0.434   91.739  150.366    3.770
  474.000    0.235    0.416   99.154  148.807    3.879
  474.250    0.227    0.408   96.657  147.250    3.984
  474.500    0.230    0.416   94.284  147.348    4.122
  474.750    0.230    0.430   94.344  147.860    4.249
  475.000    0.219    0.433   91.722  148.579    4.347
  475.250    0.220    0.435   89.038  150.334    4.374
  475.500    0.225    0.444   89.471  153.745    4.384
  475.750    0.224    0.447   91.712  153.325    4.386
  476.000    0.217    0.428   94.763  150.939    4.364
  476.250    0.205    0.416   95.134  152.487    4.317
  476.500    0.196    0.429   91.265  155.070    4.263
  476.750    0.196    0.464   94.878  156.617    4.257
  477.000    0.200    0.454   94.500  156.197    4.267
  477.250    0.211    0.412   90.258  154.328    4.285
  477.500    0.196    0.432  102.411  153.185    4.319
  477.750    0.184    0.450  108.642  155.768    4.403
  478.000    0.189    0.470   96.170  159.696    4.396
  478.250    0.216    0.476   79.210  162.072    4.269
  478.500    0.269    0.446   56.077  157.201    4.054
  478.750    0.314    0.419   44.664  153.883    3.885
  479.000    0.326    0.425   44.225  153.256    3.675
  479.250    0.320    0.428   48.211  152.630    3.549
  479.500    0.312    0.412   49.081  152.211    3.504
  479.750    0.307    0.405   48.703  151.997    3.526
  480.000    0.299    0.401   49.573  151.682    3.581
  480.250    0.290    0.395   54.432  151.160    3.657
  480.500    0.274    0.386   60.476  150.948    3.812
  480.750    0.250    0.387   67.829  150.217    4.109
  481.000    0.258    0.387   65.208  149.694    4.104
  481.250    0.259    0.375   61.401  149.482    3.955
  481.500    0.237    0.370   67.133  149.788    3.855
  481.750    0.231    0.406   90.073  152.785    3.736
  482.000    0.243    0.453   82.525  154.850    3.614
  482.250    0.261    0.430   75.415  152.049    3.609
  482.500    0.287    0.398   72.419  151.112    3.693
  482.750    0.273    0.382   79.835  154.005    3.944
  483.000    0.235    0.384   91.864  156.795    4.244
  483.250    0.223    0.437   96.661  158.964    4.601
  483.500    0.327    0.469   76.520  159.580    4.851
  483.750    0.366    0.549   69.161  154.192    4.853
  484.000    0.478    0.633   52.699  152.944    4.703
  484.250    0.384    0.555   55.750  154.181    4.433
  484.500    0.257    0.433   55.310  153.244    3.965
  484.750    0.275    0.373   49.945  152.721    3.507
  485.000    0.289    0.375   44.394  152.612    3.232
  485.250    0.305    0.381   47.694  152.504    2.956
  485.500    0.315    0.397   52.117  151.566    2.745
  485.750    0.320    0.395   49.745  150.112    2.582
  486.000    0.323    0.380   45.128  150.106    2.489
  486.250    0.333    0.363   45.998  149.170    2.453
  486.500    0.330    0.365   47.864  147.508    2.440
  486.750    0.331    0.388   45.056  146.157    2.423
  487.000    0.339    0.398   45.426  148.533    2.411
  487.250    0.336    0.403   45.984  150.701    2.394
  487.500    0.327    0.409   42.676  150.799    2.373
  487.750    0.319    0.414   41.052  149.551    2.322
  488.000    0.316    0.402   41.485  148.615    2.293
  488.250    0.323    0.386   43.415  148.920    2.243
  488.500    0.334    0.385   46.903  150.571    2.227
  488.750    0.343    0.405   55.066  149.841    2.245
  489.000    0.337    0.424   55.998  150.043    2.305
  489.250    0.323    0.427   53.501  150.142    2.453
  489.500    0.326    0.409   57.176  150.032    2.694
  489.750    0.313    0.388   66.399  150.026    3.061
  490.000    0.302    0.391   70.823  150.954    3.477
  490.250    0.284    0.424   76.305  152.086    3.692
  490.500    0.242    0.450   71.689  151.771    3.599
  490.750    0.197    0.436   62.832  150.938    3.274
  491.000    0.238    0.484   53.041  150.829    2.934
  491.250    0.306    0.510   52.601  151.858    2.688
  491.500    0.343    0.413   59.269  152.164    2.519
  491.750    0.341    0.401   63.442  152.469    2.383
  492.000    0.336    0.388   62.255  152.360    2.306
  492.250    0.322    0.390   53.211  152.355    2.264
  492.500    0.311    0.405   53.894  153.074    2.228
  492.750    0.320    0.415   55.511  152.551    2.191
  493.000    0.322    0.419   53.077  152.754    2.188
  493.250    0.319    0.412   51.639  152.541    2.194
  493.500    0.322    0.412   53.568  152.329    2.211
  493.750    0.322    0.420   55.373  152.013    2.220
  494.000    0.324    0.409   54.372  153.146    2.197
  494.250    0.326    0.403   52.935  153.969    2.210
  494.500    0.329    0.404   49.440  153.964    2.228
  494.750    0.333    0.417   47.629  153.234    2.258
  495.000    0.340    0.413   48.499  151.987    2.276
  495.250    0.339    0.404   52.236  149.911    2.299
  495.500    0.324    0.399   57.345  148.870    2.313
  495.750    0.311    0.411   58.837  148.658    2.335
  496.000    0.313    0.395   56.091  147.410    2.345
  496.250    0.317    0.390   52.908  147.199    2.355
  496.500    0.321    0.408   54.775  146.261    2.396
  496.750    0.323    0.407   58.824  146.774    2.420
  497.000    0.325    0.421   60.815  147.700    2.389
  497.250    0.331    0.406   55.637  149.869    2.333
  497.500    0.335    0.398   54.263  151.106    2.266
  497.750    0.343    0.428   54.883  151.618    2.237
