~VERSION INFORMATION
 VERS.                 2.0:   CWLS LOG ASCII STANDARD -VERSION 2.0
 WRAP.                  NO:   ONE LINE PER DEPTH STEP
~WELL INFORMATION BLOCK
#MNEM.UNIT           DATA                    DESCRIPTION OF MNEMONIC
#---------    -------------------            -------------------------------
# Generated from Intellog Unique Number	CW_79_81/WELL/2444
WELL.         04-12-081-23W4                 : Well_name    - WELL
LOC .         00/04-12-081-23W4/0            : Location     - LOCATION
UWI .         00/04-12-081-23W4/0            : Uwi          - UNIQUE WELL ID
ENTR.         MAX                            : Entered      - ENTERED BY
SRVC.         SCHLUMBERGER                   : Scn          - SERVICE COMPANY
STRT.M        240                            : top_depth    - START DEPTH
STOP.M        454.75                         : bot_depth    - STOP DEPTH
STEP.M        0.25                           : increment    - STEP LENGTH
 NULL. -999.2500:NULL Value
~CURVE INFORMATION BLOCK
#MNEM UNIT       ERCB CURVE CODE    CURVE DESCRIPTION
#-----------   ------------------   ----------------------------------
DEPT.M        00 001 00 00         : DEPTH        - DEPTH
ILD .OHMM     00 120 00 00         : RESD         - DEEP RESISTIVITY (DIL)
NPHI.V/V      00 330 00 00         : PHIN         - NEUTRON POROSITY (SANDSTONE)
DPHI.V/V      00 890 00 00         : PHID         - DENSITY POROSITY (SANDSTONE)
GR  .API      00 310 00 00         : GR           - GAMMA RAY
CALI.MM       00 280 01 00         : CAL          - CALIPER
~PARAMETER INFORMATION
#MNEM.UNIT           DATA             DESCRIPTION OF MNEMONIC
#---------         -----------     ------------------------------
GL  .M        601                  : gl           - GROUND LEVEL ELEVATION
EREF.M        604.6                : kb           - ELEVATION OF DEPTH REFERENCE
DATM.M        601                  : datum        - DATUM ELEVATION
TDD .M        459.2                : tdd          - TOTAL DEPTH DRILLER
RUN .         ONE                  : Run          - RUN NUMBER
ENG .         BILL                 : Engineer     - RECORDING ENGINEER
WIT .         JIM                  : Witness      - WITNESSED BY
MUD .         GEL                  : Mud_type     - MUD TYPE
MATR.         SANDSTONE            : Logunit      - NEUTRON MATRIX
TMAX.C        24                   : BHT          - MAXIMUM RECORDED TEMPERATURE
BHTD.M        459.2                : BHTDEP       - MAXIMUM RECORDED TEMPERATURE
MATR.         1                    : LOGUNIT      - NEUTRON MATRIX
RMT .C        21                   : MDTP         - TEMPERATURE OF MUD
NEUT.         1                    : NEUTRON      - NEUTRON TYPE
RESI.         0                    : RESIST       - RESISTIVITY TYPE
RMC .OHMM     5.18                 : RMC          - RESISTIVITY OF MUD CAKE
RMF .OHMM     5.48                 : RMF          - RESISTIVITY OF MUD FILTRATE
SUFT.C        -10                  : SUFT         - SURFACE TEMPERATURE
~A  DEPTH     RESD     PHIN     PHID       GR      CAL
# ...
  313.000   10.274    0.428    0.354   57.804  238.362
  313.250   10.592    0.440    0.351   57.889  240.115
  313.500   11.017    0.481    0.350   56.935  242.656
  313.750   11.106    0.478    0.352   57.686  243.512
  314.000   11.197    0.455    0.352   57.543  244.075
  314.250   11.207    0.432    0.351   56.988  244.337
  314.500   11.094    0.421    0.349   56.612  244.395
  314.750   10.730    0.423    0.346   57.229  244.468
  315.000   10.109    0.409    0.342   57.764  244.548
  315.250    9.187    0.401    0.339   59.706  244.599
  315.500    8.742    0.432    0.341   60.749  244.659
  315.750    8.561    0.464    0.345   60.904  244.525
  316.000    8.538    0.486    0.350   60.470  244.193
  316.250    8.621    0.508    0.351   59.891  243.710
  316.500    8.695    0.497    0.347   59.181  242.951
  316.750    8.640    0.471    0.338   58.748  241.042
  317.000    8.397    0.460    0.332   59.206  241.494
  317.250    8.132    0.467    0.333   60.430  242.937
  317.500    7.948    0.484    0.339   62.067  243.990
  317.750    7.910    0.494    0.342   63.343  243.357
  318.000    7.979    0.505    0.347   62.385  243.829
  318.250    7.868    0.495    0.349   60.764  245.885
  318.500    7.760    0.459    0.347   60.029  246.735
  318.750    7.682    0.440    0.343   60.067  246.792
  319.000    7.716    0.451    0.340   60.523  246.359
  319.250    8.073    0.477    0.332   60.902  245.473
  319.500    8.397    0.480    0.318   61.437  244.715
  319.750    8.466    0.485    0.314   61.712  244.396
  320.000    8.489    0.487    0.313   61.632  243.765
  320.250    8.590    0.478    0.310   61.312  243.232
  320.500    8.790    0.459    0.304   61.229  242.700
  320.750    8.982    0.438    0.303   62.423  241.582
  321.000    8.919    0.427    0.300   63.453  241.642
  321.250    8.605    0.450    0.301   63.728  241.310
  321.500    8.349    0.451    0.306   64.001  237.712
  321.750    8.023    0.454    0.307   65.703  237.380
  322.000    7.555    0.467    0.299   68.535  240.906
  322.250    6.790    0.488    0.285   70.580  243.040
  322.500    6.160    0.493    0.273   71.111  243.526
  322.750    5.855    0.492    0.262   71.153  243.979
  323.000    5.725    0.485    0.256   71.011  247.708
  323.250    5.812    0.485    0.256   70.808  251.137
  323.500    6.003    0.491    0.255   71.200  253.174
  323.750    5.938    0.490    0.245   73.536  255.719
  324.000    5.809    0.478    0.251   74.314  258.260
  324.250    5.771    0.489    0.247   72.215  258.330
  324.500    5.861    0.488    0.244   68.687  255.427
  324.750    6.018    0.481    0.240   66.588  251.135
  325.000    6.180    0.475    0.236   67.103  246.940
  325.250    6.288    0.480    0.238   69.313  243.986
  325.500    6.345    0.490    0.244   67.126  242.815
  325.750    6.827    0.489    0.234   62.414  242.885
  326.000    7.622    0.441    0.194   53.419  242.946
  326.250    8.727    0.361    0.180   44.902  243.399
  326.500   10.046    0.294    0.204   43.752  244.449
  326.750   11.173    0.332    0.236   60.239  246.283
  327.000   10.847    0.418    0.234   66.465  247.181
  327.250    9.352    0.437    0.235   70.782  248.030
  327.500    8.457    0.459    0.238   71.710  248.582
  327.750    7.993    0.469    0.240   71.627  249.234
  328.000    7.813    0.466    0.240   71.726  250.088
  328.250    7.764    0.470    0.241   72.063  250.968
  328.500    7.771    0.480    0.240   72.351  251.028
  328.750    7.778    0.489    0.235   72.626  251.488
  329.000    7.784    0.502    0.236   72.897  252.244
  329.250    7.792    0.514    0.243   73.172  252.704
  329.500    7.814    0.512    0.252   73.215  252.174
  329.750    7.903    0.480    0.247   72.442  249.627
  330.000    8.031    0.467    0.232   71.987  248.450
  330.250    8.097    0.455    0.242   73.691  248.916
  330.500    8.119    0.457    0.249   73.606  248.180
  330.750    8.126    0.461    0.251   72.691  247.248
  331.000    8.133    0.460    0.250   72.135  246.518
  331.250    8.142    0.458    0.256   73.370  246.127
  331.500    8.150    0.473    0.262   73.414  247.843
  331.750    8.160    0.473    0.268   72.494  249.497
  332.000    8.165    0.452    0.271   72.121  250.250
  332.250    8.201    0.433    0.273   72.040  250.308
  332.500    8.253    0.426    0.271   72.013  249.874
  332.750    8.261    0.433    0.265   71.773  249.000
  333.000    8.269    0.447    0.265   71.570  248.242
  333.250    8.337    0.465    0.265   71.371  247.904
  333.500    8.406    0.481    0.265   71.166  247.862
  333.750    8.506    0.469    0.270   70.250  247.923
  334.000    8.639    0.438    0.278   68.804  248.186
  334.250    8.763    0.439    0.285   68.642  249.226
  334.500    8.704    0.466    0.284   72.394  250.118
  334.750    8.459    0.473    0.278   74.566  250.571
  335.000    8.129    0.472    0.272   75.138  251.029
  335.250    7.758    0.458    0.265   74.582  251.288
  335.500    7.406    0.440    0.260   73.197  251.248
  335.750    7.114    0.448    0.268   70.319  250.682
  336.000    6.959    0.460    0.288   66.388  249.511
  336.250    7.329    0.464    0.304   60.254  247.595
  336.500    8.094    0.473    0.296   58.922  245.972
  336.750    9.019    0.478    0.289   58.720  244.845
  337.000    9.748    0.470    0.293   58.346  244.021
  337.250    9.871    0.443    0.310   59.064  242.756
  337.500    9.730    0.450    0.314   60.090  241.984
  337.750    9.598    0.449    0.310   62.741  241.652
  338.000    9.467    0.456    0.310   62.539  241.325
  338.250    9.336    0.455    0.309   61.033  240.989
  338.500    9.173    0.440    0.308   60.005  240.646
  338.750    8.877    0.419    0.309   61.127  240.240
  339.000    8.685    0.434    0.314   59.439  239.900
  339.250    9.081    0.451    0.291   57.807  239.958
  339.500    9.854    0.434    0.192   56.715  240.020
  339.750   11.033    0.367    0.113   56.753  241.074
  340.000   12.298    0.290    0.116   58.513  243.219
  340.250   12.305    0.321    0.236   63.686  245.846
  340.500   11.080    0.406    0.263   69.170  246.717
  340.750    9.337    0.431    0.266   73.013  246.391
  341.000    8.598    0.452    0.268   72.758  245.759
  341.250    8.239    0.453    0.267   71.015  244.437
  341.500    8.054    0.434    0.266   68.851  242.723
  341.750    8.015    0.422    0.272   66.148  241.604
  342.000    8.085    0.436    0.282   67.920  241.664
  342.250    8.033    0.448    0.294   66.300  241.728
  342.500    8.025    0.447    0.294   66.989  242.094
  342.750    7.973    0.440    0.281   68.451  241.567
  343.000    7.879    0.438    0.262   69.320  239.947
  343.250    7.829    0.459    0.256   68.516  238.036
  343.500    7.837    0.470    0.267   69.055  238.096
  343.750    7.729    0.457    0.268   69.327  239.348
  344.000    7.665    0.449    0.266   69.777  240.604
  344.250    7.531    0.453    0.263   70.055  241.262
  344.500    7.250    0.467    0.262   70.038  241.220
  344.750    6.646    0.477    0.264   69.888  240.813
  345.000    5.986    0.470    0.269   70.171  240.467
  345.250    5.732    0.468    0.271   71.872  241.322
  345.500    5.676    0.492    0.271   72.151  243.366
  345.750    5.784    0.495    0.272   71.593  244.620
  346.000    5.941    0.472    0.273   71.210  244.587
  346.250    5.857    0.456    0.269   72.395  244.670
  346.500    5.644    0.440    0.272   72.192  246.812
  346.750    5.485    0.457    0.273   71.284  246.467
  347.000    5.451    0.464    0.271   70.545  244.949
  347.250    5.555    0.462    0.270   70.103  243.627
  347.500    5.788    0.452    0.270   69.902  242.992
  347.750    6.156    0.444    0.273   69.862  242.586
  348.000    6.452    0.433    0.269   70.640  242.246
  348.250    6.504    0.427    0.268   71.153  245.873
  348.500    6.451    0.429    0.271   70.776  246.229
  348.750    6.410    0.451    0.272   71.052  246.290
  349.000    6.426    0.479    0.270   71.922  246.847
  349.250    6.480    0.471    0.270   71.582  245.945
