~VERSION INFORMATION
 VERS.                 2.0:   CWLS LOG ASCII STANDARD -VERSION 2.0
 WRAP.                  NO:   ONE LINE PER DEPTH STEP
~WELL INFORMATION BLOCK
#MNEM.UNIT           DATA                    DESCRIPTION OF MNEMONIC
#---------    -------------------            -------------------------------
# Generated from Intellog Unique Number	CN_94_101/WELL/3278
WELL.         CDC OIL & GAS LTD.             : Well_name    - WELL
LOC .         00/03-14-095-07W4/0            : Location     - LOCATION
UWI .         00/03-14-095-07W400            : Uwi          - UNIQUE WELL ID
ENTR.         JOETTE                         : Entered      - ENTERED BY
SRVC.         SCHLUMBERGER                   : Scn          - SERVICE COMPANY
DATE.         07/22/92                       : Date         - LOG DATE
STRT.M        50                             : top_depth    - START DEPTH
STOP.M        286                            : bot_depth    - STOP DEPTH
STEP.M        0.25                           : increment    - STEP LENGTH
 NULL. -999.2500:NULL Value
~CURVE INFORMATION BLOCK
#MNEM UNIT       ERCB CURVE CODE    CURVE DESCRIPTION
#-----------   ------------------   ----------------------------------
DEPT.M        00 001 00 00         : DEPTH        - DEPTH
GR  .API      00 310 00 00         : GR           - GAMMA RAY
ILD .OHMM     00 120 00 00         : RESD         - DEEP RESISTIVITY (DIL)
NPHI.V/V      00 330 00 00         : PHIN         - NEUTRON POROSITY (SANDSTONE)
DPHI.V/V      00 890 00 00         : PHID         - DENSITY POROSITY (SANDSTONE)
~PARAMETER INFORMATION
#MNEM.UNIT           DATA             DESCRIPTION OF MNEMONIC
#---------         -----------     ------------------------------
GL  .M        505.28               : gl           - GROUND LEVEL ELEVATION
EREF.M        506.66               : kb           - ELEVATION OF DEPTH REFERENCE
DATM.M        506.66               : datum        - DATUM ELEVATION
TDD .M        404                  : tdd          - TOTAL DEPTH DRILLER
RUN .         ONE                  : Run          - RUN NUMBER
ENG .         JO                   : Engineer     - RECORDING ENGINEER
WIT .         TIM                  : Witness      - WITNESSED BY
MUD .         GEL                  : Mud_type     - MUD TYPE
MATR.         SANDSTONE            : Logunit      - NEUTRON MATRIX
TMAX.C        21                   : BHT          - MAXIMUM RECORDED TEMPERATURE
BHTD.M        404                  : BHTDEP       - MAXIMUM RECORDED TEMPERATURE
RMT .C        15                   : MDTP         - TEMPERATURE OF MUD
MUDD.KG/M     1030                 : MWT          - MUD DENSITY
NEUT.         1                    : NEUTRON      - NEUTRON TYPE
RESI.         0                    : RESIST       - RESISTIVITY TYPE
RM  .OHMM     0.33                 : RM           - RESISTIVITY OF MUD
RMC .OHMM     0.58                 : RMC          - RESISTIVITY OF MUD CAKE
RMF .OHMM     0.32                 : RMF          - RESISTIVITY OF MUD FILTRATE
SUFT.C        4                    : SUFT         - SURFACE TEMPERATURE
~A  DEPTH       GR     RESD     PHIN     PHID
# ...
  224.000   54.135   14.717    0.483    0.259
  224.250   53.521   15.220    0.514    0.273
  224.500   50.538   14.690    0.510    0.285
  224.750   47.555   14.425    0.505    0.307
  225.000   46.349   15.713    0.505    0.302
  225.250   52.248   17.406    0.541    0.331
  225.500   56.365   16.230    0.522    0.301
  225.750   56.935   15.665    0.482    0.275
  226.000   52.773   15.382    0.455    0.235
  226.250   45.646   14.596    0.444    0.236
  226.500   40.295   12.703    0.419    0.209
  226.750   32.575   11.842    0.380    0.169
  227.000   31.363   13.821    0.376    0.130
  227.250   31.341   16.692    0.372    0.123
  227.500   31.324   19.816    0.362    0.133
  227.750   31.302   23.122    0.353    0.157
  228.000   31.280   25.619    0.356    0.216
  228.250   30.671   27.900    0.361    0.226
  228.500   30.046   29.865    0.365    0.238
  228.750   30.024   31.429    0.371    0.241
  229.000   30.007   34.211    0.374    0.243
  229.250   29.387   35.387    0.374    0.243
  229.500   29.370   38.529    0.372    0.244
  229.750   28.756   39.180    0.369    0.244
  230.000   27.550   41.929    0.367    0.247
  230.250   27.522   42.618    0.363    0.248
  230.500   28.103   42.578    0.358    0.248
  230.750   29.265   41.800    0.332    0.278
  231.000   30.422   41.066    0.316    0.279
  231.250   32.181   40.326    0.301    0.278
  231.500   35.125   37.602    0.293    0.274
  231.750   41.024   32.724    0.279    0.263
  232.000   48.108   27.992    0.269    0.231
  232.250   52.822   25.649    0.279    0.195
  232.500   51.616   24.332    0.287    0.157
  232.750   46.857   23.083    0.287    0.182
  233.000   41.506   24.286    0.291    0.209
  233.250   34.378   27.860    0.292    0.219
  233.500   27.250   33.081    0.291    0.241
  233.750   20.123   43.554    0.286    0.293
  234.000   17.135   58.340    0.277    0.305
  234.250   15.336   70.463    0.281    0.310
  234.500   14.727   85.104    0.292    0.298
  234.750   13.515  108.273    0.301    0.287
  235.000   13.493  124.146    0.305    0.287
  235.250   13.471  119.851    0.311    0.289
  235.500   14.046  113.699    0.319    0.289
  235.750   15.203  109.740    0.326    0.294
  236.000   16.963  107.761    0.333    0.299
  236.250   18.723  107.659    0.331    0.306
  236.500   22.253  102.133    0.331    0.314
  236.750   24.599   82.958    0.330    0.309
  237.000   26.354   57.694    0.328    0.297
  237.250   26.924   48.496    0.319    0.288
  237.500   26.901   44.436    0.303    0.286
  237.750   25.103   47.577    0.297    0.279
  238.000   17.975   56.493    0.289    0.279
  238.250   14.395   88.381    0.276    0.288
  238.500   13.183  103.126    0.281    0.290
  238.750   13.172  101.242    0.288    0.286
  239.000   13.736  101.146    0.288    0.281
  239.250   14.317  108.269    0.288    0.279
  239.500   14.887  115.920    0.289    0.274
  239.750   14.859  135.260    0.287    0.266
  240.000   14.843  149.867    0.287    0.258
  240.250   14.821  157.677    0.287    0.261
  240.500   14.798  154.870    0.290    0.269
  240.750   14.771  146.921    0.286    0.279
  241.000   14.754  157.192    0.285    0.285
  241.250   15.324  162.633    0.290    0.288
  241.500   15.888  168.182    0.305    0.290
  241.750   17.045  159.511    0.318    0.294
  242.000   17.028  153.993    0.335    0.301
  242.250   17.012  148.595    0.355    0.316
  242.500   16.984  167.546    0.362    0.331
  242.750   16.973  209.463    0.367    0.354
  243.000   17.537  202.169    0.372    0.322
  243.250   18.113  185.244    0.370    0.293
  243.500   18.683  194.898    0.371    0.296
  243.750   18.661  201.643    0.381    0.307
  244.000   18.638  197.960    0.382    0.314
  244.250   18.024  201.214    0.378    0.374
  244.500   17.393  219.182    0.374    0.389
  244.750   16.784  230.604    0.379    0.397
  245.000   16.768  147.125    0.380    0.313
  245.250   16.751  113.450    0.367    0.290
  245.500   16.729   92.151    0.347    0.258
  245.750   17.288   74.832    0.347    0.285
  246.000   17.869   65.125    0.321    0.291
  246.250   18.444   59.701    0.306    0.288
  246.500   19.606   45.260    0.290    0.291
  246.750   21.361   30.409    0.278    0.269
  247.000   25.483   23.857    0.288    0.273
  247.250   31.974   20.407    0.299    0.282
  247.500   37.281   17.154    0.311    0.276
  247.750   43.186   15.192    0.321    0.240
  248.000   50.269   13.451    0.343    0.213
  248.250   61.497   12.117    0.365    0.194
  248.500   78.647   11.693    0.376    0.200
  248.750   84.546   12.091    0.386    0.223
  249.000   80.971   12.943    0.391    0.236
  249.250   76.804   13.621    0.386    0.243
  249.500   74.419   14.576    0.379    0.227
  249.750   70.246   14.819    0.376    0.217
  250.000   67.855   15.329    0.374    0.197
  250.250   64.873   16.124    0.373    0.182
  250.500   61.890   17.255    0.372    0.165
  250.750   58.315   18.158    0.360    0.133
  251.000   55.332   19.780    0.316    0.108
  251.250   51.757   23.080    0.279    0.076
  251.500   47.590   27.399    0.270    0.090
  251.750   45.205   31.970    0.259    0.096
  252.000   42.217   35.423    0.241    0.061
  252.250   40.424   37.917    0.216    0.046
  252.500   37.441   40.587    0.191    0.029
  252.750   35.643   44.212    0.173    0.022
  253.000   33.252   48.137    0.158    0.012
  253.250   30.856   50.657    0.158    0.011
  253.500   29.649   53.285    0.158    0.018
  253.750   29.633   55.103    0.158    0.027
  254.000   29.611   54.122    0.158    0.032
  254.250   30.773   53.146    0.156    0.033
  254.500   31.929   53.096    0.155    0.030
  254.750   32.505   51.247    0.156    0.022
  255.000   34.259   45.364    0.163    0.016
  255.250   36.611   38.814    0.178    0.013
  255.500   40.141   33.779    0.197    0.016
  255.750   44.264   26.968    0.218    0.019
  256.000   46.610   23.470    0.245    0.029
  256.250   50.135   21.510    0.248    0.036
  256.500   51.303   23.833    0.241    0.054
  256.750   48.912   25.955    0.244    0.045
  257.000   52.443   21.449    0.253    0.049
  257.250   57.163   19.322    0.263    0.062
  257.500   60.682   19.303    0.267    0.080
  257.750   58.895   19.621    0.261    0.076
  258.000   55.309   24.110    0.248    0.068
  258.250   53.522   28.126    0.227    0.058
  258.500   49.349   31.713    0.220    0.049
  258.750   46.964   34.545    0.206    0.033
  259.000   42.791   40.308    0.181    0.025
  259.250   40.406   47.851    0.168    0.013
  259.500   37.423   44.619    0.194    0.009
  259.750   36.809   28.466    0.223    0.011
  260.000   41.524   21.206    0.246    0.014
  260.250   46.825   17.830    0.260    0.019
  260.500   49.177   16.341    0.270    0.022
  260.750   53.300   14.214    0.280    0.027
  261.000   57.428   13.257    0.287    0.035
  261.250   60.959   12.580    0.297    0.055
  261.500   64.489   11.730    0.326    0.088
  261.750   68.612   11.125    0.346    0.109
  262.000   72.734   11.115    0.335    0.126
  262.250   72.120   12.107    0.306    0.119
  262.500   67.953   14.623    0.288    0.110
  262.750   62.602   17.364    0.272    0.105
  263.000   56.659   20.972    0.237    0.087
  263.250   50.715   19.221    0.267    0.053
  263.500   52.469   15.345    0.277    0.042
  263.750   54.218   15.069    0.292    0.052
  264.000   54.196   14.797    0.305    0.064
  264.250   53.587   14.783    0.310    0.067
  264.500   51.783   14.513    0.311    0.068
  264.750   50.582   14.255    0.309    0.069
  265.000   49.974   14.238    0.303    0.066
  265.250   49.354   14.224    0.297    0.062
  265.500   48.734   14.211    0.292    0.066
  265.750   48.723   13.951    0.295    0.072
  266.000   49.287   13.700    0.297    0.068
  266.250   49.857   13.693    0.300    0.063
  266.500   50.427   13.440    0.305    0.063
  266.750   51.002   13.424    0.307    0.065
  267.000   51.572   13.414    0.315    0.066
  267.250   52.142   13.176    0.320    0.072
