~VERSION INFORMATION
 VERS.                 2.0:   CWLS LOG ASCII STANDARD -VERSION 2.0
 WRAP.                  NO:   ONE LINE PER DEPTH STEP
~WELL INFORMATION BLOCK
#MNEM.UNIT           DATA                    DESCRIPTION OF MNEMONIC
#---------    -------------------            -------------------------------
# Generated from Intellog Unique Number	CW_70_72/WELL/2899
NULL.         -999.25                        : NULL_VALUE
WELL.         MESA SULPETRO CALLS            : Well_name    - WELL              
LOC .         06-13-070-22W4                 : Location     - LOCATION          
UWI .         00/06-13-070-22W4/0            : Uwi          - UNIQUE WELL ID    
ENTR.         MAX                            : Entered      - ENTERED BY        
SRVC.         DRESSER ATLAS                  : Scn          - SERVICE COMPANY   
DATE.         24 FEB 79                      : Date         - LOG DATE
STRT.M        430                            : top_depth    - START DEPTH       
STOP.M        605                            : bot_depth    - STOP DEPTH        
STEP.M        0.25                           : increment    - STEP LENGTH       
~CURVE INFORMATION BLOCK
#MNEM UNIT       ERCB CURVE CODE    CURVE DESCRIPTION
#-----------   ------------------   ----------------------------------
DEPT.M        00 001 00 00         : DEPTH        - DEPTH                       
ILD .OHMM     00 120 00 00         : RESD         - DEEP RESISTIVITY (DIL)      
NPHI.V/V      00 330 00 00         : PHIN         - NEUTRON POROSITY (SANDSTONE)
DPHI.V/V      00 890 00 00         : PHID         - DENSITY POROSITY (SANDSTONE)
CALI.MM       00 280 01 00         : CAL          - CALIPER                     
GR  .API      00 310 00 00         : GR           - GAMMA RAY                   
~PARAMETER INFORMATION       
#MNEM.UNIT           DATA             DESCRIPTION OF MNEMONIC
#---------         -----------     ------------------------------
GL  .M        672.3                : gl           - GROUND LEVEL ELEVATION      
EREF.M        676.4                : kb           - ELEVATION OF DEPTH REFERENCE
DATM.M        672.3                : datum        - DATUM ELEVATION             
TDD .M        641                  : tdd          - TOTAL DEPTH DRILLER         
RUN .         ONE                  : Run          - RUN NUMBER                  
ENG .         BILL                 : Engineer     - RECORDING ENGINEER          
WIT .         JIM                  : Witness      - WITNESSED BY                
MUD .         GEL                  : Mud_type     - MUD TYPE                    
MATR.         SANDSTONE            : Logunit      - NEUTRON MATRIX              
TMAX.C        19                   : BHT          - MAXIMUM RECORDED TEMPERATURE
BHTD.M        641                  : BHTDEP       - MAXIMUM RECORDED TEMPERATURE
RMT .C        20                   : MDTP         - TEMPERATURE OF MUD          
MUDD.KG/M     1080                 : MWT          - MUD DENSITY                 
NEUT.         1                    : NEUTRON      - NEUTRON TYPE                
RESI.         0                    : RESIST       - RESISTIVITY TYPE            
RM  .OHMM     3                    : RM           - RESISTIVITY OF MUD          
RMC .OHMM     3.5                  : RMC          - RESISTIVITY OF MUD CAKE     
RMF .OHMM     1.8                  : RMF          - RESISTIVITY OF MUD FILTRATE 
SUFT.C        -20                  : SUFT         - SURFACE TEMPERATURE         
~A  DEPTH     RESD     PHIN     PHID      CAL       GR
# ...
  576.000   13.719    0.277    0.003  173.429   73.913
  576.250   14.241    0.261    0.004  172.947   69.762
  576.500   13.619    0.251    0.048  172.463   73.632
  576.750   11.464    0.262    0.082  172.478   80.769
  577.000   11.063    0.287    0.081  171.996   88.203
  577.250   10.581    0.314    0.053  171.514   89.401
  577.500   10.210    0.316    0.039  171.034   85.249
  577.750    9.243    0.313    0.075  170.550   78.426
  578.000    7.996    0.314    0.116  170.070   80.216
  578.250    8.004    0.328    0.101  170.083   83.194
  578.500    8.085    0.331    0.087  170.098   86.173
  578.750    8.018    0.330    0.076  170.605   86.480
  579.000    7.880    0.334    0.072  171.610   86.486
  579.250    7.815    0.333    0.080  172.118   86.792
  579.500    7.824    0.340    0.100  172.129   87.096
  579.750    7.973    0.340    0.096  172.146   87.401
  580.000    8.053    0.336    0.088  172.157   87.113
  580.250    7.844    0.330    0.093  172.169   86.824
  580.500    7.779    0.327    0.125  172.184   86.534
  580.750    7.857    0.323    0.148  172.199   86.542
  581.000    8.010    0.316    0.142  172.210   86.253
  581.250    8.017    0.310    0.115  171.730   84.777
  581.500    7.807    0.312    0.067  171.248   83.595
  581.750    7.603    0.309    0.097  170.766   85.982
  582.000    7.338    0.315    0.140  169.790   88.067
  582.250    7.081    0.323    0.146  169.802   94.017
  582.500    7.088    0.326    0.148  169.322   96.400
  582.750    7.159    0.323    0.146  169.322   98.490
  583.000    7.638    0.322    0.140  169.351   98.200
  583.250    8.148    0.323    0.117  169.858   96.723
  583.500    8.615    0.323    0.093  169.869   94.354
  583.750    9.189    0.317    0.080  169.881   89.311
  584.000    9.628    0.306    0.058  169.897   84.567
  584.250    9.377    0.301    0.012  170.404   83.386
  584.500    8.724    0.293    0.018  170.417   84.285
  584.750    8.420    0.305    0.099  170.927   89.938
  585.000    8.053    0.320    0.103  170.939   88.758
  585.250    7.985    0.317    0.090  170.953   83.123
  585.500    8.290    0.315    0.075  170.965   80.457
  585.750    7.783    0.319    0.018  170.981   81.058
  586.000    6.202    0.308    0.030  170.994   84.334
  586.250    5.220    0.301    0.082  171.008   93.254
  586.500    4.814    0.322    0.118  171.021  106.036
  586.750    4.732    0.345    0.151  170.539  104.855
  587.000    4.823    0.350    0.142  170.555   96.249
  587.250    5.144    0.335    0.113  170.565   90.909
  587.500    5.744    0.328    0.096  171.075   85.273
  587.750    6.837    0.317    0.123  172.080   84.094
  588.000    8.064    0.312    0.115  172.585   85.289
  588.250    8.219    0.315    0.069  172.598   87.377
  588.500    7.933    0.323    0.009  172.613   89.466
  588.750    7.517    0.331    0.014  173.121   91.255
  589.000    6.995    0.332    0.041  173.628   93.640
  589.250    6.749    0.337    0.075  174.633   96.620
  589.500    6.574    0.340    0.140  175.638   98.112
  589.750    7.142    0.341    0.140  177.135   98.121
  590.000    7.903    0.336    0.143  177.645   92.483
  590.250    8.744    0.319    0.147  175.181   83.877
  590.500   10.035    0.311    0.133  171.730   75.270
  590.750   11.207    0.293    0.060  170.258   73.496
  591.000   11.847    0.273    0.091  170.269   76.177
  591.250   11.644    0.277    0.130  170.284   77.967
  591.500   11.033    0.314    0.083  170.299   79.164
  591.750    9.807    0.319    0.031  170.310   81.550
  592.000    8.799    0.319    0.129  170.327   84.527
  592.250    7.895    0.324    0.131  170.832   91.071
  592.500    7.620    0.330    0.119  171.342   91.375
  592.750    7.561    0.339    0.106  171.356   91.978
  593.000    7.426    0.350    0.100  171.368   93.769
  593.250    6.909    0.355    0.104  171.878   94.963
  593.500    6.548    0.358    0.134  171.891   97.349
  593.750    6.378    0.354    0.130  171.904   99.733
  594.000    6.210    0.360    0.128  172.414   98.851
  594.250    6.104    0.363    0.129  173.416   97.374
  594.500    6.110    0.361    0.099  174.419   97.086
  594.750    6.115    0.358    0.000  174.929   97.388
  595.000    6.176    0.353    0.048  174.445   97.693
  595.250    6.181    0.351    0.105  173.468   95.922
  595.500    6.243    0.355    0.121  171.996   94.442
  595.750    6.365    0.358    0.125  171.019   92.965
  596.000    6.488    0.354    0.131  170.042   92.974
  596.250    6.613    0.351    0.144  170.057   95.358
  596.500    6.802    0.354    0.161  170.564   98.336
  596.750    7.125    0.349    0.167  171.569  104.582
  597.000    7.813    0.349    0.163  172.572  108.750
  597.250    8.489    0.348    0.132  172.587  107.866
  597.500    9.742    0.339    0.113  171.610   99.854
  597.750   11.078    0.299    0.068  169.642   90.653
  598.000   11.396    0.269    0.052  165.695   76.403
  598.250   11.098    0.267    0.103  164.223   78.192
  598.500   10.420    0.285    0.147  164.234   83.844
  598.750   10.057    0.289    0.153  164.249   86.525
  599.000   10.632    0.287    0.146  164.757   88.318
  599.250   11.239    0.279    0.139  164.772   90.404
  599.500   11.992    0.269    0.148  165.775   94.571
  599.750   13.148    0.256    0.180  166.779   97.847
  600.000   14.548    0.235    0.214  167.285   77.654
  600.250   22.970    0.220    0.261  167.794   68.751
  600.500   44.731    0.195    0.257  167.315   65.789
  600.750   66.266    0.188    0.123  164.851   64.310
  601.000   74.001    0.196    0.089  161.399   64.318
  601.250   73.394    0.203    0.083  160.918   72.051
  601.500   76.187    0.209    0.100  161.922   74.732
  601.750   82.784    0.212    0.114  164.412   77.710
  602.000   89.135    0.215    0.113  165.412   80.986
  602.250   94.240    0.215    0.111  164.932   83.667
  602.500   97.794    0.217    0.112  161.974   83.974
  602.750  104.342    0.221    0.118  160.009   81.903
  603.000  111.316    0.237    0.130  159.525   79.533
  603.250  119.857    0.265    0.146  160.037   78.949
  603.500  131.413    0.279    0.151  159.551   81.034
  603.750  142.776    0.286    0.157  160.063   84.311
  604.000  155.139    0.304    0.199  163.540   85.804
  604.250  161.025    0.337    0.127  164.048   85.516
  604.500  165.636    0.341    0.041  163.073   84.928
  604.750  165.819    0.342    0.041  162.096   84.047
  605.000  165.928    0.342    0.050  162.107   83.758
