~VERSION INFORMATION
 VERS.                 2.0:   CWLS LOG ASCII STANDARD -VERSION 2.0
 WRAP.                  NO:   ONE LINE PER DEPTH STEP
~WELL INFORMATION BLOCK
#MNEM.UNIT           DATA                    DESCRIPTION OF MNEMONIC
#---------    -------------------            -------------------------------
# Generated from Intellog Unique Number	CW_70_72/WELL/927
NULL.         -999.25                        : NULL_VALUE
WELL.         LANDBANK ET AL MITSUE 07-29    : Well_name    - WELL              
LOC .         07-29-071-02W5                 : Location     - LOCATION          
UWI .         00/07-29-071-02W5/0            : Uwi          - UNIQUE WELL ID    
ENTR.         JAYE                           : Entered      - ENTERED BY        
SRVC.         SCHLUMBERGER                   : Scn          - SERVICE COMPANY   
DATE.         25 FEB 83                      : Date         - LOG DATE          
STRT.M        400                            : top_depth    - START DEPTH       
STOP.M        630                            : bot_depth    - STOP DEPTH        
STEP.M        0.25                           : increment    - STEP LENGTH       
~CURVE INFORMATION BLOCK
#MNEM UNIT       ERCB CURVE CODE    CURVE DESCRIPTION
#-----------   ------------------   ----------------------------------
DEPT.M        00 001 00 00         : DEPTH        - DEPTH                       
DPHI.V/V      00 890 00 00         : PHID         - DENSITY POROSITY (SANDSTONE)
NPHI.V/V      00 330 00 00         : PHIN         - NEUTRON POROSITY (SANDSTONE)
GR  .API      00 310 00 00         : GR           - GAMMA RAY                   
CALI.MM       00 280 01 00         : CAL          - CALIPER                     
ILD .OHMM     00 120 00 00         : RESD         - DEEP RESISTIVITY (DIL)      
~PARAMETER INFORMATION       
#MNEM.UNIT           DATA             DESCRIPTION OF MNEMONIC
#---------         -----------     ------------------------------
GL  .M        592.56               : gl           - GROUND LEVEL ELEVATION      
EREF.M        596.21               : kb           - ELEVATION OF DEPTH REFERENCE
DATM.M        592.56               : datum        - DATUM ELEVATION             
TDD .M        649                  : tdd          - TOTAL DEPTH DRILLER         
RUN .         ONE                  : Run          - RUN NUMBER                  
ENG .         WRIGHT               : Engineer     - RECORDING ENGINEER          
WIT .         SMITH                : Witness      - WITNESSED BY                
BASE.         EDM                  : Branch       - HOME BASE OF LOGGING UNIT   
MUD .         GEL CHEM             : Mud_type     - MUD TYPE                    
MATR.         SANDSTONE            : Logunit      - NEUTRON MATRIX              
TMAX.C        35.6                 : BHT          - MAXIMUM RECORDED TEMPERATURE
BHTD.M        650                  : BHTDEP       - MAXIMUM RECORDED TEMPERATURE
RMT .C        15.6                 : MDTP         - TEMPERATURE OF MUD          
MUDD.KG/M     1200                 : MWT          - MUD DENSITY                 
NEUT.         1                    : NEUTRON      - NEUTRON TYPE                
RESI.         0                    : RESIST       - RESISTIVITY TYPE            
RM  .OHMM     6.49                 : RM           - RESISTIVITY OF MUD          
RMC .OHMM     0                    : RMC          - RESISTIVITY OF MUD CAKE     
RMF .OHMM     5.45                 : RMF          - RESISTIVITY OF MUD FILTRATE 
SUFT.C        0                    : SUFT         - SURFACE TEMPERATURE         
~A  DEPTH     PHID     PHIN       GR      CAL     RESD
# ...
  546.000    0.155    0.429   97.726  170.581    4.657
  546.250    0.162    0.446  100.497  170.679    4.554
  546.500    0.168    0.437   99.754  170.880    4.496
  546.750    0.166    0.425   95.499  170.874    4.505
  547.000    0.153    0.409   93.955  170.972    4.582
  547.250    0.162    0.398   94.877  170.864    4.685
  547.500    0.170    0.394   99.311  170.860    4.749
  547.750    0.172    0.393  105.101  170.649    4.730
  548.000    0.172    0.418  108.302  170.542    4.574
  548.250    0.170    0.431  106.759  170.434    4.334
  548.500    0.166    0.427   99.361  170.121    4.245
  548.750    0.160    0.407   93.503  169.910    4.175
  549.000    0.150    0.397   90.419  169.700    4.129
  549.250    0.147    0.414   96.147  169.182    4.105
  549.500    0.156    0.414   99.472  168.355    4.105
  549.750    0.168    0.392   94.847  167.220    4.098
  550.000    0.243    0.382   74.973  166.446    4.113
  550.250    0.300    0.366   69.977  163.482    4.944
  550.500    0.323    0.326   63.124  162.166    6.033
  550.750    0.319    0.328   66.479  161.260    6.743
  551.000    0.315    0.353   66.927  160.767    7.057
  551.250    0.317    0.361   64.404  160.276    7.182
  551.500    0.324    0.357   63.183  159.789    7.066
  551.750    0.319    0.354   63.877  159.399    6.902
  552.000    0.310    0.359   64.757  159.215    6.854
  552.250    0.301    0.362   63.596  158.827    7.001
  552.500    0.291    0.358   61.197  158.542    7.355
  552.750    0.275    0.339   57.563  158.254    7.742
  553.000    0.227    0.330   57.639  157.971    8.240
  553.250    0.206    0.342   58.519  158.096    8.512
  553.500    0.221    0.363   58.471  158.225    7.628
  553.750    0.244    0.378   60.900  158.969    6.950
  554.000    0.263    0.393   62.892  159.818    6.043
  554.250    0.265    0.401   63.092  160.049    5.043
  554.500    0.267    0.403   62.859  160.173    4.595
  554.750    0.272    0.406   62.811  160.303    4.380
  555.000    0.271    0.411   63.877  160.536    4.262
  555.250    0.263    0.411   64.695  160.555    4.257
  555.500    0.253    0.408   63.350  160.372    4.300
  555.750    0.242    0.410   61.755  160.400    4.302
  556.000    0.243    0.416   61.645  160.625    4.281
  556.250    0.264    0.422   62.465  160.656    4.299
  556.500    0.277    0.407   63.282  160.781    4.286
  556.750    0.267    0.401   64.225  160.907    4.257
  557.000    0.262    0.421   65.166  161.137    4.173
  557.250    0.265    0.425   66.047  161.366    4.114
  557.500    0.253    0.406   64.453  161.698    4.148
  557.750    0.243    0.384   63.477  161.927    4.244
  558.000    0.241    0.404   64.668  161.640    4.344
  558.250    0.237    0.419   65.175  161.459    4.420
  558.500    0.232    0.408   64.881  161.483    4.449
  558.750    0.231    0.402   64.339  161.820    4.468
  559.000    0.245    0.399   63.735  162.151    4.496
  559.250    0.256    0.394   62.697  162.482    4.465
  559.500    0.258    0.388   63.392  162.714    4.402
  559.750    0.253    0.381   63.282  163.354    4.356
  560.000    0.247    0.364   61.441  164.721    4.358
  560.250    0.242    0.361   63.187  165.566    4.410
  560.500    0.235    0.362   62.273  166.106    4.446
  560.750    0.231    0.388   63.217  166.440    4.508
  561.000    0.235    0.420   66.695  166.465    4.545
  561.250    0.245    0.435   68.873  166.697    4.574
  561.500    0.250    0.410   64.496  166.720    4.585
  561.750    0.247    0.396   66.117  166.740    4.580
  562.000    0.241    0.407   68.361  166.867    4.565
  562.250    0.243    0.416   68.684  167.105    4.551
  562.500    0.236    0.409   68.760  166.818    4.554
  562.750    0.242    0.398   69.516  166.840    4.566
  563.000    0.234    0.379   70.458  166.553    4.595
  563.250    0.222    0.384   71.092  166.164    4.650
  563.500    0.227    0.373   70.424  165.569    4.749
  563.750    0.219    0.359   68.274  163.838    4.869
  564.000    0.202    0.363   67.236  166.234    5.011
  564.250    0.197    0.367   65.643  167.495    5.129
  564.500    0.195    0.370   63.864  167.728    5.161
  564.750    0.195    0.366   64.248  167.954    5.184
  565.000    0.193    0.367   68.963  168.188    5.216
  565.250    0.187    0.367   72.813  168.001    5.358
  565.500    0.165    0.341   68.373  167.716    5.833
  565.750    0.148    0.305   62.265  167.331    6.729
  566.000    0.101    0.268   56.092  166.835    7.436
  566.250    0.065    0.229   48.993  166.344    8.232
  566.500    0.038    0.208   49.193  166.062    9.046
  566.750    0.054    0.232   56.259  165.776    9.188
  567.000    0.090    0.295   65.676  165.694    8.126
  567.250    0.127    0.321   74.289  166.028    7.267
  567.500    0.151    0.341   76.468  167.390    7.071
  567.750    0.139    0.331   72.152  168.446    7.223
  568.000    0.116    0.312   65.797  168.782    7.447
  568.250    0.092    0.297   63.768  168.494    7.824
  568.500    0.099    0.289   66.381  167.798    7.962
  568.750    0.107    0.299   70.292  167.097    7.732
  569.000    0.142    0.322   74.018  166.502    7.045
  569.250    0.169    0.340   75.393  165.599    6.325
  569.500    0.184    0.351   77.387  164.488    5.229
  569.750    0.186    0.353   79.194  163.275    4.756
  570.000    0.169    0.356   80.383  162.577    4.777
  570.250    0.156    0.352   77.738  163.116    5.132
  570.500    0.144    0.342   74.846  166.132    5.682
  570.750    0.127    0.328   73.994  168.112    6.349
  571.000    0.110    0.317   75.184  168.448    7.003
  571.250    0.096    0.298   78.292  168.679    7.357
  571.500    0.097    0.280   81.583  169.011    6.973
  571.750    0.109    0.283   85.308  169.653    6.201
  572.000    0.124    0.306   94.478  170.396    5.505
  572.250    0.137    0.327  103.399  170.729    5.140
  572.500    0.147    0.351  108.240  170.446    4.954
  572.750    0.136    0.365   97.243  170.059    4.874
  573.000    0.121    0.379   84.948  169.049    4.869
  573.250    0.104    0.394   81.435  167.733    4.927
  573.500    0.117    0.374   81.637  167.757    4.995
  573.750    0.119    0.383   86.290  168.503    5.112
  574.000    0.122    0.409   89.396  169.146    5.350
  574.250    0.129    0.402   90.276  169.273    5.652
  574.500    0.122    0.379   91.530  169.397    5.883
  574.750    0.108    0.369   92.965  169.113    5.953
  575.000    0.098    0.362   85.927  169.139    5.957
  575.250    0.099    0.357   83.900  168.441    5.995
  575.500    0.104    0.347   83.606  167.333    6.033
  575.750    0.110    0.332   84.550  166.633    6.048
  576.000    0.124    0.343   82.892  167.378    6.120
  576.250    0.118    0.351   80.246  169.977    6.158
  576.500    0.125    0.356   82.673  171.961    6.186
  576.750    0.130    0.364   87.760  172.395    6.201
  577.000    0.119    0.354   87.589  171.595    6.194
  577.250    0.108    0.343   84.821  170.073    6.163
  577.500    0.103    0.343   84.588  169.378    6.145
  577.750    0.114    0.358   86.457  169.192    6.171
  578.000    0.112    0.377   87.524  166.952    6.292
  578.250    0.087    0.332   86.917  165.428    6.598
  578.500    0.062    0.320   86.498  164.728    6.828
  578.750    0.098    0.338   86.330  164.135    7.255
  579.000    0.093    0.337   85.475  164.053    7.765
  579.250    0.075    0.321   79.429  164.078    7.858
  579.500    0.059    0.285   77.524  164.721    7.646
  579.750    0.069    0.293   84.033  165.364    7.356
  580.000    0.083    0.301   92.213  165.900    7.037
  580.250    0.100    0.313   97.918  166.647    6.682
  580.500    0.115    0.331   98.490  167.083    6.490
  580.750    0.123    0.340   96.030  167.317    6.567
  581.000    0.115    0.323   95.920  167.136    6.964
  581.250    0.113    0.313   93.770  167.360    7.398
  581.500    0.093    0.304   89.146  167.697    7.831
  581.750    0.046    0.297   86.563  167.205    8.181
  582.000    0.024    0.292   88.801  166.918    8.232
  582.250   -0.001    0.286   96.487  167.146    8.085
