~V
VERS. 2.00: Ver 2.00
WRAP. NO:
VEND. PRIZM:GeoGraphix
~W
STRT.M 43.8912:START DEPTH
STOP.M 295.6560:STOP DEPTH
STEP.M 0.3048:STEP
NULL. -999.2500:NULL VALUE
WELL. NUMAC SURMONT :WELL
COMP. :COMPANY
UWI. 00_06-35-082-06W4_0:UNIQUE WELL ID
FLD. :FIELD
CNTY. :COUNTY
STAT. :STATE
CTRY. :COUNTRY
PDAT. :PERMANENT DATUM
LMF. :LOG MEASURED FROM
DMF. :DRILLING MEASURED FROM
LOC1. 06-35-082-06W4:LOCATION LINE 1
LOC2. :LOCATION LINE 2
LOC3. :LOCATION LINE 3
SEC. :SECTION
TWP. :TOWNSHIP
RAN. :RANGE
SRVC. SCHLUMBERGER:Logging Company
BASE. :Logging Unit Location
ENG. BILL:Logging Engineer
WITN. JIM:Witnessed By
DATE. 21 - MAR - 1973:Date
RUN. ONE:Run No.
MUD_TYPE. GEL:Type Fluid in Hole
MUDS. :Source of Mud Sample
RMFS. :Source of Mud Filtrate
RMCS. :Source of Mud Cake
LOC. :LOCATION
~C
DEPT.M :DEPTH
PHID. :Density Pososity
NPHI. :PHIN         - NEUTRON POROSITY (LIMESTONE)
GR.API :GR           - GAMMA RAY
RHOB.KG/M3 :DENS         - BULK DENSITY
ILD.OHMM :RESD         - DEEP RESISTIVITY (DIL)
~P
EKB. 495.6000:ELEVATION OF KELLY BUSHING
EDF. -999.2500:ELEVATION OF DRILLING FLOOR
EGL. 493.7760:ELEVATION OF GROUND LEVEL
EPD. -999.2500:ELEVATION OF PERMANENT DATUM
APD. -999.2500:LMF DISTANCE ABOVE PERMANENT DATUM
LAT. 56.1488:LATITUDE OF WELL LOCATION
LONG. 110.8308:LONGITUDE OF WELL LOCATION
TDD. 296.8750:Total Depth Driller
TDL. -999.2500:Total Depth Logger
LCSG1. -999.2500:Depth of Casing from Logger
CSIZE. -999.2500:Casing Size
CWT. -999.2500:Casing Weight
BS. -999.2500:Bit Size
TLI. 43.8912:Top Logged Interval
BLI. 295.6560:Bottom Logged Interval
MRT. 17.2222:Maximum Recorded Temperature
WMUD. -999.2500:Drilling Mud Density
DFV. -999.2500:Drilling Mud Viscosity
PH. -999.2500:Drilling Mud pH
DFL. -999.2500:Drilling Mud Fluid Loss
RM. -999.2500:Resistivity of Drilling Fluid
RMT. -999.2500:Measured Temp. of Drilling Fluid
RMF. 0.2500:Resistivity of Drilling Fluid Filtrate
RMFT. -999.2500:Measured Temp. of Drilling Fluid Filtrate
RMC. 0.2500:Resistivity of Mud Cake
RMCT. -999.2500:Measured Temp. of Mud Cake
PHImax.V/V 0.3900:Maximum allowable Porosity
RwBnd.OHMM 0.1500:Bound Water Resistivity
RhoHy.KG/MT 1000.0000:Hydrocarbon Bulk density
SwCutoff.V/V 0.7000:Water Saturation Cutoff
PHINsh.V/V 0.4800:New Description
Rw.OHMM 1.0000:Formation Water Resistivity
Rshl.OHMM 5.0000:Resistivity shale
Trw.DEGC 25.0000:Rw measured at Lab conditions
ShaleCutoff.V/V 0.4000:New Description
GRcln.API 45.0000:Gamma Ray clean
RhoM.KG/MT 2650.0000:Bulk Density Matrix
GRshl.API 90.0000:Gamma Ray shale
m. 2.0000:Archie "m"
n. 2.0000:Archie "n"
GasTol.V/V 0.0500:Gas Tollerance
BHTemp.DEGC 25.0000:Bottom Hole Temperature
BHTDepth.M 1000.0000:Bottom Hole Depth
PHIDsh.US/MT 0.1800:New Description
a. 1.0000:Archie "a"
Gas Tol.V/V 0.0500:Gas Tollerance
RhoF.KG/MT 1000.0000:Bulk Density Fluid
RhoShl.KG/MT 2300.0000:Bulk Density Shale
TarCutoff.V/V 0.0300:New Description
SurfTemp.DEGC 10.0000:New Description
HIshl.V/V 0.4000:Neutron Hydrogen Index shale
MATR. 1.0000:
NEUT. 0.0000:
BHTD.M 296.8750:
DATM.M 495.6050:
NULL. -999.2500:
RESI. 0.0000:
SUFT.C 15.0000:
~A
# ...
   80.4672     0.2636     0.3020    67.0870  2215.1201    13.5590 
   80.7720     0.2426     0.2980    65.2800  2249.7500     8.8310 
   81.0768     0.2388     0.2960    62.8550  2255.9099     9.3450 
   81.3816     0.3090     0.3020    54.3390  2140.1001    20.8650 
   81.6864     0.3028     0.3210    57.4110  2150.3401    19.7400 
   81.9912     0.2843     0.3200    62.3070  2180.8999     7.3440 
   82.2960     0.2793     0.3160    62.3290  2189.0801     8.3740 
   82.6008     0.3113     0.3140    55.0320  2136.2900    20.1490 
   82.9056     0.3347     0.3160    49.5690  2097.7400    18.7140 
   83.2104     0.3371     0.3210    48.3670  2093.7500    17.7010 
   83.5152     0.3334     0.3260    49.0030  2099.9199    16.1370 
   83.8200     0.3309     0.3300    49.6240  2104.0300    15.5490 
   84.1248     0.3284     0.3310    51.4820  2108.1799    15.2710 
   84.4296     0.3283     0.3350    53.3360  2108.2400    14.7200 
   84.7344     0.3246     0.3310    53.9580  2114.4099    13.6690 
   85.0392     0.3221     0.3270    55.1970  2118.5300    12.6920 
   85.3440     0.3196     0.3250    55.8260  2122.6599    11.1450 
   85.6488     0.3220     0.3190    54.6270  2118.6499    12.0140 
   85.9536     0.3380     0.3160    50.9900  2092.2800    15.9060 
   86.2584     0.3380     0.3210    49.7890  2092.3501    15.9150 
   86.5632     0.3281     0.3090    51.0290  2108.6799    15.3410 
   86.8680     0.3157     0.3050    54.7080  2129.0801    12.7350 
   87.1728     0.3034     0.3080    60.2180  2149.4600    10.5720 
   87.4776     0.2972     0.3250    62.6800  2159.7000    15.9510 
   87.7824     0.3131     0.3320    63.3090  2133.3301    15.6650 
   88.0872     0.2909     0.3270    68.2070  2169.9900    11.8460 
   88.3920     0.2625     0.3260    76.1530  2216.8101     6.2840 
   88.6968     0.2391     0.3300    84.7110  2255.5100     5.4150 
   89.0016     0.2329     0.3380    89.6100  2265.7200     4.6660 
   89.3064     0.2353     0.3430    87.8010  2261.7300     5.3210 
   89.6112     0.2353     0.3320    82.3330  2261.8101     7.8790 
   89.9160     0.2389     0.3310    79.3030  2255.7500     9.1540 
   90.2208     0.2660     0.3370    78.7190  2211.1201     8.6600 
   90.5256     0.2561     0.3420    81.1750  2227.4299     4.8580 
   90.8304     0.2327     0.3370    89.7310  2266.1101     4.2660 
   91.1352     0.2289     0.3300    96.4580  2272.2800     5.1430 
   91.4400     0.2535     0.3090    92.2100  2231.6899    16.3720 
   91.7448     0.2633     0.3060    77.5950  2215.4900    13.8480 
   92.0496     0.2498     0.2990    79.4470  2237.9099    10.4720 
   92.3544     0.2436     0.3000    85.5650  2248.1399    10.8770 
   92.6592     0.2213     0.3250   100.8290  2284.8000     6.8250 
   92.9640     0.1979     0.3440   109.3860  2323.4900     6.2200 
   93.2688     0.1991     0.3590   113.0720  2321.5500     5.5640 
   93.5736     0.2027     0.3610   113.7030  2315.4900     5.0720 
   93.8784     0.2064     0.3580   113.7260  2309.4500     5.1700 
   94.1832     0.2051     0.3370   113.1280  2311.5400     5.4710 
   94.4880     0.2075     0.3440   111.3210  2307.5601     6.1230 
   94.7928     0.2124     0.3300   109.5140  2299.4700     6.7250 
   95.0976     0.2222     0.3160   108.3140  2283.3000     7.3880 
   95.4024     0.2234     0.2990   106.5000  2281.3301     7.9640 
   95.7072     0.2209     0.2930   103.4720  2285.4500     8.2720 
   96.0120     0.2172     0.2930    98.6180  2291.6201     9.9750 
   96.3168     0.2147     0.3000    97.4160  2295.7400     9.0920 
   96.6216     0.2085     0.3110   102.9250  2305.9700     7.4080 
   96.9264     0.1998     0.3260   110.8740  2320.2700     7.4130 
   97.2312     0.2047     0.3250   112.7210  2312.1899     7.4180 
   97.5360     0.2232     0.3220   109.0880  2281.7700     6.8880 
   97.8408     0.2330     0.3330   105.4580  2265.5701     6.5170 
   98.1456     0.2403     0.3390   104.2540  2253.4500     6.8950 
   98.4504     0.2612     0.3330   103.6600  2218.9399    11.6360 
   98.7552     0.2785     0.3270   102.4570  2190.5400     8.9660 
   99.0600     0.2525     0.3150    98.2100  2233.3000     9.6650 
   99.3648     0.2365     0.3040    93.3520  2259.7900    12.7950 
   99.6696     0.2377     0.3030    91.5410  2257.8301    13.0460 
   99.9744     0.2266     0.2980    87.2940  2276.1899    10.8290 
  100.2792     0.2204     0.2950    90.3710  2286.4199     8.5000 
  100.5840     0.2178     0.3060    92.8220  2290.5601     9.1670 
  100.8888     0.2166     0.3160    97.1200  2292.6499     9.3430 
  101.1936     0.2190     0.3200    97.1370  2288.6399     8.5160 
  101.4984     0.2251     0.3200    96.5500  2278.5400     7.6170 
  101.8032     0.2386     0.3150    94.1240  2256.2500     7.3430 
  102.1080     0.2620     0.3070    85.6080  2217.7000     8.5290 
  102.4128     0.2669     0.3010    67.9450  2209.6399    15.8010 
  102.7176     0.2607     0.2930    59.4260  2219.8501    13.3650 
  103.0224     0.2311     0.2890    60.0580  2268.7100     9.3800 
  103.3272     0.2237     0.2980    60.6880  2280.9600     9.9270 
  103.6320     0.2729     0.3100    61.3240  2199.7200    11.5320 
  103.9368     0.2852     0.3140    63.1780  2179.4600    12.4330 
  104.2416     0.2888     0.3140    63.7990  2173.4199    10.7140 
  104.5464     0.3024     0.3150    66.2620  2151.1201     8.4110 
  104.8512     0.2962     0.3180    68.7220  2161.3501     9.2390 
  105.1560     0.2875     0.3320    69.3470  2175.6499     9.9600 
  105.4608     0.2862     0.3340    68.7580  2177.7500    11.3570 
  105.7656     0.2825     0.3290    66.9570  2183.8999    12.4750 
  106.0704     0.2738     0.3230    66.9700  2198.2100     8.7560 
  106.3752     0.2615     0.3210    66.3800  2218.5901     8.4390 
  106.6800     0.2626     0.3240    67.0140  2216.6299     8.1350 
  106.9848     0.2946     0.3320    67.6510  2163.8501     8.2930 
  107.2896     0.2946     0.3270    67.6600  2163.9199     8.4540 
  107.5944     0.2835     0.3180    65.2420  2182.2800     9.1140 
  107.8992     0.2736     0.3150    63.4370  2198.6001     9.6460 
  108.2040     0.2723     0.3070    61.6280  2200.6799    13.0080 
  108.5088     0.3080     0.3040    60.4250  2141.8000    18.2150 
  108.8136     0.3190     0.3070    62.8850  2123.5701    17.5590 
  109.1184     0.3190     0.3200    65.9540  2123.6499    13.7820 
  109.4232     0.3116     0.3220    66.5850  2135.9099    15.7140 
  109.7280     0.3066     0.3100    65.9950  2144.0901    16.3230 
  110.0328     0.3189     0.3050    64.1880  2123.8401    14.0650 
  110.3376     0.3238     0.3040    62.9920  2115.7800    12.8200 
  110.6424     0.3200     0.3040    64.2310  2121.9399    15.7510 
  110.9472     0.3151     0.2990    63.6400  2130.1299    17.6280 
  111.2520     0.3138     0.2930    60.0020  2132.2200    17.9710 
  111.5568     0.3113     0.2940    58.8010  2136.3501    17.6490 
  111.8616     0.3236     0.3010    61.2640  2116.1101    16.6950 
  112.1664     0.3174     0.3070    61.9000  2126.3201    14.9350 
  112.4712     0.3099     0.3100    61.9100  2138.5901    14.1320 
  112.7760     0.3111     0.3100    59.4970  2136.6101    14.1370 
  113.0808     0.3099     0.3080    57.6850  2138.7100    14.6840 
  113.3856     0.3197     0.3100    58.3170  2122.5200    14.9690 
  113.6904     0.3283     0.3120    59.5540  2108.3601    15.5470 
  113.9952     0.3319     0.3150    60.1940  2102.3301    15.5590 
  114.3000     0.3381     0.3150    59.5950  2092.2100    15.2800 
  114.6048     0.3368     0.3150    60.2310  2094.3201    14.7270 
  114.9096     0.3293     0.3150    60.2520  2106.5801    13.9320 
  115.2144     0.3256     0.3150    60.8770  2112.7300    13.9400 
  115.5192     0.3268     0.3210    61.5100  2110.7800    14.4790 
  115.8240     0.3231     0.3240    62.1410  2116.9399    14.4860 
  116.1288     0.3206     0.3230    62.1570  2121.0701    13.9640 
  116.4336     0.3218     0.3230    60.9600  2119.1001    13.9730 
  116.7384     0.3291     0.3220    60.9800  2106.9600    15.0650 
