~VERSION INFORMATION
 VERS.                 2.0:   CWLS LOG ASCII STANDARD -VERSION 2.0
 WRAP.                  NO:   ONE LINE PER DEPTH STEP
~WELL INFORMATION BLOCK
#MNEM.UNIT           DATA                    DESCRIPTION OF MNEMONIC
#---------    -------------------            -------------------------------
# Generated from Intellog Unique Number	CS_73_76/WELL/2162
WELL.         HOUSTON OILS LIMITED           : Well_name    - WELL
LOC .         00/06-08-074-14W4/0            : Location     - LOCATION
UWI .         00/06-08-074-14W4/0            : Uwi          - UNIQUE WELL ID
ENTR.         SP                             : Entered      - ENTERED BY
SRVC.         SCHLUMBERGER                   : Scn          - SERVICE COMPANY
STRT.M        365.76                         : top_depth    - START DEPTH
STOP.M        600.26                         : bot_depth    - STOP DEPTH
STEP.M        0.25                           : increment    - STEP LENGTH
 NULL. -999.2500:NULL Value
~CURVE INFORMATION BLOCK
#MNEM UNIT       ERCB CURVE CODE    CURVE DESCRIPTION
#-----------   ------------------   ----------------------------------
DEPT.M        00 001 00 00         : DEPTH        - DEPTH
GR  .API      00 310 00 00         : GR           - GAMMA RAY
DPHI.V/V      00 890 00 00         : PHID         - DENSITY POROSITY (SANDSTONE)
NPHI.V/V      00 330 00 00         : PHIN         - NEUTRON POROSITY (SANDSTONE)
ILD .OHMM     00 120 00 00         : RESD         - DEEP RESISTIVITY (DIL)
~PARAMETER INFORMATION
#MNEM.UNIT           DATA             DESCRIPTION OF MNEMONIC
#---------         -----------     ------------------------------
GL  .M        712.318              : gl           - GROUND LEVEL ELEVATION
EREF.M        715.366              : kb           - ELEVATION OF DEPTH REFERENCE
DATM.M        712.318              : datum        - DATUM ELEVATION
TDD .M        611.124              : tdd          - TOTAL DEPTH DRILLER
RUN .         ONE                  : Run          - RUN NUMBER
ENG .         BILL                 : Engineer     - RECORDING ENGINEER
WIT .         JIM                  : Witness      - WITNESSED BY
MUD .         GEL                  : Mud_type     - MUD TYPE
MATR.         SANDSTONE            : Logunit      - NEUTRON MATRIX
TMAX.C        25.5556              : BHT          - MAXIMUM RECORDED TEMPERATURE
BHTD.M        611.124              : BHTDEP       - MAXIMUM RECORDED TEMPERATURE
MATR.         1                    : LOGUNIT      - NEUTRON MATRIX
RMT .C        25                   : MDTP         - TEMPERATURE OF MUD
NEUT.         1                    : NEUTRON      - NEUTRON TYPE
RESI.         0                    : RESIST       - RESISTIVITY TYPE
RMC .OHMM     0.25                 : RMC          - RESISTIVITY OF MUD CAKE
RMF .OHMM     0.25                 : RMF          - RESISTIVITY OF MUD FILTRATE
SUFT.C        15                   : SUFT         - SURFACE TEMPERATURE
~A  DEPTH       GR     PHID     PHIN     RESD
# ...
  496.260   92.114    0.224    0.477    5.474
  496.510   95.750    0.237    0.521    5.562
  496.760   95.408    0.238    0.505    5.619
  497.010   94.014    0.239    0.481    5.674
  497.260   93.524    0.240    0.452    5.759
  497.510   95.550    0.241    0.471    5.919
  497.760   95.064    0.241    0.494    6.090
  498.010   91.896    0.242    0.491    6.082
  498.260   92.743    0.245    0.465    6.082
  498.510   94.044    0.251    0.459    6.081
  498.760   93.502    0.254    0.486    6.092
  499.010   88.278    0.259    0.517    5.962
  499.260   86.286    0.270    0.514    5.869
  499.510   86.094    0.280    0.514    5.578
  499.760   83.606    0.278    0.513    5.416
  500.010   80.617    0.280    0.515    5.350
  500.260   77.768    0.293    0.535    5.235
  500.510   77.262    0.293    0.544    5.234
  500.760   77.239    0.287    0.557    5.147
  501.010   77.746    0.281    0.549    5.147
  501.260   79.811    0.284    0.527    5.144
  501.510   80.764    0.283    0.522    5.047
  501.760   81.647    0.279    0.530    5.023
  502.010   80.957    0.276    0.534    4.961
  502.260   78.708    0.272    0.531    4.900
  502.510   78.980    0.269    0.548    4.872
  502.760   80.294    0.277    0.573    4.869
  503.010   81.382    0.286    0.542    4.868
  503.260   80.269    0.282    0.536    4.867
  503.510   79.298    0.287    0.558    4.868
  503.760   78.576    0.279    0.566    4.909
  504.010   78.692    0.281    0.545    4.955
  504.260   80.721    0.292    0.534    4.882
  504.510   82.538    0.286    0.523    4.866
  504.760   82.802    0.285    0.508    4.862
  505.010   82.688    0.293    0.505    4.861
  505.260   84.182    0.288    0.503    4.860
  505.510   82.882    0.282    0.517    4.860
  505.760   79.564    0.275    0.524    4.914
  506.010   79.662    0.273    0.519    4.945
  506.260   83.794    0.290    0.512    4.947
  506.510   86.573    0.287    0.524    4.946
  506.760   86.939    0.283    0.509    4.945
  507.010   85.971    0.284    0.517    4.944
  507.260   85.452    0.281    0.526    4.941
  507.510   85.829    0.275    0.528    4.936
  507.760   85.979    0.273    0.525    4.847
  508.010   84.657    0.270    0.530    4.857
  508.260   86.469    0.266    0.550    4.761
  508.510   89.249    0.256    0.556    4.772
  508.760   91.596    0.263    0.556    4.664
  509.010   92.992    0.269    0.552    4.677
  509.260   95.009    0.260    0.534    4.589
  509.510   96.243    0.251    0.520    4.496
  509.760   98.256    0.251    0.518    4.505
  510.010   98.105    0.265    0.547    4.537
  510.260   89.399    0.280    0.592    4.680
  510.510   82.868    0.277    0.558    4.822
  510.760   75.402    0.258    0.515    4.966
  511.010   75.175    0.252    0.517    5.115
  511.260   76.143    0.265    0.518    5.110
  511.510   78.106    0.290    0.505    5.107
  511.760   80.561    0.280    0.491    5.201
  512.010   74.018    0.262    0.487    5.570
  512.260   69.850    0.254    0.495    6.268
  512.510   66.954    0.233    0.449    7.308
  512.760   66.405    0.188    0.380    8.160
  513.010   68.820    0.124    0.334    9.046
  513.260   70.717    0.113    0.299    9.063
  513.510   74.399    0.126    0.378    8.026
  513.760   76.640    0.153    0.463    6.915
  514.010   76.210    0.259    0.512    6.308
  514.260   80.074    0.307    0.538    6.008
  514.510   81.201    0.314    0.512    5.689
  514.760   80.450    0.313    0.516    5.411
  515.010   79.314    0.304    0.503    5.258
  515.260   77.657    0.297    0.503    5.104
  515.510   78.610    0.293    0.504    5.005
  515.760   79.539    0.289    0.502    4.887
  516.010   81.091    0.294    0.531    4.821
  516.260   82.341    0.297    0.551    4.821
  516.510   84.291    0.284    0.572    4.819
  516.760   84.229    0.271    0.558    4.886
  517.010   84.372    0.260    0.526    5.032
  517.260   86.074    0.245    0.534    5.296
  517.510   86.019    0.226    0.529    5.865
  517.760   85.990    0.204    0.540    6.586
  518.010   83.672    0.190    0.536    7.068
  518.260   88.461    0.168    0.473    6.788
  518.510   94.029    0.191    0.513    6.423
  518.760   94.713    0.208    0.515    6.021
  519.010   92.437    0.214    0.522    5.835
  519.260   90.255    0.220    0.528    5.660
  519.510   90.611    0.210    0.496    5.414
  519.760   94.582    0.200    0.486    5.182
  520.010   97.700    0.190    0.506    4.978
  520.260   98.132    0.196    0.531    4.905
  520.510   98.302    0.207    0.518    4.934
  520.760   99.311    0.220    0.508    5.092
  521.010  100.856    0.189    0.537    5.420
  521.260  102.588    0.202    0.542    5.606
  521.510  105.121    0.204    0.520    5.778
  521.760  106.999    0.216    0.514    5.883
  522.010  109.619    0.221    0.493    5.988
  522.260  109.507    0.230    0.444    5.894
  522.510  106.904    0.217    0.423    5.744
  522.760  105.114    0.226    0.447    5.328
  523.010  103.912    0.215    0.474    4.945
  523.260   99.432    0.214    0.487    4.689
  523.510   94.278    0.225    0.494    4.560
  523.760   92.323    0.229    0.506    4.563
  524.010   94.305    0.204    0.494    4.547
  524.260   96.744    0.185    0.483    4.321
  524.510   97.026    0.201    0.504    4.028
  524.760   96.103    0.220    0.530    3.674
  525.010   96.102    0.236    0.566    3.088
  525.260   96.817    0.243    0.595    2.595
  525.510   95.978    0.246    0.639    2.288
  525.760   95.014    0.254    0.661    2.059
  526.010   94.262    0.273    0.666    1.950
  526.260   95.172    0.260    0.674    1.894
  526.510  100.834    0.240    0.689    1.863
  526.760  103.782    0.222    0.684    1.862
  527.010  104.373    0.242    0.665    1.900
  527.260  103.954    0.245    0.677    1.939
  527.510  102.519    0.229    0.680    2.113
  527.760   99.051    0.220    0.696    2.196
  528.010   96.514    0.224    0.689    2.403
  528.260   97.486    0.199    0.679    2.808
  528.510   93.745    0.159    0.631    3.537
  528.760   91.782    0.161    0.462    4.633
  529.010   91.662    0.196    0.450    4.926
  529.260   94.547    0.192    0.454    4.858
  529.510   90.572    0.194    0.468    4.479
  529.760   92.462    0.206    0.465    4.418
  530.010   92.432    0.188    0.478    4.843
  530.260   89.783    0.160    0.495    5.275
  530.510   87.555    0.096    0.420    5.486
  530.760   84.805    0.130    0.390    5.490
  531.010   88.298    0.183    0.394    5.326
  531.260   93.885    0.198    0.441    4.760
  531.510   95.107    0.198    0.501    4.338
  531.760   97.562    0.186    0.537    4.087
  532.010   98.954    0.202    0.531    3.971
  532.260  101.752    0.210    0.508    3.687
  532.510  103.641    0.213    0.509    3.674
  532.760  104.921    0.215    0.525    3.617
  533.010  107.215    0.196    0.533    3.579
  533.260  107.039    0.187    0.543    3.537
  533.510  104.161    0.197    0.562    3.366
  533.760  106.560    0.209    0.575    3.275
  534.010  107.705    0.194    0.594    3.119
  534.260  103.811    0.162    0.616    3.027
  534.510  101.159    0.135    0.615    2.934
  534.760  102.489    0.180    0.611    2.897
  535.010  106.963    0.212    0.637    2.757
  535.260  107.424    0.221    0.656    2.691
  535.510  105.826    0.212    0.661    2.602
  535.760  105.539    0.201    0.587    2.614
  536.010  105.223    0.192    0.559    2.759
  536.260  105.805    0.180    0.504    3.042
  536.510  105.951    0.211    0.510    3.151
  536.760  106.327    0.217    0.578    3.418
  537.010  105.400    0.199    0.595    3.583
  537.260  103.721    0.176    0.557    3.790
  537.510  102.222    0.161    0.541    3.950
  537.760  100.528    0.166    0.522    4.030
  538.010  100.490    0.199    0.502    4.010
  538.260  103.004    0.230    0.545    3.706
  538.510  103.570    0.219    0.571    3.386
  538.760  102.311    0.223    0.606    3.170
  539.010   96.980    0.222    0.600    3.054
  539.260   89.613    0.211    0.531    4.269
  539.510   80.208    0.202    0.454    5.668
