~VERSION INFORMATION
 VERS.                 2.0:   CWLS LOG ASCII STANDARD -VERSION 2.0
 WRAP.                  NO:   ONE LINE PER DEPTH STEP
~WELL INFORMATION BLOCK
#MNEM.UNIT           DATA                    DESCRIPTION OF MNEMONIC
#---------    -------------------            -------------------------------
# Generated from Intellog Unique Number	CW_73_75/WELL/288
WELL.         CALGAS ET AL MITSUE 02-06      : Well_name    - WELL
LOC .         00/02-06-074-04W5/0            : Location     - LOCATION
UWI .         00/02-06-074-04W5/0            : Uwi          - UNIQUE WELL ID
ENTR.         JAYE                           : Entered      - ENTERED BY
SRVC.         SCHLUMBERGER                   : Scn          - SERVICE COMPANY
DATE.         6 SEP 88                       : Date         - LOG DATE
STRT.M        365                            : top_depth    - START DEPTH
STOP.M        620                            : bot_depth    - STOP DEPTH
STEP.M        0.25                           : increment    - STEP LENGTH
 NULL. -999.2500:NULL Value
~CURVE INFORMATION BLOCK
#MNEM UNIT       ERCB CURVE CODE    CURVE DESCRIPTION
#-----------   ------------------   ----------------------------------
DEPT.M        00 001 00 00         : DEPTH        - DEPTH
ILD .OHMM     00 120 00 00         : RESD         - DEEP RESISTIVITY (DIL)
DPHI.V/V      00 890 00 00         : PHID         - DENSITY POROSITY (SANDSTONE)
NPHI.V/V      00 330 00 00         : PHIN         - NEUTRON POROSITY (SANDSTONE)
GR  .API      00 310 00 00         : GR           - GAMMA RAY
CALI.MM       00 280 01 00         : CAL          - CALIPER
~PARAMETER INFORMATION
#MNEM.UNIT           DATA             DESCRIPTION OF MNEMONIC
#---------         -----------     ------------------------------
GL  .M        596.5                : gl           - GROUND LEVEL ELEVATION
EREF.M        596.5                : kb           - ELEVATION OF DEPTH REFERENCE
DATM.M        596.5                : datum        - DATUM ELEVATION
TDD .M        1650                 : tdd          - TOTAL DEPTH DRILLER
RUN .         ONE                  : Run          - RUN NUMBER
ENG .         ASHTOM               : Engineer     - RECORDING ENGINEER
WIT .         WORK                 : Witness      - WITNESSED BY
BASE.         SLAVE LAKE           : Branch       - HOME BASE OF LOGGING UNIT
MUD .         GEL CHEM             : Mud_type     - MUD TYPE
MATR.         SANDSTONE            : Logunit      - NEUTRON MATRIX
TMAX.C        47                   : BHT          - MAXIMUM RECORDED TEMPERATURE
BHTD.M        1652.8               : BHTDEP       - MAXIMUM RECORDED TEMPERATURE
RMT .C        29                   : MDTP         - TEMPERATURE OF MUD
MUDD.KG/M     1150                 : MWT          - MUD DENSITY
NEUT.         1                    : NEUTRON      - NEUTRON TYPE
RESI.         0                    : RESIST       - RESISTIVITY TYPE
RM  .OHMM     0.73                 : RM           - RESISTIVITY OF MUD
RMC .OHMM     0                    : RMC          - RESISTIVITY OF MUD CAKE
RMF .OHMM     0.74                 : RMF          - RESISTIVITY OF MUD FILTRATE
SUFT.C        0                    : SUFT         - SURFACE TEMPERATURE
~A  DEPTH     RESD     PHID     PHIN       GR      CAL
# ...
  584.000    5.670    0.177    0.374   82.181  504.169
  584.250    5.284    0.201    0.394   82.207  509.279
  584.500    4.719    0.238    0.425   80.291  517.223
  584.750    4.414    0.288    0.451   78.983  508.461
  585.000    4.285    0.329    0.492   79.800  502.435
  585.250    4.521    0.322    0.468   80.983  498.835
  585.500    5.127    0.289    0.504   82.347  494.122
  585.750    7.075    0.685    0.552   64.877  490.825
  586.000   11.280    0.738    0.664   47.410  488.748
  586.250   14.321    0.479    0.665   24.897  485.450
  586.500   15.593    0.407    0.491   13.016  480.639
  586.750   14.776    0.371    0.373   14.444  472.281
  587.000   11.400    0.622    0.368   15.928  475.262
  587.250    9.161    0.679    0.482   17.899  482.195
  587.500    7.321    0.615    0.659   17.261  484.875
  587.750    6.151    0.520    0.586   11.822  473.073
  588.000    5.284    0.450    0.388   12.032  466.234
  588.250    4.693    0.304    0.345   12.120  464.460
  588.500    4.293    0.303    0.345   12.389  465.417
  588.750    3.920    0.317    0.345   12.967  470.324
  589.000    3.708    0.314    0.344   14.146  472.799
  589.250    3.707    0.302    0.339   17.577  473.254
  589.500    3.748    0.291    0.335   20.764  473.507
  589.750    3.933    0.288    0.333   21.217  473.652
  590.000    4.484    0.290    0.331   20.701  474.413
  590.250    5.579    0.289    0.327   21.943  474.757
  590.500    6.211    0.256    0.320   25.251  474.802
  590.750    7.030    0.162    0.304   28.558  475.049
  591.000    7.884    0.205    0.281   25.429  475.407
  591.250    8.875    0.247    0.324   25.639  475.650
  591.500   10.309    0.253    0.323   27.549  476.505
  591.750   11.183    0.204    0.294   28.915  477.373
  592.000   12.176    0.162    0.275   29.671  477.310
  592.250   13.184    0.142    0.267   29.943  476.954
  592.500   14.731    0.141    0.262   30.031  476.904
  592.750   14.976    0.135    0.256   30.548  477.350
  593.000   13.726    0.127    0.250   31.063  477.599
  593.250   12.863    0.133    0.260   31.574  477.644
  593.500   12.302    0.179    0.284   31.721  478.196
  593.750   11.614    0.205    0.300   31.749  478.244
  594.000   11.006    0.216    0.299   30.199  478.799
  594.250   10.585    0.189    0.272   31.562  479.756
  594.500   10.217    0.176    0.255   33.295  482.534
  594.750    9.899    0.169    0.242   31.922  487.545
  595.000    9.574    0.156    0.238   35.050  492.753
  595.250    9.089    0.146    0.275   40.970  499.684
  595.500    7.778    0.131    0.286   45.799  502.466
  595.750    6.819    0.238    0.298   41.391  504.847
  596.000    5.847    0.335    0.392   53.327  512.686
  596.250    5.890    0.330    0.408   67.936  515.364
  596.500    6.654    0.265    0.361   65.776  511.359
  596.750    7.860    0.169    0.308   57.543  510.498
  597.000    9.599    0.135    0.295   46.088  510.441
  597.250   10.316    0.115    0.231   40.039  506.238
  597.500   10.201    0.167    0.269   34.782  498.484
  597.750    9.957    0.220    0.286   32.197  492.052
  598.000    8.893    0.194    0.322   41.278  498.379
  598.250    7.839    0.154    0.330   50.906  504.496
  598.500    7.292    0.211    0.361   55.370  510.619
  598.750    7.441    0.226    0.341   56.247  510.367
  599.000    8.072    0.162    0.314   53.056  503.728
  599.250    8.611    0.173    0.312   48.894  495.267
  599.500    8.985    0.187    0.326   45.638  487.115
  599.750    8.884    0.189    0.332   39.530  479.463
  600.000    7.832    0.212    0.328   36.338  476.471
  600.250    7.099    0.233    0.317   44.144  480.473
  600.500    6.865    0.203    0.304   56.260  484.669
  600.750    6.701    0.179    0.317   64.855  489.370
  601.000    6.700    0.308    0.427   61.481  492.657
  601.250    6.662    0.349    0.373   49.358  483.285
  601.500    6.637    0.294    0.318   38.085  472.801
  601.750    6.418    0.267    0.296   35.320  470.217
  602.000    6.253    0.236    0.284   41.968  472.187
  602.250    6.276    0.206    0.277   56.578  477.806
  602.500    6.416    0.161    0.278   72.098  486.761
  602.750    6.535    0.130    0.318   75.954  490.857
  603.000    8.190    0.225    0.357   66.566  489.690
  603.250   10.851    0.276    0.343   47.456  486.600
  603.500   12.559    0.282    0.333   38.187  484.113
  603.750   13.724    0.275    0.353   37.487  481.828
  604.000   14.083    0.264    0.347   39.703  480.155
  604.250   13.222    0.260    0.334   42.220  477.568
  604.500   12.186    0.264    0.322   45.225  474.580
  604.750   10.275    0.262    0.308   49.812  472.703
  605.000    9.126    0.236    0.290   53.728  471.941
  605.250    8.272    0.241    0.449   54.666  471.785
  605.500    7.638    0.298    0.524   42.361  472.539
  605.750    7.291    0.435    0.475   27.322  472.790
  606.000    7.170    0.293    0.369   21.517  472.329
  606.250    7.037    0.286    0.314   18.932  471.663
  606.500    6.818    0.300    0.310   18.718  471.006
  606.750    6.705    0.296    0.326   20.812  471.049
  607.000    6.448    0.284    0.317   24.971  472.210
  607.250    5.653    0.247    0.311   35.508  475.596
  607.500    5.377    0.228    0.366   44.044  482.428
  607.750    5.346    0.270    0.382   51.423  489.460
  608.000    5.630    0.279    0.388   49.688  490.722
  608.250    6.006    0.303    0.358   35.439  486.113
  608.500    6.084    0.306    0.292   27.873  477.854
  608.750    5.971    0.292    0.323   28.570  472.432
  609.000    5.839    0.280    0.332   31.818  471.073
  609.250    5.731    0.268    0.305   30.750  470.703
  609.500    5.421    0.254    0.285   26.468  470.446
  609.750    5.410    0.241    0.276   28.801  471.409
  610.000    5.593    0.244    0.288   32.657  472.365
  610.250    5.868    0.268    0.303   33.050  472.716
  610.500    6.055    0.281    0.310   29.796  472.759
  610.750    5.954    0.269    0.294   27.881  474.025
  611.000    5.611    0.243    0.268   33.984  477.614
  611.250    5.307    0.236    0.285   51.814  491.328
  611.500    4.882    0.332    0.322   65.268  518.310
  611.750    4.872    0.576    0.455   70.582  522.912
  612.000    5.266    0.321    0.373   54.268  495.011
  612.250    5.680    0.259    0.306   44.817  480.173
  612.500    5.959    0.246    0.266   31.054  472.830
  612.750    5.882    0.256    0.270   32.114  478.950
  613.000    5.441    0.626    0.436   36.699  590.786
  613.250    4.932    0.521    0.572   36.060  598.936
  613.500    4.588    0.426    0.503   38.638  602.423
  613.750    4.220    0.358    0.401   43.952  587.787
  614.000    4.119    0.333    0.396   49.815  549.659
  614.250    4.157    0.370    0.445   49.962  528.039
  614.500    4.493    0.463    0.476   48.471  523.628
  614.750    5.811    0.494    0.422   45.522  515.271
  615.000    6.826    0.096    0.167   38.320  503.777
  615.250    9.298    0.057    0.128   30.208  493.592
  615.500   11.546    0.026    0.104   22.033  488.779
  615.750   18.752    0.002    0.112   18.719  489.236
  616.000   20.683    0.004    0.121   18.263  489.999
  616.250   19.892    0.020    0.129   20.416  490.342
  616.500   17.634    0.023    0.137   23.482  491.000
  616.750   17.117    0.026    0.135   23.813  491.645
  617.000   17.793    0.032    0.124   23.052  492.202
  617.250   18.123    0.027    0.119   23.384  492.862
  617.500   17.821    0.017    0.122   23.168  493.202
  617.750   17.171    0.020    0.127   21.071  493.657
  618.000   16.606    0.037    0.130   23.104  494.015
  618.250   15.970    0.043    0.138   23.435  493.752
  618.500   15.733    0.047    0.141   22.371  493.794
  618.750   15.937    0.048    0.139   22.032  494.249
  619.000   16.172    0.050    0.132   22.061  494.700
  619.250   16.472    0.046    0.130   21.604  495.049
  619.500   16.685    0.040    0.132   21.452  494.690
  619.750   16.776    0.032    0.137   21.416  494.135
  620.000   16.650    0.030    0.140   18.346  493.669
