~VERSION INFORMATION
 VERS.                 2.0:   CWLS LOG ASCII STANDARD -VERSION 2.0
 WRAP.                  NO:   ONE LINE PER DEPTH STEP
~WELL INFORMATION BLOCK
#MNEM.UNIT           DATA                    DESCRIPTION OF MNEMONIC
#---------    -------------------            -------------------------------
# Generated from Intellog Unique Number	CS_77_79/WELL/909
WELL.         CDN-SUP CHRISTINA              : Well_name    - WELL
LOC .         00/07-26-079-10W4/0            : Location     - LOCATION
UWI .         00/07-26-079-10W4/0            : Uwi          - UNIQUE WELL ID
ENTR.         JHS                            : Entered      - ENTERED BY
SRVC.         SCHLUMBERGER                   : Scn          - SERVICE COMPANY
STRT.M        243.84                         : top_depth    - START DEPTH
STOP.M        478.34                         : bot_depth    - STOP DEPTH
STEP.M        0.25                           : increment    - STEP LENGTH
 NULL. -999.2500:NULL Value
~CURVE INFORMATION BLOCK
#MNEM UNIT       ERCB CURVE CODE    CURVE DESCRIPTION
#-----------   ------------------   ----------------------------------
DEPT.M        00 001 00 00         : DEPTH        - DEPTH
RHOB.KG/M3    00 350 00 00         : DENS         - BULK DENSITY
GR  .API      00 310 00 00         : GR           - GAMMA RAY
DPHI.V/V      00 890 00 00         : PHID         - DENSITY POROSITY (SANDSTONE)
NPHI.V/V      00 330 00 00         : PHIN         - NEUTRON POROSITY (SANDSTONE)
ILD .OHMM     00 120 00 00         : RESD         - DEEP RESISTIVITY (DIL)
~PARAMETER INFORMATION
#MNEM.UNIT           DATA             DESCRIPTION OF MNEMONIC
#---------         -----------     ------------------------------
GL  .M        679.094              : gl           - GROUND LEVEL ELEVATION
EREF.M        683.666              : kb           - ELEVATION OF DEPTH REFERENCE
DATM.M        683.666              : datum        - DATUM ELEVATION
TDD .M        487.68               : tdd          - TOTAL DEPTH DRILLER
RUN .         ONE                  : Run          - RUN NUMBER
ENG .         BILL                 : Engineer     - RECORDING ENGINEER
WIT .         JIM                  : Witness      - WITNESSED BY
MUD .         GEL                  : Mud_type     - MUD TYPE
MATR.         SANDSTONE            : Logunit      - NEUTRON MATRIX
TMAX.C        60                   : BHT          - MAXIMUM RECORDED TEMPERATURE
BHTD.M        487.68               : BHTDEP       - MAXIMUM RECORDED TEMPERATURE
MATR.         1                    : LOGUNIT      - NEUTRON MATRIX
RMT .C        25                   : MDTP         - TEMPERATURE OF MUD
NEUT.         1                    : NEUTRON      - NEUTRON TYPE
RESI.         0                    : RESIST       - RESISTIVITY TYPE
RMC .OHMM     0.25                 : RMC          - RESISTIVITY OF MUD CAKE
RMF .OHMM     0.25                 : RMF          - RESISTIVITY OF MUD FILTRATE
SUFT.C        15                   : SUFT         - SURFACE TEMPERATURE
~A  DEPTH     DENS       GR     PHID     PHIN     RESD
# ...
  353.340    0.000  110.060    0.240    0.573    2.643
  353.590    0.000  110.899    0.227    0.545    2.715
  353.840   -0.000  110.989    0.228    0.531    2.667
  354.090   -0.000  110.079    0.243    0.541    2.671
  354.340   -0.000  111.457    0.260    0.551    2.730
  354.590    0.000  107.533    0.240    0.551    3.044
  354.840    0.000  103.704    0.239    0.535    3.402
  355.090   -0.000  105.282    0.223    0.524    3.724
  355.340   -0.000  106.157    0.219    0.538    3.775
  355.590   -0.000  108.827    0.225    0.543    3.593
  355.840    0.000  111.307    0.229    0.544    3.545
  356.090    0.000  110.317    0.237    0.565    3.581
  356.340    0.000  106.233    0.232    0.536    3.627
  356.590   -0.000  104.387    0.247    0.515    3.993
  356.840   -0.000  103.368    0.258    0.506    4.217
  357.090   -0.000   97.174    0.272    0.516    4.435
  357.340    0.000   90.549    0.267    0.528    4.644
  357.590    0.000   89.137    0.264    0.487    4.709
  357.840    0.000   91.014    0.252    0.462    4.773
  358.090   -0.000   94.965    0.229    0.453    4.801
  358.340   -0.000   93.838    0.211    0.464    4.466
  358.590    0.000   89.836    0.211    0.450    4.150
  358.840    0.000   91.728    0.256    0.447    3.708
  359.090    0.000   96.165    0.270    0.463    3.467
  359.340   -0.000  103.074    0.253    0.496    3.263
  359.590   -0.000  107.929    0.233    0.520    3.289
  359.840   -0.000  108.010    0.223    0.516    3.400
  360.090    0.000  101.395    0.233    0.507    3.643
  360.340    0.000   98.352    0.233    0.499    4.226
  360.590    0.000   99.881    0.224    0.481    4.649
  360.840   -0.000   97.443    0.209    0.470    4.905
  361.090   -0.000   95.545    0.217    0.473    5.230
  361.340    0.000   96.325    0.221    0.458    5.284
  361.590    0.000   92.352    0.218    0.451    5.402
  361.840    0.000   89.415    0.232    0.455    5.240
  362.090   -0.000   92.939    0.223    0.477    5.112
  362.340   -0.000   95.451    0.222    0.500    4.869
  362.590   -0.000   95.458    0.229    0.516    4.749
  362.840    0.000   92.849    0.250    0.507    4.681
  363.090    0.000   92.034    0.236    0.511    4.636
  363.340    0.000   92.051    0.226    0.488    4.591
  363.590   -0.000   90.954    0.223    0.455    4.595
  363.840   -0.000   90.464    0.229    0.439    4.629
  364.090   -0.000   89.680    0.221    0.444    4.686
  364.340    0.000   90.016    0.215    0.458    4.826
  364.590    0.000   90.972    0.222    0.451    5.088
  364.840   -0.000   93.132    0.238    0.440    5.236
  365.090   -0.000   96.137    0.235    0.431    5.359
  365.340   -0.000   97.329    0.217    0.439    5.227
  365.590    0.000   96.808    0.212    0.452    5.084
  365.840    0.000   97.144    0.229    0.485    4.833
  366.090    0.000  101.319    0.232    0.496    4.701
  366.340   -0.000  104.595    0.226    0.502    4.560
  366.590   -0.000  107.972    0.218    0.495    4.357
  366.840   -0.000  108.106    0.219    0.498    4.222
  367.090    0.000  105.584    0.222    0.498    4.003
  367.340    0.000  101.988    0.230    0.489    3.812
  367.590   -0.000  101.007    0.233    0.480    3.596
  367.840   -0.000  102.257    0.234    0.503    3.453
  368.090   -0.000  108.047    0.239    0.535    3.344
  368.340    0.000  114.509    0.245    0.552    3.290
  368.590    0.000  114.463    0.233    0.556    3.289
  368.840    0.000  113.186    0.232    0.557    3.290
  369.090   -0.000  115.778    0.244    0.569    3.292
  369.340   -0.000  115.993    0.222    0.549    3.291
  369.590   -0.000  111.418    0.223    0.528    3.366
  369.840    0.000  108.147    0.228    0.501    3.469
  370.090    0.000  109.075    0.233    0.499    3.721
  370.340    0.000  112.397    0.247    0.503    4.127
  370.590   -0.000  109.580    0.268    0.493    4.658
  370.840   -0.000   96.500    0.273    0.475    5.437
  371.090    0.000   79.510    0.254    0.471    6.158
  371.340    0.000   78.375    0.239    0.428    7.182
  371.590    0.000   84.282    0.200    0.377    7.636
  371.840   -0.000   96.916    0.106    0.404    7.603
  372.090   -0.000  100.561    0.182    0.446    7.557
  372.340   -0.000  100.922    0.213    0.469    6.994
  372.590    0.000   98.397    0.243    0.452    6.494
  372.840    0.000   96.465    0.247    0.463    6.170
  373.090    0.000   96.890    0.230    0.459    5.881
  373.340   -0.000   96.347    0.218    0.451    5.827
  373.590   -0.000   98.475    0.228    0.462    5.673
  373.840    0.000  101.636    0.213    0.474    5.688
  374.090    0.000  101.020    0.227    0.470    5.580
  374.340    0.000  105.841    0.216    0.475    5.590
  374.590   -0.000  106.475    0.216    0.479    5.599
  374.840   -0.000  104.802    0.206    0.468    5.660
  375.090   -0.000  104.742    0.237    0.459    5.711
  375.340    0.000  104.822    0.230    0.448    5.621
  375.590    0.000  101.633    0.200    0.465    5.573
  375.840    0.000   99.091    0.192    0.484    5.395
  376.090   -0.000   96.758    0.208    0.485    5.152
  376.340   -0.000   99.148    0.220    0.467    4.877
  376.590   -0.000   98.665    0.222    0.468    4.507
  376.840    0.000   99.584    0.228    0.476    4.130
  377.090    0.000  107.581    0.245    0.492    3.572
  377.340   -0.000  111.110    0.271    0.537    2.979
  377.590   -0.000  113.981    0.281    0.579    2.532
  377.840   -0.000  117.496    0.283    0.610    2.223
  378.090    0.000  117.428    0.286    0.598    2.066
  378.340    0.000  111.464    0.285    0.598    2.003
  378.590    0.000  104.772    0.279    0.567    1.997
  378.840   -0.000  100.899    0.278    0.539    2.089
  379.090   -0.000   99.021    0.261    0.516    2.271
  379.340   -0.000   98.105    0.246    0.497    2.592
  379.590    0.000  100.588    0.231    0.479    2.988
  379.840    0.000  100.992    0.229    0.476    3.647
  380.090    0.000   97.487    0.244    0.479    4.317
  380.340   -0.000   94.541    0.256    0.469    4.838
  380.590   -0.000   91.607    0.268    0.474    5.052
  380.840    0.000   88.654    0.266    0.478    5.293
  381.090    0.000   89.099    0.281    0.455    5.307
  381.340    0.000   92.278    0.302    0.448    5.189
  381.590   -0.000   90.630    0.303    0.458    4.958
  381.840   -0.000   89.211    0.294    0.468    4.831
  382.090   -0.000   91.796    0.288    0.490    4.943
  382.340    0.000   95.776    0.269    0.477    4.987
  382.590    0.000   98.666    0.256    0.449    5.372
  382.840    0.000   99.240    0.242    0.434    5.634
  383.090   -0.000   96.789    0.237    0.425    5.970
  383.340   -0.000  100.439    0.236    0.423    6.278
  383.590    0.000  101.768    0.233    0.416    6.652
  383.840    0.000   97.590    0.213    0.393    6.935
  384.090    0.000   89.482    0.184    0.381    7.175
  384.340   -0.000   87.841    0.157    0.379    7.192
  384.590   -0.000   93.977    0.176    0.413    6.865
  384.840   -0.000  101.581    0.226    0.472    6.391
  385.090    0.000  101.456    0.219    0.481    5.856
  385.340    0.000   97.782    0.242    0.471    5.373
  385.590    0.000   96.352    0.222    0.463    5.068
  385.840   -0.000   99.242    0.205    0.453    4.991
  386.090   -0.000  101.905    0.233    0.447    5.014
  386.340   -0.000  100.489    0.239    0.459    5.285
  386.590    0.000   99.023    0.240    0.457    5.508
  386.840    0.000   96.659    0.235    0.461    5.866
  387.090   -0.000   95.216    0.232    0.455    6.125
  387.340   -0.000   93.063    0.223    0.442    6.316
  387.590   -0.000   94.248    0.232    0.440    6.498
  387.840    0.000   95.716    0.248    0.430    6.491
  388.090    0.000   94.613    0.258    0.425    6.450
  388.340    0.000   91.887    0.274    0.438    6.256
  388.590   -0.000   89.820    0.277    0.445    6.060
  388.840   -0.000   89.931    0.288    0.440    5.974
  389.090   -0.000   91.631    0.292    0.454    5.726
  389.340    0.000   93.079    0.283    0.481    5.623
  389.590    0.000   95.566    0.266    0.480    5.610
