~VERSION INFORMATION
 VERS.                 2.0:   CWLS LOG ASCII STANDARD -VERSION 2.0
 WRAP.                  NO:   ONE LINE PER DEPTH STEP
~WELL INFORMATION BLOCK
#MNEM.UNIT           DATA                    DESCRIPTION OF MNEMONIC
#---------    -------------------            -------------------------------
# Generated from Intellog Unique Number	CS_67_68/WELL/2161
WELL.         BVX et al TWEEDIE              : Well_name    - WELL
LOC .         00/03-06-067-11W4/0            : Location     - LOCATION
UWI .         00/03-06-067-11W4/0            : Uwi          - UNIQUE WELL ID
ENTR.         SP                             : Entered      - ENTERED BY
SRVC.         SCHLUMBERGER                   : Scn          - SERVICE COMPANY
STRT.M        365                            : top_depth    - START DEPTH
STOP.M        564                            : bot_depth    - STOP DEPTH
STEP.M        0.25                           : increment    - STEP LENGTH
 NULL. -999.2500:NULL Value
~CURVE INFORMATION BLOCK
#MNEM UNIT       ERCB CURVE CODE    CURVE DESCRIPTION
#-----------   ------------------   ----------------------------------
DEPT.M        00 001 00 00         : DEPTH        - DEPTH
ILD .OHMM     00 120 00 00         : RESD         - DEEP RESISTIVITY (DIL)
DPHI.V/V      00 890 00 00         : PHID         - DENSITY POROSITY (LIMESTONE)
NPHI.V/V      00 330 00 00         : PHIN         - NEUTRON POROSITY (LIMESTONE)
GR  .API      00 310 00 00         : GR           - GAMMA RAY
CALI.MM       00 280 01 00         : CAL          - CALIPER
~PARAMETER INFORMATION
#MNEM.UNIT           DATA             DESCRIPTION OF MNEMONIC
#---------         -----------     ------------------------------
GL  .M        643.48               : gl           - GROUND LEVEL ELEVATION
EREF.M        647.88               : kb           - ELEVATION OF DEPTH REFERENCE
DATM.M        647.88               : datum        - DATUM ELEVATION
TDD .M        563.2                : tdd          - TOTAL DEPTH DRILLER
RUN .         ONE                  : Run          - RUN NUMBER
ENG .         BILL                 : Engineer     - RECORDING ENGINEER
WIT .         JIM                  : Witness      - WITNESSED BY
MUD .         GEL                  : Mud_type     - MUD TYPE
MATR.         LIMESTONE            : Logunit      - NEUTRON MATRIX
TMAX.C        30                   : BHT          - MAXIMUM RECORDED TEMPERATURE
BHTD.M        562                  : BHTDEP       - MAXIMUM RECORDED TEMPERATURE
MATR.         1                    : LOGUNIT      - NEUTRON MATRIX
RMT .C        25                   : MDTP         - TEMPERATURE OF MUD
NEUT.         1                    : NEUTRON      - NEUTRON TYPE
RESI.         0                    : RESIST       - RESISTIVITY TYPE
RMC .OHMM     0.25                 : RMC          - RESISTIVITY OF MUD CAKE
RMF .OHMM     0.25                 : RMF          - RESISTIVITY OF MUD FILTRATE
SUFT.C        15                   : SUFT         - SURFACE TEMPERATURE
~A  DEPTH     RESD     PHID     PHIN       GR      CAL
  365.000    2.353    0.205    0.511  111.391  178.001
  365.250    2.348    0.199    0.464  101.737  178.225
  365.500    2.374    0.194    0.436   95.730  176.931
  365.750    2.391    0.199    0.415   98.904  176.648
  366.000    2.386    0.208    0.393   99.587  177.578
  366.250    2.373    0.212    0.373   98.504  179.932
  366.500    2.372    0.215    0.353   97.665  181.066
  366.750    2.390    0.217    0.368  105.643  182.307
  367.000    2.466    0.216    0.392  106.204  183.439
  367.250    2.584    0.214    0.411  103.968  184.372
  367.500    2.712    0.210    0.397  103.432  184.091
  367.750    2.815    0.205    0.418  103.264  182.695
  368.000    2.916    0.203    0.439  107.714  180.788
  368.250    3.026    0.207    0.453  112.103  178.277
  368.500    3.083    0.205    0.429  106.037  176.877
  368.750    3.152    0.200    0.407  102.157  176.190
  369.000    3.205    0.196    0.388  103.204  175.806
  369.250    3.193    0.190    0.362  109.359  175.725
  369.500    3.169    0.185    0.336  109.797  175.340
  369.750    3.086    0.185    0.365  108.166  173.640
  370.000    2.945    0.187    0.386  107.755  172.546
  370.250    2.784    0.184    0.407  109.590  172.166
  370.500    2.598    0.180    0.388  112.582  172.183
  370.750    2.465    0.189    0.377  111.197  172.005
  371.000    2.464    0.192    0.371  106.163  172.326
  371.250    2.591    0.196    0.383  111.710  171.840
  371.500    2.735    0.209    0.384  112.086  171.152
  371.750    2.964    0.219    0.373  109.545  174.012
  372.000    3.134    0.219    0.367  107.307  175.755
  372.250    3.186    0.207    0.360  107.564  178.310
  372.500    3.180    0.196    0.312  104.475  179.545
  372.750    3.080    0.192    0.312  100.477  174.804
  373.000    2.961    0.194    0.318   97.873  170.773
  373.250    2.747    0.190    0.343  106.703  173.934
  373.500    2.392    0.185    0.367  111.518  176.693
  373.750    2.175    0.181    0.400  111.044  180.158
  374.000    2.392    0.178    0.420  107.105  181.599
  374.250    2.695    0.181    0.306  105.476  177.058
  374.500    3.140    0.177    0.270   98.314  178.397
  374.750    3.660    0.117    0.246   94.801  178.419
  375.000    4.265    0.091    0.226   96.394  176.007
  375.250    4.770    0.065    0.230  100.541  172.481
  375.500    5.034    0.128    0.264  102.864  170.273
  375.750    5.081    0.151    0.274   99.170  171.511
  376.000    4.866    0.155    0.268   95.289  172.139
  376.250    4.749    0.163    0.250   96.761  169.223
  376.500    4.498    0.174    0.236   95.740  167.013
  376.750    4.642    0.177    0.248   95.268  166.629
  377.000    4.809    0.167    0.268   95.461  169.590
  377.250    4.817    0.161    0.256   98.088  173.259
  377.500    5.046    0.148    0.264  101.446  176.522
  377.750    5.208    0.152    0.276  103.950  177.660
  378.000    5.345    0.155    0.268  106.882  175.247
  378.250    5.405    0.151    0.263  103.431  172.634
  378.500    5.455    0.149    0.273   98.152  170.425
  378.750    5.464    0.164    0.280   94.396  172.474
  379.000    5.463    0.170    0.288   92.887  175.332
  379.250    5.432    0.171    0.295   91.805  175.251
  379.500    5.300    0.166    0.284   97.473  173.754
  379.750    5.522    0.152    0.276  108.977  177.220
  380.000    5.763    0.144    0.274  116.468  178.760
  380.250    5.860    0.138    0.262  107.969  179.697
  380.500    5.783    0.137    0.243   94.119  177.486
  380.750    5.664    0.185    0.218   81.241  176.087
  381.000    5.435    0.214    0.226   87.759  177.225
  381.250    5.081    0.240    0.242   93.731  173.597
  381.500    4.785    0.215    0.276   95.446  168.044
  381.750    4.465    0.191    0.308  103.241  165.835
  382.000    4.166    0.175    0.278  100.214  165.147
  382.250    3.689    0.164    0.246   79.553  164.257
  382.500    3.385    0.228    0.238   64.669  168.739
  382.750    3.094    0.223    0.231   49.785  170.885
  383.000    2.797    0.232    0.232   36.119  166.144
  383.250    2.585    0.261    0.266   42.880  163.227
  383.500    2.376    0.298    0.276   50.918  167.200
  383.750    2.272    0.309    0.269   56.707  164.382
  384.000    2.192    0.306    0.272   59.396  162.581
  384.250    2.188    0.289    0.292   63.602  162.297
  384.500    2.192    0.268    0.310   67.324  161.102
  384.750    2.131    0.251    0.320   57.182  161.528
  385.000    2.068    0.263    0.339   46.495  164.895
  385.250    1.951    0.283    0.317   38.359  166.333
  385.500    1.865    0.296    0.306   31.745  168.584
  385.750    1.786    0.285    0.300   32.000  168.503
  386.000    1.820    0.280    0.285   37.364  163.865
  386.250    1.878    0.278    0.272   40.661  162.972
  386.500    1.960    0.275    0.290   52.407  162.081
  386.750    2.046    0.268    0.311   63.121  158.353
  387.000    2.116    0.266    0.327   70.430  159.794
  387.250    2.184    0.254    0.298   63.087  164.375
  387.500    2.266    0.238    0.286   69.605  165.510
  387.750    2.414    0.226    0.291   72.961  170.699
  388.000    2.577    0.215    0.296   74.494  173.763
  388.250    2.725    0.213    0.300   71.954  168.918
  388.500    2.844    0.207    0.303   73.303  165.189
  388.750    2.812    0.232    0.299   73.194  167.135
  389.000    2.755    0.249    0.296   67.734  165.130
  389.250    2.663    0.244    0.299   66.409  163.023
  389.500    2.599    0.238    0.291   63.200  162.233
  389.750    2.545    0.250    0.280   57.254  162.660
  390.000    2.608    0.255    0.265   60.002  162.681
  390.250    2.681    0.243    0.255   72.055  161.893
  390.500    2.686    0.233    0.293   80.519  161.710
  390.750    2.646    0.234    0.327   71.898  164.165
  391.000    2.582    0.247    0.369   50.812  165.907
  391.250    2.422    0.259    0.367   44.440  163.192
  391.500    2.311    0.260    0.349   38.797  160.883
  391.750    2.185    0.258    0.325   34.919  161.106
  392.000    2.128    0.265    0.306   38.763  161.431
  392.250    2.238    0.248    0.287   46.922  160.948
  392.500    2.389    0.228    0.273   55.569  161.675
  392.750    2.475    0.210    0.262   70.055  166.157
  393.000    2.564    0.198    0.252   76.146  169.926
  393.250    2.676    0.190    0.247   79.137  168.022
  393.500    2.777    0.203    0.279   81.522  165.207
  393.750    2.751    0.210    0.308   86.033  164.417
  394.000    2.586    0.208    0.327   88.174  166.770
  394.250    2.500    0.214    0.351   84.114  168.311
  394.500    2.463    0.225    0.367   85.221  168.229
  394.750    2.485    0.229    0.363   75.748  168.961
  395.000    2.537    0.224    0.341   67.187  171.919
  395.250    2.667    0.237    0.321   72.368  169.305
  395.500    2.820    0.245    0.307   88.007  164.564
  395.750    2.852    0.221    0.303   94.769  167.221
  396.000    2.857    0.203    0.323   84.203  167.547
  396.250    2.772    0.225    0.338   74.608  165.540
  396.500    2.645    0.236    0.342   79.972  163.331
  396.750    2.543    0.222    0.326   77.555  163.252
  397.000    2.468    0.214    0.319   75.133  163.987
  397.250    2.477    0.223    0.340   76.909  164.814
  397.500    2.481    0.231    0.324   73.943  166.053
  397.750    2.490    0.242    0.305   67.691  167.794
  398.000    2.494    0.255    0.299   62.172  170.753
  398.250    2.517    0.243    0.277   69.298  170.572
  398.500    2.550    0.229    0.312   82.809  167.757
  398.750    2.563    0.219    0.337   82.578  166.360
  399.000    2.558    0.229    0.359   71.283  167.494
  399.250    2.478    0.233    0.372   64.545  167.414
  399.500    2.347    0.233    0.354   58.112  163.381
  399.750    2.198    0.237    0.341   51.255  161.781
  400.000    2.125    0.257    0.316   46.282  161.907
  400.250    2.047    0.270    0.307   42.098  161.824
  400.500    1.990    0.280    0.297   42.355  161.441
  400.750    1.982    0.286    0.287   43.522  161.565
  401.000    2.136    0.284    0.281   53.993  162.191
  401.250    2.335    0.280    0.292   68.598  163.227
