~VERSION INFORMATION
 VERS.                 2.0:   CWLS LOG ASCII STANDARD -VERSION 2.0
 WRAP.                  NO:   ONE LINE PER DEPTH STEP
~WELL INFORMATION BLOCK
#MNEM.UNIT           DATA                    DESCRIPTION OF MNEMONIC
#---------    -------------------            -------------------------------
# Generated from Intellog Unique Number	CW_79_81/WELL/199
WELL.         CHEVRON ET AL HORIZON          : Well_name    - WELL
LOC .         00/04-02-079-19W4/0            : Location     - LOCATION
UWI .         00/04-02-079-19W4/0            : Uwi          - UNIQUE WELL ID
ENTR.         MAX                            : Entered      - ENTERED BY
SRVC.         SCHLUMBERGER                   : Scn          - SERVICE COMPANY
STRT.M        179.832                        : top_depth    - START DEPTH
STOP.M        382.332                        : bot_depth    - STOP DEPTH
STEP.M        0.25                           : increment    - STEP LENGTH
 NULL. -999.2500:NULL Value
~CURVE INFORMATION BLOCK
#MNEM UNIT       ERCB CURVE CODE    CURVE DESCRIPTION
#-----------   ------------------   ----------------------------------
DEPT.M        00 001 00 00         : DEPTH        - DEPTH
ILD .OHMM     00 120 00 00         : RESD         - DEEP RESISTIVITY (DIL)
NPHI.V/V      00 330 00 00         : PHIN         - NEUTRON POROSITY (SANDSTONE)
DPHI.V/V      00 890 00 00         : PHID         - DENSITY POROSITY (SANDSTONE)
CALI.MM       00 280 01 00         : CAL          - CALIPER
GR  .API      00 310 00 00         : GR           - GAMMA RAY
~PARAMETER INFORMATION
#MNEM.UNIT           DATA             DESCRIPTION OF MNEMONIC
#---------         -----------     ------------------------------
GL  .M        555.346              : gl           - GROUND LEVEL ELEVATION
EREF.M        558.698              : kb           - ELEVATION OF DEPTH REFERENCE
DATM.M        555.346              : datum        - DATUM ELEVATION
TDD .M        382.524              : tdd          - TOTAL DEPTH DRILLER
RUN .         ONE                  : Run          - RUN NUMBER
ENG .         BILL                 : Engineer     - RECORDING ENGINEER
WIT .         JIM                  : Witness      - WITNESSED BY
MUD .         GEL                  : Mud_type     - MUD TYPE
MATR.         SANDSTONE            : Logunit      - NEUTRON MATRIX
TMAX.C        25                   : BHT          - MAXIMUM RECORDED TEMPERATURE
BHTD.M        382.524              : BHTDEP       - MAXIMUM RECORDED TEMPERATURE
RMT .C        13.3333              : MDTP         - TEMPERATURE OF MUD
MUDD.KG/M     10300                : MWT          - MUD DENSITY
NEUT.         1                    : NEUTRON      - NEUTRON TYPE
RESI.         0                    : RESIST       - RESISTIVITY TYPE
RM  .OHMM     5.98                 : RM           - RESISTIVITY OF MUD
RMC .OHMM     5.98                 : RMC          - RESISTIVITY OF MUD CAKE
RMF .OHMM     6.05                 : RMF          - RESISTIVITY OF MUD FILTRATE
SUFT.C        -15                  : SUFT         - SURFACE TEMPERATURE
~A  DEPTH     RESD     PHIN     PHID      CAL       GR
# ...
  252.832   17.915    0.247    0.044  199.919   45.419
  253.082   17.467    0.327    0.079  200.530   45.472
  253.332   16.426    0.406    0.257  198.153   47.288
  253.582   15.165    0.525    0.306  191.851   51.160
  253.832   14.785    0.550    0.341  191.419   51.513
  254.082   15.085    0.526    0.328  192.512   50.995
  254.332   15.961    0.466    0.288  192.639   49.599
  254.582   18.672    0.413    0.201  193.249   48.189
  254.832   21.827    0.328    0.155  196.299   46.493
  255.082   26.003    0.258    0.091  199.387   44.519
  255.332   30.129    0.208    0.064  199.489   43.979
  255.582   36.551    0.196    0.057  199.095   43.746
  255.832   39.732    0.189    0.046  197.723   43.229
  256.082   40.928    0.184    0.039  198.841   41.826
  256.332   41.380    0.177    0.029  199.921   41.308
  256.582   42.209    0.178    0.025  199.540   43.709
  256.832   42.686    0.176    0.034  199.655   44.355
  257.082   43.179    0.171    0.042  199.744   42.959
  257.332   43.261    0.164    0.027  199.338   42.727
  257.582   43.334    0.163    0.021  199.465   43.957
  257.832   42.249    0.167    0.012  200.062   46.074
  258.082   40.829    0.180    0.025  199.668   46.126
  258.332   39.099    0.196    0.033  199.287   46.194
  258.582   37.104    0.215    0.010  199.376   47.147
  258.832   35.177    0.240    0.068  199.478   48.070
  259.082   30.200    0.318    0.125  198.589   50.787
  259.332   25.459    0.427    0.225  195.717   52.595
  259.582   19.953    0.528    0.289  194.840   54.704
  259.832   17.764    0.531    0.315  194.447   54.764
  260.082   15.960    0.534    0.320  194.066   53.076
  260.332   14.741    0.523    0.320  193.685   52.251
  260.582   14.110    0.532    0.314  193.291   52.626
  260.832   13.757    0.536    0.308  192.897   52.678
  261.082   13.535    0.542    0.314  192.503   52.746
  261.332   13.564    0.551    0.310  192.605   52.814
  261.582   13.470    0.542    0.300  192.720   52.874
  261.832   13.490    0.535    0.312  192.821   52.934
  262.082   13.490    0.540    0.322  192.910   53.272
  262.332   13.554    0.543    0.331  193.025   54.517
  262.582   13.573    0.528    0.329  193.648   55.748
  262.832   13.600    0.514    0.327  195.224   56.687
  263.082   13.632    0.485    0.306  195.821   56.754
  263.332   13.655    0.499    0.306  194.944   55.944
  263.582   13.678    0.499    0.293  194.563   56.289
  263.832   13.586    0.483    0.290  194.144   57.242
  264.082   13.489    0.507    0.284  193.255   57.295
  264.332   13.389    0.519    0.280  192.391   57.347
  264.582   13.297    0.523    0.271  191.984   58.000
  264.832   13.322    0.508    0.277  192.086   58.060
  265.082   13.348    0.498    0.290  191.692   58.421
  265.332   13.348    0.491    0.291  190.816   59.944
  265.582   13.415    0.502    0.291  190.435   60.590
  265.832   13.424    0.506    0.283  190.028   60.657
  266.082   13.579    0.490    0.289  190.143   60.132
  266.332   13.729    0.477    0.279  190.257   61.070
  266.582   13.881    0.503    0.275  190.372   63.179
  266.832   14.163    0.481    0.269  190.461   62.954
  267.082   15.129    0.467    0.271  191.058   60.673
  267.332   16.146    0.405    0.239  192.189   58.692
  267.582   19.230    0.232    0.117  192.748   55.825
  267.832   22.287    0.226    0.028  195.341   53.244
  268.082   23.807    0.260    0.053  196.942   52.133
  268.332   22.372    0.433    0.171  196.536   52.486
  268.582   17.538    0.483    0.254  195.646   56.066
  268.832   16.049    0.486    0.256  193.296   59.938
  269.082   15.223    0.505    0.257  191.415   60.306
  269.332   14.446    0.505    0.262  190.056   60.351
  269.582   14.210    0.495    0.268  189.624   60.719
  269.832   13.735    0.503    0.277  189.738   59.886
  270.082   13.735    0.490    0.284  189.878   57.319
  270.332   13.540    0.482    0.282  190.437   57.094
  270.582   12.963    0.473    0.283  192.026   59.203
  270.832   12.751    0.485    0.283  194.123   59.263
  271.082   12.551    0.498    0.281  194.237   60.201
  271.332   12.458    0.511    0.271  194.352   62.017
  271.582   12.372    0.496    0.253  194.454   65.605
  271.832   12.172    0.500    0.256  195.547   65.372
  272.082   12.172    0.512    0.255  195.636   67.488
  272.332   11.908    0.524    0.251  195.763   71.053
  272.582   11.699    0.557    0.245  194.861   76.404
  272.832   10.899    0.545    0.233  194.975   75.571
  273.082   10.062    0.532    0.230  194.569   74.168
  273.332    8.639    0.522    0.227  194.188   73.650
  273.582    7.552    0.553    0.220  194.785   77.222
  273.832    6.725    0.569    0.218  196.386   81.102
  274.082    6.266    0.561    0.218  197.492   81.455
  274.332    5.997    0.579    0.223  197.594   80.922
  274.582    5.796    0.586    0.231  198.204   79.234
  274.832    5.807    0.579    0.242  198.280   76.067
  275.082    5.923    0.564    0.243  197.429   70.859
  275.332    6.159    0.586    0.236  196.019   72.390
  275.582    6.399    0.576    0.259  193.655   68.938
  275.832    6.587    0.552    0.274  191.775   65.193
  276.082    7.036    0.553    0.296  190.898   60.563
  276.332    7.309    0.550    0.297  192.474   57.704
  276.582    7.948    0.551    0.284  193.580   57.764
  276.832    8.332    0.556    0.300  192.690   53.434
  277.082    8.740    0.561    0.305  191.814   54.080
  277.332    9.415    0.561    0.311  191.407   56.196
  277.582    9.606    0.558    0.323  190.518   59.476
  277.832    9.367    0.558    0.308  190.620   60.721
  278.082    8.727    0.574    0.296  190.734   63.416
  278.332    8.059    0.581    0.282  191.827   65.810
  278.582    7.714    0.560    0.307  191.433   65.299
  278.832    7.661    0.536    0.323  191.561   63.303
  279.082    7.744    0.535    0.309  191.650   58.981
  279.332    8.270    0.518    0.295  191.764   58.448
  279.582    8.830    0.495    0.290  191.879   59.394
  279.832    9.096    0.518    0.289  191.968   61.503
  280.082    9.111    0.565    0.270  192.082   62.741
  280.332    8.883    0.581    0.301  192.184   62.501
  280.582    8.504    0.556    0.287  192.273   61.098
  280.832    8.144    0.550    0.262  192.400   62.336
  281.082    7.867    0.560    0.238  192.502   66.208
  281.332    7.606    0.536    0.234  192.617   69.488
  281.582    7.620    0.535    0.265  192.719   73.945
  281.832    7.633    0.562    0.276  192.808   73.420
  282.082    7.931    0.534    0.292  192.922   70.269
  282.332    8.625    0.506    0.273  192.528   68.565
  282.582    9.295    0.441    0.242  192.630   59.553
  282.832   10.107    0.349    0.151  193.736   57.864
  283.082   10.890    0.336    0.128  194.829   58.810
  283.332   11.522    0.364    0.091  195.439   59.448
  283.582   11.755    0.368    0.104  196.036   58.630
  283.832   11.566    0.311    0.107  196.125   56.641
  284.082   10.978    0.311    0.086  196.227   55.823
  284.332   10.511    0.507    0.244  195.872   58.818
  284.582   10.152    0.495    0.255  195.452   65.031
  284.832    9.991    0.453    0.183  194.576   65.669
  285.082   10.196    0.321    0.099  194.195   64.574
  285.332   10.501    0.335    0.073  193.801   62.878
  285.582   10.518    0.393    0.076  193.407   63.238
  285.832   10.346    0.425    0.213  193.001   65.640
  286.082    9.998    0.524    0.244  193.115   68.034
  286.332    9.145    0.521    0.266  193.217   69.850
  286.582    8.216    0.540    0.279  193.331   71.974
  286.832    7.518    0.556    0.269  193.421   73.790
  287.082    7.133    0.578    0.268  194.031   75.035
  287.332    7.133    0.577    0.262  194.132   76.251
  287.582    6.787    0.588    0.251  194.730   78.660
  287.832    6.433    0.570    0.266  195.327   80.484
  288.082    6.273    0.562    0.260  195.442   80.544
  288.332    6.227    0.585    0.254  195.569   81.775
  288.582    6.126    0.587    0.242  195.645   84.769
  288.832    6.143    0.589    0.240  195.773   86.300
  289.082    6.154    0.587    0.240  195.862   84.311
