~VERSION INFORMATION
 VERS.                 2.0:   CWLS LOG ASCII STANDARD -VERSION 2.0
 WRAP.                  NO:   ONE LINE PER DEPTH STEP
~WELL INFORMATION BLOCK
#MNEM.UNIT           DATA                    DESCRIPTION OF MNEMONIC
#---------    -------------------            -------------------------------
# Generated from Intellog Unique Number	CW_76_78/WELL/528
WELL.         ASHLAND ET AL PELICAN 06-17    : Well_name    - WELL
LOC .         00/06-17-076-19W4/0            : Location     - LOCATION
UWI .         00/06-17-076-19W4/0            : Uwi          - UNIQUE WELL ID
ENTR.         JAYE                           : Entered      - ENTERED BY
SRVC.         SCHLUMBERGER                   : Scn          - SERVICE COMPANY
DATE.         18 FEB 73                      : Date         - LOG DATE
STRT.M        243.84                         : top_depth    - START DEPTH
STOP.M        417.59                         : bot_depth    - STOP DEPTH
STEP.M        0.25                           : increment    - STEP LENGTH
 NULL. -999.2500:NULL Value
~CURVE INFORMATION BLOCK
#MNEM UNIT       ERCB CURVE CODE    CURVE DESCRIPTION
#-----------   ------------------   ----------------------------------
DEPT.M        00 001 00 00         : DEPTH        - DEPTH
ILD .OHMM     00 120 00 00         : RESD         - DEEP RESISTIVITY (DIL)
NPHI.V/V      00 330 00 00         : PHIN         - NEUTRON POROSITY (SANDSTONE)
DPHI.V/V      00 890 00 00         : PHID         - DENSITY POROSITY (SANDSTONE)
GR  .API      00 310 00 00         : GR           - GAMMA RAY
CALI.MM       00 280 01 00         : CAL          - CALIPER
~PARAMETER INFORMATION
#MNEM.UNIT           DATA             DESCRIPTION OF MNEMONIC
#---------         -----------     ------------------------------
GL  .M        577.596              : gl           - GROUND LEVEL ELEVATION
EREF.M        581.558              : kb           - ELEVATION OF DEPTH REFERENCE
DATM.M        577.596              : datum        - DATUM ELEVATION
TDD .M        507.492              : tdd          - TOTAL DEPTH DRILLER
RUN .         ONE                  : Run          - RUN NUMBER
ENG .         KEITH                : Engineer     - RECORDING ENGINEER
BASE.         EDM                  : Branch       - HOME BASE OF LOGGING UNIT
MUD .         GEL CHEM             : Mud_type     - MUD TYPE
MATR.         SANDSTONE            : Logunit      - NEUTRON MATRIX
TMAX.C        21.1111              : BHT          - MAXIMUM RECORDED TEMPERATURE
BHTD.M        507.797              : BHTDEP       - MAXIMUM RECORDED TEMPERATURE
RMT .C        13.8889              : MDTP         - TEMPERATURE OF MUD
MUDD.KG/M     0                    : MWT          - MUD DENSITY
NEUT.         1                    : NEUTRON      - NEUTRON TYPE
RESI.         0                    : RESIST       - RESISTIVITY TYPE
RM  .OHMM     2.32                 : RM           - RESISTIVITY OF MUD
RMC .OHMM     0                    : RMC          - RESISTIVITY OF MUD CAKE
RMF .OHMM     2.38                 : RMF          - RESISTIVITY OF MUD FILTRATE
SUFT.C        -17.7778             : SUFT         - SURFACE TEMPERATURE
~A  DEPTH     RESD     PHIN     PHID       GR      CAL
# ...
  389.840    0.411    0.514    0.104   91.763  176.584
  390.090    0.398    0.500    0.134   94.835  178.598
  390.340    0.397    0.481    0.164   94.382  182.157
  390.590    0.400    0.480    0.135   89.491  173.771
  390.840    0.403    0.464    0.136   92.684  171.866
  391.090    0.408    0.444    0.173   94.601  171.515
  391.340    0.411    0.427    0.197   93.415  171.467
  391.590    0.415    0.453    0.179   92.237  172.040
  391.840    0.417    0.488    0.155   94.033  174.875
  392.090    0.417    0.504    0.149   97.772  189.134
  392.340    0.430    0.437    0.206   95.617  177.558
  392.590    0.444    0.376    0.184   89.390  170.619
  392.840    0.453    0.376    0.108   84.683  165.941
  393.090    0.452    0.401    0.133   86.540  166.815
  393.340    0.434    0.420    0.179   88.393  168.931
  393.590    0.414    0.438    0.182   87.819  171.457
  393.840    0.405    0.440    0.174   86.882  172.334
  394.090    0.406    0.429    0.180   86.975  164.775
  394.340    0.418    0.396    0.158   84.939  162.051
  394.590    0.444    0.345    0.137   81.934  163.450
  394.840    0.491    0.313    0.118   74.616  168.135
  395.090    0.539    0.302    0.103   71.001  170.041
  395.340    0.551    0.351    0.092   72.250  170.301
  395.590    0.545    0.404    0.135   77.935  169.949
  395.840    0.530    0.426    0.157   83.925  169.179
  396.090    0.522    0.422    0.159   85.415  168.311
  396.340    0.517    0.375    0.123   83.200  165.385
  396.590    0.510    0.337    0.080   78.188  163.483
  396.840    0.501    0.368    0.053   75.791  165.287
  397.090    0.478    0.402    0.071   79.711  167.713
  397.340    0.442    0.437    0.124   84.850  171.163
  397.590    0.412    0.464    0.147   90.049  175.229
  397.840    0.398    0.484    0.139   91.114  176.524
  398.090    0.394    0.477    0.140   88.899  176.780
  398.340    0.396    0.425    0.136   87.293  174.166
  398.590    0.397    0.422    0.094   85.135  173.500
  398.840    0.399    0.445    0.076   89.910  176.130
  399.090    0.399    0.456    0.119   92.861  177.729
  399.340    0.397    0.474    0.139   91.374  175.832
  399.590    0.392    0.441    0.147   89.947  173.722
  399.840    0.390    0.436    0.129   90.345  172.749
  400.090    0.392    0.455    0.122   90.621  172.187
  400.340    0.399    0.431    0.128   90.352  172.140
  400.590    0.408    0.385    0.114   88.439  172.196
  400.840    0.415    0.326    0.088   83.004  171.314
  401.090    0.421    0.315    0.047   73.677  170.554
  401.340    0.416    0.364    0.045   83.555  169.687
  401.590    0.395    0.370    0.072   88.631  169.127
  401.840    0.365    0.374    0.105   89.576  169.178
  402.090    0.328    0.384    0.111   89.246  169.444
  402.340    0.295    0.405    0.145   90.434  170.116
  402.590    0.269    0.420    0.117   91.379  170.684
  402.840    0.252    0.513    0.175   90.742  170.025
  403.090    0.242    0.576    0.213   91.383  164.318
  403.340    0.238    0.605    0.225   91.354  170.343
  403.590    0.238    0.626    0.210   90.416  176.057
  403.840    0.245    0.595    0.235   93.670  177.966
  404.090    0.254    0.551    0.215   97.773  177.199
  404.340    0.267    0.488    0.193  100.240  175.292
  404.590    0.285    0.421    0.171   95.349  174.225
  404.840    0.308    0.381    0.124   87.906  177.779
  405.090    0.336    0.368    0.125   85.812  172.896
  405.340    0.373    0.389    0.101   84.387  174.185
  405.590    0.419    0.408    0.096   82.779  179.181
  405.840    0.441    0.396    0.133   80.623  179.855
  406.090    0.432    0.353    0.103   75.005  168.383
  406.340    0.420    0.369    0.070   71.875  159.794
  406.590    0.405    0.416    0.040   79.021  164.583
  406.840    0.394    0.454    0.148   87.381  164.432
  407.090    0.375    0.479    0.136   90.024  163.047
  407.340    0.353    0.491    0.143   89.817  168.765
  407.590    0.324    0.474    0.127   88.026  165.632
  407.840    0.319    0.448    0.134   86.236  159.920
  408.090    0.325    0.428    0.123   83.048  158.644
  408.340    0.340    0.424    0.121   82.656  165.286
  408.590    0.354    0.434    0.104   85.970  172.649
  408.840    0.369    0.460    0.077   86.366  172.291
  409.090    0.368    0.460    0.106   85.246  168.026
  409.340    0.365    0.442    0.102   84.185  170.957
  409.590    0.366    0.441    0.127   85.675  173.902
  409.840    0.364    0.449    0.115   88.263  173.236
  410.090    0.364    0.441    0.126   91.090  172.262
  410.340    0.363    0.427    0.120   93.860  171.906
  410.590    0.367    0.413    0.107   95.714  171.547
  410.840    0.382    0.393    0.101   94.715  171.295
  411.090    0.406    0.382    0.113   91.406  171.348
  411.340    0.425    0.408    0.115   91.862  170.995
  411.590    0.427    0.413    0.102   94.510  170.945
  411.840    0.414    0.384    0.161   96.669  171.410
  412.090    0.402    0.410    0.149   98.770  171.774
  412.340    0.390    0.442    0.156   97.707  172.044
  412.590    0.381    0.389    0.169   94.460  172.204
  412.840    0.380    0.401    0.146   86.591  173.699
  413.090    0.385    0.401    0.121   82.673  175.506
  413.340    0.423    0.287    0.108   76.995  179.165
  413.590    0.537    0.220    0.043   63.171  162.751
  413.840    0.695    0.210   -0.007   47.462  161.359
  414.090    1.010    0.217    0.015   34.976  161.010
  414.340    1.549    0.209    0.061   32.516  160.139
  414.590    2.482    0.228    0.057   33.097  158.645
  414.840    2.759    0.255    0.118   35.439  156.958
  415.090    2.818    0.248    0.140   33.163  155.573
  415.340    2.906    0.276    0.131   25.658  155.215
  415.590    3.114    0.288    0.114   22.410  156.201
  415.840    3.368    0.232    0.125   20.499  158.312
  416.090    3.987    0.217    0.030   20.593  160.120
  416.340    4.210    0.201    0.005   22.081  161.926
  416.590    3.219    0.198    0.023   24.000  163.320
  416.840    2.346    0.213    0.037   28.531  162.657
  417.090    1.623    0.256    0.046   38.593  160.242
  417.340    1.166    0.281    0.091   48.594  158.337
  417.590    1.001    0.311    0.165   56.100  157.361
