~VERSION INFORMATION
 VERS.                 2.0:   CWLS LOG ASCII STANDARD -VERSION 2.0
 WRAP.                  NO:   ONE LINE PER DEPTH STEP
~WELL INFORMATION BLOCK
#MNEM.UNIT           DATA                    DESCRIPTION OF MNEMONIC
#---------    -------------------            -------------------------------
# Generated from Intellog Unique Number	CX_WELLS/WELL/4026
WELL.         PACIFIC WILLOW                 : Well_name    - WELL
LOC .         00/07-09-077-04W5/0            : Location     - LOCATION
UWI .         00/07-09-077-04W5/0            : Uwi          - UNIQUE WELL ID
ENTR.         T                              : Entered      - ENTERED BY
SRVC.         SCHLUMBERGER                   : Scn          - SERVICE COMPANY
STRT.F        1400                           : top_depth    - START DEPTH
STOP.F        2149.67                        : bot_depth    - STOP DEPTH
STEP.F        0.82                           : increment    - STEP LENGTH
 NULL. -999.2500:NULL Value
~CURVE INFORMATION BLOCK
#MNEM UNIT       ERCB CURVE CODE    CURVE DESCRIPTION
#-----------   ------------------   ----------------------------------
DEPT.F        00 001 00 00         : DEPTH        - DEPTH
GR  .API      00 310 00 00         : GR           - GAMMA RAY
NPHI.V/V      00 330 00 00         : PHIN         - NEUTRON POROSITY (SANDSTONE)
DPHI.V/V      00 890 00 00         : PHID         - DENSITY POROSITY (SANDSTONE)
ILD .OHMM     00 120 00 00         : RESD         - DEEP RESISTIVITY (DIL)
~PARAMETER INFORMATION
#MNEM.UNIT           DATA             DESCRIPTION OF MNEMONIC
#---------         -----------     ------------------------------
GL  .F        2352                 : gl           - GROUND LEVEL ELEVATION
EREF.F        2364.5               : kb           - ELEVATION OF DEPTH REFERENCE
DATM.F        2364.5               : datum        - DATUM ELEVATION
TDD .F        2166                 : tdd          - TOTAL DEPTH DRILLER
RUN .         ONE                  : Run          - RUN NUMBER
ENG .         BILL                 : Engineer     - RECORDING ENGINEER
WIT .         JIM                  : Witness      - WITNESSED BY
MUD .         GEL                  : Mud_type     - MUD TYPE
MATR.         SANDSTONE            : Logunit      - NEUTRON MATRIX
TMAX.F        82                   : BHT          - MAXIMUM RECORDED TEMPERATURE
BHTD.F        2166                 : BHTDEP       - MAXIMUM RECORDED TEMPERATURE
MATR.         1                    : LOGUNIT      - NEUTRON MATRIX
RMT .F        65                   : MDTP         - TEMPERATURE OF MUD
NEUT.         1                    : NEUTRON      - NEUTRON TYPE
RESI.         4.1                  : RESIST       - RESISTIVITY TYPE
RMC .OHMM     3.5                  : RMC          - RESISTIVITY OF MUD CAKE
RMF .OHMM     3.5                  : RMF          - RESISTIVITY OF MUD FILTRATE
SUFT.F        35                   : SUFT         - SURFACE TEMPERATURE
~A  DEPTH       GR     PHIN     PHID     RESD
# ...
 1542.720   53.006    0.416    0.270    6.520
 1543.540   52.468    0.415    0.274    6.653
 1544.360   51.915    0.415    0.289    6.659
 1545.180   51.347    0.413    0.295    6.670
 1546.000   55.114    0.413    0.299    6.674
 1546.820   58.850    0.413    0.299    6.441
 1547.640   62.571    0.414    0.291    6.444
 1548.460   69.999    0.426    0.283    6.216
 1549.280   74.347    0.446    0.276    6.109
 1550.100   77.471    0.463    0.268    6.112
 1550.920   80.594    0.476    0.250    6.007
 1551.740   84.346    0.493    0.238    6.012
 1552.560   87.484    0.500    0.232    6.021
 1553.380   89.382    0.498    0.227    6.026
 1554.200   88.201    0.490    0.231    5.922
 1555.020   83.987    0.483    0.239    5.817
 1555.840   80.968    0.471    0.244    5.717
 1556.660   77.351    0.462    0.254    5.728
 1557.480   73.734    0.461    0.262    5.840
 1558.300   69.505    0.463    0.267    5.845
 1559.120   65.291    0.467    0.278    6.077
 1559.940   63.512    0.474    0.285    6.319
 1560.760   63.572    0.477    0.292    6.444
 1561.580   64.244    0.475    0.300    6.450
 1562.400   64.917    0.466    0.304    6.583
 1563.220   66.217    0.468    0.303    6.466
 1564.040   66.875    0.471    0.300    6.474
 1564.860   68.788    0.475    0.297    6.364
 1565.680   70.058    0.482    0.296    6.368
 1566.500   71.986    0.485    0.295    6.377
 1567.320   72.643    0.481    0.293    6.507
 1568.140   73.316    0.476    0.290    6.512
 1568.960   73.988    0.472    0.288    6.642
 1569.780   74.676    0.469    0.286    6.777
 1570.600   74.123    0.466    0.281    6.912
 1571.420   73.555    0.465    0.273    7.188
 1572.240   69.968    0.461    0.277    7.760
 1573.060   68.160    0.456    0.277    8.062
 1573.880   64.543    0.455    0.273    8.868
 1574.700   60.329    0.453    0.267    9.390
 1575.520   58.550    0.453    0.259   10.137
 1576.350   58.610    0.452    0.257   10.341
 1577.170   59.910    0.452    0.257   10.356
 1577.990   60.553    0.451    0.258   10.371
 1578.810   63.078    0.455    0.256   10.377
 1579.630   64.976    0.463    0.258   10.394
 1580.450   65.649    0.461    0.260   10.210
 1581.270   65.111    0.462    0.265   10.218
 1582.090   63.930    0.462    0.268   10.230
 1582.910   60.313    0.460    0.268   10.057
 1583.730   58.550    0.453    0.267    9.878
 1584.550   59.222    0.450    0.266    9.886
 1585.370   59.267    0.447    0.266    9.713
 1586.190   58.729    0.453    0.267    9.546
 1587.010   57.593    0.460    0.273    9.379
 1587.830   57.011    0.464    0.276    9.393
 1588.650   55.875    0.463    0.280    9.403
 1589.470   55.307    0.461    0.274    9.417
 1590.290   55.352    0.458    0.268    9.247
 1591.110   53.588    0.458    0.268    9.265
 1591.930   53.050    0.458    0.269    9.098
 1592.750   53.095    0.456    0.274    9.106
 1593.570   53.140    0.457    0.282    9.119
 1594.390   53.229    0.459    0.287    8.962
 1595.210   52.647    0.461    0.284    8.970
 1596.030   52.123    0.459    0.279    8.815
 1596.850   51.585    0.457    0.271    8.823
 1597.670   52.243    0.454    0.268    8.668
 1598.490   52.288    0.451    0.267    8.681
 1599.310   53.573    0.449    0.268    8.688
 1600.130   54.888    0.449    0.269    8.536
 1600.950   55.546    0.454    0.273    8.387
 1601.770   55.605    0.465    0.275    8.240
 1602.590   55.665    0.473    0.274    8.098
 1603.410   55.740    0.470    0.278    8.108
 1604.230   55.172    0.463    0.283    7.970
 1605.050   54.619    0.458    0.286    7.975
 1605.870   54.709    0.455    0.285    7.984
 1606.690   54.739    0.455    0.282    7.844
 1607.510   56.039    0.452    0.275    7.853
 1608.330   57.339    0.449    0.271    7.864
 1609.150   58.011    0.445    0.269    7.873
 1609.970   58.086    0.445    0.268    7.882
 1610.790   58.116    0.447    0.267    7.889
 1611.610   58.206    0.449    0.269    7.900
 1612.430   58.265    0.451    0.272    7.914
 1613.250   58.295    0.455    0.267    7.918
 1614.070   58.355    0.459    0.265    7.930
 1614.900   59.042    0.459    0.265    7.936
 1615.720   59.715    0.459    0.269    7.948
 1616.540   61.658    0.456    0.276    7.959
 1617.360   62.928    0.454    0.279    7.820
 1618.180   63.586    0.452    0.283    7.679
 1619.000   64.856    0.455    0.273    7.546
 1619.820   68.622    0.458    0.250    7.417
 1620.640   69.892    0.459    0.236    7.147
 1621.460   71.177    0.453    0.217    6.763
 1622.280   70.624    0.448    0.199    7.034
 1623.100   67.008    0.442    0.166    8.656
 1623.920   64.647    0.219    0.074   10.856
 1624.740   65.289    0.204   -0.007   13.114
 1625.560   66.574    0.221    0.031   15.846
 1626.380   70.326    0.262    0.081   11.528
 1627.200   74.062    0.450    0.124   10.507
 1628.020   79.023    0.456    0.166    9.398
 1628.840   88.274    0.464    0.235    8.094
 1629.660   93.251    0.473    0.242    6.972
 1630.480   90.875    0.476    0.242    5.895
 1631.300   89.111    0.476    0.248    5.174
 1632.120   88.528    0.477    0.254    4.543
 1632.940   89.201    0.481    0.245    4.381
 1633.760   91.712    0.490    0.242    4.306
 1634.580   94.237    0.493    0.246    4.309
 1635.400   96.135    0.485    0.249    4.315
 1636.220   99.259    0.474    0.241    4.319
 1637.040  101.769    0.470    0.228    4.325
 1637.860   99.991    0.466    0.217    4.411
 1638.680   97.600    0.465    0.217    4.416
 1639.500   98.885    0.461    0.215    4.506
 1640.320  103.249    0.466    0.213    4.513
 1641.140  105.789    0.475    0.203    4.516
 1641.960  106.432    0.484    0.198    4.524
 1642.780  108.943    0.483    0.197    4.527
 1643.600  110.228    0.486    0.195    4.450
 1644.420  112.171    0.487    0.195    4.454
 1645.240  112.828    0.481    0.195    4.376
 1646.060  112.873    0.473    0.194    4.380
 1646.880  111.737    0.463    0.192    4.306
 1647.700  109.929    0.455    0.190    4.309
 1648.520  107.538    0.463    0.190    4.314
 1649.340  103.936    0.471    0.188    4.319
 1650.160  102.173    0.476    0.186    4.325
 1650.980  102.202    0.476    0.183    4.251
 1651.800  104.743    0.476    0.181    4.254
 1652.620  106.028    0.477    0.179    4.179
 1653.440  107.299    0.479    0.175    4.185
 1654.270  107.358    0.479    0.174    4.110
 1655.090  103.742    0.479    0.174    4.117
 1655.910   98.302    0.479    0.180    4.121
 1656.730   94.670    0.485    0.193    4.049
 1657.550   92.892    0.492    0.215    3.979
 1658.370   90.515    0.505    0.225    3.908
 1659.190   88.722    0.515    0.230    3.841
 1660.010   87.556    0.512    0.236    3.918
 1660.830   87.003    0.499    0.242    4.230
 1661.650   86.465    0.491    0.243    4.396
 1662.470   85.897    0.481    0.245    4.569
 1663.290   84.746    0.483    0.251    4.748
 1664.110   84.194    0.490    0.255    4.847
 1664.930   83.043    0.490    0.258    4.762
 1665.750   81.847    0.482    0.259    4.590
 1666.570   80.696    0.477    0.264    4.510
 1667.390   80.756    0.475    0.269    4.350
 1668.210   80.203    0.466    0.271    4.274
 1669.030   79.650    0.460    0.254    4.281
 1669.850   79.725    0.446    0.241    4.283
 1670.670   80.382    0.435    0.207    4.452
 1671.490   81.085    0.419    0.137    4.543
 1672.310   81.728    0.404    0.139    4.632
 1673.130   81.787    0.396    0.158    4.815
 1673.950   84.941    0.441    0.199    4.912
 1674.770   87.451    0.463    0.205    4.920
 1675.590   89.334    0.473    0.215    4.657
 1676.410   91.845    0.483    0.235    4.488
 1677.230   95.581    0.480    0.215    4.249
 1678.050   99.945    0.478    0.195    4.174
 1678.870  104.294    0.474    0.187    4.025
 1679.690  106.192    0.471    0.180    3.881
 1680.510  106.252    0.468    0.180    3.742
 1681.330  105.714    0.463    0.176    3.745
 1682.150  105.161    0.464    0.171    3.895
 1682.970  103.995    0.472    0.180    4.046
 1683.790  102.829    0.478    0.202    4.288
 1684.610  102.276    0.474    0.203    4.373
