~VERSION INFORMATION
 VERS.                 2.0:   CWLS LOG ASCII STANDARD -VERSION 2.0
 WRAP.                  NO:   ONE LINE PER DEPTH STEP
~WELL INFORMATION BLOCK
#MNEM.UNIT           DATA                    DESCRIPTION OF MNEMONIC
#---------    -------------------            -------------------------------
# Generated from Intellog Unique Number	CS_73_76/WELL/770
WELL.         ALLIED ROXANA MINERALS LTD     : Well_name    - WELL
LOC .         00/07-20-073-14W4/0            : Location     - LOCATION
UWI .         00/07-20-073-14W4/0            : Uwi          - UNIQUE WELL ID
ENTR.         SP                             : Entered      - ENTERED BY
SRVC.         SCHLUMBERGER                   : Scn          - SERVICE COMPANY
STRT.M        329.184                        : top_depth    - START DEPTH
STOP.M        548.434                        : bot_depth    - STOP DEPTH
STEP.M        0.25                           : increment    - STEP LENGTH
 NULL. -999.2500:NULL Value
~CURVE INFORMATION BLOCK
#MNEM UNIT       ERCB CURVE CODE    CURVE DESCRIPTION
#-----------   ------------------   ----------------------------------
DEPT.M        00 001 00 00         : DEPTH        - DEPTH
GR  .API      00 310 00 00         : GR           - GAMMA RAY
DPHI.V/V      00 890 00 00         : PHID         - DENSITY POROSITY (SANDSTONE)
NPHI.V/V      00 330 00 00         : PHIN         - NEUTRON POROSITY (SANDSTONE)
ILD .OHMM     00 120 00 00         : RESD         - DEEP RESISTIVITY (DIL)
~PARAMETER INFORMATION
#MNEM.UNIT           DATA             DESCRIPTION OF MNEMONIC
#---------         -----------     ------------------------------
GL  .M        670.255              : gl           - GROUND LEVEL ELEVATION
EREF.M        673.303              : kb           - ELEVATION OF DEPTH REFERENCE
DATM.M        670.255              : datum        - DATUM ELEVATION
TDD .M        573.024              : tdd          - TOTAL DEPTH DRILLER
RUN .         ONE                  : Run          - RUN NUMBER
ENG .         BILL                 : Engineer     - RECORDING ENGINEER
WIT .         JIM                  : Witness      - WITNESSED BY
MUD .         GEL                  : Mud_type     - MUD TYPE
MATR.         SANDSTONE            : Logunit      - NEUTRON MATRIX
TMAX.C        18.8889              : BHT          - MAXIMUM RECORDED TEMPERATURE
BHTD.M        573.024              : BHTDEP       - MAXIMUM RECORDED TEMPERATURE
MATR.         1                    : LOGUNIT      - NEUTRON MATRIX
RMT .C        25                   : MDTP         - TEMPERATURE OF MUD
NEUT.         1                    : NEUTRON      - NEUTRON TYPE
RESI.         0                    : RESIST       - RESISTIVITY TYPE
RMC .OHMM     0.25                 : RMC          - RESISTIVITY OF MUD CAKE
RMF .OHMM     0.25                 : RMF          - RESISTIVITY OF MUD FILTRATE
SUFT.C        15                   : SUFT         - SURFACE TEMPERATURE
~A  DEPTH       GR     PHID     PHIN     RESD
# ...
  416.184   76.925    0.189    0.542    6.035
  416.434   74.226    0.213    0.560    6.036
  416.684   73.718    0.214    0.573    6.036
  416.934   72.154    0.224    0.589    6.102
  417.184   71.650    0.237    0.575    6.114
  417.434   71.390    0.227    0.533    6.208
  417.684   69.685    0.194    0.486    6.411
  417.934   65.635    0.175    0.476    6.809
  418.184   61.947    0.132    0.217    7.450
  418.434   57.326    0.039    0.162    8.859
  418.684   54.227    0.003    0.146    9.588
  418.934   52.914   -0.000    0.141   10.252
  419.184   52.675   -0.000    0.139   15.287
  419.434   51.707   -0.000    0.140   21.067
  419.684   52.173    0.000    0.149   21.101
  419.934   55.534    0.000    0.172   21.765
  420.184   59.148    0.000    0.201   21.171
  420.434   64.484   -0.000    0.232   21.250
  420.684   72.381    0.005    0.297   14.569
  420.934   77.371    0.097    0.359   10.541
  421.184   80.844    0.150    0.478    8.515
  421.434   81.788    0.183    0.495    7.364
  421.684   80.452    0.196    0.511    6.558
  421.934   76.696    0.157    0.516    6.623
  422.184   75.146    0.129    0.462    7.936
  422.434   71.510    0.093    0.256    9.133
  422.684   70.367    0.037    0.263   10.298
  422.934   75.442    0.011    0.312   10.839
  423.184   80.320    0.074    0.378   11.158
  423.434   82.646    0.129    0.439    8.960
  423.684   86.327    0.149    0.505    7.709
  423.934   87.913    0.164    0.541    7.191
  424.184   86.951    0.181    0.558    6.642
  424.434   86.207    0.196    0.536    6.323
  424.684   86.572    0.191    0.487    6.188
  424.934   86.707    0.146    0.469    6.157
  425.184   85.104    0.142    0.457    6.314
  425.434   83.894    0.120    0.444    6.358
  425.684   81.211    0.131    0.439    6.501
  425.934   81.219    0.124    0.459    6.569
  426.184   83.967    0.131    0.450    6.603
  426.434   83.716    0.117    0.454    6.646
  426.684   82.837    0.129    0.458    6.649
  426.934   81.320    0.139    0.454    6.650
  427.184   81.426    0.134    0.457    6.652
  427.434   83.147    0.127    0.458    6.653
  427.684   82.400    0.114    0.453    6.654
  427.934   81.412    0.121    0.445    6.656
  428.184   81.184    0.115    0.460    6.657
  428.434   84.190    0.121    0.478    6.659
  428.684   85.500    0.138    0.492    6.661
  428.934   85.221    0.126    0.485    6.670
  429.184   84.893    0.112    0.471    6.579
  429.434   84.375    0.121    0.472    6.586
  429.684   83.634    0.131    0.481    6.588
  429.934   84.366    0.152    0.498    6.590
  430.184   84.432    0.152    0.496    6.529
  430.434   82.719    0.159    0.502    6.486
  430.684   80.778    0.177    0.529    6.435
  430.934   79.746    0.202    0.535    6.228
  431.184   79.533    0.205    0.532    6.011
  431.434   80.619    0.190    0.546    5.898
  431.684   82.065    0.186    0.561    5.724
  431.934   81.175    0.179    0.578    5.645
  432.184   78.653    0.169    0.596    5.643
  432.434   76.821    0.153    0.479    5.881
  432.684   74.981    0.126    0.214    6.331
  432.934   65.427    0.089    0.219    7.329
  433.184   57.315   -0.007    0.215    9.006
  433.434   52.772   -0.000    0.234    9.940
  433.684   58.312   -0.001    0.285   10.545
  433.934   69.637    0.050    0.329   10.540
  434.184   76.374    0.164    0.384    9.107
  434.434   78.747    0.165    0.500    7.855
  434.684   78.851    0.168    0.527    7.038
  434.934   77.266    0.175    0.518    6.420
  435.184   76.248    0.180    0.512    6.007
  435.434   75.262    0.187    0.500    5.903
  435.684   76.748    0.171    0.494    5.911
  435.934   78.786    0.188    0.518    5.912
  436.184   80.722    0.197    0.525    5.913
  436.434   81.133    0.203    0.507    5.906
  436.684   81.433    0.198    0.502    6.004
  436.934   82.468    0.202    0.521    5.996
  437.184   84.525    0.194    0.541    5.943
  437.434   84.817    0.183    0.527    5.901
  437.684   84.840    0.184    0.537    5.845
  437.934   84.748    0.198    0.532    5.757
  438.184   80.638    0.183    0.523    5.766
  438.434   81.001    0.194    0.520    5.768
  438.684   82.934    0.196    0.522    5.768
  438.934   84.831    0.191    0.548    5.769
  439.184   84.383    0.186    0.544    5.835
  439.434   83.331    0.181    0.519    5.853
  439.684   83.005    0.187    0.505    5.856
  439.934   82.826    0.206    0.497    5.932
  440.184   83.178    0.203    0.491    6.026
  440.434   83.608    0.191    0.492    6.014
  440.684   85.014    0.176    0.500    5.709
  440.934   90.053    0.165    0.483    5.005
  441.184   94.570    0.161    0.481    4.266
  441.434   97.114    0.182    0.519    3.648
  441.684  101.760    0.188    0.547    3.037
  441.934  103.214    0.168    0.583    2.650
  442.184  102.579    0.150    0.611    2.359
  442.434  101.922    0.159    0.635    2.153
  442.684   98.891    0.151    0.659    2.153
  442.934   96.831    0.147    0.688    2.314
  443.184   94.874    0.155    0.677    2.714
  443.434   91.825    0.159    0.661    3.222
  443.684   90.546    0.141    0.501    3.796
  443.934   90.073    0.157    0.497    4.271
  444.184   92.364    0.144    0.494    4.664
  444.434   93.615    0.149    0.518    5.045
  444.684   92.539    0.159    0.540    5.023
  444.934   92.703    0.151    0.508    5.009
  445.184   94.489    0.165    0.513    5.100
  445.434   96.923    0.161    0.522    5.095
  445.684   99.409    0.152    0.532    5.098
  445.934   98.893    0.150    0.543    5.100
  446.184   95.166    0.161    0.554    5.092
  446.434   91.458    0.163    0.561    5.184
  446.684   90.638    0.151    0.551    5.261
  446.934   90.886    0.136    0.538    5.252
  447.184   91.656    0.149    0.531    5.347
  447.434   91.393    0.137    0.541    5.418
  447.684   88.402    0.201    0.560    5.415
  447.934   80.626    0.215    0.559    5.513
  448.184   70.855    0.199    0.519    5.503
  448.434   67.525    0.165    0.485    5.652
  448.684   73.532    0.144    0.496    5.913
  448.934   76.021    0.152    0.484    6.171
  449.184   78.712    0.137    0.487    6.217
  449.434   82.934    0.177    0.514    6.226
  449.684   85.124    0.187    0.535    6.052
  449.934   82.038    0.189    0.536    5.657
  450.184   76.487    0.202    0.523    5.292
  450.434   72.288    0.230    0.508    4.934
  450.684   69.222    0.227    0.495    4.893
  450.934   74.363    0.211    0.521    4.886
  451.184   76.894    0.221    0.536    4.989
  451.434   77.635    0.221    0.538    5.397
  451.684   72.390    0.209    0.533    5.790
  451.934   66.966    0.202    0.487    6.037
  452.184   65.588    0.220    0.487    6.494
  452.434   64.951    0.231    0.498    6.775
  452.684   65.020    0.243    0.502    6.997
  452.934   64.408    0.257    0.507    7.037
  453.184   63.665    0.220    0.493    6.804
  453.434   65.352    0.210    0.468    6.608
  453.684   66.685    0.190    0.499    6.422
  453.934   68.281    0.209    0.507    6.077
  454.184   65.232    0.241    0.490    5.827
  454.434   63.430    0.265    0.482    5.583
  454.684   61.932    0.084    0.401    5.587
  454.934   62.099    0.054    0.277    6.952
  455.184   64.760    0.043    0.252    7.559
  455.434   65.946    0.190    0.369    7.396
  455.684   67.953    0.236    0.525    7.059
  455.934   68.463    0.266    0.570    8.176
  456.184   69.000    0.263    0.554    6.899
  456.434   68.524    0.243    0.533    5.816
  456.684   67.912    0.241    0.546    5.156
  456.934   67.189    0.258    0.532    4.726
  457.184   65.683    0.258    0.539    4.537
  457.434   63.334    0.250    0.530    4.543
  457.684   62.593    0.246    0.508    4.450
  457.934   62.032    0.241    0.504    4.457
  458.184   61.748    0.238    0.491    4.452
  458.434   60.700    0.249    0.473    4.544
  458.684   60.149    0.244    0.456    4.507
  458.934   60.503    0.232    0.452    4.892
  459.184   61.924    0.225    0.462    4.860
  459.434   64.243    0.224    0.475    4.913
