~VERSION INFORMATION
 VERS.                 2.0:   CWLS LOG ASCII STANDARD -VERSION 2.0
 WRAP.                  NO:   ONE LINE PER DEPTH STEP
~WELL INFORMATION BLOCK
#MNEM.UNIT           DATA                    DESCRIPTION OF MNEMONIC
#---------    -------------------            -------------------------------
# Generated from Intellog Unique Number	CS_73_76/WELL/3219
WELL.         BOW VALLEY INDUSTRIES          : Well_name    - WELL
LOC .         00/08-32-076-16W4/0            : Location     - LOCATION
UWI .         00/08-32-076-16W4/0            : Uwi          - UNIQUE WELL ID
ENTR.         SP                             : Entered      - ENTERED BY
SRVC.         SCHLUMBERGER                   : Scn          - SERVICE COMPANY
STRT.M        305                            : top_depth    - START DEPTH
STOP.M        555                            : bot_depth    - STOP DEPTH
STEP.M        0.25                           : increment    - STEP LENGTH
 NULL. -999.2500:NULL Value
~CURVE INFORMATION BLOCK
#MNEM UNIT       ERCB CURVE CODE    CURVE DESCRIPTION
#-----------   ------------------   ----------------------------------
DEPT.M        00 001 00 00         : DEPTH        - DEPTH
NPHI.V/V      00 330 00 00         : PHIN         - NEUTRON POROSITY (LIMESTONE)
DPHI.V/V      00 890 00 00         : PHID         - DENSITY POROSITY (LIMESTONE)
GR  .API      00 310 00 00         : GR           - GAMMA RAY
ILD .OHMM     00 120 00 00         : RESD         - DEEP RESISTIVITY (DIL)
~PARAMETER INFORMATION
#MNEM.UNIT           DATA             DESCRIPTION OF MNEMONIC
#---------         -----------     ------------------------------
GL  .M        680.5                : gl           - GROUND LEVEL ELEVATION
EREF.M        683.97               : kb           - ELEVATION OF DEPTH REFERENCE
DATM.M        680.5                : datum        - DATUM ELEVATION
TDD .M        642                  : tdd          - TOTAL DEPTH DRILLER
RUN .         ONE                  : Run          - RUN NUMBER
ENG .         BILL                 : Engineer     - RECORDING ENGINEER
WIT .         JIM                  : Witness      - WITNESSED BY
MUD .         GEL                  : Mud_type     - MUD TYPE
MATR.         LIMESTONE            : Logunit      - NEUTRON MATRIX
TMAX.C        17                   : BHT          - MAXIMUM RECORDED TEMPERATURE
BHTD.M        642                  : BHTDEP       - MAXIMUM RECORDED TEMPERATURE
MATR.         1                    : LOGUNIT      - NEUTRON MATRIX
RMT .C        25                   : MDTP         - TEMPERATURE OF MUD
NEUT.         1                    : NEUTRON      - NEUTRON TYPE
RESI.         0                    : RESIST       - RESISTIVITY TYPE
RMC .OHMM     0.25                 : RMC          - RESISTIVITY OF MUD CAKE
RMF .OHMM     0.25                 : RMF          - RESISTIVITY OF MUD FILTRATE
SUFT.C        15                   : SUFT         - SURFACE TEMPERATURE
~A  DEPTH     PHIN     PHID       GR     RESD
# ...
  348.500    0.451    0.341   52.824   11.142
  348.750    0.423    0.338   52.205   11.151
  349.000    0.394    0.334   54.066   10.540
  349.250    0.412    0.331   57.166   10.154
  349.500    0.443    0.328   59.026    9.782
  349.750    0.451    0.326   61.506    9.071
  350.000    0.459    0.330   62.746    8.254
  350.250    0.467    0.331   59.648    8.260
  350.500    0.461    0.331   59.649    8.754
  350.750    0.461    0.328   63.368    9.100
  351.000    0.467    0.320   64.609    9.457
  351.250    0.459    0.314   64.610    9.465
  351.500    0.454    0.304   70.189    8.946
  351.750    0.443    0.292   76.388    8.296
  352.000    0.431    0.284   81.968    7.549
  352.250    0.463    0.290   82.588    7.000
  352.500    0.456    0.289   76.391    6.745
  352.750    0.415    0.280   73.292    7.011
  353.000    0.387    0.273   73.293    7.428
  353.250    0.391    0.269   74.534    7.576
  353.500    0.403    0.268   75.154    7.583
  353.750    0.393    0.275   74.535    7.446
  354.000    0.385    0.280   75.776    7.311
  354.250    0.403    0.283   77.636    7.044
  354.500    0.459    0.283   80.116    6.914
  354.750    0.457    0.282   83.836    6.292
  355.000    0.443    0.285   85.696    5.617
  355.250    0.442    0.280   85.697    4.921
  355.500    0.422    0.277   80.739    4.650
  355.750    0.395    0.278   75.161    4.480
  356.000    0.367    0.292   68.964    5.026
  356.250    0.365    0.313   61.526    6.083
  356.500    0.372    0.330   50.370   11.191
  356.750    0.391    0.334   46.032   14.072
  357.000    0.403    0.333   44.793   19.093
  357.250    0.418    0.333   45.414   24.009
  357.500    0.438    0.336   46.654   25.927
  357.750    0.439    0.339   50.374   24.508
  358.000    0.433    0.339   48.515   22.728
  358.250    0.431    0.331   46.657   20.292
  358.500    0.426    0.325   45.418   17.773
  358.750    0.413    0.323   44.799   15.568
  359.000    0.405    0.321   44.180   13.381
  359.250    0.401    0.324   46.040   11.945
  359.500    0.393    0.335   46.661   11.291
  359.750    0.386    0.346   46.662   11.088
  360.000    0.381    0.352   46.662   10.887
  360.250    0.379    0.347   47.283   10.893
  360.500    0.387    0.344   46.664   10.900
  360.750    0.403    0.344   46.665   10.911
  361.000    0.420    0.349   49.145   11.127
  361.250    0.432    0.354   50.385   11.136
  361.500    0.432    0.360   50.386   11.146
  361.750    0.424    0.367   50.387   11.365
  362.000    0.415    0.371   52.867   11.374
  362.250    0.411    0.374   53.488   11.382
  362.500    0.406    0.372   53.489   11.609
  362.750    0.398    0.372   53.489   11.619
  363.000    0.396    0.374   52.870   11.625
  363.250    0.429    0.385   52.251   11.416
  363.500    0.446    0.391   51.632   11.207
  363.750    0.437    0.383   51.633   10.799
  364.000    0.428    0.376   52.873   10.402
  364.250    0.413    0.367   52.254   10.213
  364.500    0.400    0.360   49.776    9.840
  364.750    0.386    0.356   51.016    9.662
  365.000    0.382    0.354   53.496    9.486
  365.250    0.410    0.352   53.497    9.677
  365.500    0.415    0.351   51.639    9.681
  365.750    0.415    0.351   51.020    9.875
  366.000    0.406    0.350   50.400   10.072
  366.250    0.397    0.347   48.542   10.079
  366.500    0.411    0.345   49.162   10.282
  366.750    0.433    0.344   49.783   10.486
  367.000    0.431    0.341   49.164   10.493
  367.250    0.370    0.339   49.165   10.705
  367.500    0.357    0.336   50.405   10.713
  367.750    0.369    0.335   51.026   10.719
  368.000    0.371    0.331   50.407   10.935
  368.250    0.365    0.324   51.027   10.944
  368.500    0.371    0.315   49.788   10.949
  368.750    0.383    0.304   47.930   11.171
  369.000    0.400    0.304   46.691   10.966
  369.250    0.417    0.315   47.931   10.972
  369.500    0.428    0.331   50.412   10.981
  369.750    0.443    0.334   51.652   10.989
  370.000    0.459    0.335   54.132   10.998
  370.250    0.449    0.336   59.711   11.004
  370.500    0.434    0.337   64.051   11.012
  370.750    0.432    0.339   67.151   11.020
  371.000    0.432    0.337   66.532   11.030
  371.250    0.426    0.332   67.153   11.039
  371.500    0.422    0.329   67.153   10.836
  371.750    0.418    0.326   67.154   10.643
  372.000    0.429    0.332   60.337   10.447
  372.250    0.449    0.337   54.139   10.259
  372.500    0.468    0.345   49.801   10.267
  372.750    0.443    0.349   47.323   10.273
  373.000    0.406    0.351   47.323   10.280
  373.250    0.336    0.269   46.084   11.102
  373.500    0.197    0.208   42.986   12.218
  373.750    0.162    0.083   39.888   14.511
  374.000    0.152    0.049   38.029   17.902
  374.250    0.139    0.034   39.889   25.234
  374.500    0.131    0.024   41.130   39.869
  374.750    0.128    0.017   41.751   53.081
  375.000    0.129    0.017   42.371   54.142
  375.250    0.141    0.034   42.372   50.210
  375.500    0.166    0.083   42.373   44.827
  375.750    0.233    0.120   39.894   31.849
  376.000    0.275    0.246   35.556   23.957
  376.250    0.373    0.345   33.078   20.589
  376.500    0.386    0.367   32.458   17.033
  376.750    0.375    0.368   29.980   10.394
  377.000    0.398    0.368   29.981    9.278
  377.250    0.427    0.373   31.221    8.443
  377.500    0.454    0.376   34.321    8.449
  377.750    0.458    0.371   36.181    8.620
  378.000    0.453    0.368   35.563    8.791
  378.250    0.444    0.368   35.563    8.796
  378.500    0.443    0.366   35.564    9.323
  378.750    0.452    0.360   34.945    9.326
  379.000    0.458    0.354   33.086    9.513
  379.250    0.449    0.346   31.848    9.706
  379.500    0.439    0.341   31.228    9.709
  379.750    0.418    0.339   31.849    9.718
  380.000    0.414    0.340   31.230    9.540
  380.250    0.422    0.342   31.851    9.548
  380.500    0.445    0.346   33.091    9.375
  380.750    0.445    0.346   33.712    9.204
  381.000    0.437    0.341   33.712    9.211
  381.250    0.426    0.339   32.474    9.218
  381.500    0.433    0.337   31.235    9.051
  381.750    0.443    0.335   29.996    9.059
  382.000    0.442    0.336   29.377    9.067
  382.250    0.444    0.340   29.997    9.071
  382.500    0.444    0.342   29.998    9.077
  382.750    0.438    0.340   29.379    9.086
  383.000    0.428    0.337   27.520    9.090
  383.250    0.422    0.337   28.761    9.098
  383.500    0.411    0.341   31.861    9.107
  383.750    0.411    0.342   32.481    9.111
  384.000    0.417    0.342   33.722    9.296
  384.250    0.409    0.342   34.962    9.302
  384.500    0.399    0.345   35.583    9.309
  384.750    0.408    0.347   35.584    9.493
  385.000    0.403    0.347   34.345    9.499
  385.250    0.391    0.339   33.726    9.505
  385.500    0.386    0.337   33.107    9.513
  385.750    0.393    0.340   33.108    9.519
  386.000    0.413    0.341   32.489    9.711
  386.250    0.427    0.339   32.490    9.717
  386.500    0.411    0.337   31.870    9.544
  386.750    0.411    0.335   31.871    9.549
  387.000    0.433    0.334   32.492    9.554
  387.250    0.463    0.331   33.732    9.564
  387.500    0.458    0.334   34.973    9.389
  387.750    0.452    0.336   36.213    9.395
  388.000    0.449    0.339   36.214    9.403
  388.250    0.449    0.340   36.215    9.590
  388.500    0.447    0.339   37.455    9.781
  388.750    0.426    0.339   38.696    9.978
  389.000    0.413    0.337   39.316    9.985
  389.250    0.416    0.339   39.317    9.992
  389.500    0.423    0.339   38.698   10.004
  389.750    0.417    0.340   36.840   10.008
  390.000    0.411    0.340   36.220   10.017
  390.250    0.417    0.341   34.981   10.024
  390.500    0.419    0.344   36.222   10.032
  390.750    0.422    0.347   38.082   10.232
  391.000    0.427    0.350   38.703   10.433
  391.250    0.434    0.345   38.084   10.639
  391.500    0.429    0.344   38.084   10.854
  391.750    0.424    0.345   38.705   10.657
