~VERSION INFORMATION
 VERS.                 2.0:   CWLS LOG ASCII STANDARD -VERSION 2.0
 WRAP.                  NO:   ONE LINE PER DEPTH STEP
~WELL INFORMATION BLOCK
#MNEM.UNIT           DATA                    DESCRIPTION OF MNEMONIC
#---------    -------------------            -------------------------------
# Generated from Intellog Unique Number	CW_79_81/WELL/2455
WELL.         06-29-080-24W4                 : Well_name    - WELL
LOC .         00/06-29-080-24W4/0            : Location     - LOCATION
UWI .         00/06-29-080-24W4/0            : Uwi          - UNIQUE WELL ID
ENTR.         MAX                            : Entered      - ENTERED BY
SRVC.         WESTERN ATLAS                  : Scn          - SERVICE COMPANY
STRT.M        198.12                         : top_depth    - START DEPTH
STOP.M        426.37                         : bot_depth    - STOP DEPTH
STEP.M        0.25                           : increment    - STEP LENGTH
 NULL. -999.2500:NULL Value
~CURVE INFORMATION BLOCK
#MNEM UNIT       ERCB CURVE CODE    CURVE DESCRIPTION
#-----------   ------------------   ----------------------------------
DEPT.M        00 001 00 00         : DEPTH        - DEPTH
ILD .OHMM     00 120 00 00         : RESD         - DEEP RESISTIVITY (DIL)
NPHI.V/V      00 330 00 00         : PHIN         - NEUTRON POROSITY (SANDSTONE)
DPHI.V/V      00 890 00 00         : PHID         - DENSITY POROSITY (SANDSTONE)
GR  .API      00 310 00 00         : GR           - GAMMA RAY
CALI.MM       00 280 01 00         : CAL          - CALIPER
~PARAMETER INFORMATION
#MNEM.UNIT           DATA             DESCRIPTION OF MNEMONIC
#---------         -----------     ------------------------------
GL  .M        546.811              : gl           - GROUND LEVEL ELEVATION
EREF.M        552.907              : kb           - ELEVATION OF DEPTH REFERENCE
DATM.M        546.811              : datum        - DATUM ELEVATION
TDD .M        426.72               : tdd          - TOTAL DEPTH DRILLER
RUN .         ONE                  : Run          - RUN NUMBER
ENG .         BILL                 : Engineer     - RECORDING ENGINEER
WIT .         JIM                  : Witness      - WITNESSED BY
MUD .         GEL                  : Mud_type     - MUD TYPE
MATR.         SANDSTONE            : Logunit      - NEUTRON MATRIX
TMAX.C        26.6667              : BHT          - MAXIMUM RECORDED TEMPERATURE
BHTD.M        426.72               : BHTDEP       - MAXIMUM RECORDED TEMPERATURE
MATR.         1                    : LOGUNIT      - NEUTRON MATRIX
RMT .C        16.6667              : MDTP         - TEMPERATURE OF MUD
NEUT.         1                    : NEUTRON      - NEUTRON TYPE
RESI.         0                    : RESIST       - RESISTIVITY TYPE
RMC .OHMM     1                    : RMC          - RESISTIVITY OF MUD CAKE
RMF .OHMM     1.2                  : RMF          - RESISTIVITY OF MUD FILTRATE
SUFT.C        -20.5556             : SUFT         - SURFACE TEMPERATURE
~A  DEPTH     RESD     PHIN     PHID       GR      CAL
# ...
  380.620    8.747    0.343    0.115   96.814  306.479
  380.870    8.967    0.347    0.110   95.110  302.732
  381.120    9.397    0.343    0.115   92.420  299.852
  381.370   10.036    0.327    0.113   92.215  296.290
  381.620   10.780    0.331    0.114   90.582  292.722
  381.870   10.958    0.351    0.117   89.304  291.568
  382.120   10.379    0.375    0.121   90.757  292.524
  382.370    9.380    0.385    0.124   98.266  292.158
  382.620    8.707    0.385    0.125  100.029  290.121
  382.870    7.742    0.384    0.124  101.958  290.970
  383.120    7.498    0.374    0.127  101.394  292.128
  383.370    7.559    0.356    0.126   99.168  294.392
  383.620    7.855    0.334    0.109   95.874  297.458
  383.870    8.742    0.320    0.064   92.466  300.181
  384.120    9.596    0.317    0.046   95.465  301.484
  384.370    9.677    0.361    0.069   99.294  304.756
  384.620    9.177    0.371    0.094  107.934  306.516
  384.870    8.768    0.365    0.102  112.119  306.162
  385.120    8.681    0.353    0.095  108.465  303.898
  385.370    8.964    0.333    0.094   98.538  300.327
  385.620    9.402    0.327    0.092   93.866  298.280
  385.870    9.751    0.341    0.103   94.849  296.722
  386.120   10.834    0.352    0.106   97.255  295.164
  386.370   11.620    0.357    0.106   98.353  293.207
  386.620   11.543    0.352    0.105   97.076  291.451
  386.870   11.258    0.324    0.104   93.434  292.683
  387.120   11.442    0.287    0.108   90.494  298.594
  387.370   13.971    0.262    0.129   90.761  306.287
  387.620   16.691    0.235    0.180   91.204  311.268
  387.870   19.315    0.216    0.242   70.573  312.927
  388.120   23.432    0.208    0.287   39.438  312.472
  388.370   42.710    0.207    0.284   40.629  313.608
  388.620   52.283    0.210    0.281   42.886  317.006
  388.870   52.333    0.214    0.279   43.627  320.674
  389.120   50.110    0.219    0.278   43.813  321.034
  389.370   41.083    0.244    0.277   44.081  319.880
  389.620   25.465    0.288    0.274   44.967  317.816
  389.870   12.537    0.337    0.260   47.199  313.335
  390.120   10.194    0.367    0.235   48.717  308.770
  390.370    9.269    0.360    0.218   50.883  305.609
  390.620    8.338    0.364    0.214   52.694  302.742
  390.870    7.915    0.369    0.211   53.791  300.583
  391.120    7.831    0.368    0.205   54.590  300.439
  391.370    7.513    0.355    0.199   56.386  304.270
  391.620    7.513    0.352    0.194   56.912  303.065
  391.870    7.472    0.354    0.194   57.419  296.673
  392.120    7.462    0.352    0.195   60.417  290.593
  392.370    7.632    0.347    0.197   62.704  286.824
  392.620    8.213    0.344    0.200   63.448  285.868
  392.870    9.873    0.349    0.202   64.195  287.160
  393.120   10.508    0.327    0.204   64.220  289.301
  393.370   11.063    0.319    0.201   64.015  290.150
  393.620   11.533    0.313    0.193   64.696  290.706
  393.870   12.143    0.312    0.180   65.082  290.359
  394.120   12.976    0.315    0.164   64.282  288.301
  394.370   14.043    0.323    0.148   61.556  282.275
  394.620   14.944    0.326    0.157   60.847  276.040
  394.870   15.850    0.332    0.173   62.536  273.678
  395.120   17.353    0.338    0.172   61.556  275.545
  395.370   19.879    0.348    0.173   58.976  278.811
  395.620   23.606    0.363    0.189   55.624  282.371
  395.870   28.268    0.382    0.230   51.653  287.693
  396.120   33.534    0.389    0.249   49.454  291.939
  396.370   42.084    0.384    0.252   49.490  289.974
  396.620   48.968    0.376    0.254   49.873  286.204
  396.870   52.098    0.364    0.247   50.969  282.435
  397.120   51.865    0.353    0.231   52.900  279.571
  397.370   50.570    0.354    0.213   56.237  277.458
  397.620   49.477    0.354    0.203   59.734  276.667
  397.870   47.399    0.346    0.203   61.660  275.521
  398.120   45.659    0.336    0.197   62.698  274.666
  398.370   43.734    0.331    0.187   63.797  273.909
  398.620   41.117    0.335    0.179   65.373  273.155
  398.870   36.080    0.344    0.174   68.643  272.162
  399.120   30.422    0.350    0.149   75.352  270.963
  399.370   19.553    0.349    0.100   82.029  269.802
  399.620   13.861    0.345    0.084   88.353  269.545
  399.870   11.012    0.346    0.082   95.388  271.000
  400.120    9.214    0.355    0.084  102.719  273.965
  400.370    7.369    0.368    0.086  108.602  276.991
  400.620    6.738    0.374    0.095  109.378  275.787
  400.870    6.313    0.380    0.110  111.304  274.234
  401.120    6.153    0.391    0.116  112.879  273.582
  401.370    6.313    0.395    0.118  111.011  273.428
  401.620    6.945    0.389    0.117  105.579  273.276
  401.870    9.121    0.369    0.115   97.212  272.373
  402.120   14.318    0.324    0.119   86.111  271.578
  402.370   17.965    0.313    0.130   81.391  269.618
  402.620   20.581    0.327    0.132   77.385  267.356
  402.870   20.038    0.340    0.139   76.346  265.798
  403.120   16.472    0.343    0.148   78.275  265.548
  403.370   11.378    0.341    0.140   81.565  266.905
  403.620    8.489    0.332    0.126   84.811  267.381
  403.870    7.952    0.350    0.139   92.447  265.029
  404.120    7.368    0.374    0.142   95.979  263.559
  404.370    6.435    0.388    0.138   97.195  262.998
  404.620    5.458    0.387    0.130   97.640  263.353
  404.870    4.751    0.380    0.123   99.070  264.949
  405.120    4.510    0.381    0.130  101.327  266.677
  405.370    4.614    0.383    0.128  103.734  270.747
  405.620    4.875    0.383    0.120  105.426  273.612
  405.870    5.460    0.377    0.117  107.590  274.868
  406.120    6.406    0.371    0.121  110.168  274.416
  406.370    7.245    0.381    0.125  109.446  271.798
  406.620    7.357    0.396    0.128   97.359  268.505
  406.870    8.378    0.394    0.173   95.013  265.756
  407.120    9.069    0.386    0.201   94.625  264.488
  407.370    9.522    0.380    0.224   94.536  264.143
  407.620    9.833    0.387    0.246   94.627  264.514
  407.870    9.750    0.426    0.252   96.427  265.833
  408.120    8.721    0.434    0.203   96.953  266.299
  408.370    7.082    0.451    0.183   97.220  266.349
  408.620    6.222    0.439    0.163   99.797  266.098
  408.870    5.648    0.421    0.162  102.079  265.751
  409.120    5.243    0.418    0.184  102.289  265.304
  409.370    5.056    0.447    0.215   98.096  264.803
  409.620    5.218    0.450    0.234   91.196  266.116
  409.870    5.377    0.433    0.190   81.013  266.162
  410.120    5.601    0.406    0.154   82.230  266.214
  410.370    5.774    0.392    0.128   90.572  265.868
  410.620    5.756    0.393    0.112  101.289  265.115
  410.870    5.414    0.397    0.107  109.308  264.280
  411.120    5.297    0.397    0.091  110.081  263.924
  411.370    5.381    0.375    0.065  104.648  264.376
  411.620    5.494    0.366    0.080  102.955  266.328
  411.870    5.681    0.375    0.129  109.515  267.984
  412.120    5.910    0.394    0.180  120.827  268.643
  412.370    6.030    0.393    0.163  125.372  268.540
  412.620    5.945    0.372    0.123  125.403  267.749
  412.870    5.951    0.355    0.120  123.061  268.598
  413.120    6.055    0.347    0.125  125.344  268.245
  413.370    6.174    0.342    0.133  127.511  267.898
  413.620    6.339    0.335    0.142  127.365  268.156
  413.870    6.816    0.326    0.153  125.462  269.184
  414.120    7.310    0.343    0.160  126.482  270.079
  414.370    7.424    0.381    0.159  126.983  269.717
  414.620    7.417    0.384    0.170  124.283  269.367
  414.870    7.370    0.383    0.184  120.632  269.017
  415.120    7.337    0.389    0.201  115.796  268.664
  415.370    7.390    0.385    0.209  106.797  268.067
  415.620    7.627    0.374    0.141  105.588  266.863
  415.870    8.032    0.366    0.128  105.380  266.109
  416.120    8.280    0.345    0.124  108.203  265.355
  416.370    8.470    0.337    0.140  106.693  264.400
  416.620    8.681    0.344    0.172   99.835  263.346
  416.870    9.042    0.341    0.201   93.231  262.522
