~VERSION INFORMATION
 VERS.                 2.0:   CWLS LOG ASCII STANDARD -VERSION 2.0
 WRAP.                  NO:   ONE LINE PER DEPTH STEP
~WELL INFORMATION BLOCK
#MNEM.UNIT           DATA                    DESCRIPTION OF MNEMONIC
#---------    -------------------            -------------------------------
# Generated from Intellog Unique Number	CS_77_79/WELL/902
WELL.         ICGR GRAHAM                    : Well_name    - WELL
LOC .         00/07-20-079-04W4/0            : Location     - LOCATION
UWI .         00/07-20-079-04W4/0            : Uwi          - UNIQUE WELL ID
ENTR.         JHS                            : Entered      - ENTERED BY
SRVC.         SCHLUMBERGER                   : Scn          - SERVICE COMPANY
STRT.M        130                            : top_depth    - START DEPTH
STOP.M        355                            : bot_depth    - STOP DEPTH
STEP.M        0.25                           : increment    - STEP LENGTH
 NULL. -999.2500:NULL Value
~CURVE INFORMATION BLOCK
#MNEM UNIT       ERCB CURVE CODE    CURVE DESCRIPTION
#-----------   ------------------   ----------------------------------
DEPT.M        00 001 00 00         : DEPTH        - DEPTH
DPHI.V/V      00 890 00 00         : PHID         - DENSITY POROSITY (LIMESTONE)
NPHI.V/V      00 330 00 00         : PHIN         - NEUTRON POROSITY (LIMESTONE)
GR  .API      00 310 00 00         : GR           - GAMMA RAY
ILD .OHMM     00 120 00 00         : RESD         - DEEP RESISTIVITY (DIL)
RHOB.KG/M3    00 350 00 00         : DENS         - BULK DENSITY
~PARAMETER INFORMATION
#MNEM.UNIT           DATA             DESCRIPTION OF MNEMONIC
#---------         -----------     ------------------------------
GL  .M        503                  : gl           - GROUND LEVEL ELEVATION
EREF.M        506.6                : kb           - ELEVATION OF DEPTH REFERENCE
DATM.M        506.6                : datum        - DATUM ELEVATION
TDD .M        355                  : tdd          - TOTAL DEPTH DRILLER
RUN .         ONE                  : Run          - RUN NUMBER
ENG .         BILL                 : Engineer     - RECORDING ENGINEER
WIT .         JIM                  : Witness      - WITNESSED BY
MUD .         GEL                  : Mud_type     - MUD TYPE
MATR.         LIMESTONE            : Logunit      - NEUTRON MATRIX
TMAX.C        19                   : BHT          - MAXIMUM RECORDED TEMPERATURE
BHTD.M        355                  : BHTDEP       - MAXIMUM RECORDED TEMPERATURE
MATR.         1                    : LOGUNIT      - NEUTRON MATRIX
RMT .C        25                   : MDTP         - TEMPERATURE OF MUD
NEUT.         1                    : NEUTRON      - NEUTRON TYPE
RESI.         0                    : RESIST       - RESISTIVITY TYPE
RMC .OHMM     0.25                 : RMC          - RESISTIVITY OF MUD CAKE
RMF .OHMM     0.25                 : RMF          - RESISTIVITY OF MUD FILTRATE
SUFT.C        15                   : SUFT         - SURFACE TEMPERATURE
~A  DEPTH     PHID     PHIN       GR     RESD     DENS
  130.000    0.282    0.366   71.662   17.343    0.000
  130.250    0.267    0.348   77.148   17.687    0.000
  130.500    0.270    0.360   75.347   19.087    0.000
  130.750    0.289    0.390   71.119   20.211    0.000
  131.000    0.290    0.413   69.921   21.403    0.000
  131.250    0.301    0.401   72.973   21.834    0.000
  131.500    0.322    0.410   80.288   21.853    0.000
  131.750    0.313    0.426   84.556   21.467    0.000
  132.000    0.316    0.409   87.610   21.090    0.000
  132.250    0.316    0.393   88.238   21.115    0.000
  132.500    0.293    0.419   86.435   21.537    0.000
  132.750    0.280    0.431   82.203   21.554    0.000
  133.000    0.286    0.408   77.973   22.402    0.000
  133.250    0.330    0.370   75.565   22.424    0.000
  133.500    0.336    0.367   76.188   22.029    0.000
  133.750    0.293    0.373   81.675   20.080    0.000
  134.000    0.266    0.377   82.906   21.265    0.000
  134.250    0.275    0.383   66.528   22.513    0.000
  134.500    0.334    0.387   42.867   25.224    0.000
  134.750    0.319    0.385   44.099   26.212    0.000
  135.000    0.305    0.375   48.976   27.245    0.000
  135.250    0.316    0.379   50.212   27.272    0.000
  135.500    0.335    0.411   41.728   26.793    0.000
  135.750    0.343    0.411   46.609   25.829    0.000
  136.000    0.269    0.397   53.914   24.906    0.000
  136.250    0.244    0.399   58.791   24.016    0.000
  136.500    0.247    0.402   54.560   23.585    0.000
  136.750    0.322    0.412   49.112   23.608    0.000
  137.000    0.337    0.407   55.205   23.634    0.000
  137.250    0.334    0.374   67.370   23.224    0.000
  137.500    0.309    0.387   69.213   22.815    0.000
  137.750    0.296    0.418   60.734   21.998    0.000
  138.000    0.334    0.377   61.965   21.603    0.000
  138.250    0.323    0.365   69.880   20.829    0.000
  138.500    0.295    0.379   69.295   19.709    0.000
  138.750    0.284    0.396   70.526   18.300    0.000
  139.000    0.294    0.398   77.832   16.366    0.000
  139.250    0.278    0.391   84.532   14.637    0.000
  139.500    0.262    0.381   83.943   13.592    0.000
  139.750    0.258    0.384   87.611   13.359    0.000
  140.000    0.270    0.414   91.877   13.372    0.000
  140.250    0.282    0.407   97.976   13.384    0.000
  140.500    0.276    0.402  101.027   13.149    0.000
  140.750    0.274    0.409  102.261   12.915    0.000
  141.000    0.250    0.415  104.711   12.219    0.000
  141.250    0.234    0.431  101.089   12.233    0.000
  141.500    0.232    0.436   98.674   12.475    0.000
  141.750    0.237    0.414   97.481   13.464    0.000
  142.000    0.240    0.393   95.069   13.992    0.000
  142.250    0.266    0.382   92.059   14.540    0.000
  142.500    0.276    0.389   92.072   14.829    0.000
  142.750    0.286    0.395   89.057   15.129    0.000
  143.000    0.302    0.394   89.076   14.860    0.000
  143.250    0.317    0.379   93.346   14.599    0.000
  143.500    0.289    0.363   93.978   14.342    0.000
  143.750    0.268    0.356   92.777   13.319    0.000
  144.000    0.255    0.378   94.014   12.366    0.000
  144.250    0.237    0.380  100.103   11.484    0.000
  144.500    0.208    0.390  113.486   11.074    0.000
  144.750    0.205    0.416  115.326   10.879    0.000
  145.000    0.224    0.440  111.097   10.685    0.000
  145.250    0.242    0.425  117.189   10.500    0.000
  145.500    0.232    0.413  119.637   10.508    0.000
  145.750    0.225    0.411  114.798   10.521    0.000
  146.000    0.216    0.435  108.137   10.730    0.000
  146.250    0.224    0.429  105.120   11.361    0.000
  146.500    0.244    0.426   98.459   12.032    0.000
  146.750    0.247    0.448   89.978   12.984    0.000
  147.000    0.314    0.412   86.351   13.746    0.000
  147.250    0.302    0.396   94.875   14.290    0.000
  147.500    0.279    0.448   99.752   14.306    0.000
  147.750    0.266    0.436   87.021   14.319    0.000
  148.000    0.297    0.415   87.646   14.066    0.000
  148.250    0.317    0.406   93.129   13.816    0.000
  148.500    0.282    0.392  103.476   13.573    0.000
  148.750    0.239    0.388  108.959   13.335    0.000
  149.000    0.223    0.401  113.232   13.349    0.000
  149.250    0.214    0.421  114.470   13.360    0.000
  149.500    0.232    0.433  112.052   13.129    0.000
  149.750    0.255    0.433  106.004   12.898    0.000
  150.000    0.229    0.433  104.808   13.153    0.000
  150.250    0.218    0.436  101.181   14.194    0.000
  150.500    0.233    0.443   92.697   15.032    0.000
  150.750    0.258    0.415   67.819   15.621    0.000
  151.000    0.332    0.415   66.018   16.231    0.000
  151.250    0.351    0.412   71.503   16.563    0.000
  151.500    0.331    0.405   81.242   16.572    0.000
  151.750    0.317    0.408   84.293   16.591    0.000
  152.000    0.330    0.419   82.493   16.607    0.000
  152.250    0.339    0.398   72.188   16.313    0.000
  152.500    0.339    0.397   66.744   16.333    0.000
  152.750    0.345    0.409   67.368   15.744    0.000
  153.000    0.352    0.413   71.035   15.181    0.000
  153.250    0.292    0.397   75.913   13.325    0.000
  153.500    0.253    0.385   82.004   11.476    0.000
  153.750    0.232    0.388   89.312    9.523    0.000
  154.000    0.215    0.426   97.832    8.680    0.000
  154.250    0.209    0.488  105.139    8.525    0.000
  154.500    0.236    0.463   97.261    9.030    0.000
  154.750    0.300    0.425   86.349    9.743    0.000
  155.000    0.290    0.398   79.082   11.334    0.000
  155.250    0.287    0.389   88.214   13.182    0.000
  155.500    0.299    0.387   93.700   14.222    0.000
  155.750    0.293    0.397   95.539   14.787    0.000
  156.000    0.291    0.405   85.234   14.796    0.000
  156.250    0.304    0.415   76.144   14.539    0.000
  156.500    0.303    0.417   79.199   14.016    0.000
  156.750    0.270    0.404   88.328   13.768    0.000
  157.000    0.253    0.394   90.178   14.041    0.000
  157.250    0.233    0.417   88.974   14.322    0.000
  157.500    0.235    0.429   79.278   15.169    0.000
  157.750    0.227    0.431   67.760   16.369    0.000
  158.000    0.223    0.410   59.884   17.015    0.000
  158.250    0.214    0.401   55.047   17.029    0.000
  158.500    0.238    0.402   58.101   17.048    0.000
  158.750    0.274    0.396   57.517   16.437    0.000
  159.000    0.292    0.401   55.106   16.448    0.000
  159.250    0.299    0.418   53.300   16.165    0.000
  159.500    0.305    0.396   60.001   16.485    0.000
  159.750    0.305    0.395   66.093   16.497    0.000
  160.000    0.315    0.398   60.651   16.514    0.000
  160.250    0.329    0.372   53.987   15.925    0.000
  160.500    0.331    0.375   54.006   15.066    0.000
  160.750    0.305    0.429   67.388   14.257    0.000
  161.000    0.295    0.401   67.410   13.492    0.000
  161.250    0.289    0.382   69.853   13.249    0.000
  161.500    0.285    0.374   74.124   13.016    0.000
  161.750    0.291    0.402   69.896   13.282    0.000
  162.000    0.309    0.403   65.053   13.047    0.000
  162.250    0.295    0.391   67.504   13.055    0.000
  162.500    0.285    0.420   72.997   12.826    0.000
  162.750    0.281    0.418   73.621   12.839    0.000
  163.000    0.291    0.410   71.205   13.601    0.000
  163.250    0.307    0.415   65.151   13.872    0.000
  163.500    0.295    0.431   63.958   13.885    0.000
  163.750    0.286    0.432   67.628   13.640    0.000
  164.000    0.294    0.404   70.068   13.398    0.000
  164.250    0.299    0.387   74.342   13.162    0.000
  164.500    0.296    0.399   76.183   13.679    0.000
  164.750    0.277    0.431   69.524   14.490    0.000
  165.000    0.280    0.400   61.038   15.057    0.000
  165.250    0.336    0.382   51.948   14.793    0.000
  165.500    0.345    0.373   60.473   14.532    0.000
  165.750    0.284    0.362   68.992   13.747    0.000
  166.000    0.257    0.376   76.299   12.764    0.000
  166.250    0.252    0.405   80.570   11.636    0.000
