~VERSION INFORMATION
 VERS.                 2.0:   CWLS LOG ASCII STANDARD -VERSION 2.0
 WRAP.                  NO:   ONE LINE PER DEPTH STEP
~WELL INFORMATION BLOCK
#MNEM.UNIT           DATA                    DESCRIPTION OF MNEMONIC
#---------    -------------------            -------------------------------
# Generated from Intellog Unique Number	CS_77_79/WELL/906
WELL.         SUNCOR ET AL PORTAGE           : Well_name    - WELL
LOC .         00/07-23-078-17W4/0            : Location     - LOCATION
UWI .         00/07-23-078-17W4/0            : Uwi          - UNIQUE WELL ID
ENTR.         JHS                            : Entered      - ENTERED BY
SRVC.         SCHLUMBERGER                   : Scn          - SERVICE COMPANY
STRT.M        165                            : top_depth    - START DEPTH
STOP.M        347                            : bot_depth    - STOP DEPTH
STEP.M        0.25                           : increment    - STEP LENGTH
 NULL. -999.2500:NULL Value
~CURVE INFORMATION BLOCK
#MNEM UNIT       ERCB CURVE CODE    CURVE DESCRIPTION
#-----------   ------------------   ----------------------------------
DEPT.M        00 001 00 00         : DEPTH        - DEPTH
DPHI.V/V      00 890 00 00         : PHID         - DENSITY POROSITY (LIMESTONE)
NPHI.V/V      00 330 00 00         : PHIN         - NEUTRON POROSITY (LIMESTONE)
GR  .API      00 310 00 00         : GR           - GAMMA RAY
ILD .OHMM     00 120 00 00         : RESD         - DEEP RESISTIVITY (DIL)
~PARAMETER INFORMATION
#MNEM.UNIT           DATA             DESCRIPTION OF MNEMONIC
#---------         -----------     ------------------------------
GL  .M        559.6                : gl           - GROUND LEVEL ELEVATION
EREF.M        562.9                : kb           - ELEVATION OF DEPTH REFERENCE
DATM.M        562.9                : datum        - DATUM ELEVATION
TDD .M        348                  : tdd          - TOTAL DEPTH DRILLER
RUN .         ONE                  : Run          - RUN NUMBER
ENG .         BILL                 : Engineer     - RECORDING ENGINEER
WIT .         JIM                  : Witness      - WITNESSED BY
MUD .         GEL                  : Mud_type     - MUD TYPE
MATR.         LIMESTONE            : Logunit      - NEUTRON MATRIX
TMAX.C        26                   : BHT          - MAXIMUM RECORDED TEMPERATURE
BHTD.M        348                  : BHTDEP       - MAXIMUM RECORDED TEMPERATURE
MATR.         1                    : LOGUNIT      - NEUTRON MATRIX
RMT .C        25                   : MDTP         - TEMPERATURE OF MUD
NEUT.         1                    : NEUTRON      - NEUTRON TYPE
RESI.         0                    : RESIST       - RESISTIVITY TYPE
RMC .OHMM     0.25                 : RMC          - RESISTIVITY OF MUD CAKE
RMF .OHMM     0.25                 : RMF          - RESISTIVITY OF MUD FILTRATE
SUFT.C        15                   : SUFT         - SURFACE TEMPERATURE
~A  DEPTH     PHID     PHIN       GR     RESD
# ...
  208.500    0.264    0.374   75.802   15.585
  208.750    0.248    0.361   75.777   16.202
  209.000    0.242    0.347   73.910   15.910
  209.250    0.256    0.352   76.957   14.486
  209.500    0.271    0.367   81.851   12.947
  209.750    0.258    0.375   85.516   12.475
  210.000    0.236    0.386   84.261   12.253
  210.250    0.173    0.372   82.393   12.980
  210.500    0.139    0.259   77.459   13.749
  210.750    0.130    0.233   66.369   15.710
  211.000    0.161    0.224   61.431   17.949
  211.250    0.308    0.274   69.393   22.124
  211.500    0.338    0.316   70.595   24.340
  211.750    0.340    0.370   68.116   24.365
  212.000    0.339    0.378   71.166   22.608
  212.250    0.341    0.373   72.988   19.823
  212.500    0.344    0.373   71.114   18.742
  212.750    0.353    0.388   69.868   17.395
  213.000    0.358    0.396   72.920   16.767
  213.250    0.356    0.384   74.735   16.460
  213.500    0.353    0.388   74.102   16.166
  213.750    0.342    0.388   74.074   15.881
  214.000    0.333    0.383   74.663   15.300
  214.250    0.315    0.392   74.030   14.469
  214.500    0.282    0.405   72.162   13.425
  214.750    0.287    0.400   69.679   12.939
  215.000    0.318    0.383   67.199   13.450
  215.250    0.329    0.366   65.329   14.797
  215.500    0.328    0.363   73.914   15.383
  215.750    0.316    0.380   83.723   14.547
  216.000    0.307    0.393   95.990   13.497
  216.250    0.300    0.401  102.730   12.061
  216.500    0.299    0.401  105.163   11.190
  216.750    0.303    0.404  108.832   10.191
  217.000    0.309    0.385  113.723   10.199
  217.250    0.309    0.364  114.927   10.402
  217.500    0.303    0.370  111.216   11.230
  217.750    0.295    0.374  104.432   11.898
  218.000    0.291    0.361  100.103   12.367
  218.250    0.285    0.368  102.543   12.379
  218.500    0.280    0.366  102.515   11.706
  218.750    0.277    0.363   98.194   11.282
  219.000    0.278    0.373   98.778   10.872
  219.250    0.281    0.384   99.371   10.880
  219.500    0.283    0.406   95.663   11.309
  219.750    0.268    0.390   85.803   11.983
  220.000    0.258    0.377   85.778   11.990
  220.250    0.260    0.382   88.210   11.560
  220.500    0.269    0.410   91.879   11.137
  220.750    0.268    0.405   99.226   10.141
  221.000    0.268    0.403  101.047    9.233
  221.250    0.277    0.403  101.023    8.568
  221.500    0.294    0.392   99.163    8.739
  221.750    0.332    0.391   80.084   10.373
  222.000    0.356    0.407   64.080   12.076
  222.250    0.380    0.415   56.064   15.460
  222.500    0.375    0.403   57.266   19.417
  222.750    0.366    0.399   60.931   23.040
  223.000    0.364    0.399   62.141   26.834
  223.250    0.361    0.386   60.885   28.424
  223.500    0.349    0.377   60.864   30.690
  223.750    0.348    0.370   63.289   33.133
  224.000    0.361    0.395   64.499   36.457
  224.250    0.374    0.408   64.481   38.608
  224.500    0.378    0.405   63.835   44.971
  224.750    0.378    0.401   63.206   51.387
  225.000    0.368    0.397   60.106   54.422
  225.250    0.357    0.386   58.241   57.651
  225.500    0.347    0.372   61.286   58.833
  225.750    0.344    0.362   63.726   58.861
  226.000    0.354    0.370   61.243   62.361
  226.250    0.359    0.409   61.217   66.054
  226.500    0.357    0.415   60.582   71.316
  226.750    0.352    0.394   55.640   74.120
  227.000    0.348    0.380   54.998   77.048
  227.250    0.353    0.389   62.966   80.104
  227.500    0.366    0.385   62.942   77.184
  227.750    0.368    0.383   61.077   70.284
  228.000    0.365    0.388   61.056   62.795
  228.250    0.365    0.391   61.025   51.047
  228.500    0.370    0.393   63.465   41.493
  228.750    0.375    0.403   69.589   35.694
  229.000    0.381    0.414   70.178   31.288
  229.250    0.385    0.427   65.853   27.431
  229.500    0.382    0.437   64.597   24.510
  229.750    0.378    0.423   65.801   22.321
  230.000    0.367    0.401   64.549   21.510
  230.250    0.358    0.393   63.297   20.731
  230.500    0.350    0.387   65.117   20.354
  230.750    0.347    0.402   65.099   20.378
  231.000    0.349    0.427   61.380   20.785
  231.250    0.354    0.407   60.746   21.201
  231.500    0.353    0.395   65.022   21.217
  231.750    0.350    0.392   66.850   21.236
  232.000    0.348    0.391   66.203   20.856
  232.250    0.341    0.384   66.185   20.101
  232.500    0.336    0.379   68.001   19.367
  232.750    0.335    0.383   69.211   17.306
  233.000    0.333    0.406   71.034   16.058
  233.250    0.333    0.416   70.390   15.183
  233.500    0.337    0.394   69.142   14.358
  233.750    0.332    0.387   66.659   13.837
  234.000    0.327    0.373   70.322   13.855
  234.250    0.336    0.373   73.987   14.130
  234.500    0.346    0.405   68.432   14.409
  234.750    0.355    0.409   59.805   14.699
  235.000    0.356    0.398   61.008   14.993
  235.250    0.352    0.389   64.059   14.728
  235.500    0.341    0.393   70.180   15.023
  235.750    0.338    0.396   75.687   15.033
  236.000    0.339    0.393   75.666   15.627
  236.250    0.344    0.401   70.726   15.641
  236.500    0.353    0.414   70.703   15.955
  236.750    0.358    0.426   69.448   15.967
  237.000    0.363    0.400   65.120   15.682
  237.250    0.356    0.382   66.945   15.695
  237.500    0.350    0.381   72.451   15.710
  237.750    0.345    0.389   73.656   15.724
  238.000    0.338    0.399   74.249   15.735
  238.250    0.334    0.417   76.067   15.751
  238.500    0.326    0.435   80.349   16.072
  238.750    0.325    0.432   80.323   16.085
  239.000    0.318    0.398   71.696   16.097
  239.250    0.312    0.380   68.598   16.110
  239.500    0.305    0.370   66.731   16.123
  239.750    0.299    0.368   69.158   16.449
  240.000    0.295    0.373   72.211   16.458
  240.250    0.299    0.372   72.803   16.479
  240.500    0.308    0.367   73.397   16.492
  240.750    0.315    0.374   73.986   16.508
  241.000    0.318    0.395   69.662   16.522
  241.250    0.315    0.398   67.797   16.534
  241.500    0.311    0.392   77.603   16.548
  241.750    0.310    0.384   81.264   16.562
  242.000    0.312    0.381   82.472   16.575
  242.250    0.312    0.382   81.840   16.591
  242.500    0.310    0.399   79.970   16.605
  242.750    0.308    0.401   79.330   16.312
  243.000    0.302    0.390   81.151   16.324
  243.250    0.296    0.380   81.126   16.032
  243.500    0.290    0.385   79.877   15.747
  243.750    0.287    0.403   79.851   15.761
  244.000    0.286    0.380   82.288   15.480
  244.250    0.290    0.370   84.111   15.204
  244.500    0.292    0.366   81.627   15.215
  244.750    0.297    0.368   79.142   15.227
  245.000    0.299    0.373   79.118   14.957
  245.250    0.297    0.376   76.639   14.968
  245.500    0.292    0.388   79.071   14.700
  245.750    0.288    0.384   83.350   14.718
  246.000    0.281    0.384   85.175   14.727
  246.250    0.279    0.389   82.683   14.464
  246.500    0.279    0.394   82.054   14.204
  246.750    0.278    0.394   82.639   13.954
  247.000    0.272    0.389   80.770   13.445
  247.250    0.272    0.379   81.365   12.960
  247.500    0.273    0.376   85.029   12.486
  247.750    0.277    0.377   88.082   11.811
  248.000    0.283    0.376   90.516   11.382
  248.250    0.289    0.377   92.945   11.176
  248.500    0.293    0.382   95.387   11.189
  248.750    0.297    0.390   98.438   11.413
  249.000    0.302    0.393   99.643   11.640
  249.250    0.318    0.386   92.244   12.098
  249.500    0.327    0.383   78.697   12.822
  249.750    0.327    0.386   68.221   12.827
  250.000    0.324    0.398   62.669   13.333
  250.250    0.325    0.396   57.109   13.858
  250.500    0.328    0.380   57.085   14.407
  250.750    0.329    0.371   59.526   14.699
  251.000    0.327    0.383   61.954   14.712
  251.250    0.324    0.405   63.163   14.723
  251.500    0.318    0.390   61.297   14.737
  251.750    0.316    0.373   55.125   14.476
