~VERSION INFORMATION
 VERS.                 2.0:   CWLS LOG ASCII STANDARD -VERSION 2.0
 WRAP.                  NO:   ONE LINE PER DEPTH STEP
~WELL INFORMATION BLOCK
#MNEM.UNIT           DATA                    DESCRIPTION OF MNEMONIC
#---------    -------------------            -------------------------------
# Generated from Intellog Unique Number	CW_70_72/WELL/3001
NULL.         -999.25                        : NULL_VALUE
WELL.         NORCEN SHERRITT MITSUE 03-22   : Well_name    - WELL              
LOC .         03-22-070-02W5                 : Location     - LOCATION          
UWI .         00/03-22-070-02W5/0            : Uwi          - UNIQUE WELL ID    
ENTR.         JAYE                           : Entered      - ENTERED BY        
SRVC.         COMPUTALOG                     : Scn          - SERVICE COMPANY   
DATE.         23 FEB 84                      : Date         - LOG DATE          
STRT.M        435                            : top_depth    - START DEPTH       
STOP.M        655                            : bot_depth    - STOP DEPTH        
STEP.M        0.25                           : increment    - STEP LENGTH       
~CURVE INFORMATION BLOCK
#MNEM UNIT       ERCB CURVE CODE    CURVE DESCRIPTION
#-----------   ------------------   ----------------------------------
DEPT.M        00 001 00 00         : DEPTH        - DEPTH                       
ILD .OHMM     00 120 00 00         : RESD         - DEEP RESISTIVITY (DIL)      
CALI.MM       00 280 01 00         : CAL          - CALIPER                     
GR  .API      00 310 00 00         : GR           - GAMMA RAY                   
NPHI.V/V      00 330 00 00         : PHIN         - NEUTRON POROSITY (SANDSTONE)
DPHI.V/V      00 890 00 00         : PHID         - DENSITY POROSITY (SANDSTONE)
~PARAMETER INFORMATION       
#MNEM.UNIT           DATA             DESCRIPTION OF MNEMONIC
#---------         -----------     ------------------------------
GL  .M        597.2                : gl           - GROUND LEVEL ELEVATION      
EREF.M        600.95               : kb           - ELEVATION OF DEPTH REFERENCE
DATM.M        597.2                : datum        - DATUM ELEVATION             
TDD .M        673                  : tdd          - TOTAL DEPTH DRILLER         
RUN .         ONE                  : Run          - RUN NUMBER                  
ENG .         MACLEAN              : Engineer     - RECORDING ENGINEER          
WIT .         BOGNER/CARLSON       : Witness      - WITNESSED BY                
BASE.         EDMONTON             : Branch       - HOME BASE OF LOGGING UNIT   
MUD .         GEL CHEM             : Mud_type     - MUD TYPE                    
MATR.         SANDSTONE            : Logunit      - NEUTRON MATRIX              
TMAX.C        28                   : BHT          - MAXIMUM RECORDED TEMPERATURE
BHTD.M        671.5                : BHTDEP       - MAXIMUM RECORDED TEMPERATURE
RMT .C        19                   : MDTP         - TEMPERATURE OF MUD          
MUDD.KG/M     1120                 : MWT          - MUD DENSITY                 
NEUT.         1                    : NEUTRON      - NEUTRON TYPE                
RESI.         0                    : RESIST       - RESISTIVITY TYPE            
RM  .OHMM     3.5                  : RM           - RESISTIVITY OF MUD          
RMC .OHMM     2.8                  : RMC          - RESISTIVITY OF MUD CAKE     
RMF .OHMM     3.5                  : RMF          - RESISTIVITY OF MUD FILTRATE 
SUFT.C        5                    : SUFT         - SURFACE TEMPERATURE         
~A  DEPTH     RESD      CAL       GR     PHIN     PHID
# ...
  544.500    7.164  199.964   70.691    0.329    0.143
  544.750    7.125  201.499   69.300    0.325    0.146
  545.000    6.128  196.993   68.527    0.318    0.130
  545.250    4.878  196.438   70.890    0.304    0.115
  545.500    4.203  197.456   77.813    0.291    0.096
  545.750    3.726  198.479   85.679    0.293    0.127
  546.000    3.456  199.165   92.416    0.315    0.149
  546.250    3.398  198.828   99.029    0.345    0.169
  546.500    3.431  196.708  101.074    0.354    0.186
  546.750    3.577  193.775   99.752    0.340    0.198
  547.000    3.722  193.337  100.480    0.343    0.176
  547.250    3.808  195.276  100.089    0.375    0.151
  547.500    3.730  200.567   97.507    0.377    0.141
  547.750    3.579  200.436   93.108    0.363    0.156
  548.000    3.506  197.681   96.036    0.378    0.173
  548.250    3.520  192.135   98.576    0.368    0.176
  548.500    3.581  188.779   96.499    0.349    0.166
  548.750    3.684  189.361   95.100    0.370    0.179
  549.000    3.805  193.499   95.965    0.388    0.191
  549.250    4.012  197.856   93.942    0.387    0.178
  549.500    4.128  201.479   88.605    0.388    0.168
  549.750    4.121  204.053   85.022    0.406    0.157
  550.000    4.130  204.136   85.452    0.401    0.153
  550.250    4.076  203.989   88.118    0.385    0.153
  550.500    4.092  202.727   91.292    0.363    0.155
  550.750    4.179  201.747   95.466    0.344    0.162
  551.000    4.275  200.053   98.387    0.359    0.169
  551.250    4.611  198.881   99.499    0.366    0.162
  551.500    4.992  198.543   99.977    0.376    0.150
  551.750    5.466  199.023   96.333    0.380    0.136
  552.000    5.797  200.575   87.493    0.353    0.099
  552.250    5.787  201.883   78.475    0.319    0.075
  552.500    5.584  203.207   76.638    0.305    0.067
  552.750    5.198  204.532   87.692    0.308    0.084
  553.000    4.767  206.289   95.993    0.369    0.111
  553.250    4.540  206.776   96.730    0.380    0.152
  553.500    4.456  206.744   96.090    0.369    0.154
  553.750    4.448  206.723   98.069    0.356    0.142
  554.000    4.432  206.576  101.685    0.339    0.135
  554.250    4.466  206.269  105.851    0.330    0.129
  554.500    4.518  206.218  102.840    0.329    0.134
  554.750    4.553  205.778  103.690    0.351    0.140
  555.000    4.580  205.523  104.620    0.342    0.138
  555.250    4.572  205.301  104.218    0.326    0.131
  555.500    4.538  205.064  106.202    0.323    0.125
  555.750    4.522  204.820  109.630    0.323    0.116
  556.000    4.574  204.576  110.425    0.325    0.111
  556.250    4.787  204.551  111.532    0.333    0.110
  556.500    5.231  204.519  113.205    0.342    0.115
  556.750    5.750  204.590  106.064    0.351    0.122
  557.000    6.086  204.381  102.658    0.345    0.108
  557.250    6.007  204.431   94.323    0.339    0.075
  557.500    5.215  204.094   87.551    0.329    0.053
  557.750    4.783  204.164   87.092    0.314    0.073
  558.000    4.411  204.043   91.271    0.320    0.099
  558.250    4.378  203.999   96.888    0.345    0.120
  558.500    4.371  204.399  100.555    0.356    0.134
  558.750    4.372  205.085   98.849    0.364    0.146
  559.000    4.348  205.696   94.449    0.373    0.137
  559.250    4.292  205.766   91.874    0.369    0.116
  559.500    4.220  205.978   95.608    0.364    0.101
  559.750    4.150  206.126  101.343    0.361    0.112
  560.000    4.127  206.297  103.077    0.357    0.129
  560.250    4.127  205.977   99.745    0.349    0.128
  560.500    4.207  206.051   99.474    0.328    0.118
  560.750    4.345  206.432  102.585    0.313    0.110
  561.000    4.590  206.606  106.634    0.328    0.117
  561.250    4.886  206.675  102.802    0.353    0.122
  561.500    5.200  205.608   97.027    0.361    0.133
  561.750    5.716  205.167   96.822    0.369    0.144
  562.000    6.462  205.339   91.112    0.361    0.118
  562.250    7.588  205.201   81.526    0.331    0.081
  562.500    8.107  205.285   73.126    0.306    0.053
  562.750    6.676  205.469   64.600    0.291    0.063
  563.000    5.166  204.844   63.281    0.287    0.078
  563.250    4.756  204.173   67.388    0.286    0.086
  563.500    4.312  204.122   71.309    0.286    0.101
  563.750    4.370  204.097   72.474    0.284    0.118
  564.000    4.767  203.971   73.343    0.290    0.134
  564.250    5.151  204.029   76.702    0.304    0.149
  564.500    5.201  204.022   82.247    0.312    0.124
  564.750    5.192  204.394   86.484    0.355    0.115
  565.000    5.213  205.714   81.398    0.332    0.108
  565.250    5.194  209.552   80.135    0.309    0.098
  565.500    5.146  211.707   86.809    0.310    0.122
  565.750    5.108  212.107   92.414    0.323    0.138
  566.000    5.138  211.980   96.596    0.315    0.126
  566.250    5.149  212.175   99.329    0.325    0.117
  566.500    5.111  212.446  102.747    0.332    0.108
  566.750    5.112  212.723  101.166    0.324    0.105
  567.000    5.074  212.591   95.584    0.315    0.107
  567.250    5.037  212.672   95.063    0.332    0.112
  567.500    4.953  213.055   99.990    0.352    0.115
  567.750    4.843  213.343  101.971    0.373    0.116
  568.000    4.664  212.892  100.086    0.379    0.108
  568.250    4.434  212.752   99.321    0.375    0.101
  568.500    4.198  212.711   98.292    0.367    0.092
  568.750    4.089  212.287   98.836    0.359    0.104
  569.000    4.106  212.554  105.826    0.337    0.107
  569.250    4.378  212.416  115.565    0.351    0.118
  569.500    4.722  211.766   99.036    0.360    0.141
  569.750    5.171  201.829   81.815    0.306    0.162
  570.000    5.350  188.458   69.602    0.257    0.143
  570.250    5.057  189.577   61.392    0.243    0.113
  570.500    4.491  193.611   56.992    0.265    0.091
  570.750    3.981  189.516   58.293    0.301    0.131
  571.000    3.734  186.888   58.021    0.324    0.158
  571.250    3.543  185.604   59.319    0.341    0.190
  571.500    3.470  185.158   63.806    0.358    0.204
  571.750    3.551  185.862   69.041    0.390    0.222
  572.000    3.737  187.700   69.964    0.395    0.229
  572.250    3.896  193.622   67.193    0.378    0.220
  572.500    4.115  197.554   62.053    0.362    0.214
  572.750    4.266  199.301   60.467    0.348    0.200
  573.000    4.507  199.483   59.569    0.336    0.181
  573.250    4.708  199.447   59.254    0.333    0.184
  573.500    4.862  199.521   59.169    0.328    0.179
  573.750    4.984  199.707   57.960    0.307    0.165
  574.000    5.099  199.776   56.942    0.291    0.150
  574.250    5.226  199.954   58.986    0.284    0.147
  574.500    5.317  200.663   62.597    0.297    0.158
  574.750    5.388  202.188   64.206    0.312    0.166
  575.000    5.461  204.146   64.687    0.298    0.155
  575.250    5.534  205.366   65.179    0.279    0.129
  575.500    5.577  205.442   67.844    0.300    0.134
  575.750    5.453  204.891   71.641    0.335    0.151
  576.000    5.144  204.241   68.556    0.309    0.159
  576.250    4.844  201.920   61.789    0.291    0.140
  576.500    4.509  200.209   65.269    0.297    0.163
  576.750    4.112  197.272   70.570    0.311    0.179
  577.000    3.828  194.835   73.804    0.322    0.207
  577.250    3.673  191.387   73.792    0.338    0.206
  577.500    4.122  189.992   78.147    0.371    0.200
  577.750    4.471  189.432   80.696    0.326    0.198
  578.000    4.849  192.024   73.112    0.300    0.194
  578.250    5.421  194.484   68.277    0.276    0.180
  578.500    5.947  198.207   64.324    0.262    0.140
  578.750    6.725  202.450   61.364    0.255    0.100
  579.000    6.017  202.422   63.035    0.250    0.100
  579.250    5.384  199.369   65.954    0.260    0.115
  579.500    5.032  196.961   70.692    0.301    0.147
  579.750    4.819  195.578   76.492    0.350    0.178
  580.000    4.783  195.430   75.225    0.342    0.198
  580.250    4.885  196.027   70.960    0.300    0.184
  580.500    4.932  197.254   69.498    0.274    0.153
  580.750    4.813  199.209   71.857    0.285    0.148
