~VERSION INFORMATION
 VERS.                 2.0:   CWLS LOG ASCII STANDARD -VERSION 2.0
 WRAP.                  NO:   ONE LINE PER DEPTH STEP
~WELL INFORMATION BLOCK
#MNEM.UNIT           DATA                    DESCRIPTION OF MNEMONIC
#---------    -------------------            -------------------------------
# Generated from Intellog Unique Number	CS_67_68/WELL/2178
WELL.         07-25-067-05W4                 : Well_name    - WELL
LOC .         00/07-25-067-05W4/0            : Location     - LOCATION
UWI .         00/07-25-067-05W4/0            : Uwi          - UNIQUE WELL ID
ENTR.         SP                             : Entered      - ENTERED BY
SRVC.         SCHLUMBERGER                   : Scn          - SERVICE COMPANY
STRT.M        330                            : top_depth    - START DEPTH
STOP.M        560                            : bot_depth    - STOP DEPTH
STEP.M        0.25                           : increment    - STEP LENGTH
 NULL. -999.2500:NULL Value
~CURVE INFORMATION BLOCK
#MNEM UNIT       ERCB CURVE CODE    CURVE DESCRIPTION
#-----------   ------------------   ----------------------------------
DEPT.M        00 001 00 00         : DEPTH        - DEPTH
ILD .OHMM     00 120 00 00         : RESD         - DEEP RESISTIVITY (DIL)
DPHI.V/V      00 890 00 00         : PHID         - DENSITY POROSITY (LIMESTONE)
NPHI.V/V      00 330 00 00         : PHIN         - NEUTRON POROSITY (LIMESTONE)
GR  .API      00 310 00 00         : GR           - GAMMA RAY
CALI.MM       00 280 01 00         : CAL          - CALIPER
~PARAMETER INFORMATION
#MNEM.UNIT           DATA             DESCRIPTION OF MNEMONIC
#---------         -----------     ------------------------------
GL  .M        673.74               : gl           - GROUND LEVEL ELEVATION
EREF.M        677.64               : kb           - ELEVATION OF DEPTH REFERENCE
DATM.M        677.64               : datum        - DATUM ELEVATION
TDD .M        566                  : tdd          - TOTAL DEPTH DRILLER
RUN .         ONE                  : Run          - RUN NUMBER
ENG .         BILL                 : Engineer     - RECORDING ENGINEER
WIT .         JIM                  : Witness      - WITNESSED BY
MUD .         GEL                  : Mud_type     - MUD TYPE
MATR.         LIMESTONE            : Logunit      - NEUTRON MATRIX
TMAX.C        18.8                 : BHT          - MAXIMUM RECORDED TEMPERATURE
BHTD.M        566                  : BHTDEP       - MAXIMUM RECORDED TEMPERATURE
MATR.         1                    : LOGUNIT      - NEUTRON MATRIX
RMT .C        25                   : MDTP         - TEMPERATURE OF MUD
NEUT.         1                    : NEUTRON      - NEUTRON TYPE
RESI.         0                    : RESIST       - RESISTIVITY TYPE
RMC .OHMM     0.25                 : RMC          - RESISTIVITY OF MUD CAKE
RMF .OHMM     0.25                 : RMF          - RESISTIVITY OF MUD FILTRATE
SUFT.C        15                   : SUFT         - SURFACE TEMPERATURE
~A  DEPTH     RESD     PHID     PHIN       GR      CAL
# ...
  476.000    2.010    0.301    0.521   75.379  160.924
  476.250    2.026    0.303    0.511   76.846  160.420
  476.500    2.042    0.303    0.511   78.374  160.220
  476.750    2.055    0.306    0.517   78.620  160.223
  477.000    2.060    0.305    0.543   72.520  160.736
  477.250    2.045    0.301    0.554   67.213  161.451
  477.500    1.968    0.302    0.564   67.948  160.743
  477.750    1.929    0.301    0.556   70.635  159.730
  478.000    1.915    0.296    0.551   72.040  158.717
  478.250    1.971    0.288    0.551   73.813  158.720
  478.500    2.050    0.299    0.550   74.547  159.232
  478.750    2.118    0.312    0.557   75.465  160.253
  479.000    2.179    0.303    0.565   76.077  161.274
  479.250    2.267    0.304    0.551   76.141  161.481
  479.500    2.373    0.296    0.542   76.264  160.773
  479.750    2.478    0.296    0.524   76.755  159.454
  480.000    2.613    0.289    0.505   76.696  157.932
  480.250    2.734    0.280    0.493   76.210  156.716
  480.500    2.802    0.266    0.481   78.898  156.211
  480.750    2.841    0.257    0.498   81.158  156.113
  481.000    2.848    0.248    0.533   84.395  156.116
  481.250    2.838    0.250    0.546   86.960  156.120
  481.500    2.818    0.257    0.524   89.952  156.632
  481.750    2.799    0.262    0.527   93.921  156.636
  482.000    2.790    0.268    0.521   90.506  156.945
  482.250    2.823    0.277    0.510   91.728  157.356
  482.500    2.872    0.271    0.504   90.205  157.664
  482.750    2.911    0.271    0.498   87.400  157.668
  483.000    2.990    0.275    0.513   89.538  157.367
  483.250    3.088    0.264    0.507   90.700  156.658
  483.500    3.160    0.262    0.495   88.871  155.746
  483.750    3.251    0.270    0.504   85.822  155.241
  484.000    3.346    0.280    0.521   82.651  155.143
  484.250    3.397    0.267    0.502   85.460  154.944
  484.500    3.431    0.247    0.474   90.467  154.947
  484.750    3.401    0.222    0.494   96.144  154.748
  485.000    3.290    0.217    0.536  100.907  154.752
  485.250    3.124    0.216    0.553  105.364  154.755
  485.500    2.977    0.218    0.561  108.173  154.657
  485.750    2.864    0.225    0.569  104.209  154.763
  486.000    3.014    0.229    0.574  100.427  154.970
  486.250    3.189    0.233    0.547   92.679  155.278
  486.500    3.413    0.234    0.474   87.799  155.790
  486.750    3.645    0.248    0.429   84.323  155.998
  487.000    3.945    0.234    0.404   85.302  156.510
  487.250    4.285    0.223    0.447   85.182  156.615
  487.500    4.543    0.212    0.471   78.044  156.823
  487.750    4.926    0.208    0.477   72.676  157.029
  488.000    5.391    0.218    0.451   67.003  156.728
  488.250    6.275    0.219    0.392   62.489  156.427
  488.500    7.183    0.240    0.384   59.440  156.227
  488.750    7.920    0.126    0.402   63.226  156.231
  489.000    8.603    0.053    0.315   66.401  156.234
  489.250    9.138    0.052    0.337   69.944  156.646
  489.500    8.924    0.141    0.376   71.471  156.649
  489.750    8.116    0.205    0.399   71.962  156.246
  490.000    8.289    0.241    0.401   66.471  156.147
  490.250    9.505    0.247    0.422   57.381  155.846
  490.500   11.747    0.259    0.454   51.403  155.952
  490.750   15.616    0.275    0.439   47.072  156.159
  491.000   19.997    0.292    0.380   42.741  156.265
  491.250   23.364    0.326    0.384   41.828  156.268
  491.500   25.714    0.339    0.403   46.712  156.169
  491.750   25.872    0.345    0.418   52.451  154.953
  492.000   22.837    0.334    0.418   59.410  154.549
  492.250   16.721    0.333    0.409   66.370  154.248
  492.500   11.489    0.325    0.398   71.376  154.150
  492.750    9.642    0.314    0.389   76.992  154.052
  493.000    8.184    0.304    0.382   81.815  153.954
  493.250    7.485    0.295    0.383   79.194  153.857
  493.500    7.323    0.293    0.401   75.839  153.962
  493.750    6.992    0.303    0.416   72.424  153.863
  494.000    6.751    0.307    0.408   75.905  153.969
  494.250    6.446    0.298    0.402   80.057  154.074
  494.500    6.166    0.290    0.396   83.415  154.282
  494.750    5.954    0.283    0.391   86.591  154.488
  495.000    5.792    0.278    0.415   89.522  154.695
  495.250    5.677    0.275    0.430   92.027  154.801
  495.500    5.617    0.267    0.425   88.611  154.907
  495.750    5.609    0.258    0.412   83.060  155.012
  496.000    5.528    0.250    0.392   82.758  155.015
  496.250    5.439    0.242    0.378   82.454  155.121
  496.500    5.351    0.236    0.370   79.223  155.023
  496.750    5.274    0.242    0.367   81.666  155.332
  497.000    5.169    0.246    0.369   85.085  155.641
  497.250    5.038    0.251    0.361   89.359  155.949
  497.500    4.865    0.257    0.387   92.291  156.055
  497.750    4.741    0.273    0.425   77.341  155.957
  498.000    4.561    0.291    0.466   66.176  155.655
  498.250    4.387    0.304    0.391   54.889  155.150
  498.500    4.112    0.311    0.370   38.902  154.240
  498.750    3.882    0.310    0.355   36.341  153.531
  499.000    3.748    0.306    0.342   40.005  153.025
  499.250    3.886    0.299    0.327   46.476  152.521
  499.500    4.490    0.283    0.319   53.435  152.118
  499.750    5.158    0.247    0.373   61.310  152.020
  500.000    5.893    0.183    0.387   66.438  151.922
  500.250    6.584    0.120    0.373   72.421  152.129
  500.500    7.099    0.156    0.366   78.159  152.641
  500.750    7.223    0.207    0.388   84.508  153.967
  501.000    6.961    0.223    0.392   84.633  155.700
  501.250    6.574    0.233    0.377   81.278  157.230
  501.500    6.442    0.241    0.356   83.172  158.250
  501.750    6.094    0.235    0.374   87.995  159.068
  502.000    5.895    0.227    0.363   92.331  159.172
  502.250    5.671    0.216    0.350   93.431  159.278
  502.500    5.537    0.208    0.330   87.575  159.078
  502.750    5.468    0.243    0.322   81.475  157.760
  503.000    5.390    0.264    0.327   76.961  156.645
  503.250    5.312    0.279    0.347   74.034  155.123
  503.500    5.236    0.260    0.361   77.515  154.008
  503.750    5.055    0.250    0.355   79.897  154.316
  504.000    4.773    0.269    0.358   76.237  154.829
  504.250    4.465    0.300    0.369   74.531  155.442
  504.500    4.215    0.319    0.373   73.191  155.650
  504.750    4.101    0.329    0.373   72.095  155.755
  505.000    4.292    0.311    0.373   75.880  155.657
  505.250    4.592    0.300    0.374   83.206  156.067
  505.500    5.055    0.288    0.374   88.761  156.478
  505.750    5.388    0.270    0.373   94.744  156.482
  506.000    5.875    0.249    0.375   98.346  156.994
  506.250    6.276    0.237    0.378   99.936  157.303
  506.500    6.433    0.239    0.381   94.445  158.019
  506.750    6.306    0.252    0.386   85.599  158.327
  507.000    6.180    0.271    0.378   79.194  158.127
  507.250    6.103    0.264    0.373   82.125  157.623
  507.500    6.083    0.254    0.379   87.375  156.813
  507.750    6.098    0.260    0.403   92.687  157.223
  508.000    6.135    0.269    0.430   88.173  157.837
  508.250    6.172    0.258    0.386   75.787  157.536
  508.500    6.187    0.256    0.337   68.649  158.048
  508.750    6.144    0.253    0.321   74.510  158.154
  509.000    6.067    0.243    0.319   79.943  158.056
  509.250    5.924    0.238    0.345   73.477  157.856
  509.500    5.656    0.254    0.371   50.533  156.232
  509.750    5.232    0.286    0.386   32.899  155.015
  510.000    4.876    0.299    0.364   33.756  154.103
  510.250    4.646    0.299    0.331   44.621  154.412
  510.500    4.470    0.287    0.320   56.340  154.519
  510.750    4.431    0.271    0.338   66.289  154.521
  511.000    4.417    0.281    0.356   56.649  154.830
  511.250    4.394    0.320    0.372   52.624  155.241
  511.500    4.355    0.338    0.385   58.973  155.346
  511.750    4.309    0.340    0.391   62.881  155.249
  512.000    4.255    0.328    0.387   67.399  155.354
  512.250    4.217    0.319    0.381   71.551  155.357
