~VERSION INFORMATION
 VERS.                 2.0:   CWLS LOG ASCII STANDARD -VERSION 2.0
 WRAP.                  NO:   ONE LINE PER DEPTH STEP
~WELL INFORMATION BLOCK
#MNEM.UNIT           DATA                    DESCRIPTION OF MNEMONIC
#---------    -------------------            -------------------------------
# Generated from Intellog Unique Number	CS_77_79/WELL/905
WELL.         MESA HB THORNBURY              : Well_name    - WELL
LOC .         00/07-22-078-12W4/0            : Location     - LOCATION
UWI .         00/07-22-078-12W4/0            : Uwi          - UNIQUE WELL ID
ENTR.         JHS                            : Entered      - ENTERED BY
SRVC.         SCHLUMBERGER                   : Scn          - SERVICE COMPANY
STRT.M        256.032                        : top_depth    - START DEPTH
STOP.M        475.282                        : bot_depth    - STOP DEPTH
STEP.M        0.25                           : increment    - STEP LENGTH
 NULL. -999.2500:NULL Value
~CURVE INFORMATION BLOCK
#MNEM UNIT       ERCB CURVE CODE    CURVE DESCRIPTION
#-----------   ------------------   ----------------------------------
DEPT.M        00 001 00 00         : DEPTH        - DEPTH
RHOB.KG/M3    00 350 00 00         : DENS         - BULK DENSITY
GR  .API      00 310 00 00         : GR           - GAMMA RAY
DPHI.V/V      00 890 00 00         : PHID         - DENSITY POROSITY (SANDSTONE)
NPHI.V/V      00 330 00 00         : PHIN         - NEUTRON POROSITY (SANDSTONE)
ILD .OHMM     00 120 00 00         : RESD         - DEEP RESISTIVITY (DIL)
~PARAMETER INFORMATION
#MNEM.UNIT           DATA             DESCRIPTION OF MNEMONIC
#---------         -----------     ------------------------------
GL  .M        675.315              : gl           - GROUND LEVEL ELEVATION
EREF.M        679.094              : kb           - ELEVATION OF DEPTH REFERENCE
DATM.M        679.094              : datum        - DATUM ELEVATION
TDD .M        490.728              : tdd          - TOTAL DEPTH DRILLER
RUN .         ONE                  : Run          - RUN NUMBER
ENG .         BILL                 : Engineer     - RECORDING ENGINEER
WIT .         JIM                  : Witness      - WITNESSED BY
MUD .         GEL                  : Mud_type     - MUD TYPE
MATR.         SANDSTONE            : Logunit      - NEUTRON MATRIX
TMAX.C        19.4444              : BHT          - MAXIMUM RECORDED TEMPERATURE
BHTD.M        490.728              : BHTDEP       - MAXIMUM RECORDED TEMPERATURE
MATR.         1                    : LOGUNIT      - NEUTRON MATRIX
RMT .C        25                   : MDTP         - TEMPERATURE OF MUD
NEUT.         1                    : NEUTRON      - NEUTRON TYPE
RESI.         0                    : RESIST       - RESISTIVITY TYPE
RMC .OHMM     0.25                 : RMC          - RESISTIVITY OF MUD CAKE
RMF .OHMM     0.25                 : RMF          - RESISTIVITY OF MUD FILTRATE
SUFT.C        15                   : SUFT         - SURFACE TEMPERATURE
~A  DEPTH     DENS       GR     PHID     PHIN     RESD
# ...
  438.532 2367.430  118.284    0.197    0.412    6.876
  438.782 2360.220  115.370    0.204    0.410    7.144
  439.032 2344.070  110.149    0.214    0.402    7.975
  439.282 2310.900  104.190    0.233    0.392    8.714
  439.532 2275.660   88.597    0.254    0.380   10.402
  439.782 2244.060   77.310    0.272    0.367   11.381
  440.032 2263.200   74.684    0.261    0.367   13.468
  440.282 2271.780   74.883    0.256    0.358   14.526
  440.532 2281.090   76.563    0.251    0.343   15.127
  440.782 2307.030   78.397    0.236    0.339   15.415
  441.032 2350.980   79.353    0.210    0.353   15.178
  441.282 2425.590   78.070    0.166    0.365   14.883
  441.532 2466.760   77.677    0.142    0.337   14.929
  441.782 2512.580   82.934    0.115    0.339   14.729
  442.032 2444.120   92.877    0.155    0.392   14.273
  442.282 2325.090   91.514    0.225    0.370   14.157
  442.532 2300.710   87.330    0.239    0.349   14.549
  442.782 2316.210   83.699    0.230    0.327   15.658
  443.032 2257.480   80.775    0.265    0.368   17.763
  443.282 2236.580   80.299    0.277    0.390   20.692
  443.532 2246.890   85.923    0.271    0.411   24.652
  443.782 2231.820   91.694    0.280    0.408   28.837
  444.032 2228.930   93.667    0.281    0.394   29.931
  444.282 2269.880   90.846    0.257    0.384   28.633
  444.532 2306.440   84.176    0.236    0.378   25.802
  444.782 2320.530   78.612    0.228    0.369   22.752
  445.032 2279.230   77.971    0.252    0.360   21.052
  445.282 2280.330   77.061    0.251    0.363   19.559
  445.532 2314.340   74.759    0.231    0.399   17.380
  445.782 2338.110   73.073    0.217    0.415   16.398
  446.032 2335.840   69.822    0.219    0.419   17.845
  446.282 2303.970   63.259    0.237    0.398   22.251
  446.532 2227.250   52.041    0.282    0.379   29.170
  446.782 2211.070   48.147    0.292    0.362   69.381
  447.032 2227.720   50.708    0.282    0.358   92.394
  447.282 2255.800   54.970    0.266    0.361   94.580
  447.532 2262.360   60.873    0.262    0.355   67.827
  447.782 2243.920   65.048    0.273    0.382   48.860
  448.032 2219.980   63.981    0.287    0.405   45.468
  448.282 2202.100   62.160    0.297    0.403   56.749
  448.532 2190.290   60.531    0.304    0.403   74.686
  448.782 2206.240   62.647    0.295    0.408   88.131
  449.032 2208.400   64.349    0.293    0.418   92.658
  449.282 2201.370   69.873    0.297    0.407   89.313
  449.532 2219.030   77.064    0.287    0.407   73.369
  449.782 2209.250   78.498    0.293    0.418   62.889
  450.032 2215.310   78.486    0.289    0.413   57.474
  450.282 2225.600   81.572    0.283    0.398   52.934
  450.532 2224.040   82.405    0.284    0.387   48.793
  450.782 2240.210   79.371    0.275    0.402   45.189
  451.032 2254.570   78.105    0.266    0.399   42.423
  451.282 2244.610   80.021    0.272    0.385   37.918
  451.532 2255.010   82.052    0.266    0.380   34.111
  451.782 2260.810   85.503    0.263    0.391   30.589
  452.032 2258.920   92.373    0.264    0.394   27.260
  452.282 2284.080   97.113    0.249    0.385   22.033
  452.532 2327.820   99.492    0.223    0.374   18.288
  452.782 2393.440  102.669    0.185    0.372   14.092
  453.032 2435.010  102.312    0.161    0.385   11.516
  453.282 2455.310  101.018    0.149    0.371   10.768
  453.532 2464.910   97.513    0.143    0.365   10.401
  453.782 2349.750   92.478    0.211    0.362   11.750
  454.032 2323.950   83.337    0.226    0.388   13.310
  454.282 2249.940   75.108    0.269    0.386   15.117
  454.532 2283.290   73.934    0.250    0.380   16.283
  454.782 2324.480   85.303    0.225    0.382   16.762
  455.032 2355.880   92.862    0.207    0.383   15.960
  455.282 2365.480   96.726    0.201    0.372   14.276
  455.532 2336.890   99.360    0.218    0.379   12.691
  455.782 2321.240  102.431    0.227    0.371   11.732
  456.032 2352.950  108.579    0.209    0.377   11.039
  456.282 2391.820  111.709    0.186    0.385   10.589
  456.532 2405.620  111.271    0.178    0.381   10.477
  456.782 2396.530  108.278    0.183    0.390   10.845
  457.032 2427.980  105.968    0.165    0.380   11.200
  457.282 2411.210  100.532    0.175    0.379   11.672
  457.532 2382.380   93.418    0.192    0.387   12.180
  457.782 2349.550   84.844    0.211    0.379   12.612
  458.032 2313.160   72.646    0.232    0.370   12.520
  458.282 2314.060   72.108    0.232    0.384   12.392
  458.532 2305.010   74.211    0.237    0.374   12.564
  458.782 2335.590   75.940    0.219    0.371   13.035
  459.032 2347.080   75.859    0.212    0.382   13.900
  459.282 2329.620   73.121    0.222    0.383   15.307
  459.532 2305.160   63.056    0.237    0.372   17.589
  459.782 2284.270   57.298    0.249    0.361   20.839
  460.032 2255.230   53.830    0.266    0.381   24.870
  460.282 2226.520   56.776    0.283    0.370   29.179
  460.532 2295.730   60.894    0.242    0.361   35.764
  460.782 2304.930   62.009    0.237    0.369   39.932
  461.032 2264.540   61.334    0.261    0.381   42.421
  461.282 2288.980   59.920    0.246    0.384   44.426
  461.532 2277.780   57.780    0.253    0.372   48.886
  461.782 2260.230   53.397    0.263    0.362   57.217
  462.032 2245.690   46.684    0.272    0.347   65.434
  462.282 2227.060   46.536    0.282    0.341   79.440
  462.532 2200.160   48.114    0.298    0.345   94.264
  462.782 2247.920   46.464    0.270    0.378  109.710
  463.032 2242.040   45.547    0.274    0.398  135.505
  463.282 2207.220   45.062    0.294    0.382  145.473
  463.532 2202.730   45.713    0.297    0.366  154.304
  463.782 2217.100   46.273    0.288    0.361  148.243
  464.032 2210.770   46.052    0.292    0.377  133.337
  464.282 2194.230   48.233    0.302    0.389  123.269
  464.532 2185.970   49.584    0.306    0.372  129.308
  464.782 2176.780   50.619    0.312    0.363  143.591
  465.032 2202.730   51.660    0.297    0.364  154.569
  465.282 2213.820   52.684    0.290    0.380  168.050
  465.532 2208.030   53.345    0.294    0.390  180.872
  465.782 2207.980   53.180    0.294    0.404  199.779
  466.032 2214.040   53.366    0.290    0.382  224.723
  466.282 2200.850   52.710    0.298    0.378  281.333
  466.532 2188.370   52.741    0.305    0.374  329.474
  466.782 2187.320   52.271    0.306    0.367  343.241
  467.032 2212.340   51.284    0.291    0.361  337.829
  467.282 2194.640   50.981    0.301    0.360  261.822
  467.532 2176.240   49.880    0.312    0.373  265.740
  467.782 2168.240   49.089    0.317    0.386  305.713
  468.032 2167.130   47.466    0.317    0.376  327.436
  468.282 2179.550   46.496    0.310    0.375  321.978
  468.532 2187.450   45.335    0.306    0.384  284.045
  468.782 2181.890   43.945    0.309    0.372  245.277
  469.032 2179.140   42.388    0.310    0.363  161.360
  469.282 2200.480   40.929    0.298    0.388  113.247
  469.532 2200.320   40.316    0.298    0.405   81.074
  469.782 2166.400   59.040    0.318    0.392   39.404
  470.032 2161.960   77.114    0.320    0.367   19.231
  470.282 2226.100   97.813    0.291    0.351   12.015
  470.532 2471.080  117.561    0.262    0.333    8.934
  470.782  -99.005  121.932    0.247    0.320    8.355
  471.032   37.151  112.849    0.130    0.337    8.217
  471.282    4.685   99.607    0.076    0.322    8.496
  471.532    0.000   96.267    0.055    0.317    9.059
  471.782   -0.065   95.079    0.059    0.318    9.604
  472.032   -0.006   91.807    0.069    0.313   10.743
  472.282    0.000   87.189    0.072    0.312   11.534
  472.532    0.000   68.626    0.053    0.283   13.113
  472.782    0.000   51.200    0.025    0.254   15.589
  473.032   -0.000   44.267    0.024    0.209   21.270
  473.282   -0.000   36.585    0.001    0.166   26.735
  473.532   -0.000   32.740   -0.000    0.135   34.968
  473.782    0.000   30.851    0.006    0.134   42.149
  474.032    0.000   28.896    0.006    0.170   48.435
  474.282    0.000   28.633    0.000    0.172   49.223
  474.532   -0.000   28.558   -0.001    0.162   49.683
  474.782   -0.000   30.360    0.014    0.154   48.199
