~VERSION INFORMATION
 VERS.                 2.0:   CWLS LOG ASCII STANDARD -VERSION 2.0
 WRAP.                  NO:   ONE LINE PER DEPTH STEP
~WELL INFORMATION BLOCK
#MNEM.UNIT           DATA                    DESCRIPTION OF MNEMONIC
#---------    -------------------            -------------------------------
# Generated from Intellog Unique Number	CN_94_101/WELL/2773
WELL.         PARAMOUNT LTD.                 : Well_name    - WELL
LOC .         00/04-23-094-21W4/0            : Location     - LOCATION
UWI .         00/04-23-094-21W4/0            : Uwi          - UNIQUE WELL ID
ENTR.         JOETTE                         : Entered      - ENTERED BY
SRVC.         COMPUTALOG                     : Scn          - SERVICE COMPANY
DATE.         07/03/92                       : Date         - LOG DATE
STRT.M        175                            : top_depth    - START DEPTH
STOP.M        350                            : bot_depth    - STOP DEPTH
STEP.M        0.25                           : increment    - STEP LENGTH
 NULL. -999.2500:NULL Value
~CURVE INFORMATION BLOCK
#MNEM UNIT       ERCB CURVE CODE    CURVE DESCRIPTION
#-----------   ------------------   ----------------------------------
DEPT.M        00 001 00 00         : DEPTH        - DEPTH
CALI.MM       00 280 01 00         : CAL          - CALIPER
GR  .API      00 310 00 00         : GR           - GAMMA RAY
NPHI.V/V      00 330 00 00         : PHIN         - NEUTRON POROSITY (SANDSTONE)
DPHI.V/V      00 890 00 00         : PHID         - DENSITY POROSITY (SANDSTONE)
ILD .OHMM     00 120 00 00         : RESD         - DEEP RESISTIVITY (DIL)
~PARAMETER INFORMATION
#MNEM.UNIT           DATA             DESCRIPTION OF MNEMONIC
#---------         -----------     ------------------------------
GL  .M        662.1                : gl           - GROUND LEVEL ELEVATION
EREF.M        665.5                : kb           - ELEVATION OF DEPTH REFERENCE
DATM.M        665.5                : datum        - DATUM ELEVATION
TDD .M        354.5                : tdd          - TOTAL DEPTH DRILLER
RUN .         ONE                  : Run          - RUN NUMBER
ENG .         JO                   : Engineer     - RECORDING ENGINEER
WIT .         TIM                  : Witness      - WITNESSED BY
MUD .         GEL                  : Mud_type     - MUD TYPE
MATR.         SANDSTONE            : Logunit      - NEUTRON MATRIX
TMAX.C        25                   : BHT          - MAXIMUM RECORDED TEMPERATURE
BHTD.M        354.5                : BHTDEP       - MAXIMUM RECORDED TEMPERATURE
RMT .C        7.8                  : MDTP         - TEMPERATURE OF MUD
MUDD.KG/M     1050                 : MWT          - MUD DENSITY
NEUT.         1                    : NEUTRON      - NEUTRON TYPE
RESI.         0                    : RESIST       - RESISTIVITY TYPE
RM  .OHMM     3.2                  : RM           - RESISTIVITY OF MUD
RMC .OHMM     3.2                  : RMC          - RESISTIVITY OF MUD CAKE
RMF .OHMM     3.2                  : RMF          - RESISTIVITY OF MUD FILTRATE
SUFT.C        4                    : SUFT         - SURFACE TEMPERATURE
~A  DEPTH      CAL       GR     PHIN     PHID     RESD
# ...
  211.500  176.770  112.140    0.447    0.237    5.660
  211.750  178.780  103.281    0.439    0.205    5.877
  212.000  180.768   91.467    0.418    0.171    6.223
  212.250  181.784   96.215    0.414    0.155    6.463
  212.500  177.868  107.477    0.409    0.185    6.217
  212.750  176.927  109.862    0.414    0.211    5.645
  213.000  179.908  112.843    0.425    0.235    5.430
  213.250  185.864  114.045    0.434    0.227    5.124
  213.500  187.859  112.287    0.443    0.218    4.835
  213.750  187.896  109.938    0.441    0.213    4.562
  214.000  186.939  108.185    0.446    0.219    4.560
  214.250  186.969  108.198    0.460    0.223    4.558
  214.500  186.020  105.849    0.477    0.208    4.734
  214.750  186.042  103.504    0.481    0.208    4.732
  215.000  186.065  105.885    0.451    0.220    4.464
  215.250  185.123  111.821    0.442    0.239    4.213
  215.500  185.138  118.349    0.442    0.246    3.976
  215.750  183.203  121.325    0.445    0.243    3.824
  216.000  178.301  117.210    0.452    0.242    3.749
  216.250  177.344  115.448    0.461    0.245    3.748
  216.500  176.388  117.837    0.478    0.243    3.819
  216.750  178.390  119.034    0.460    0.237    3.890
  217.000  180.393  119.639    0.436    0.232    4.041
  217.250  183.381  118.474    0.417    0.230    4.197
  217.500  185.391  114.349    0.417    0.231    4.443
  217.750  185.421  109.632    0.429    0.236    4.704
  218.000  185.458  112.618    0.446    0.241    4.886
  218.250  185.488  113.228    0.451    0.231    5.272
  218.500  185.503  112.062    0.446    0.228    5.582
  218.750  184.547  109.121    0.442    0.238    6.024
  219.000  181.617  106.180    0.390    0.246    6.628
  219.250  175.736  107.973    0.360    0.254    8.181
  219.500  172.807  110.946    0.353    0.260    9.351
  219.750  167.905  113.335    0.357    0.265    9.711
  220.000  172.859  108.022    0.385    0.252    9.708
  220.250  182.753  103.306    0.389    0.243    9.516
  220.500  184.763  102.732    0.381    0.250    9.514
  220.750  181.841  104.525    0.366    0.258   10.071
  221.000  178.897   98.629    0.351    0.265   11.081
  221.250  174.981   95.096    0.351    0.271   11.959
  221.500  173.038   93.935    0.355    0.270   13.409
  221.750  172.104   93.352    0.360    0.262   13.928
  222.000  171.133   94.563    0.371    0.262   14.466
  222.250  171.155   95.755    0.378    0.262   15.023
  222.500  171.192   98.737    0.382    0.252   15.015
  222.750  171.222  101.714    0.349    0.244   15.006
  223.000  170.273  102.328    0.345    0.247   14.718
  223.250  170.303   99.978    0.347    0.251   13.620
  223.500  169.346   96.445    0.356    0.256   13.105
  223.750  169.383   94.683    0.365    0.262   12.367
  224.000  169.398   94.701    0.341    0.268   11.016
  224.250  171.408   96.499    0.355    0.258   10.396
  224.500  167.493   97.696    0.371    0.242    9.810
  224.750  164.556  100.081    0.382    0.236    9.081
  225.000  171.490  101.879    0.386    0.242    8.087
  225.250  181.383  103.677    0.393    0.242    7.488
  225.500  186.352  104.278    0.410    0.235    6.420
  225.750  184.417  106.071    0.453    0.237    5.720
  226.000  183.446  107.272    0.452    0.252    4.810
  226.250  179.537  107.887    0.443    0.253    4.285
  226.500  176.608  109.680    0.446    0.252    4.202
  226.750  173.679  109.106    0.452    0.253    4.623
  227.000  170.757  101.426    0.446    0.259    5.387
  227.250  171.766   93.158    0.405    0.268    6.277
  227.500  173.768   85.483    0.377    0.279    8.860
  227.750  171.833   73.665    0.376    0.260    9.935
  228.000  168.911   76.641    0.384    0.304   10.722
  228.250  167.940   83.761    0.380    0.276   11.353
  228.500  166.012   89.706    0.375    0.250   11.346
  228.750  165.048   92.091    0.380    0.242   11.127
  229.000  165.070   93.288    0.394    0.213   10.298
  229.250  165.100   90.943    0.382    0.186    9.906
  229.500  165.130   87.998    0.373    0.166    9.529
  229.750  165.160   86.240    0.380    0.162    9.166
  230.000  168.163   88.630    0.390    0.180    8.648
  230.250  169.165   91.611    0.393    0.229    8.321
  230.500  171.167   93.395    0.386    0.245    7.556
  230.750  175.142   96.372    0.385    0.260    6.603
  231.000  182.084  100.533    0.395    0.262    5.883
  231.250  185.080  101.147    0.393    0.246    4.946
  231.500  185.117   98.798    0.396    0.241    4.759
  231.750  184.146  100.591    0.406    0.241    4.577
  232.000  181.224  103.568    0.419    0.246    5.035
  232.250  176.322  104.774    0.438    0.251    5.540
  232.500  173.386  100.053    0.438    0.251    7.243
  232.750  170.456   85.867    0.394    0.255    7.816
  233.000  167.527   79.371    0.345    0.263    8.436
  233.250  168.551   84.719    0.357    0.272    9.460
  233.500  170.561   86.517    0.368    0.273    9.824
  233.750  170.583   85.948    0.365    0.268    9.271
  234.000  170.620   87.732    0.368    0.267    8.749
  234.250  170.635   91.301    0.384    0.269    8.414
  234.500  169.679   94.278    0.398    0.272    8.412
  234.750  173.654   93.704    0.411    0.263    9.078
  235.000  176.643   87.212    0.405    0.261   12.813
  235.250  173.713   84.275    0.382    0.262   13.308
  235.500  170.792   87.252    0.351    0.259   13.561
  235.750  169.828   87.274    0.327    0.175   13.812
  236.000  167.892   86.692    0.320    0.211   13.808
  236.250  167.937   86.118    0.312    0.247   13.541
  236.500  167.959   87.911    0.323    0.271   12.294
  236.750  168.968   93.260    0.346    0.268   11.382
  237.000  170.978   95.645    0.350    0.260   10.538
  237.250  174.953   95.071    0.355    0.259    8.861
  237.500  175.977   93.313    0.363    0.263    8.362
  237.750  174.019   92.739    0.369    0.265    7.741
  238.000  171.090   91.582    0.376    0.250    7.165
  238.250  168.160   89.224    0.376    0.234    6.383
  238.500  169.177   86.879    0.365    0.265    5.797
  238.750  171.179   94.586    0.370    0.271    4.876
  239.000  174.168  102.889    0.390    0.261    4.261
  239.250  179.129   99.948    0.437    0.253    3.796
  239.500  178.173   96.415    0.419    0.264    4.257
  239.750  174.265   92.290    0.380    0.269    5.057
  240.000  171.336   79.289    0.348    0.214    6.611
  240.250  174.324   72.797    0.327    0.154    8.004
  240.500  177.313   73.998    0.308    0.104    7.698
  240.750  175.378   78.750    0.341    0.235    6.860
  241.000  173.442   83.507    0.372    0.263    6.111
  241.250  172.471   87.072    0.401    0.279    5.239
  241.500  173.502   91.828    0.414    0.283    4.667
  241.750  173.517   94.805    0.429    0.279    4.404
  242.000  175.519   94.231    0.431    0.276    4.236
  242.250  178.523   93.657    0.420    0.273    4.153
  242.500  178.538   93.675    0.425    0.273    4.072
  242.750  178.575   96.060    0.446    0.271    4.071
  243.000  177.619  100.221    0.450    0.261    3.992
  243.250  175.683  101.422    0.437    0.257    3.990
  243.500  175.698  102.032    0.436    0.259    3.912
  243.750  175.728  104.417    0.455    0.264    3.910
  244.000  176.759  105.027    0.431    0.269    3.908
  244.250  177.768  101.498    0.424    0.275    3.982
  244.500  179.770   98.553    0.437    0.280    4.215
  244.750  177.835   96.800    0.451    0.256    4.727
  245.000  173.919   94.446    0.448    0.225    5.102
  245.250  170.990   84.403    0.438    0.196    5.402
  245.500  170.026   89.155    0.423    0.257    6.057
  245.750  173.015   98.055    0.410    0.270    6.172
  246.000  177.976  102.807    0.400    0.270    6.051
  246.250  180.980  102.238    0.401    0.261    5.710
  246.500  181.002  102.256    0.413    0.253    5.493
  246.750  180.038  104.049    0.417    0.249    5.183
  247.000  177.117  105.250    0.410    0.244    5.083
  247.250  175.166  104.676    0.405    0.235    4.888
  247.500  173.223  108.241    0.395    0.238    4.887
  247.750  172.267  111.218    0.397    0.217    4.790
