~VERSION INFORMATION
 VERS.                 2.0:   CWLS LOG ASCII STANDARD -VERSION 2.0
 WRAP.                  NO:   ONE LINE PER DEPTH STEP
~WELL INFORMATION BLOCK
#MNEM.UNIT           DATA                    DESCRIPTION OF MNEMONIC
#---------    -------------------            -------------------------------
# Generated from Intellog Unique Number	CX_WELLS/WELL/2722
WELL.         MAYNARD CLAREN                 : Well_name    - WELL
LOC .         00/06-06-080-12W4/0            : Location     - LOCATION
UWI .         00/06-06-080-12W4/0            : Uwi          - UNIQUE WELL ID
ENTR.         T                              : Entered      - ENTERED BY
SRVC.         SCHLUMBERGER                   : Scn          - SERVICE COMPANY
STRT.M        265                            : top_depth    - START DEPTH
STOP.M        488                            : bot_depth    - STOP DEPTH
STEP.M        0.25                           : increment    - STEP LENGTH
 NULL. -999.2500:NULL Value
~CURVE INFORMATION BLOCK
#MNEM UNIT       ERCB CURVE CODE    CURVE DESCRIPTION
#-----------   ------------------   ----------------------------------
DEPT.M        00 001 00 00         : DEPTH        - DEPTH
GR  .API      00 310 00 00         : GR           - GAMMA RAY
NPHI.V/V      00 330 00 00         : PHIN         - NEUTRON POROSITY (SANDSTONE)
DPHI.V/V      00 890 00 00         : PHID         - DENSITY POROSITY (SANDSTONE)
ILD .OHMM     00 120 00 00         : RESD         - DEEP RESISTIVITY (DIL)
~PARAMETER INFORMATION
#MNEM.UNIT           DATA             DESCRIPTION OF MNEMONIC
#---------         -----------     ------------------------------
GL  .M        683.5                : gl           - GROUND LEVEL ELEVATION
EREF.M        686.8                : kb           - ELEVATION OF DEPTH REFERENCE
DATM.M        686.8                : datum        - DATUM ELEVATION
TDD .M        497                  : tdd          - TOTAL DEPTH DRILLER
RUN .         ONE                  : Run          - RUN NUMBER
ENG .         BILL                 : Engineer     - RECORDING ENGINEER
WIT .         JIM                  : Witness      - WITNESSED BY
MUD .         GEL                  : Mud_type     - MUD TYPE
MATR.         SANDSTONE            : Logunit      - NEUTRON MATRIX
TMAX.C        20                   : BHT          - MAXIMUM RECORDED TEMPERATURE
BHTD.M        497                  : BHTDEP       - MAXIMUM RECORDED TEMPERATURE
MATR.         1                    : LOGUNIT      - NEUTRON MATRIX
RMT .C        20                   : MDTP         - TEMPERATURE OF MUD
NEUT.         1                    : NEUTRON      - NEUTRON TYPE
RESI.         5.13                 : RESIST       - RESISTIVITY TYPE
RMC .OHMM     3.4                  : RMC          - RESISTIVITY OF MUD CAKE
RMF .OHMM     4.4                  : RMF          - RESISTIVITY OF MUD FILTRATE
SUFT.C        3                    : SUFT         - SURFACE TEMPERATURE
~A  DEPTH       GR     PHIN     PHID     RESD
# ...
  352.000   61.150    0.379    0.318   16.861
  352.250   61.133    0.379    0.312   16.940
  352.500   61.109    0.379    0.311   17.098
  352.750   61.101    0.379    0.312   17.177
  353.000   61.081    0.379    0.317   17.176
  353.250   61.065    0.380    0.319   17.175
  353.500   60.422    0.381    0.323   17.174
  353.750   60.406    0.383    0.323   17.173
  354.000   60.390    0.384    0.317   17.252
  354.250   60.369    0.385    0.311   17.250
  354.500   60.353    0.384    0.293   17.250
  354.750   60.337    0.384    0.283   17.328
  355.000   60.325    0.382    0.281   17.327
  355.250   60.305    0.380    0.281   17.326
  355.500   60.923    0.377    0.278   17.405
  355.750   61.529    0.369    0.264   17.404
  356.000   61.517    0.361    0.248   17.403
  356.250   62.135    0.351    0.237   17.402
  356.500   64.007    0.346    0.241   17.321
  356.750   65.882    0.351    0.264   17.320
  357.000   67.130    0.379    0.267   17.240
  357.250   70.263    0.390    0.291   17.239
  357.500   72.142    0.405    0.293   16.920
  357.750   74.643    0.417    0.292   16.282
  358.000   77.149    0.429    0.288   15.485
  358.250   79.024    0.435    0.285   14.608
  358.500   81.526    0.443    0.276   13.572
  358.750   83.405    0.449    0.267   12.218
  359.000   86.541    0.459    0.258   10.465
  359.250   90.312    0.466    0.250    9.190
  359.500   95.339    0.473    0.239    8.393
  359.750  100.367    0.483    0.225    7.756
  360.000  105.394    0.495    0.224    7.118
  360.250  111.048    0.504    0.225    6.400
  360.500  112.927    0.516    0.230    5.683
  360.750  114.172    0.527    0.224    4.886
  361.000  114.778    0.538    0.218    4.168
  361.250  114.766    0.538    0.210    3.928
  361.500  114.746    0.537    0.205    3.529
  361.750  114.734    0.535    0.212    3.289
  362.000  114.714    0.533    0.222    3.129
  362.250  113.437    0.535    0.228    3.128
  362.500  110.899    0.537    0.234    3.048
  362.750  108.361    0.542    0.235    2.967
  363.000  107.714    0.547    0.242    2.966
  363.250  109.589    0.548    0.246    2.965
  363.500  111.464    0.546    0.255    2.965
  363.750  111.444    0.542    0.257    3.043
  364.000  110.171    0.535    0.250    3.042
  364.250  108.267    0.506    0.243    3.121
  364.500  106.986    0.490    0.245    3.279
  364.750  105.079    0.483    0.248    3.358
  365.000  104.436    0.477    0.250    3.675
  365.250  102.521    0.466    0.250    3.833
  365.500  101.882    0.455    0.244    4.151
  365.750  100.605    0.446    0.241    4.389
  366.000   99.328    0.440    0.241    4.706
  366.250   97.420    0.437    0.244    5.183
  366.500   95.501    0.439    0.246    5.421
  366.750   94.862    0.442    0.249    5.659
  367.000   93.585    0.443    0.253    5.976
  367.250   92.308    0.444    0.260    6.294
  367.500   91.031    0.445    0.290    6.372
  367.750   89.754    0.449    0.293    6.371
  368.000   88.472    0.451    0.296    6.370
  368.250   90.974    0.458    0.271    6.369
  368.500   93.488    0.460    0.264    6.209
  368.750   98.511    0.467    0.256    5.890
  369.000  102.282    0.475    0.248    5.570
  369.250  108.566    0.481    0.246    5.251
  369.500  111.076    0.488    0.246    4.772
  369.750  111.060    0.499    0.249    4.453
  370.000  111.040    0.509    0.251    4.054
  370.250  111.027    0.519    0.252    3.734
  370.500  110.381    0.530    0.255    3.495
  370.750  107.835    0.524    0.257    3.095
  371.000  107.192    0.510    0.257    2.935
  371.250  106.541    0.509    0.241    2.695
  371.500  107.164    0.508    0.233    2.456
  371.750  109.031    0.508    0.238    2.296
  372.000  109.649    0.507    0.260    2.056
  372.250  110.268    0.501    0.261    1.896
  372.500  110.882    0.493    0.265    1.656
  372.750  109.605    0.484    0.271    1.496
  373.000  107.063    0.477    0.273    1.255
  373.250  105.159    0.473    0.270    1.175
  373.500  101.348    0.468    0.266    1.095
  373.750  100.079    0.466    0.258    1.253
  374.000   99.436    0.468    0.254    1.411
  374.250   98.786    0.473    0.248    2.127
  374.500   99.400    0.488    0.242    2.922
  374.750  100.641    0.502    0.233    3.876
  375.000  101.259    0.495    0.236    4.273
  375.250  102.504    0.483    0.243    4.272
  375.500  103.745    0.474    0.252    4.192
  375.750  103.732    0.467    0.257    3.952
  376.000  103.716    0.460    0.258    3.871
  376.250  103.066    0.460    0.259    3.871
  376.500  103.041    0.460    0.258    3.949
  376.750  103.029    0.459    0.257    4.108
  377.000  103.021    0.454    0.253    4.266
  377.250  102.366    0.450    0.246    4.503
  377.500  101.724    0.449    0.234    4.582
  377.750  100.447    0.453    0.223    4.740
  378.000   99.800    0.460    0.218    4.819
  378.250   98.523    0.461    0.219    4.898
  378.500   97.876    0.468    0.225    4.897
  378.750   97.230    0.469    0.235    4.896
  379.000   96.583    0.441    0.258    4.815
  379.250   95.932    0.429    0.261    5.053
  379.500   95.924    0.412    0.266    5.291
  379.750   95.278    0.403    0.273    5.768
  380.000   94.627    0.404    0.272    6.483
  380.250   92.089    0.412    0.261    7.358
  380.500   89.555    0.414    0.249    7.675
  380.750   85.126    0.417    0.248    7.913
  381.000   84.475    0.413    0.249    8.231
  381.250   84.455    0.407    0.244    8.469
  381.500   84.438    0.396    0.230    8.707
  381.750   85.057    0.385    0.199    9.024
  382.000   86.302    0.393    0.160    9.262
  382.250   87.546    0.407    0.179    9.500
  382.500   88.787    0.419    0.187    9.658
  382.750   91.293    0.421    0.208    9.657
  383.000   91.911    0.421    0.218    9.338
  383.250   93.156    0.421    0.224    9.178
  383.500   93.770    0.422    0.233    8.699
  383.750   94.380    0.427    0.238    8.539
  384.000   94.998    0.428    0.240    8.140
  384.250   96.874    0.431    0.240    7.980
  384.500   98.118    0.436    0.240    7.740
  384.750   99.990    0.438    0.240    7.580
  385.000  101.238    0.443    0.240    7.420
  385.250  102.483    0.444    0.240    7.259
  385.500  104.354    0.450    0.240    7.099
  385.750  105.591    0.454    0.240    6.939
  386.000  106.209    0.458    0.240    6.699
  386.250  106.832    0.461    0.240    6.459
  386.500  108.072    0.463    0.240    6.220
  386.750  108.052    0.463    0.241    5.661
  387.000  108.040    0.458    0.240    5.421
  387.250  108.028    0.449    0.238    5.102
  387.500  104.855    0.425    0.235    4.623
  387.750  102.952    0.417    0.229    4.304
  388.000   99.149    0.406    0.224    4.303
  388.250   97.241    0.401    0.220    4.541
  388.500   95.968    0.406    0.214    5.018
  388.750   96.582    0.411    0.218    5.574
  389.000  100.341    0.419    0.240    6.130
  389.250  101.594    0.429    0.248    6.288
  389.500  104.095    0.437    0.249    6.367
  389.750  105.336    0.442    0.250    6.366
  390.000  105.316    0.445    0.250    6.286
  390.250  105.308    0.446    0.253    6.284
  390.500  105.283    0.447    0.254    6.284
  390.750  104.645    0.442    0.260    6.283
  391.000  104.625    0.430    0.264    6.441
  391.250  104.613    0.416    0.270    6.520
  391.500  103.966    0.401    0.272    6.757
  391.750  103.315    0.392    0.271    6.995
  392.000  102.673    0.385    0.270    7.393
  392.250  102.652    0.375    0.264    7.869
  392.500  102.006    0.369    0.246    8.426
  392.750  101.990    0.367    0.227    8.664
  393.000  101.343    0.370    0.165    8.901
  393.250  100.696    0.371    0.148    8.980
  393.500  100.054    0.377    0.169    8.979
  393.750   98.773    0.387    0.201    8.978
  394.000   98.126    0.394    0.217    8.738
  394.250   98.114    0.402    0.202    8.419
  394.500   98.724    0.410    0.191    8.099
  394.750   99.338    0.409    0.192    7.780
  395.000   99.957    0.403    0.203    7.461
  395.250  101.201    0.393    0.212    7.061
