~VERSION INFORMATION
 VERS.                 2.0:   CWLS LOG ASCII STANDARD -VERSION 2.0
 WRAP.                  NO:   ONE LINE PER DEPTH STEP
~WELL INFORMATION BLOCK
#MNEM.UNIT           DATA                    DESCRIPTION OF MNEMONIC
#---------    -------------------            -------------------------------
# Generated from Intellog Unique Number	CS_73_76/WELL/1079
WELL.         PETROFINA CANADA LTD.          : Well_name    - WELL
LOC .         00/06-25-075-12W4/0            : Location     - LOCATION
UWI .         00/06-25-075-12W4/0            : Uwi          - UNIQUE WELL ID
ENTR.         SP                             : Entered      - ENTERED BY
SRVC.         SCHLUMBERGER                   : Scn          - SERVICE COMPANY
STRT.M        298.704                        : top_depth    - START DEPTH
STOP.M        525.204                        : bot_depth    - STOP DEPTH
STEP.M        0.25                           : increment    - STEP LENGTH
 NULL. -999.2500:NULL Value
~CURVE INFORMATION BLOCK
#MNEM UNIT       ERCB CURVE CODE    CURVE DESCRIPTION
#-----------   ------------------   ----------------------------------
DEPT.M        00 001 00 00         : DEPTH        - DEPTH
GR  .API      00 310 00 00         : GR           - GAMMA RAY
DPHI.V/V      00 890 00 00         : PHID         - DENSITY POROSITY (SANDSTONE)
NPHI.V/V      00 330 00 00         : PHIN         - NEUTRON POROSITY (SANDSTONE)
ILD .OHMM     00 120 00 00         : RESD         - DEEP RESISTIVITY (DIL)
~PARAMETER INFORMATION
#MNEM.UNIT           DATA             DESCRIPTION OF MNEMONIC
#---------         -----------     ------------------------------
GL  .M        669.524              : gl           - GROUND LEVEL ELEVATION
EREF.M        672.602              : kb           - ELEVATION OF DEPTH REFERENCE
DATM.M        669.524              : datum        - DATUM ELEVATION
TDD .M        560.832              : tdd          - TOTAL DEPTH DRILLER
RUN .         ONE                  : Run          - RUN NUMBER
ENG .         BILL                 : Engineer     - RECORDING ENGINEER
WIT .         JIM                  : Witness      - WITNESSED BY
MUD .         GEL                  : Mud_type     - MUD TYPE
MATR.         SANDSTONE            : Logunit      - NEUTRON MATRIX
TMAX.C        16.6667              : BHT          - MAXIMUM RECORDED TEMPERATURE
BHTD.M        560.832              : BHTDEP       - MAXIMUM RECORDED TEMPERATURE
MATR.         1                    : LOGUNIT      - NEUTRON MATRIX
RMT .C        25                   : MDTP         - TEMPERATURE OF MUD
NEUT.         1                    : NEUTRON      - NEUTRON TYPE
RESI.         0                    : RESIST       - RESISTIVITY TYPE
RMC .OHMM     0.25                 : RMC          - RESISTIVITY OF MUD CAKE
RMF .OHMM     0.25                 : RMF          - RESISTIVITY OF MUD FILTRATE
SUFT.C        15                   : SUFT         - SURFACE TEMPERATURE
~A  DEPTH       GR     PHID     PHIN     RESD
# ...
  429.204   79.434    0.301    0.488    5.803
  429.454   76.474    0.255    0.465    6.687
  429.704   71.861    0.205    0.367    8.073
  429.954   68.058    0.136    0.264   10.033
  430.204   67.096    0.101    0.270   11.289
  430.454   69.048    0.126    0.310   11.929
  430.704   71.101    0.210    0.379   11.975
  430.954   74.215    0.255    0.428   10.403
  431.204   76.667    0.285    0.467    8.876
  431.454   78.219    0.322    0.489    7.531
  431.704   79.685    0.336    0.503    6.600
  431.954   79.987    0.330    0.509    6.188
  432.204   80.048    0.333    0.512    6.040
  432.454   79.072    0.329    0.516    5.972
  432.704   78.206    0.324    0.505    5.932
  432.954   77.226    0.322    0.495    5.938
  433.204   74.778    0.325    0.504    5.811
  433.454   73.943    0.327    0.514    5.821
  433.704   73.427    0.329    0.516    5.822
  433.954   74.354    0.331    0.508    5.822
  434.204   73.908    0.329    0.508    5.822
  434.454   73.407    0.324    0.516    5.823
  434.704   72.709    0.318    0.518    5.831
  434.954   72.770    0.307    0.508    5.715
  435.204   73.429    0.307    0.510    5.718
  435.454   73.357    0.317    0.507    5.716
  435.704   73.970    0.329    0.507    5.716
  435.954   73.994    0.331    0.511    5.716
  436.204   74.012    0.329    0.513    5.715
  436.454   74.019    0.329    0.510    5.724
  436.704   74.025    0.329    0.510    5.600
  436.954   74.029    0.331    0.511    5.610
  437.204   74.022    0.325    0.507    5.611
  437.454   73.855    0.317    0.498    5.610
  437.704   72.812    0.307    0.492    5.610
  437.954   72.837    0.315    0.483    5.689
  438.204   72.836    0.312    0.480    5.742
  438.454   72.838    0.310    0.485    5.928
  438.704   72.773    0.286    0.469    6.237
  438.954   73.489    0.269    0.458    6.415
  439.204   74.001    0.264    0.442    6.744
  439.454   75.327    0.285    0.439    6.823
  439.704   76.613    0.305    0.460    6.889
  439.954   80.272    0.311    0.473    6.779
  440.204   83.954    0.305    0.467    6.730
  440.454   87.690    0.290    0.475    6.375
  440.704   89.134    0.268    0.488    6.276
  440.954   86.510    0.274    0.486    6.318
  441.204   83.237    0.284    0.478    6.395
  441.454   81.883    0.276    0.469    6.597
  441.704   80.723    0.270    0.469    6.799
  441.954   81.992    0.267    0.466    7.008
  442.204   82.030    0.245    0.459    7.164
  442.454   82.074    0.232    0.453    7.175
  442.704   81.981    0.227    0.456    7.289
  442.954   83.542    0.252    0.462    7.284
  443.204   85.881    0.269    0.467    7.275
  443.454   87.329    0.281    0.473    7.047
  443.704   87.339    0.268    0.479    6.828
  443.954   86.329    0.257    0.485    6.764
  444.204   85.328    0.243    0.473    6.766
  444.454   84.290    0.237    0.467    6.796
  444.704   83.942    0.244    0.470    7.016
  444.954   83.296    0.246    0.467    7.165
  445.204   83.473    0.244    0.459    7.184
  445.454   83.943    0.254    0.460    7.288
  445.704   85.189    0.264    0.466    7.211
  445.954   87.224    0.276    0.466    7.136
  446.204   89.224    0.260    0.460    7.023
  446.454   91.161    0.241    0.455    6.817
  446.704   93.841    0.239    0.460    6.757
  446.954   95.189    0.233    0.463    6.633
  447.204   97.068    0.224    0.472    6.642
  447.454   98.025    0.219    0.477    6.642
  447.704   99.059    0.215    0.477    6.763
  447.954   99.006    0.213    0.477    6.933
  448.204   96.288    0.206    0.468    7.149
  448.454   93.887    0.208    0.460    7.138
  448.704   92.504    0.198    0.451    7.303
  448.954   93.493    0.188    0.442    7.280
  449.204   96.831    0.183    0.441    7.453
  449.454  100.199    0.199    0.446    7.279
  449.704  103.183    0.211    0.448    7.304
  449.954  105.287    0.212    0.450    7.153
  450.204  106.595    0.215    0.463    7.018
  450.454  105.548    0.213    0.476    7.022
  450.704  104.497    0.202    0.477    6.982
  450.954  104.782    0.183    0.471    6.894
  451.204  106.524    0.186    0.467    6.982
  451.454  108.808    0.206    0.460    7.053
  451.704  109.711    0.190    0.458    7.152
  451.954  108.187    0.196    0.454    7.304
  452.204  105.226    0.200    0.454    7.287
  452.454  104.418    0.202    0.455    6.817
  452.704  102.028    0.204    0.456    6.438
  452.954  100.442    0.198    0.459    5.923
  453.204  100.312    0.203    0.473    5.553
  453.454  102.086    0.211    0.484    5.309
  453.704  103.030    0.202    0.488    4.926
  453.954  101.728    0.195    0.489    4.240
  454.204   99.912    0.206    0.501    3.700
  454.454   97.567    0.222    0.520    3.226
  454.704   95.565    0.245    0.542    2.847
  454.954   93.493    0.263    0.560    2.648
  455.204   94.187    0.283    0.583    2.486
  455.454   96.753    0.267    0.619    2.410
  455.704   96.835    0.266    0.606    2.340
  455.954   94.753    0.250    0.588    2.340
  456.204   92.605    0.250    0.581    2.406
  456.454   93.430    0.248    0.586    2.479
  456.704   97.059    0.241    0.599    2.476
  456.954   99.077    0.237    0.604    2.473
  457.204  103.074    0.237    0.587    2.524
  457.454  103.773    0.232    0.568    2.576
  457.704  102.902    0.232    0.550    2.736
  457.954  101.962    0.236    0.534    3.080
  458.204   98.532    0.220    0.522    3.377
  458.454   96.733    0.208    0.510    3.870
  458.704   94.576    0.208    0.491    4.427
  458.954   95.999    0.201    0.467    5.175
  459.204   98.287    0.193    0.475    5.759
  459.454   98.269    0.182    0.487    6.293
  459.704   97.165    0.174    0.477    6.697
  459.954   95.814    0.160    0.449    6.901
  460.204   97.670    0.166    0.425    6.501
  460.454   99.850    0.177    0.436    6.147
  460.704  101.889    0.180    0.447    5.327
  460.954  102.579    0.189    0.463    4.955
  461.204  102.581    0.192    0.473    4.625
  461.454  102.005    0.208    0.481    4.425
  461.704  102.198    0.214    0.490    4.163
  461.954  104.034    0.208    0.494    4.011
  462.204  104.526    0.197    0.500    3.890
  462.454  104.229    0.195    0.508    3.805
  462.704  103.187    0.197    0.515    3.733
  462.954  104.710    0.203    0.520    3.859
  463.204  105.707    0.211    0.528    3.999
  463.454  105.032    0.191    0.521    4.175
  463.704  104.387    0.164    0.528    4.171
  463.954  104.389    0.175    0.537    4.145
  464.204  105.018    0.190    0.542    3.883
  464.454  105.308    0.199    0.543    3.725
  464.704  107.270    0.207    0.535    3.585
  464.954  109.233    0.207    0.530    3.476
  465.204  111.201    0.198    0.538    3.367
  465.454  112.400    0.191    0.541    3.342
  465.704  112.821    0.183    0.540    3.290
  465.954  113.708    0.185    0.533    3.280
  466.204  112.986    0.177    0.524    3.278
  466.454  111.623    0.186    0.506    3.271
  466.704  109.771    0.207    0.510    3.341
  466.954  108.180    0.226    0.514    3.401
  467.204  106.819    0.213    0.511    3.436
  467.454  105.693    0.204    0.501    3.555
  467.704  105.281    0.191    0.488    3.856
  467.954  101.523    0.187    0.471    4.145
  468.204  100.118    0.198    0.478    4.452
  468.454  100.125    0.205    0.480    4.888
  468.704  100.037    0.201    0.490    5.371
  468.954   98.265    0.181    0.494    5.634
  469.204   96.093    0.162    0.480    5.808
  469.454   95.067    0.147    0.467    5.957
  469.704   96.036    0.150    0.470    5.949
  469.954  101.202    0.138    0.474    5.838
  470.204  103.490    0.145    0.477    5.671
  470.454  105.092    0.149    0.478    5.426
  470.704  105.540    0.158    0.478    5.256
  470.954  103.589    0.166    0.476    5.227
  471.204  101.007    0.156    0.475    5.213
  471.454   99.160    0.147    0.473    5.534
  471.704   96.496    0.138    0.473    5.743
  471.954   95.255    0.126    0.469    6.021
  472.204   97.981    0.142    0.475    6.279
  472.454   97.824    0.150    0.478    6.413
