~VERSION INFORMATION
 VERS.                 2.0:   CWLS LOG ASCII STANDARD -VERSION 2.0
 WRAP.                  NO:   ONE LINE PER DEPTH STEP
~WELL INFORMATION BLOCK
#MNEM.UNIT           DATA                    DESCRIPTION OF MNEMONIC
#---------    -------------------            -------------------------------
# Generated from Intellog Unique Number	CC_80_83/WELL/1182
NULL.         -999.25                        : NULL_VALUE
WELL.         GULF RESDELN                   : Well_name    - WELL              
LOC .         07-12-081-07W4                 : Location     - LOCATION          
UWI .         00/07-12-081-07W4/0            : Uwi          - UNIQUE WELL ID    
ENTR.         DW                             : Entered      - ENTERED BY        
SRVC.         SCHLUMBERGER                   : Scn          - SERVICE COMPANY   
DATE.         19 FEB 79                      : Date         - LOG DATE
STRT.M        130                            : top_depth    - START DEPTH       
STOP.M        349.897                        : bot_depth    - STOP DEPTH        
STEP.M        0.3                            : increment    - STEP LENGTH       
~CURVE INFORMATION BLOCK
#MNEM UNIT       ERCB CURVE CODE    CURVE DESCRIPTION
#-----------   ------------------   ----------------------------------
DEPT.M        00 001 00 00         : DEPTH        - DEPTH                       
NPHI.V/V      00 330 00 00         : PHIN         - NEUTRON POROSITY (LIMESTONE)
GR  .API      00 310 00 00         : GR           - GAMMA RAY                   
DPHI.V/V      00 890 00 00         : PHID         - DENSITY POROSITY (LIMESTONE)
ILD .OHMM     00 120 00 00         : RESD         - DEEP RESISTIVITY (DIL)      
~PARAMETER INFORMATION       
#MNEM.UNIT           DATA             DESCRIPTION OF MNEMONIC
#---------         -----------     ------------------------------
GL  .M        548                  : gl           - GROUND LEVEL ELEVATION      
EREF.M        551.5                : kb           - ELEVATION OF DEPTH REFERENCE
DATM.M        551.5                : datum        - DATUM ELEVATION             
TDD .M        365                  : tdd          - TOTAL DEPTH DRILLER         
RUN .         ONE                  : Run          - RUN NUMBER                  
ENG .         BILL                 : Engineer     - RECORDING ENGINEER          
WIT .         JIM                  : Witness      - WITNESSED BY                
MUD .         GEL                  : Mud_type     - MUD TYPE                    
MATR.         LIMESTONE            : Logunit      - NEUTRON MATRIX              
TMAX.C        20                   : BHT          - MAXIMUM RECORDED TEMPERATURE
BHTD.M        365                  : BHTDEP       - MAXIMUM RECORDED TEMPERATURE
MATR.         1                    : LOGUNIT      - NEUTRON MATRIX              
RMT .C        25                   : MDTP         - TEMPERATURE OF MUD          
NEUT.         1                    : NEUTRON      - NEUTRON TYPE                
RESI.         0                    : RESIST       - RESISTIVITY TYPE            
RMC .OHMM     0.25                 : RMC          - RESISTIVITY OF MUD CAKE     
RMF .OHMM     0.25                 : RMF          - RESISTIVITY OF MUD FILTRATE 
SUFT.C        4                    : SUFT         - SURFACE TEMPERATURE         
~A  DEPTH     PHIN       GR     PHID     RESD
# ...
  286.600    0.479  112.333    0.219    4.637
  286.900    0.469  110.453    0.224    4.470
  287.200    0.495  114.170    0.222    4.150
  287.500    0.516  114.152    0.228    3.924
  287.800    0.522  119.741    0.220    3.782
  288.100    0.500  120.970    0.222    3.647
  288.400    0.494  110.994    0.234    3.515
  288.700    0.493  106.000    0.223    3.389
  289.000    0.478  103.492    0.174    3.329
  289.300    0.388  102.854    0.175    3.596
  289.600    0.402  110.307    0.188    3.884
  289.900    0.418  102.200    0.198    6.492
  290.200    0.424   90.981    0.153    6.881
  290.500    0.372   85.984    0.134    7.294
  290.800    0.345   98.416    0.190    8.343
  291.100    0.380   96.532    0.248    9.360
  291.400    0.409   92.778    0.228    9.373
  291.700    0.412   89.032    0.225    9.034
  292.000    0.387   89.639    0.224    8.708
  292.300    0.357   86.509    0.229    8.555
  292.600    0.385   82.136    0.241    8.730
  292.900    0.384   80.251    0.238    9.433
  293.200    0.367   83.348    0.238    9.810
  293.500    0.381   86.447    0.218    9.457
  293.800    0.390   79.583    0.234    8.610
  294.100    0.378   50.313    0.271    8.458
  294.400    0.347   39.093    0.320    9.136
  294.700    0.316   37.210    0.301   21.084
  295.000    0.322   34.702    0.292   43.429
  295.300    0.336   37.799    0.320   82.892
  295.600    0.351   44.008    0.293   83.003
  295.900    0.373   41.501    0.324   75.596
  296.200    0.351   37.127    0.302   71.515
  296.500    0.353   45.204    0.278   70.255
  296.800    0.375   48.298    0.289   69.002
  297.100    0.369   44.550    0.261   60.497
  297.400    0.364   37.687    0.294   65.376
  297.700    0.360   30.825    0.297   73.325
  298.000    0.358   30.806    0.284   92.189
  298.300    0.371   30.792    0.302   90.572
  298.600    0.397   31.398    0.314  130.070
  298.900    0.341   37.606    0.301  140.535
  299.200    0.347   38.833    0.304  135.468
  299.500    0.338   36.951    0.297  118.817
  299.799    0.351   40.048    0.308  112.309
  300.099    0.376   46.878    0.292   86.219
  300.399    0.386   43.749    0.281   64.948
  300.699    0.360   36.888    0.290   63.799
  300.999    0.352   36.249    0.300   80.227
  301.299    0.340   38.723    0.297   95.283
  301.599    0.346   46.174    0.306   95.429
  301.899    0.337   56.118    0.290   88.557
  302.199    0.344   69.796    0.264   71.950
  302.499    0.360   77.249    0.238   43.151
  302.799    0.354   85.945    0.231   21.407
  303.099    0.358   85.308    0.200   15.532
  303.399    0.380   78.445    0.231   14.689
  303.699    0.406   60.379    0.254   14.985
  303.999    0.370   67.210    0.253   16.813
  304.299    0.349   70.302    0.227   18.867
  304.599    0.380   65.309    0.222   19.996
  304.899    0.419   45.376    0.288   21.607
  305.199    0.402   51.584    0.300   23.779
  305.499    0.384   54.056    0.312   28.252
  305.799    0.386   49.682    0.316   34.188
  306.099    0.386   47.802    0.299   49.108
  306.399    0.394   51.520    0.307   49.181
  306.699    0.390   70.176    0.288   44.779
  306.999    0.379   58.333    0.236   40.004
  307.299    0.412   50.226    0.262   31.294
  307.599    0.388   56.433    0.312   24.019
  307.899    0.373   78.826    0.224   26.951
  308.199    0.388   71.962    0.200   16.475
  308.499    0.414   57.008    0.217   14.443
  308.799    0.434   47.032    0.237   19.971
  309.099    0.406   46.395    0.315   28.136
  309.399    0.415   52.603    0.330   38.167
  309.699    0.438   65.658    0.298   39.693
  309.999    0.394   65.016    0.266   25.687
  310.299    0.416   51.931    0.272   24.769
  310.599    0.430   41.957    0.298   27.793
  310.899    0.363   49.410    0.294   30.016
  311.199    0.384   62.465    0.310   31.811
  311.499    0.405   68.050    0.241   27.370
  311.799    0.397   57.452    0.238   25.399
  312.099    0.410   47.478    0.272   24.952
  312.399    0.397   48.084    0.299   24.982
  312.699    0.379   71.099    0.304   23.186
  312.999    0.379   79.174    0.258   18.485
  313.299    0.394   70.442    0.235   16.209
  313.599    0.413   48.643    0.255   15.924
  313.899    0.378   45.511    0.292   17.871
  314.199    0.378   44.252    0.292   19.299
  314.499    0.383   42.370    0.279   20.846
  314.799    0.392   38.620    0.306   19.722
  315.099    0.387   38.601    0.316   14.029
  315.399    0.366   42.322    0.294    9.611
  315.699    0.350   46.660    0.298    8.588
  315.999    0.338   52.249    0.284    8.127
  316.299    0.348   68.416    0.263    7.981
  316.599    0.365   77.735    0.237    8.143
  316.899    0.403   66.514    0.268    8.469
  317.199    0.402   68.990    0.270    8.807
  317.499    0.371   90.136    0.227    9.159
  317.799    0.337   98.834    0.168    9.350
  318.099    0.360  103.797    0.153    9.182
  318.399    0.373  105.026    0.151    9.024
  318.699    0.378  101.275    0.163    8.703
  318.999    0.384   85.698    0.139    8.549
  319.299    0.385   67.010    0.187    8.397
  319.599    0.400   51.433    0.253    8.405
  319.899    0.439   35.855    0.280    8.415
  320.199    0.442   30.860    0.340    8.272
  320.499    0.388   33.954    0.335    8.279
  320.799    0.374   42.654    0.340    7.829
  321.099    0.405   56.331    0.313    6.608
  321.399    0.399   66.275    0.313    6.496
  321.699    0.340   71.858    0.219    6.627
  321.999    0.352   73.088    0.225    6.763
  322.299    0.375   54.399    0.265    6.901
  322.599    0.427   50.027    0.283    7.177
  322.899    0.407   50.631    0.244    7.324
  323.199    0.283   55.596    0.209    7.765
  323.499    0.286   68.029    0.212    7.920
  323.799    0.302   98.512    0.171    8.559
  324.099    0.335  103.474    0.180    8.731
  324.398    0.346  119.020    0.190    8.748
  324.698    0.350  112.779    0.202    8.925
  324.998    0.358  102.804    0.176    8.932
  325.298    0.360  103.407    0.174    8.776
  325.598    0.356  103.392    0.200    8.460
  325.898    0.359  103.377    0.189    8.156
  326.198    0.375  113.943    0.205    7.866
  326.498    0.368  133.223    0.164    7.579
  326.798    0.330  148.767    0.181    7.586
  327.098    0.325  147.506    0.199    7.597
  327.398    0.352  140.642    0.186    7.753
  327.698    0.359  112.616    0.192    7.763
  327.998    0.364  100.152    0.212    7.344
  328.298    0.381   73.994    0.242    7.080
  328.598    0.364   77.712    0.250    7.088
  328.898    0.355   86.412    0.236    7.097
  329.198    0.343  102.579    0.222    7.523
  329.498    0.347  101.315    0.190    7.673
  329.798    0.354   98.189    0.175    7.984
  330.098    0.359   95.059    0.195    8.146
  330.398    0.361   90.688    0.183    8.313
  330.698    0.353   89.427    0.192    8.324
  330.998    0.333   91.277    0.205    8.174
  331.298    0.328   90.639    0.196    8.030
  331.598    0.332   93.735    0.190    7.597
  331.898    0.346   96.832    0.197    7.324
  332.198    0.380   94.945    0.229    7.197
  332.498    0.374   92.442    0.216    7.067
  332.798    0.358   87.445    0.241    7.214
  333.098    0.359   98.634    0.263    7.224
  333.398    0.342  100.485    0.223    7.233
  333.698    0.360   90.511    0.237    7.243
  333.998    0.349   75.556    0.193    6.980
  334.298    0.347   61.847    0.229    6.476
  334.598    0.365   48.760    0.277    5.900
  334.898    0.412   42.519    0.304    5.794
  335.198    0.399   43.126    0.295    5.803
  335.498    0.369   56.803    0.278    6.387
  335.798    0.324   84.796    0.277    7.880
  336.098    0.307   97.224    0.167   10.295
  336.398    0.329   94.099    0.144   10.503
  336.698    0.337   64.208    0.207    6.667
  336.998    0.364   48.009    0.241    5.119
  337.298    0.424   32.431    0.277    4.752
  337.598    0.378   41.752    0.334    4.667
  337.898    0.361   52.940    0.318    4.855
  338.198    0.370   66.616    0.280    4.953
  338.498    0.355   80.916    0.261    5.152
