~VERSION INFORMATION
 VERS.                 2.0:   CWLS LOG ASCII STANDARD -VERSION 2.0
 WRAP.                  NO:   ONE LINE PER DEPTH STEP
~WELL INFORMATION BLOCK
#MNEM.UNIT           DATA                    DESCRIPTION OF MNEMONIC
#---------    -------------------            -------------------------------
# Generated from Intellog Unique Number	CS_67_68/WELL/2174
WELL.         CHIEFCO et al TWEEDIE          : Well_name    - WELL
LOC .         00/07-02-067-12W4/0            : Location     - LOCATION
UWI .         00/07-02-067-12W4/0            : Uwi          - UNIQUE WELL ID
ENTR.         SP                             : Entered      - ENTERED BY
SRVC.         SCHLUMBERGER                   : Scn          - SERVICE COMPANY
STRT.M        330                            : top_depth    - START DEPTH
STOP.M        540                            : bot_depth    - STOP DEPTH
STEP.M        0.25                           : increment    - STEP LENGTH
 NULL. -999.2500:NULL Value
~CURVE INFORMATION BLOCK
#MNEM UNIT       ERCB CURVE CODE    CURVE DESCRIPTION
#-----------   ------------------   ----------------------------------
DEPT.M        00 001 00 00         : DEPTH        - DEPTH
ILD .OHMM     00 120 00 00         : RESD         - DEEP RESISTIVITY (DIL)
DPHI.V/V      00 890 00 00         : PHID         - DENSITY POROSITY (LIMESTONE)
NPHI.V/V      00 330 00 00         : PHIN         - NEUTRON POROSITY (LIMESTONE)
GR  .API      00 310 00 00         : GR           - GAMMA RAY
CALI.MM       00 280 01 00         : CAL          - CALIPER
~PARAMETER INFORMATION
#MNEM.UNIT           DATA             DESCRIPTION OF MNEMONIC
#---------         -----------     ------------------------------
GL  .M        607.4                : gl           - GROUND LEVEL ELEVATION
EREF.M        610.8                : kb           - ELEVATION OF DEPTH REFERENCE
DATM.M        610.8                : datum        - DATUM ELEVATION
TDD .M        545                  : tdd          - TOTAL DEPTH DRILLER
RUN .         ONE                  : Run          - RUN NUMBER
ENG .         BILL                 : Engineer     - RECORDING ENGINEER
WIT .         JIM                  : Witness      - WITNESSED BY
MUD .         GEL                  : Mud_type     - MUD TYPE
MATR.         LIMESTONE            : Logunit      - NEUTRON MATRIX
TMAX.C        28                   : BHT          - MAXIMUM RECORDED TEMPERATURE
BHTD.M        544.7                : BHTDEP       - MAXIMUM RECORDED TEMPERATURE
MATR.         1                    : LOGUNIT      - NEUTRON MATRIX
RMT .C        25                   : MDTP         - TEMPERATURE OF MUD
NEUT.         1                    : NEUTRON      - NEUTRON TYPE
RESI.         0                    : RESIST       - RESISTIVITY TYPE
RMC .OHMM     0.25                 : RMC          - RESISTIVITY OF MUD CAKE
RMF .OHMM     0.25                 : RMF          - RESISTIVITY OF MUD FILTRATE
SUFT.C        15                   : SUFT         - SURFACE TEMPERATURE
~A  DEPTH     RESD     PHID     PHIN       GR      CAL
# ...
  366.500    1.749    0.321    0.397   78.641  152.496
  366.750    1.834    0.317    0.417   81.583  156.689
  367.000    1.902    0.296    0.421   85.016  157.308
  367.250    1.987    0.264    0.421   88.144  157.521
  367.500    2.072    0.231    0.421   89.558  158.550
  367.750    2.168    0.254    0.429   88.032  159.475
  368.000    2.244    0.277    0.406   81.485  161.526
  368.250    2.296    0.279    0.391   67.593  162.961
  368.500    2.271    0.291    0.377   54.005  164.704
  368.750    2.337    0.304    0.366   62.153  166.856
  369.000    2.502    0.258    0.371   75.443  169.005
  369.250    2.699    0.201    0.410   88.734  174.115
  369.500    3.024    0.176    0.431   96.513  178.102
  369.750    3.171    0.185    0.435  102.947  180.661
  370.000    3.440    0.196    0.435  107.421  181.588
  370.250    3.684    0.184    0.420  106.936  179.964
  370.500    3.989    0.166    0.398  104.492  178.135
  370.750    4.271    0.161    0.382  102.049  177.122
  371.000    4.479    0.157    0.371  100.889  178.763
  371.250    4.661    0.188    0.383  103.220  178.670
  371.500    4.716    0.209    0.395  106.103  177.860
  371.750    4.699    0.197    0.384  103.353  176.237
  372.000    4.603    0.175    0.373   99.501  175.734
  372.250    4.587    0.179    0.361   96.811  176.559
  372.500    4.605    0.189    0.367  100.918  178.198
  372.750    4.641    0.196    0.404  102.331  181.778
  373.000    4.669    0.193    0.408   99.948  184.643
  373.250    4.652    0.180    0.390   98.667  187.202
  373.500    4.609    0.200    0.427   98.856  187.006
  373.750    4.516    0.213    0.414   97.759  181.197
  374.000    4.466    0.199    0.395   95.927  175.799
  374.250    4.458    0.188    0.378   92.870  173.153
  374.500    4.409    0.182    0.370   91.957  171.324
  374.750    4.311    0.169    0.396   93.431  171.027
  375.000    4.006    0.187    0.423   94.538  170.319
  375.250    3.757    0.213    0.435   95.216  168.593
  375.500    3.517    0.230    0.447   97.180  163.907
  375.750    3.293    0.252    0.464   97.675  160.140
  376.000    3.094    0.263    0.446   94.434  158.719
  376.250    2.930    0.274    0.430   89.604  158.830
  376.500    2.806    0.258    0.418   88.260  159.552
  376.750    2.833    0.239    0.406   91.204  160.274
  377.000    2.921    0.256    0.408   93.168  160.588
  377.250    3.017    0.267    0.433   94.582  160.494
  377.500    3.087    0.277    0.458   94.832  160.298
  377.750    3.170    0.269    0.462   94.529  160.206
  378.000    3.225    0.264    0.446   92.270  160.212
  378.250    3.214    0.258    0.433   90.192  160.117
  378.500    3.155    0.255    0.436   90.870  160.023
  378.750    3.108    0.256    0.461   93.936  160.238
  379.000    3.091    0.262    0.475   91.554  160.245
  379.250    3.069    0.274    0.489   88.252  160.762
  379.500    3.040    0.285    0.454   85.624  160.670
  379.750    2.967    0.284    0.431   86.303  160.574
  380.000    2.918    0.273    0.421   87.287  160.277
  380.250    2.908    0.269    0.420   87.843  160.284
  380.500    2.914    0.273    0.409   88.644  160.192
  380.750    2.914    0.272    0.418   90.180  160.300
  381.000    2.887    0.269    0.438   93.613  160.307
  381.250    2.845    0.291    0.458   95.943  160.013
  381.500    2.782    0.305    0.461   88.541  159.816
  381.750    2.629    0.322    0.447   83.525  159.721
  382.000    2.419    0.331    0.436   79.427  159.728
  382.250    2.388    0.322    0.427   84.148  159.634
  382.500    2.486    0.307    0.438   86.601  159.948
  382.750    2.606    0.283    0.455   89.177  159.854
  383.000    2.770    0.258    0.466   90.712  160.372
  383.250    2.938    0.233    0.474   91.758  160.482
  383.500    3.069    0.212    0.467   92.742  161.103
  383.750    3.230    0.211    0.457   93.788  161.419
  384.000    3.318    0.242    0.451   97.099  161.527
  384.250    3.395    0.261    0.460  101.022  161.433
  384.500    3.415    0.242    0.478  103.598  161.543
  384.750    3.416    0.224    0.470  105.929  161.450
  385.000    3.429    0.223    0.455  107.526  161.355
  385.250    3.411    0.247    0.440  104.163  161.363
  385.500    3.379    0.263    0.424   96.454  161.168
  385.750    3.304    0.277    0.404   89.724  161.175
  386.000    3.129    0.283    0.399   85.688  161.182
  386.250    3.059    0.271    0.405   86.980  161.191
  386.500    3.031    0.260    0.412   89.188  161.198
  386.750    2.986    0.264    0.416   91.703  161.105
  387.000    2.937    0.275    0.411   90.667  161.112
  387.250    2.910    0.283    0.411   91.039  161.020
  387.500    2.861    0.289    0.416   94.229  161.129
  387.750    2.835    0.294    0.418   95.396  160.932
  388.000    2.788    0.300    0.425   95.523  160.533
  388.250    2.741    0.303    0.417   92.772  161.050
  388.500    2.670    0.306    0.398   86.410  161.364
  388.750    2.596    0.288    0.384   87.946  161.782
  389.000    2.563    0.279    0.387   93.215  162.095
  389.250    2.558    0.274    0.403   89.669  162.409
  389.500    2.633    0.275    0.408   88.878  162.725
  389.750    2.771    0.265    0.400   92.128  162.935
  390.000    2.973    0.257    0.397   95.316  163.453
  390.250    3.165    0.256    0.396   97.096  163.461
  390.500    3.306    0.247    0.396   98.203  163.470
  390.750    3.441    0.247    0.397   98.882  163.682
  391.000    3.574    0.240    0.390   97.723  164.608
  391.250    3.727    0.230    0.402  100.300  167.575
  391.500    3.799    0.218    0.411  104.162  170.237
  391.750    3.778    0.219    0.421  106.921  173.102
  392.000    3.709    0.223    0.414  106.926  174.845
  392.250    3.675    0.212    0.401  105.768  175.568
  392.500    3.627    0.202    0.390  108.711  175.881
  392.750    3.395    0.221    0.404  111.471  175.379
  393.000    3.179    0.248    0.441  103.517  174.161
  393.250    3.056    0.264    0.456   92.440  161.925
  393.500    2.965    0.291    0.438   78.240  155.913
  393.750    2.905    0.284    0.429   78.246  153.472
  394.000    2.857    0.280    0.438   79.781  153.378
  394.250    2.836    0.287    0.442   81.868  153.182
  394.500    2.831    0.292    0.449   83.525  152.377
  394.750    2.816    0.298    0.431   84.020  151.976
  395.000    2.743    0.299    0.412   83.106  151.679
  395.250    2.657    0.284    0.389   81.642  151.992
  395.500    2.603    0.268    0.373   78.769  152.305
  395.750    2.564    0.259    0.395   76.203  152.517
  396.000    2.507    0.262    0.416   73.819  153.238
  396.250    2.410    0.277    0.415   69.906  154.267
  396.500    2.343    0.290    0.411   66.727  155.602
  396.750    2.339    0.300    0.405   70.589  156.119
  397.000    2.366    0.283    0.401   73.532  156.027
  397.250    2.449    0.271    0.399   76.843  155.727
  397.500    2.530    0.272    0.403   79.848  155.328
  397.750    2.648    0.258    0.397   82.363  156.253
  398.000    2.735    0.245    0.389   84.143  159.220
  398.250    2.819    0.240    0.407   86.781  159.943
  398.500    2.890    0.236    0.420   89.173  159.032
  398.750    2.963    0.237    0.422   85.260  156.081
  399.000    3.003    0.248    0.418   83.856  153.130
  399.250    3.027    0.259    0.412   84.902  152.322
  399.500    3.021    0.269    0.400   82.948  151.922
  399.750    2.977    0.266    0.387   79.769  151.623
  400.000    2.905    0.258    0.382   80.815  151.326
  400.250    2.862    0.258    0.381   82.718  151.028
  400.500    2.831    0.263    0.386   83.396  150.934
  400.750    2.810    0.265    0.403   82.237  150.737
  401.000    2.789    0.266    0.416   81.262  150.442
  401.250    2.758    0.261    0.400   81.757  150.448
  401.500    2.749    0.253    0.380   82.375  150.150
  401.750    2.755    0.245    0.369   82.991  150.360
  402.000    2.760    0.259    0.388   79.996  150.063
  402.250    2.766    0.276    0.400   77.429  149.561
  402.500    2.772    0.282    0.395   87.169  149.262
  402.750    2.778    0.267    0.400  100.031  148.865
