~VERSION INFORMATION
 VERS.                 2.0:   CWLS LOG ASCII STANDARD -VERSION 2.0
 WRAP.                  NO:   ONE LINE PER DEPTH STEP
~WELL INFORMATION BLOCK
#MNEM.UNIT           DATA                    DESCRIPTION OF MNEMONIC
#---------    -------------------            -------------------------------
# Generated from Intellog Unique Number	CS_67_68/WELL/2182
WELL.         07-36-067-03W4                 : Well_name    - WELL
LOC .         00/07-36-067-03W4/0            : Location     - LOCATION
UWI .         00/07-36-067-03W4/0            : Uwi          - UNIQUE WELL ID
ENTR.         SP                             : Entered      - ENTERED BY
SRVC.         SCHLUMBERGER                   : Scn          - SERVICE COMPANY
STRT.M        370                            : top_depth    - START DEPTH
STOP.M        616                            : bot_depth    - STOP DEPTH
STEP.M        0.25                           : increment    - STEP LENGTH
 NULL. -999.2500:NULL Value
~CURVE INFORMATION BLOCK
#MNEM UNIT       ERCB CURVE CODE    CURVE DESCRIPTION
#-----------   ------------------   ----------------------------------
DEPT.M        00 001 00 00         : DEPTH        - DEPTH
GR  .API      00 310 00 00         : GR           - GAMMA RAY
DPHI.V/V      00 890 00 00         : PHID         - DENSITY POROSITY (LIMESTONE)
NPHI.V/V      00 330 00 00         : PHIN         - NEUTRON POROSITY (LIMESTONE)
CALI.MM       00 280 01 00         : CAL          - CALIPER
ILD .OHMM     00 120 00 00         : RESD         - DEEP RESISTIVITY (DIL)
~PARAMETER INFORMATION
#MNEM.UNIT           DATA             DESCRIPTION OF MNEMONIC
#---------         -----------     ------------------------------
GL  .M        701.08               : gl           - GROUND LEVEL ELEVATION
EREF.M        704.28               : kb           - ELEVATION OF DEPTH REFERENCE
DATM.M        704.28               : datum        - DATUM ELEVATION
TDD .M        622                  : tdd          - TOTAL DEPTH DRILLER
RUN .         ONE                  : Run          - RUN NUMBER
ENG .         BILL                 : Engineer     - RECORDING ENGINEER
WIT .         JIM                  : Witness      - WITNESSED BY
MUD .         GEL                  : Mud_type     - MUD TYPE
MATR.         LIMESTONE            : Logunit      - NEUTRON MATRIX
TMAX.C        28.8                 : BHT          - MAXIMUM RECORDED TEMPERATURE
BHTD.M        622.2                : BHTDEP       - MAXIMUM RECORDED TEMPERATURE
MATR.         1                    : LOGUNIT      - NEUTRON MATRIX
RMT .C        25                   : MDTP         - TEMPERATURE OF MUD
NEUT.         1                    : NEUTRON      - NEUTRON TYPE
RESI.         0                    : RESIST       - RESISTIVITY TYPE
RMC .OHMM     0.25                 : RMC          - RESISTIVITY OF MUD CAKE
RMF .OHMM     0.25                 : RMF          - RESISTIVITY OF MUD FILTRATE
SUFT.C        15                   : SUFT         - SURFACE TEMPERATURE
~A  DEPTH       GR     PHID     PHIN      CAL     RESD
# ...
  552.500   78.353    0.207    0.372  170.945    6.910
  552.750   76.786    0.210    0.370  170.952    7.037
  553.000   71.229    0.227    0.391  170.558    7.060
  553.250   71.718    0.244    0.401  169.357    6.991
  553.500   75.350    0.245    0.383  168.256    6.895
  553.750   78.680    0.212    0.403  169.070    6.829
  554.000   82.736    0.196    0.414  170.188    6.775
  554.250   85.280    0.201    0.393  170.196    6.771
  554.500   83.169    0.205    0.414  169.701    6.843
  554.750   81.481    0.206    0.428  169.104    6.879
  555.000   74.049    0.217    0.413  168.508    6.914
  555.250   69.399    0.239    0.393  167.613    6.949
  555.500   67.591    0.222    0.408  166.816    6.959
  555.750   70.438    0.231    0.414  166.518    7.008
  556.000   72.678    0.246    0.393  166.223    7.057
  556.250   75.041    0.219    0.390  165.828    7.106
  556.500   73.475    0.212    0.393  165.335    7.182
  556.750   72.512    0.211    0.383  165.141    7.152
  557.000   70.884    0.208    0.378  165.250    7.149
  557.250   64.239    0.205    0.384  165.559    7.132
  557.500   64.486    0.203    0.385  165.971    7.128
  557.750   64.611    0.206    0.381  166.281    7.071
  558.000   56.878    0.230    0.377  166.595    6.976
  558.250   50.655    0.260    0.375  166.601    6.805
  558.500   49.814    0.300    0.381  166.709    6.701
  558.750   45.465    0.286    0.399  166.616    6.660
  559.000   39.667    0.279    0.405  166.323    6.719
  559.250   35.742    0.314    0.394  165.928    6.741
  559.500   38.407    0.317    0.376  165.533    6.725
  559.750   51.713    0.291    0.364  165.239    6.647
  560.000   55.225    0.254    0.369  164.945    6.681
  560.250   54.081    0.263    0.392  164.954    6.854
  560.500   45.742    0.284    0.390  164.963    7.071
  560.750   44.055    0.303    0.377  164.871    7.255
  561.000   49.017    0.300    0.361  164.881    7.485
  561.250   56.338    0.271    0.338  164.785    7.609
  561.500   61.724    0.247    0.361  164.797    7.648
  561.750   59.492    0.248    0.381  164.801    7.687
  562.000   57.804    0.260    0.370  164.709    7.640
  562.250   56.297    0.258    0.365  164.820    7.594
  562.500   59.809    0.271    0.360  164.926    7.604
  562.750   79.705    0.269    0.351  165.035    7.572
  563.000   88.356    0.224    0.365  165.245    7.483
  563.250   91.868    0.218    0.388  165.455    7.410
  563.500   93.384    0.208    0.381  166.272    7.365
  563.750   91.939    0.196    0.396  167.085    7.319
  564.000   90.977    0.196    0.399  168.000    7.276
  564.250   90.980    0.187    0.389  168.713    7.205
  564.500   92.074    0.175    0.386  169.328    7.174
  564.750   92.925    0.169    0.390  169.636    7.157
  565.000   93.716    0.185    0.391  169.747    7.140
  565.250   89.912    0.173    0.402  169.353    7.057
  565.500   81.150    0.182    0.415  168.856    6.962
  565.750   71.965    0.214    0.413  167.554    6.804
  566.000   64.654    0.236    0.379  166.958    6.650
  566.250   58.371    0.250    0.367  166.361    6.475
  566.500   55.475    0.261    0.384  165.967    6.258
  566.750   53.001    0.276    0.383  165.571    6.082
  567.000   47.686    0.283    0.367  165.176    5.978
  567.250   43.277    0.289    0.381  164.782    5.875
  567.500   39.655    0.304    0.397  164.389    5.817
  567.750   37.059    0.312    0.409  164.193    5.771
  568.000   34.404    0.324    0.419  163.899    5.725
  568.250   32.111    0.331    0.404  163.706    5.680
  568.500   31.753    0.328    0.388  163.212    5.677
  568.750   34.419    0.319    0.374  163.018    5.716
  569.000   46.455    0.305    0.364  162.924    5.789
  569.250   57.948    0.263    0.353  162.833    5.851
  569.500   61.459    0.245    0.377  162.740    5.881
  569.750   49.735    0.260    0.390  162.749    5.867
  570.000   38.797    0.290    0.380  162.857    5.842
  570.250   30.640    0.311    0.372  162.866    5.840
  570.500   24.961    0.324    0.386  162.873    5.869
  570.750   26.901    0.336    0.364  162.884    5.921
  571.000   40.933    0.330    0.339  162.890    5.963
  571.250   51.881    0.304    0.343  163.100    6.027
  571.500   56.360    0.278    0.362  163.311    6.103
  571.750   48.566    0.259    0.374  163.218    6.169
  572.000   41.497    0.260    0.368  163.125    6.178
  572.250   37.995    0.284    0.358  163.032    6.174
  572.500   42.836    0.298    0.343  163.041    6.125
  572.750   34.740    0.285    0.370  163.052    6.099
  573.000   21.565    0.314    0.391  163.059    6.028
  573.250   21.026    0.343    0.382  163.167    5.958
  573.500   22.119    0.355    0.371  163.175    5.834
  573.750   23.455    0.350    0.362  163.586    5.756
  574.000   24.063    0.346    0.354  163.694    5.678
  574.250   24.311    0.337    0.347  163.905    5.643
  574.500   24.315    0.331    0.366  164.215    5.598
  574.750   24.259    0.327    0.364  164.223    5.564
  575.000   24.204    0.313    0.345  164.332    5.561
  575.250   24.391    0.303    0.332  164.142    5.600
  575.500   24.880    0.299    0.349  164.149    5.681
  575.750   25.490    0.303    0.357  164.358    5.775
  576.000   26.219    0.311    0.353  164.568    5.859
  576.250   41.399    0.319    0.346  164.877    5.922
  576.500   59.845    0.298    0.340  165.189    5.942
  576.750   67.045    0.279    0.334  165.398    5.939
  577.000   65.961    0.276    0.343  165.406    5.913
  577.250   56.292    0.298    0.360  165.313    6.033
  577.500   60.047    0.315    0.361  164.921    6.318
  577.750   71.357    0.324    0.351  164.827    6.704
  578.000   78.678    0.293    0.339  164.735    7.021
  578.250   79.166    0.264    0.329  164.843    7.176
  578.500   73.790    0.249    0.332  164.953    7.254
  578.750   67.811    0.242    0.336  164.961    7.373
  579.000   63.281    0.255    0.341  165.070    7.438
  579.250   58.146    0.266    0.344  165.279    7.490
  579.500   55.128    0.273    0.344  165.590    7.570
  579.750   55.798    0.268    0.337  166.102    7.623
  580.000   56.106    0.261    0.330  166.514    7.706
  580.250   53.692    0.259    0.331  166.925    7.833
  580.500   48.558    0.277    0.341  167.134    7.976
  580.750   50.498    0.245    0.339  167.345    8.122
  581.000   56.548    0.230    0.328  167.554    8.195
  581.250   67.014    0.219    0.320  168.066    8.190
  581.500   73.003    0.206    0.314  168.579    8.020
  581.750   79.599    0.197    0.335  169.393    8.000
  582.000   85.166    0.184    0.360  169.905    8.087
  582.250   91.821    0.175    0.380  170.318    8.235
  582.500   90.013    0.170    0.391  170.626    8.418
  582.750   84.213    0.176    0.384  170.736    8.603
  583.000   82.042    0.183    0.370  170.744    8.712
  583.250   86.158    0.193    0.356  170.753    8.773
  583.500   88.098    0.169    0.358  170.761    8.769
  583.750   81.150    0.161    0.374  170.365    8.732
  584.000   83.876    0.164    0.385  169.971    8.646
  584.250   91.257    0.190    0.388  169.979    8.530
  584.500   96.099    0.186    0.379  169.686    8.399
  584.750   93.987    0.173    0.375  169.293    8.285
  585.000   82.746    0.191    0.383  169.097    8.266
  585.250   72.111    0.206    0.391  168.803    8.262
  585.500   75.985    0.215    0.374  168.207    8.196
  585.750   78.227    0.212    0.365  168.215    8.011
  586.000   79.623    0.212    0.362  168.224    7.771
  586.250   83.316    0.220    0.362  169.542    7.482
  586.500   81.446    0.234    0.364  170.658    7.286
  586.750   72.866    0.246    0.373  170.465    7.094
  587.000   68.034    0.268    0.380  169.264    7.051
  587.250   67.253    0.281    0.375  167.660    7.008
  587.500   76.872    0.254    0.368  166.864    6.991
  587.750   84.615    0.218    0.368  167.072    7.001
  588.000   87.885    0.205    0.381  167.584    7.011
  588.250   88.071    0.202    0.390  168.198    6.994
  588.500   88.258    0.203    0.394  168.307    7.003
  588.750   86.932    0.195    0.380  168.718    7.052
