~VERSION INFORMATION
 VERS.                 2.0:   CWLS LOG ASCII STANDARD -VERSION 2.0
 WRAP.                  NO:   ONE LINE PER DEPTH STEP
~WELL INFORMATION BLOCK
#MNEM.UNIT           DATA                    DESCRIPTION OF MNEMONIC
#---------    -------------------            -------------------------------
# Generated from Intellog Unique Number	CX_WELLS/WELL/2849
WELL.         CMME THORNBURY                 : Well_name    - WELL
LOC .         00/09-14-081-14W4/0            : Location     - LOCATION
UWI .         00/09-14-081-14W400            : Uwi          - UNIQUE WELL ID
ENTR.         T                              : Entered      - ENTERED BY
SRVC.         SCHLUMBERGER                   : Scn          - SERVICE COMPANY
STRT.M        215                            : top_depth    - START DEPTH
STOP.M        425                            : bot_depth    - STOP DEPTH
STEP.M        0.25                           : increment    - STEP LENGTH
 NULL. -999.2500:NULL Value
~CURVE INFORMATION BLOCK
#MNEM UNIT       ERCB CURVE CODE    CURVE DESCRIPTION
#-----------   ------------------   ----------------------------------
DEPT.M        00 001 00 00         : DEPTH        - DEPTH
GR  .API      00 310 00 00         : GR           - GAMMA RAY
NPHI.V/V      00 330 00 00         : PHIN         - NEUTRON POROSITY (SANDSTONE)
DPHI.V/V      00 890 00 00         : PHID         - DENSITY POROSITY (SANDSTONE)
ILD .OHMM     00 120 00 00         : RESD         - DEEP RESISTIVITY (OTHER)
~PARAMETER INFORMATION
#MNEM.UNIT           DATA             DESCRIPTION OF MNEMONIC
#---------         -----------     ------------------------------
GL  .M        643.4                : gl           - GROUND LEVEL ELEVATION
EREF.M        647.8                : kb           - ELEVATION OF DEPTH REFERENCE
DATM.M        647.8                : datum        - DATUM ELEVATION
TDD .M        432                  : tdd          - TOTAL DEPTH DRILLER
RUN .         ONE                  : Run          - RUN NUMBER
ENG .         BILL                 : Engineer     - RECORDING ENGINEER
WIT .         JIM                  : Witness      - WITNESSED BY
MUD .         GEL                  : Mud_type     - MUD TYPE
MATR.         SANDSTONE            : Logunit      - NEUTRON MATRIX
TMAX.C        20                   : BHT          - MAXIMUM RECORDED TEMPERATURE
BHTD.M        432                  : BHTDEP       - MAXIMUM RECORDED TEMPERATURE
MATR.         1                    : LOGUNIT      - NEUTRON MATRIX
RMT .C        17                   : MDTP         - TEMPERATURE OF MUD
NEUT.         1                    : NEUTRON      - NEUTRON TYPE
RESI.         8.6                  : RESIST       - RESISTIVITY TYPE
RMC .OHMM     7.8                  : RMC          - RESISTIVITY OF MUD CAKE
RMF .OHMM     7.8                  : RMF          - RESISTIVITY OF MUD FILTRATE
SUFT.C        4                    : SUFT         - SURFACE TEMPERATURE
~A  DEPTH       GR     PHIN     PHID     RESD
# ...
  258.500   96.439    0.495    0.232    7.745
  258.750   89.745    0.489    0.241    8.046
  259.000   84.884    0.486    0.247    8.359
  259.250   84.898    0.481    0.255    8.685
  259.500   85.519    0.479    0.275    9.196
  259.750   86.752    0.476    0.278    9.373
  260.000   89.210    0.471    0.268    9.553
  260.250   92.886    0.466    0.260    9.737
  260.500   97.169    0.462    0.256    9.924
  260.750   97.793    0.457    0.257    9.734
  261.000   94.145    0.451    0.267    9.549
  261.250   88.670    0.438    0.277    9.189
  261.500   85.026    0.432    0.293    8.843
  261.750   84.434    0.426    0.298    8.842
  262.000   85.671    0.418    0.293    8.841
  262.250   85.678    0.408    0.288    9.011
  262.500   84.480    0.406    0.285    9.184
  262.750   83.884    0.415    0.286    9.360
  263.000   82.678    0.442    0.288    9.540
  263.250   81.473    0.448    0.282    9.723
  263.500   79.658    0.453    0.280    9.910
  263.750   76.623    0.450    0.281   10.295
  264.000   74.198    0.453    0.284   10.493
  264.250   72.989    0.417    0.283   10.902
  264.500   69.347    0.442    0.283   11.325
  264.750   68.138    0.452    0.284   11.993
  265.000   64.501    0.458    0.284   12.460
  265.250   63.295    0.460    0.287   12.945
  265.500   62.083    0.461    0.289   13.708
  265.750   60.884    0.463    0.292   14.517
  266.000   60.898    0.471    0.298   15.670
  266.250   60.306    0.474    0.304   16.281
  266.500   59.094    0.479    0.304   17.241
  266.750   56.059    0.469    0.304   18.258
  267.000   51.808    0.456    0.304   18.968
  267.250   49.379    0.447    0.306   20.087
  267.500   46.344    0.436    0.307   20.868
  267.750   48.188    0.434    0.312   21.269
  268.000   48.202    0.441    0.314   21.267
  268.250   47.000    0.438    0.318   21.264
  268.500   45.188    0.432    0.322   21.262
  268.750   45.202    0.429    0.329   21.259
  269.000   45.823    0.423    0.330   21.256
  269.250   48.890    0.411    0.333   21.254
  269.500   49.510    0.400    0.332   21.252
  269.750   49.524    0.408    0.327   20.846
  270.000   48.319    0.409    0.325   20.448
  270.250   46.503    0.405    0.328   20.446
  270.500   45.908    0.407    0.332   20.057
  270.750   47.142    0.414    0.338   19.674
  271.000   48.985    0.430    0.345   19.298
  271.250   49.613    0.438    0.348   18.930
  271.500   49.630    0.430    0.349   18.569
  271.750   49.645    0.425    0.349   18.567
  272.000   52.708    0.432    0.349   18.212
  272.250   54.551    0.437    0.353   17.865
  272.500   53.952    0.429    0.353   17.525
  272.750   52.750    0.422    0.354   17.523
  273.000   52.151    0.422    0.353   17.188
  273.250   50.949    0.423    0.353   17.186
  273.500   50.960    0.424    0.353   16.858
  273.750   50.977    0.420    0.353   16.857
  274.000   52.211    0.416    0.353   17.179
  274.250   51.006    0.410    0.351   17.178
  274.500   49.190    0.400    0.351   17.846
  274.750   49.818    0.393    0.349   18.540
  275.000   51.048    0.418    0.346   19.634
  275.250   52.282    0.441    0.335   21.194
  275.500   49.251    0.429    0.311   22.879
  275.750   45.602    0.255    0.243   25.660
  276.000   40.128    0.219    0.188   29.337
  276.250   35.873    0.224    0.095   32.904
  276.500   38.937    0.269    0.186   32.900
  276.750   46.886    0.380    0.231   29.327
  277.000   47.513    0.451    0.241   24.214
  277.250   47.524    0.466    0.269   19.993
  277.500   47.538    0.471    0.292   17.821
  277.750   47.548    0.480    0.322   16.192
  278.000   48.176    0.483    0.339   15.582
  278.250   48.187    0.479    0.355   14.995
  278.500   48.208    0.474    0.361   14.994
  278.750   47.605    0.466    0.359   14.708
  279.000   47.013    0.457    0.351   14.706
  279.250   47.027    0.446    0.347   14.704
  279.500   45.822    0.449    0.342   14.986
  279.750   43.397    0.454    0.335   15.274
  280.000   38.536    0.400    0.107   16.176
  280.250   34.891    0.204   -0.013   18.493
  280.500   36.735    0.116   -0.008   22.825
  280.750   38.578    0.105   -0.010   31.001
  281.000   38.589    0.108   -0.014   40.525
  281.250   36.773    0.117   -0.014   52.975
  281.500   34.965    0.115   -0.015   66.648
  281.750   34.362    0.107   -0.022   77.669
  282.000   34.384    0.105   -0.025   83.838
  282.250   35.008    0.105   -0.025   85.451
  282.500   35.018    0.108   -0.024   85.441
  282.750   35.646    0.113   -0.025   82.222
  283.000   36.880    0.132   -0.029   69.201
  283.250   40.553    0.251   -0.028   57.136
  283.500   43.006    0.281   -0.023   43.697
  283.750   44.240    0.316   -0.011   37.489
  284.000   44.258    0.297    0.021   31.552
  284.250   43.662    0.235    0.106   28.125
  284.500   43.680    0.241    0.167   26.552
  284.750   43.687    0.323    0.158   25.068
  285.000   43.701    0.355    0.246   21.920
  285.250   44.938    0.380    0.292   20.695
  285.500   46.172    0.411    0.325   19.167
  285.750   47.409    0.447    0.341   18.801
  286.000   48.026    0.461    0.339   18.443
  286.250   48.040    0.462    0.338   18.441
  286.500   47.445    0.458    0.337   17.745
  286.750   46.849    0.453    0.337   17.744
  287.000   47.477    0.456    0.338   17.075
  287.250   49.937    0.466    0.337   16.749
  287.500   50.557    0.467    0.334   16.430
  287.750   51.788    0.463    0.331   15.811
  288.000   53.025    0.463    0.327   15.509
  288.250   53.649    0.472    0.324   15.213
  288.500   53.667    0.487    0.323   14.923
  288.750   52.454    0.497    0.322   14.921
  289.000   50.639    0.498    0.317   14.919
  289.250   46.998    0.361    0.302   15.800
  289.500   44.573    0.243    0.022   17.055
  289.750   44.590    0.159    0.048   24.069
  290.000   45.824    0.154    0.064   32.691
  290.250   47.054    0.177    0.163   49.807
  290.500   48.905    0.193    0.195   59.163
  290.750   49.522    0.223    0.230   56.934
  291.000   51.365    0.300    0.262   51.733
  291.250   51.380    0.365    0.294   46.114
  291.500   51.397    0.409    0.319   39.562
  291.750   52.025    0.459    0.342   32.046
  292.000   53.255    0.467    0.349   21.849
  292.250   54.496    0.462    0.344   18.040
  292.500   55.117    0.463    0.335   16.081
  292.750   55.740    0.475    0.327   15.181
  293.000   56.364    0.465    0.328   14.892
  293.250   56.985    0.458    0.329   14.890
  293.500   57.612    0.459    0.330   14.888
  293.750   58.236    0.459    0.335   15.174
  294.000   58.860    0.459    0.338   15.172
  294.250   58.878    0.460    0.339   14.883
  294.500   59.502    0.465    0.338   14.599
  294.750   60.130    0.477    0.334   14.598
  295.000   60.137    0.480    0.333   14.319
  295.250   60.768    0.469    0.333   14.317
  295.500   61.385    0.454    0.330   14.316
  295.750   61.406    0.455    0.324   14.591
  296.000   61.413    0.465    0.316   14.588
  296.250   62.040    0.484    0.310   14.587
  296.500   62.051    0.486    0.311   14.585
  296.750   62.069    0.489    0.316   14.584
  297.000   62.700    0.483    0.321   14.306
  297.250   62.710    0.476    0.321   14.032
  297.500   62.724    0.458    0.321   13.764
  297.750   63.348    0.450    0.321   13.763
  298.000   63.359    0.446    0.318   14.027
  298.250   64.596    0.445    0.313   14.026
  298.500   65.827    0.444    0.305   14.024
  298.750   67.064    0.443    0.300   13.496
  299.000   67.688    0.451    0.292   13.239
  299.250   69.532    0.466    0.285   12.498
  299.500   71.375    0.480    0.280   11.799
  299.750   73.829    0.479    0.274   11.355
  300.000   75.672    0.477    0.270   10.517
  300.250   79.345    0.476    0.265    9.555
  300.500   75.091    0.472    0.270    8.850
  300.750   64.128    0.467    0.291    8.849
  301.000   61.097    0.447    0.302    8.848
  301.250   61.107    0.437    0.300    9.018
  301.500   61.125    0.464    0.291    9.191
  301.750   61.745    0.470    0.285    9.368
