~VERSION INFORMATION
 VERS.                 2.0:   CWLS LOG ASCII STANDARD -VERSION 2.0
 WRAP.                  NO:   ONE LINE PER DEPTH STEP
~WELL INFORMATION BLOCK
#MNEM.UNIT           DATA                    DESCRIPTION OF MNEMONIC
#---------    -------------------            -------------------------------
# Generated from Intellog Unique Number	CS_69_70/WELL/474
NULL.         -999.25                        : NULL_VALUE
WELL.         07-03-070-08W4                 : Well_name    - WELL              
LOC .         00/07-03-070-08W4/0            : Location     - LOCATION          
UWI .         00/07-03-070-08W4/0            : Uwi          - UNIQUE WELL ID    
ENTR.         JOETTE                         : Entered      - ENTERED BY        
SRVC.         SCHLUMBERGER                   : Scn          - SERVICE COMPANY   
DATE.         05\15\92                       : Date         - LOG DATE          
STRT.M        300                            : top_depth    - START DEPTH       
STOP.M        520                            : bot_depth    - STOP DEPTH        
STEP.M        0.25                           : increment    - STEP LENGTH       
~CURVE INFORMATION BLOCK
#MNEM UNIT       ERCB CURVE CODE    CURVE DESCRIPTION
#-----------   ------------------   ----------------------------------
DEPT.M        00 001 00 00         : DEPTH        - DEPTH                       
GR  .API      00 310 00 00         : GR           - GAMMA RAY                   
NPHI.V/V      00 330 00 00         : PHIN         - NEUTRON POROSITY (SANDSTONE)
DPHI.V/V      00 890 00 00         : PHID         - DENSITY POROSITY (SANDSTONE)
ILD .OHMM     00 120 00 00         : RESD         - DEEP RESISTIVITY (DIL)      
CALI.MM       00 280 01 00         : CAL          - CALIPER                     
~PARAMETER INFORMATION       
#MNEM.UNIT           DATA             DESCRIPTION OF MNEMONIC
#---------         -----------     ------------------------------
GL  .M        640                  : gl           - GROUND LEVEL ELEVATION      
EREF.M        648.7                : kb           - ELEVATION OF DEPTH REFERENCE
DATM.M        648.7                : datum        - DATUM ELEVATION             
TDD .M        625                  : tdd          - TOTAL DEPTH DRILLER         
RUN .         ONE                  : Run          - RUN NUMBER                  
ENG .         JO                   : Engineer     - RECORDING ENGINEER          
WIT .         TIM                  : Witness      - WITNESSED BY                
MUD .         GEL                  : Mud_type     - MUD TYPE                    
MATR.         SANDSTONE            : Logunit      - NEUTRON MATRIX              
TMAX.C        25                   : BHT          - MAXIMUM RECORDED TEMPERATURE
BHTD.M        625                  : BHTDEP       - MAXIMUM RECORDED TEMPERATURE
RMT .C        15                   : MDTP         - TEMPERATURE OF MUD          
MUDD.KG/M     1080                 : MWT          - MUD DENSITY                 
NEUT.         1                    : NEUTRON      - NEUTRON TYPE                
RESI.         0                    : RESIST       - RESISTIVITY TYPE            
RM  .OHMM     3.3                  : RM           - RESISTIVITY OF MUD          
RMC .OHMM     3.3                  : RMC          - RESISTIVITY OF MUD CAKE     
RMF .OHMM     3.3                  : RMF          - RESISTIVITY OF MUD FILTRATE 
SUFT.C        4                    : SUFT         - SURFACE TEMPERATURE         
~A  DEPTH       GR     PHIN     PHID     RESD      CAL
# ...
  409.500   89.707    0.513    0.358    3.210  194.792
  409.750   84.324    0.526    0.429    3.946  190.866
  410.000   81.363    0.553    0.430    5.222  184.895
  410.250   85.681    0.561    0.411    5.424  173.907
  410.500   86.974    0.483    0.347    5.750  165.946
  410.750   88.838    0.454    0.262    5.550  154.958
  411.000   88.298    0.463    0.245    5.260  154.085
  411.250   82.916    0.460    0.233    5.170  155.202
  411.500   82.981    0.456    0.230    5.182  155.284
  411.750   86.073    0.495    0.234    5.490  152.393
  412.000   87.348    0.505    0.242    5.703  152.475
  412.250   85.614    0.509    0.254    6.268  151.575
  412.500   82.637    0.500    0.293    6.522  151.710
  412.750   78.465    0.468    0.309    6.659  151.819
  413.000   77.941    0.462    0.304    6.795  152.909
  413.250   78.006    0.449    0.304    6.801  153.018
  413.500   75.045    0.449    0.315    6.820  153.154
  413.750   72.673    0.472    0.321    6.704  153.289
  414.000   70.923    0.475    0.327    6.590  153.398
  414.250   69.793    0.467    0.331    6.367  153.480
  414.500   68.665    0.439    0.339    6.259  152.579
  414.750   68.092    0.429    0.335    6.155  152.715
  415.000   66.947    0.429    0.327    6.053  151.815
  415.250   64.591    0.434    0.323    6.533  150.915
  415.500   64.051    0.442    0.326    6.792  151.023
  415.750   65.931    0.452    0.330    6.931  150.096
  416.000   72.082    0.443    0.328    6.941  149.250
  416.250   75.157    0.418    0.306    7.083  149.305
  416.500   82.485    0.416    0.284    6.972  149.440
  416.750   91.040    0.414    0.266    6.981  149.549
  417.000   89.895    0.421    0.268    6.865  153.720
  417.250   80.881    0.426    0.318    6.752  158.872
  417.500   79.736    0.428    0.419    6.640  160.998
  417.750   81.011    0.474    0.384    6.655  158.108
  418.000   78.050    0.442    0.306    6.667  155.163
  418.250   72.668    0.419    0.285    6.676  152.245
  418.500   69.707    0.434    0.281    6.813  151.318
  418.750   74.009    0.469    0.271    6.965  151.427
  419.000   74.074    0.497    0.259    6.971  151.563
  419.250   74.139    0.498    0.254    6.981  151.671
  419.500   76.642    0.490    0.253    6.996  150.798
  419.750   79.112    0.475    0.253    6.877  150.853
  420.000   80.388    0.462    0.255    6.763  150.988
  420.250   80.485    0.459    0.253    6.409  151.124
  420.500   78.751    0.465    0.250    6.303  151.206
  420.750   77.573    0.469    0.248    6.432  151.341
  421.000   76.428    0.474    0.251    6.693  151.450
  421.250   79.519    0.468    0.253    6.705  151.559
  421.500   81.400    0.472    0.248    6.717  153.685
  421.750   80.860    0.463    0.241    6.482  156.820
  422.000   80.925    0.445    0.235    5.704  159.982
  422.250   84.638    0.466    0.233    5.821  160.063
  422.500   85.898    0.459    0.240    5.940  160.226
  422.750   85.390    0.438    0.242    6.297  160.308
  423.000   86.061    0.431    0.240    6.420  160.443
  423.250   86.731    0.447    0.237    6.203  160.525
  423.500   86.191    0.451    0.232    6.098  161.642
  423.750   86.256    0.439    0.232    5.781  162.760
  424.000   86.927    0.435    0.256    5.478  162.868
  424.250   86.370    0.471    0.308    5.096  163.958
  424.500   85.225    0.514    0.360    4.918  168.102
  424.750   85.290    0.519    0.369    4.575  184.378
  425.000   88.398    0.535    0.335    4.256  191.575
  425.250   91.489    0.568    0.335    3.886  190.648
  425.500   95.186    0.573    0.330    3.484  188.766
  425.750   98.293    0.568    0.308    3.065  182.795
  426.000   96.543    0.559    0.309    2.699  178.896
  426.250   94.187    0.572    0.343    2.510  181.022
  426.500   95.463    0.584    0.360    2.611  183.148
  426.750   93.696    0.600    0.373    2.662  184.265
  427.000   95.577    0.615    0.361    2.619  183.392
  427.250   95.642    0.605    0.316    2.483  180.502
  427.500   86.628    0.567    0.291    2.440  178.566
  427.750   83.667    0.559    0.325    2.445  177.638
  428.000   84.959    0.544    0.343    2.591  177.801
  428.250   85.630    0.587    0.353    2.743  178.864
  428.500   83.863    0.609    0.370    3.071  183.062
  428.750   85.138    0.586    0.365    3.438  184.125
  429.000   87.052    0.545    0.367    4.071  194.376
  429.250   86.512    0.520    0.398    4.557  204.545
  429.500   84.156    0.478    0.431    5.009  194.566
  429.750   80.573    0.498    0.422    5.505  181.534
  430.000   81.260    0.494    0.468    5.832  161.467
  430.250   81.931    0.476    0.344    5.955  150.507
  430.500   81.374    0.451    0.307    6.074  149.579
  430.750   79.018    0.426    0.275    6.205  147.698
  431.000   76.663    0.410    0.253    6.210  147.779
  431.250   77.955    0.401    0.234    6.227  147.942
  431.500   78.020    0.407    0.230    6.118  149.005
  431.750   77.496    0.415    0.234    5.909  150.123
  432.000   77.561    0.422    0.239    5.808  151.267
  432.250   77.594    0.429    0.231    5.612  152.412
  432.500   78.902    0.440    0.225    5.620  153.502
  432.750   81.388    0.434    0.214    5.630  157.700
  433.000   83.269    0.424    0.207    5.640  158.763
  433.250   84.545    0.406    0.214    5.764  158.871
  433.500   84.626    0.411    0.221    5.877  155.981
  433.750   84.659    0.430    0.222    6.340  154.045
  434.000   86.556    0.446    0.224    6.837  151.127
  434.250   87.815    0.447    0.229    7.801  148.237
  434.500   84.854    0.428    0.237    9.233  147.309
  434.750   83.709    0.423    0.245   10.148  147.445
  435.000   85.590    0.430    0.240   10.550  147.554
  435.250   71.734    0.425    0.206   10.189  147.663
  435.500   64.553    0.333    0.130    8.962  147.744
  435.750   65.828    0.284    0.076    7.886  146.844
  436.000   68.904    0.336    0.240    6.939  146.980
  436.250   74.416    0.402    0.261    6.340  147.088
  436.500   78.734    0.429    0.264    6.117  147.197
  436.750   82.431    0.432    0.260    6.016  148.314
  437.000   83.118    0.427    0.261    5.813  148.450
  437.250   84.999    0.410    0.263    5.714  148.531
  437.500   88.090    0.405    0.268    5.724  149.649
  437.750   91.181    0.435    0.289    5.632  149.785
  438.000   86.994    0.439    0.319    5.642  151.911
  438.250   85.881    0.408    0.291    5.649  163.116
  438.500   87.140    0.393    0.259    5.556  163.224
  438.750   88.432    0.393    0.250    5.568  155.290
  439.000   87.892    0.443    0.255    5.478  151.337
  439.250   84.915    0.422    0.251    5.483  148.419
  439.500   81.365    0.416    0.248    5.498  153.571
  439.750   81.430    0.407    0.255    5.404  159.760
  440.000   83.932    0.420    0.316    5.317  166.902
  440.250   84.570    0.457    0.376    5.133  168.020
  440.500   80.399    0.459    0.319    5.046  160.085
  440.750   72.596    0.450    0.277    4.694  156.159
  441.000   69.029    0.438    0.250    4.209  153.241
  441.250   73.936    0.423    0.225    3.842  153.377
  441.500   78.238    0.412    0.294    3.383  155.503
  441.750   77.698    0.416    0.347    3.034  157.629
  442.000   78.974    0.453    0.365    2.926  160.737
  442.250   82.098    0.538    0.382    2.724  169.925
  442.500   80.936    0.529    0.385    2.729  178.103
  442.750   78.580    0.515    0.365    2.783  173.195
  443.000   80.461    0.524    0.352    3.117  167.251
  443.250   76.895    0.514    0.344    3.555  161.280
  443.500   78.171    0.475    0.296    3.835  148.275
  443.750   79.446    0.449    0.285    4.374  143.394
  444.000   72.854    0.466    0.274    5.084  145.466
  444.250   65.656    0.395    0.256    5.798  152.636
  444.500   58.442    0.323    0.222    6.256  156.834
  444.750   58.523    0.264    0.116    6.384  152.908
  445.000   62.825    0.278    0.116    5.725  152.007
  445.250   67.732    0.325    0.241    4.943  156.151
  445.500   70.235    0.403    0.263    4.350  160.268
  445.750   73.326    0.435    0.272    4.047  168.446
