~VERSION INFORMATION
 VERS.                 2.0:   CWLS LOG ASCII STANDARD -VERSION 2.0
 WRAP.                  NO:   ONE LINE PER DEPTH STEP
~WELL INFORMATION BLOCK
#MNEM.UNIT           DATA                    DESCRIPTION OF MNEMONIC
#---------    -------------------            -------------------------------
# Generated from Intellog Unique Number	CW_76_78/WELL/288
WELL.         PRECAM ET AL MARTEN HILLS 05-2 : Well_name    - WELL
LOC .         00/05-23-076-01W5/0            : Location     - LOCATION
UWI .         00/05-23-076-01W5/0            : Uwi          - UNIQUE WELL ID
ENTR.         JAYE                           : Entered      - ENTERED BY
SRVC.         SCHLUMBERGER                   : Scn          - SERVICE COMPANY
DATE.         11 FEB 84                      : Date         - LOG DATE
STRT.M        575                            : top_depth    - START DEPTH
STOP.M        775                            : bot_depth    - STOP DEPTH
STEP.M        0.25                           : increment    - STEP LENGTH
 NULL. -999.2500:NULL Value
~CURVE INFORMATION BLOCK
#MNEM UNIT       ERCB CURVE CODE    CURVE DESCRIPTION
#-----------   ------------------   ----------------------------------
DEPT.M        00 001 00 00         : DEPTH        - DEPTH
ILD .OHMM     00 120 00 00         : RESD         - DEEP RESISTIVITY (DIL)
NPHI.V/V      00 330 00 00         : PHIN         - NEUTRON POROSITY (SANDSTONE)
DPHI.V/V      00 890 00 00         : PHID         - DENSITY POROSITY (SANDSTONE)
GR  .API      00 310 00 00         : GR           - GAMMA RAY
CALI.MM       00 280 01 00         : CAL          - CALIPER
~PARAMETER INFORMATION
#MNEM.UNIT           DATA             DESCRIPTION OF MNEMONIC
#---------         -----------     ------------------------------
GL  .M        862.83               : gl           - GROUND LEVEL ELEVATION
EREF.M        866.33               : kb           - ELEVATION OF DEPTH REFERENCE
DATM.M        862.83               : datum        - DATUM ELEVATION
TDD .M        776                  : tdd          - TOTAL DEPTH DRILLER
RUN .         ONE                  : Run          - RUN NUMBER
ENG .         ACKERMAN             : Engineer     - RECORDING ENGINEER
WIT .         KOCSIS               : Witness      - WITNESSED BY
BASE.         EDM                  : Branch       - HOME BASE OF LOGGING UNIT
MUD .         GEL CHEM             : Mud_type     - MUD TYPE
MATR.         SANDSTONE            : Logunit      - NEUTRON MATRIX
TMAX.C        32.2                 : BHT          - MAXIMUM RECORDED TEMPERATURE
BHTD.M        773                  : BHTDEP       - MAXIMUM RECORDED TEMPERATURE
RMT .C        22                   : MDTP         - TEMPERATURE OF MUD
MUDD.KG/M     9.5                  : MWT          - MUD DENSITY
NEUT.         1                    : NEUTRON      - NEUTRON TYPE
RESI.         0                    : RESIST       - RESISTIVITY TYPE
RM  .OHMM     4.377                : RM           - RESISTIVITY OF MUD
RMC .OHMM     0                    : RMC          - RESISTIVITY OF MUD CAKE
RMF .OHMM     5.828                : RMF          - RESISTIVITY OF MUD FILTRATE
SUFT.C        0                    : SUFT         - SURFACE TEMPERATURE
~A  DEPTH     RESD     PHIN     PHID       GR      CAL
# ...
  648.000    6.582    0.427    0.161   90.070  246.282
  648.250    6.734    0.410    0.166   88.918  246.330
  648.500    6.889    0.403    0.172   88.264  246.171
  648.750    7.049    0.393    0.180   86.363  245.914
  649.000    7.212    0.368    0.182   83.282  245.649
  649.250    7.282    0.397    0.182   84.803  245.383
  649.500    7.298    0.404    0.180   89.378  245.225
  649.750    7.329    0.389    0.173   92.954  244.859
  650.000    7.345    0.388    0.145   90.740  244.281
  650.250    7.431    0.406    0.137   86.787  244.236
  650.500    7.490    0.411    0.136   82.959  243.861
  650.750    7.395    0.397    0.142   82.614  243.191
  651.000    7.274    0.404    0.154   87.996  242.721
  651.250    7.183    0.419    0.178   92.755  242.352
  651.500    7.040    0.399    0.185   94.092  242.094
  651.750    6.925    0.383    0.185   88.457  242.239
  652.000    6.811    0.415    0.181   89.421  242.391
  652.250    6.651    0.443    0.177   92.189  242.446
  652.500    6.579    0.399    0.169   91.472  242.393
  652.750    6.582    0.404    0.133   88.637  242.226
  653.000    6.873    0.431    0.112   85.802  241.969
  653.250    7.466    0.427    0.077   79.982  242.018
  653.500    8.418    0.256    0.096   71.797  242.277
  653.750    8.613    0.270    0.122   74.189  242.324
  654.000    8.253    0.303    0.141   78.762  242.476
  654.250    7.705    0.351    0.158   82.839  242.941
  654.500    7.139    0.373    0.171   89.214  243.710
  654.750    6.714    0.390    0.176   94.224  244.386
  655.000    6.410    0.414    0.175   85.913  244.432
  655.250    6.259    0.417    0.171   88.929  244.587
  655.500    6.273    0.425    0.165   96.674  244.843
  655.750    6.358    0.415    0.154   99.756  245.310
  656.000    6.432    0.422    0.128   95.053  246.081
  656.250    6.483    0.448    0.132   87.056  246.328
  656.500    6.449    0.439    0.138   86.274  246.278
  656.750    6.332    0.421    0.153   91.842  246.010
  657.000    6.183    0.408    0.178   97.350  245.759
  657.250    6.071    0.416    0.188   97.317  245.292
  657.500    6.153    0.437    0.194   94.359  244.609
  657.750    6.450    0.446    0.165   94.200  243.937
  658.000    6.901    0.444    0.153   89.003  243.049
  658.250    7.289    0.401    0.164   83.555  241.540
  658.500    7.485    0.385    0.182   79.354  240.243
  658.750    7.460    0.420    0.167   81.555  239.040
  659.000    7.339    0.405    0.154   82.273  238.675
  659.250    7.219    0.385    0.164   83.921  237.998
  659.500    7.154    0.404    0.178   83.328  237.217
  659.750    7.117    0.413    0.172   82.796  236.645
  660.000    6.949    0.426    0.161   85.503  235.865
  660.250    6.696    0.443    0.149   88.022  234.980
  660.500    6.599    0.444    0.150   85.185  233.682
  660.750    6.854    0.427    0.164   80.177  232.175
  661.000    7.334    0.415    0.179   75.410  230.666
  661.250    8.086    0.416    0.168   78.182  229.679
  661.500    8.898    0.423    0.165   76.777  228.795
  661.750    9.380    0.358    0.178   76.498  228.222
  662.000    9.597    0.353    0.186   76.340  227.642
  662.250    9.800    0.393    0.173   74.502  227.379
  662.500   10.082    0.363    0.175   73.037  227.023
  662.750   10.373    0.354    0.184   76.116  227.072
  663.000   10.396    0.398    0.190   77.638  227.007
  663.250   10.039    0.381    0.168   73.686  226.958
  663.500    9.782    0.351    0.188   66.246  226.904
  663.750    9.444    0.378    0.236   67.333  226.541
  664.000    9.119    0.410    0.264   69.541  225.653
  664.250    8.887    0.422    0.247   64.903  223.005
  664.500    8.693    0.403    0.257   61.260  221.182
  664.750    8.439    0.377    0.272   64.955  220.715
  665.000    8.225    0.414    0.277   68.537  220.448
  665.250    8.526    0.433    0.244   73.358  220.714
  665.500    9.106    0.462    0.198   68.658  221.691
  665.750   10.248    0.474    0.131   62.900  222.567
  666.000   11.950    0.275    0.103   58.946  223.452
  666.250   13.350    0.257    0.171   56.860  222.567
  666.500   12.415    0.272    0.199   62.491  223.653
  666.750   10.795    0.345    0.232   70.730  225.881
  667.000    9.422    0.379    0.219   75.369  228.420
  667.250    8.011    0.418    0.224   80.812  228.362
  667.500    7.436    0.425    0.219   86.630  227.271
  667.750    7.007    0.394    0.196   95.746  229.079
  668.000    6.278    0.393    0.181  117.369  231.620
  668.250    5.337    0.443    0.166  110.741  234.159
  668.500    4.371    0.459    0.155   94.278  235.972
  668.750    4.127    0.473    0.152   86.279  237.371
  669.000    4.516    0.448    0.174   80.889  238.973
  669.250    5.054    0.399    0.186   77.997  239.642
  669.500    5.785    0.405    0.180   79.707  239.993
  669.750    6.438    0.405    0.166   85.648  240.360
  670.000    6.710    0.399    0.155   90.781  240.306
  670.250    6.764    0.382    0.156   87.263  240.256
  670.500    6.843    0.388    0.161   83.683  240.291
  670.750    6.871    0.396    0.170   89.747  240.139
  671.000    6.951    0.385    0.184   92.953  240.394
  671.250    7.072    0.388    0.175   92.354  240.438
  671.500    7.195    0.399    0.156   90.957  240.499
  671.750    7.361    0.401    0.164   89.431  240.321
  672.000    7.644    0.400    0.184   87.592  240.179
  672.250    7.534    0.399    0.198   85.442  240.016
  672.500    7.369    0.415    0.196   84.538  239.546
  672.750    7.195    0.414    0.182   85.251  239.704
  673.000    6.986    0.404    0.158   87.022  240.169
  673.250    6.770    0.386    0.160   90.415  240.832
  673.500    6.610    0.396    0.165   92.622  241.097
  673.750    6.442    0.396    0.179   89.352  241.245
  674.000    6.313    0.395    0.184   90.006  241.298
  674.250    6.280    0.398    0.179   93.022  241.243
  674.500    6.318    0.403    0.176   93.114  241.188
  674.750    6.392    0.409    0.171   92.395  241.009
  675.000    6.323    0.418    0.168   95.537  240.768
  675.250    6.071    0.408    0.171   97.806  240.290
  675.500    5.720    0.385    0.184   97.774  239.722
  675.750    5.390    0.400    0.191   98.549  238.942
  676.000    5.185    0.417    0.194   97.708  238.157
  676.250    5.119    0.423    0.198   94.499  237.583
  676.500    5.296    0.416    0.198   89.240  237.734
  676.750    5.646    0.450    0.180   81.613  238.407
  677.000    6.319    0.460    0.062   74.923  239.288
  677.250    7.098    0.408    0.051   69.039  239.755
  677.500    8.674    0.308    0.078   60.853  239.693
  677.750   10.344    0.263    0.141   63.621  239.738
  678.000   10.465    0.289    0.116   79.457  240.518
  678.250   10.294    0.382    0.114   84.838  241.599
  678.500    9.810    0.405    0.142   84.370  242.472
  678.750    9.055    0.380    0.162   84.896  242.836
  679.000    8.174    0.359    0.180   86.420  243.201
  679.250    7.602    0.352    0.180   87.320  243.566
  679.500    7.299    0.377    0.179   83.616  243.088
  679.750    7.100    0.398    0.182   84.516  242.620
  680.000    6.842    0.401    0.188   92.198  242.042
  680.250    6.471    0.416    0.196   95.653  241.791
  680.500    6.086    0.410    0.199   94.252  241.310
  680.750    5.703    0.396    0.199   92.538  241.365
  681.000    5.589    0.411    0.193   92.256  241.724
  681.250    5.761    0.403    0.177   92.533  241.985
  681.500    6.176    0.396    0.160   89.202  241.096
  681.750    6.721    0.391    0.165   83.133  239.279
  682.000    7.620    0.359    0.174   84.589  237.362
  682.250    7.855    0.408    0.197   86.241  235.436
  682.500    7.684    0.417    0.205   85.521  234.553
  682.750    7.363    0.395    0.202   86.672  234.500
  683.000    7.270    0.405    0.160   90.935  234.436
  683.250    7.607    0.419    0.124   87.228  234.805
  683.500    7.944    0.435    0.129   82.339  235.062
  683.750    8.188    0.380    0.155   79.385  234.790
  684.000    8.025    0.336    0.204   80.721  234.636
  684.250    7.590    0.366    0.197   84.794  234.574
