~VERSION INFORMATION
 VERS.                 2.0:   CWLS LOG ASCII STANDARD -VERSION 2.0
 WRAP.                  NO:   ONE LINE PER DEPTH STEP
~WELL INFORMATION BLOCK
#MNEM.UNIT           DATA                    DESCRIPTION OF MNEMONIC
#---------    -------------------            -------------------------------
# Generated from Intellog Unique Number	CW_82_90/WELL/3066
WELL.         UNOCAL SALESKI                 : Well_name    - WELL
LOC .         00/07-24-086-19W4/0            : Location     - LOCATION
UWI .         00/07-24-086-19W4/0            : Uwi          - UNIQUE WELL ID
ENTR.         MAX                            : Entered      - ENTERED BY
SRVC.         WESTERN ATLAS                  : Scn          - SERVICE COMPANY
STRT.M        100                            : top_depth    - START DEPTH
STOP.M        246                            : bot_depth    - STOP DEPTH
STEP.M        0.25                           : increment    - STEP LENGTH
 NULL. -999.2500:NULL Value
~CURVE INFORMATION BLOCK
#MNEM UNIT       ERCB CURVE CODE    CURVE DESCRIPTION
#-----------   ------------------   ----------------------------------
DEPT.M        00 001 00 00         : DEPTH        - DEPTH
ILD .OHMM     00 120 00 00         : RESD         - DEEP RESISTIVITY (DIL)
NPHI.V/V      00 330 00 00         : PHIN         - NEUTRON POROSITY (SANDSTONE)
DPHI.V/V      00 890 00 00         : PHID         - DENSITY POROSITY (SANDSTONE)
CALI.MM       00 280 01 00         : CAL          - CALIPER
GR  .API      00 310 00 00         : GR           - GAMMA RAY
~PARAMETER INFORMATION
#MNEM.UNIT           DATA             DESCRIPTION OF MNEMONIC
#---------         -----------     ------------------------------
GL  .M        527.7                : gl           - GROUND LEVEL ELEVATION
EREF.M        532                  : kb           - ELEVATION OF DEPTH REFERENCE
DATM.M        527.7                : datum        - DATUM ELEVATION
TDD .M        246.3                : tdd          - TOTAL DEPTH DRILLER
RUN .         ONE                  : Run          - RUN NUMBER
ENG .         BILL                 : Engineer     - RECORDING ENGINEER
WIT .         JIM                  : Witness      - WITNESSED BY
MUD .         GEL                  : Mud_type     - MUD TYPE
MATR.         SANDSTONE            : Logunit      - NEUTRON MATRIX
TMAX.C        24                   : BHT          - MAXIMUM RECORDED TEMPERATURE
BHTD.M        23246.3              : BHTDEP       - MAXIMUM RECORDED TEMPERATURE
MATR.         1                    : LOGUNIT      - NEUTRON MATRIX
RMT .C        28                   : MDTP         - TEMPERATURE OF MUD
NEUT.         1                    : NEUTRON      - NEUTRON TYPE
RESI.         0                    : RESIST       - RESISTIVITY TYPE
RMC .OHMM     3.5                  : RMC          - RESISTIVITY OF MUD CAKE
RMF .OHMM     4.2                  : RMF          - RESISTIVITY OF MUD FILTRATE
SUFT.C        -15                  : SUFT         - SURFACE TEMPERATURE
~A  DEPTH     RESD     PHIN     PHID      CAL       GR
  100.000    3.547    0.442    0.252  171.765  112.198
  100.250    3.579    0.433    0.258  171.701  109.813
  100.500    3.710    0.415    0.276  173.102  106.850
  100.750    3.777    0.400    0.270  176.448  102.712
  101.000    4.024    0.403    0.270  176.873  102.664
  101.250    4.444    0.403    0.280  176.313   99.995
  101.500    4.734    0.400    0.284  175.777   96.736
  101.750    5.042    0.382    0.287  173.265   97.567
  102.000    5.670    0.360    0.292  168.801   96.948
  102.250    6.493    0.340    0.305  168.249   86.068
  102.500    7.369    0.361    0.328  168.186   74.603
  102.750    8.362    0.388    0.332  168.122   66.364
  103.000    8.064    0.407    0.324  168.059   65.731
  103.250    6.790    0.426    0.287  167.507   87.668
  103.500    5.874    0.428    0.251  168.909  100.224
  103.750    5.317    0.403    0.252  170.782   98.429
  104.000    5.128    0.376    0.257  169.262  101.910
  104.250    5.173    0.375    0.263  167.246   96.888
  104.500    5.363    0.377    0.262  167.663   91.281
  104.750    5.923    0.391    0.270  167.599   91.243
  105.000    6.783    0.378    0.286  166.072   88.271
  105.250    7.909    0.354    0.301  167.457   85.602
  105.500    9.222    0.332    0.314  166.921   80.873
  105.750    9.305    0.333    0.304  165.385   80.835
  106.000    7.488    0.411    0.278  165.314   88.705
  106.250    6.420    0.446    0.290  165.739  103.316
  106.500    5.555    0.447    0.302  165.683  114.114
  106.750    4.593    0.447    0.289  166.100  118.172
  107.000    4.158    0.448    0.272  168.958  116.372
  107.250    3.867    0.449    0.276  168.414  112.531
  107.500    3.662    0.444    0.276  167.358  110.150
  107.750    3.437    0.432    0.269  167.783  110.395
  108.000    3.344    0.424    0.256  168.224  111.236
  108.250    3.344    0.414    0.239  166.688  113.253
  108.500    3.467    0.398    0.226  166.617  103.550
  108.750    3.626    0.381    0.199  166.065   98.235
  109.000    3.692    0.409    0.194  168.442  103.757
  109.250    3.725    0.443    0.209  169.843  106.360
  109.500    3.759    0.443    0.233  170.260  109.543
  109.750    3.861    0.423    0.233  170.197  110.672
  110.000    4.039    0.405    0.229  170.629  109.462
  110.250    4.264    0.399    0.226  171.046  109.424
  110.500    4.381    0.399    0.225  170.975  108.215
  110.750    4.420    0.393    0.229  170.912  104.076
  111.000    4.459    0.383    0.240  170.856  100.807
  111.250    4.379    0.390    0.258  169.320  101.941
  111.500    4.498    0.397    0.261  166.808   95.166
  111.750    5.151    0.399    0.264  163.336   82.827
  112.000    6.342    0.388    0.274  162.776   71.655
  112.250    8.393    0.369    0.311  165.154   61.947
  112.500   13.675    0.367    0.331  166.555   54.289
  112.750   17.298    0.365    0.345  166.979   54.246
  113.000   18.425    0.358    0.356  166.420   54.208
  113.250   18.093    0.364    0.354  165.868   54.165
  113.500   17.290    0.383    0.348  165.805   54.127
  113.750   16.674    0.386    0.340  165.742   53.791
  114.000   16.521    0.383    0.335  166.166   52.294
  114.250   16.370    0.374    0.342  166.095   51.089
  114.500   16.368    0.362    0.351  166.032   49.289
  114.750   16.365    0.360    0.352  166.440   48.372
  115.000   16.512    0.369    0.352  166.385   49.208
  115.250   16.810    0.379    0.352  166.329   49.468
  115.500   17.115    0.362    0.352  166.266   51.177
  115.750   17.425    0.348    0.348  166.195   51.144
  116.000   17.422    0.355    0.347  166.131   51.394
  116.250   17.578    0.368    0.346  166.540   51.068
  116.500   17.576    0.373    0.345  166.485   51.611
  116.750   17.415    0.375    0.342  165.925   52.447
  117.000   17.413    0.371    0.335  165.870   52.121
  117.250   17.889    0.359    0.331  165.310   52.376
  117.500   18.713    0.350    0.330  164.271   53.802
  117.750   19.576    0.342    0.325  162.743   54.057
  118.000   20.112    0.314    0.217  162.191   48.156
  118.250   20.110    0.304    0.249  162.616   45.189
  118.500   19.926    0.334    0.330  163.041   47.778
  118.750   19.390    0.370    0.374  162.489   48.033
  119.000   18.867    0.379    0.368  162.418   46.242
  119.250   18.865    0.386    0.366  161.858   46.790
  119.500   18.862    0.389    0.374  161.307   44.692
  119.750   18.690    0.392    0.373  161.251   44.659
  120.000   18.352    0.388    0.372  160.684   45.495
  120.250   18.349    0.377    0.379  160.621   45.754
  120.500   18.514    0.344    0.385  160.557   46.590
  120.750   18.345    0.347    0.387  160.974   46.259
  121.000   18.012    0.362    0.380  160.903   44.757
  121.250   17.848    0.375    0.378  160.855   46.178
  121.500   17.685    0.382    0.380  161.280   45.554
  121.750   17.523    0.382    0.376  161.697   43.461
  122.000   17.363    0.380    0.366  161.641   44.302
  122.250   17.361    0.383    0.365  162.058   46.314
  122.500   17.358    0.380    0.365  161.506   46.281
  122.750   17.356    0.379    0.364  160.947   46.238
  123.000   17.197    0.384    0.361  160.403   46.200
  123.250   17.195    0.386    0.357  160.332   47.622
  123.500   17.192    0.384    0.356  160.269   48.467
  123.750   17.189    0.379    0.359  160.685   48.722
  124.000   17.187    0.376    0.355  160.614   49.270
  124.250   17.184    0.380    0.340  161.055   50.101
  124.500   17.027    0.380    0.337  162.448   50.946
  124.750   17.025    0.376    0.339  162.872   52.656
  125.000   16.869    0.376    0.336  161.345   52.325
  125.250   16.715    0.372    0.352  160.793   53.468
  125.500   16.562    0.364    0.361  160.730   54.016
  125.750   16.411    0.367    0.355  160.643   51.625
  126.000   16.261    0.363    0.343  160.595   52.178
  126.250   15.967    0.364    0.326  160.524   55.068
  126.500   15.538    0.375    0.328  159.980   56.192
  126.750   15.120    0.372    0.339  159.405   58.214
  127.000   14.713    0.371    0.346  158.861   63.448
  127.250   14.188    0.379    0.346  157.333   59.890
  127.500   14.058    0.381    0.345  156.302   56.923
  127.750   14.184    0.382    0.341  155.742   57.467
  128.000   13.678    0.386    0.340  155.679   58.898
  128.250   13.310    0.383    0.337  155.599   61.788
  128.500   12.835    0.386    0.329  156.520   64.967
  128.750   12.833    0.381    0.331  157.441   66.101
  129.000   12.832    0.373    0.335  158.346   64.882
  129.250   12.600    0.367    0.337  159.251   63.389
  129.500   12.372    0.361    0.332  160.644   63.053
  129.750   12.149    0.351    0.326  161.573   68.585
  130.000   11.505    0.353    0.328  162.966   69.421
  130.250   10.701    0.359    0.331  164.351   69.671
  130.500    9.863    0.372    0.319  164.303   70.223
  130.750    8.928    0.393    0.296  164.728   73.407
  131.000    7.585    0.405    0.313  164.169   82.155
  131.250    6.929    0.405    0.330  164.113   92.661
  131.500    6.104    0.414    0.329  163.538   92.330
  131.750    5.426    0.435    0.320  163.971   86.434
  132.000    5.092    0.434    0.311  163.899   83.756
  132.250    4.736    0.419    0.306  163.836   84.010
  132.500    4.405    0.409    0.301  163.780   81.922
  132.750    4.567    0.412    0.315  163.709   81.005
  133.000    4.777    0.401    0.324  163.165   79.201
  133.250    4.953    0.401    0.323  163.094   77.410
  133.500    4.819    0.400    0.303  163.511   75.322
  133.750    4.284    0.405    0.293  164.920   78.794
  134.000    4.207    0.406    0.309  166.809   83.447
  134.250    4.646    0.398    0.325  167.234   81.056
  134.500    5.225    0.398    0.304  165.218   74.579
  134.750    6.038    0.379    0.259  163.682   66.043
  135.000    6.852    0.369    0.268  163.603   61.900
  135.250    8.209    0.369    0.299  164.043   56.590
  135.500   10.573    0.369    0.331  164.468   53.916
  135.750   13.134    0.370    0.335  164.389   50.944
  136.000   13.372    0.373    0.337  164.325   49.730
  136.250   11.887    0.379    0.334  164.758   52.332
