~VERSION INFORMATION
 VERS.                 2.0:   CWLS LOG ASCII STANDARD -VERSION 2.0
 WRAP.                  NO:   ONE LINE PER DEPTH STEP
~WELL INFORMATION BLOCK
#MNEM.UNIT           DATA                    DESCRIPTION OF MNEMONIC
#---------    -------------------            -------------------------------
# Generated from Intellog Unique Number	CS_77_79/WELL/5037
WELL.         MESA HB LEISMER                : Well_name    - WELL
LOC .         00/07-35-078-10W4/0            : Location     - LOCATION
UWI .         00/07-35-078-10W4/0            : Uwi          - UNIQUE WELL ID
ENTR.         JOE                            : Entered      - ENTERED BY
SRVC.         SCHLUMBERGER                   : Scn          - SERVICE COMPANY
STRT.M        231.648                        : top_depth    - START DEPTH
STOP.M        463.148                        : bot_depth    - STOP DEPTH
STEP.M        0.25                           : increment    - STEP LENGTH
 NULL. -999.2500:NULL Value
~CURVE INFORMATION BLOCK
#MNEM UNIT       ERCB CURVE CODE    CURVE DESCRIPTION
#-----------   ------------------   ----------------------------------
DEPT.M        00 001 00 00         : DEPTH        - DEPTH
RHOB.KG/M3    00 350 00 00         : DENS         - BULK DENSITY
GR  .API      00 310 00 00         : GR           - GAMMA RAY
DPHI.V/V      00 890 00 00         : PHID         - DENSITY POROSITY (SANDSTONE)
NPHI.V/V      00 330 00 00         : PHIN         - NEUTRON POROSITY (SANDSTONE)
ILD .OHMM     00 120 00 00         : RESD         - DEEP RESISTIVITY (DIL)
~PARAMETER INFORMATION
#MNEM.UNIT           DATA             DESCRIPTION OF MNEMONIC
#---------         -----------     ------------------------------
GL  .M        657.454              : gl           - GROUND LEVEL ELEVATION
EREF.M        661.416              : kb           - ELEVATION OF DEPTH REFERENCE
DATM.M        661.416              : datum        - DATUM ELEVATION
TDD .M        475.488              : tdd          - TOTAL DEPTH DRILLER
RUN .         ONE                  : Run          - RUN NUMBER
ENG .         BILL                 : Engineer     - RECORDING ENGINEER
WIT .         JIM                  : Witness      - WITNESSED BY
MUD .         GEL                  : Mud_type     - MUD TYPE
MATR.         SANDSTONE            : Logunit      - NEUTRON MATRIX
TMAX.C        23                   : BHT          - MAXIMUM RECORDED TEMPERATURE
BHTD.M        405                  : BHTDEP       - MAXIMUM RECORDED TEMPERATURE
MATR.         1                    : LOGUNIT      - NEUTRON MATRIX
RMT .C        25                   : MDTP         - TEMPERATURE OF MUD
NEUT.         1                    : NEUTRON      - NEUTRON TYPE
RESI.         0                    : RESIST       - RESISTIVITY TYPE
RMC .OHMM     0.25                 : RMC          - RESISTIVITY OF MUD CAKE
RMF .OHMM     0.25                 : RMF          - RESISTIVITY OF MUD FILTRATE
SUFT.C        15                   : SUFT         - SURFACE TEMPERATURE
~A  DEPTH     DENS       GR     PHID     PHIN     RESD
# ...
  341.148    0.000   90.234    0.224    0.450    6.620
  341.398    0.000   90.171    0.205    0.443    6.485
  341.648   -0.000   92.181    0.192    0.455    6.219
  341.898   -0.000   95.417    0.206    0.446    5.895
  342.148   -0.000   97.926    0.223    0.467    5.616
  342.398    0.000  100.013    0.233    0.478    5.375
  342.648    0.000   99.228    0.235    0.492    5.001
  342.898   -0.000   95.566    0.241    0.504    4.787
  343.148   -0.000   96.633    0.239    0.490    4.610
  343.398   -0.000   96.823    0.242    0.487    4.526
  343.648    0.000   94.434    0.241    0.507    4.528
  343.898    0.000   92.987    0.255    0.502    4.767
  344.148    0.000   94.674    0.233    0.489    4.902
  344.398   -0.000   97.744    0.216    0.478    4.834
  344.648   -0.000   98.641    0.220    0.483    4.736
  344.898   -0.000   99.360    0.234    0.501    4.552
  345.148    0.000  100.900    0.254    0.521    4.303
  345.398    0.000  102.676    0.252    0.533    4.127
  345.648    0.000  102.318    0.255    0.544    3.803
  345.898   -0.000  102.985    0.259    0.561    3.508
  346.148   -0.000  105.698    0.262    0.583    3.392
  346.398    0.000  105.430    0.287    0.569    3.354
  346.648    0.000  106.334    0.274    0.550    3.423
  346.898    0.000  108.491    0.250    0.542    3.548
  347.148   -0.000  105.285    0.268    0.528    3.725
  347.398   -0.000  102.679    0.251    0.541    3.935
  347.648   -0.000  101.703    0.238    0.525    4.144
  347.898    0.000   98.342    0.235    0.519    4.338
  348.148    0.000   94.206    0.223    0.540    4.527
  348.398    0.000   94.825    0.235    0.511    4.725
  348.648   -0.000   98.178    0.254    0.500    5.125
  348.898   -0.000   97.055    0.281    0.489    5.655
  349.148    0.000   90.112    0.273    0.473    6.238
  349.398    0.000   85.717    0.271    0.463    6.728
  349.648    0.000   87.376    0.259    0.458    7.047
  349.898   -0.000   88.820    0.243    0.445    7.370
  350.148   -0.000   88.843    0.230    0.442    7.674
  350.398   -0.000   88.803    0.230    0.453    8.003
  350.648    0.000   88.247    0.226    0.466    7.984
  350.898    0.000   89.248    0.211    0.431    8.008
  351.148    0.000   89.529    0.171    0.402    7.850
  351.398   -0.000   84.820    0.149    0.380    7.765
  351.648   -0.000   83.836    0.161    0.435    7.518
  351.898   -0.000   94.508    0.229    0.470    7.598
  352.148    0.000   95.999    0.224    0.482    7.999
  352.398    0.000   92.256    0.211    0.490    8.986
  352.648   -0.000   84.544    0.204    0.404    9.830
  352.898   -0.000   77.068    0.135    0.310   11.124
  353.148   -0.000   68.481    0.073    0.259   11.886
  353.398    0.000   61.775    0.015    0.224   11.511
  353.648    0.000   60.230    0.016    0.291   10.790
  353.898    0.000   69.549    0.057    0.328    9.620
  354.148   -0.000   80.245    0.135    0.410    8.394
  354.398   -0.000   90.977    0.196    0.467    7.285
  354.648   -0.000   98.406    0.217    0.462    6.617
  354.898    0.000  101.178    0.211    0.458    6.426
  355.148    0.000  101.261    0.199    0.463    6.405
  355.398   -0.000   97.147    0.193    0.466    6.411
  355.648   -0.000   93.590    0.217    0.445    6.418
  355.898   -0.000   98.481    0.236    0.436    6.432
  356.148    0.000  102.321    0.232    0.433    6.314
  356.398    0.000  103.936    0.200    0.449    6.461
  356.648    0.000  101.510    0.196    0.492    6.306
  356.898   -0.000   98.437    0.209    0.482    6.044
  357.148   -0.000   99.214    0.208    0.464    5.589
  357.398   -0.000  100.796    0.227    0.466    4.939
  357.648    0.000   99.399    0.255    0.485    3.939
  357.898    0.000  101.898    0.246    0.498    3.280
  358.148    0.000  101.457    0.255    0.526    2.716
  358.398   -0.000  101.191    0.236    0.551    2.308
  358.648   -0.000  103.215    0.249    0.561    2.162
  358.898    0.000  109.189    0.276    0.574    2.069
  359.148    0.000  110.016    0.281    0.581    2.178
  359.398    0.000  108.419    0.279    0.578    2.310
  359.648   -0.000  107.592    0.286    0.577    2.611
  359.898   -0.000  106.441    0.282    0.588    3.171
  360.148   -0.000  103.583    0.257    0.593    3.669
  360.398    0.000  100.451    0.255    0.554    4.214
  360.648    0.000   98.946    0.239    0.523    4.911
  360.898    0.000   95.613    0.240    0.490    5.480
  361.148   -0.000   95.055    0.255    0.468    6.133
  361.398   -0.000   94.647    0.254    0.450    6.544
  361.648    0.000   91.558    0.244    0.452    6.832
  361.898    0.000   90.001    0.252    0.471    6.850
  362.148    0.000   83.679    0.263    0.494    6.716
  362.398   -0.000   82.155    0.243    0.480    6.613
  362.648   -0.000   79.822    0.202    0.454    6.544
  362.898   -0.000   80.050    0.180    0.454    6.480
  363.148    0.000   87.392    0.189    0.463    6.383
  363.398    0.000   91.146    0.301    0.462    6.394
  363.648    0.000   92.377    0.286    0.447    6.405
  363.898   -0.000   92.567    0.267    0.448    6.630
  364.148   -0.000   90.705    0.254    0.453    6.687
  364.398   -0.000   88.104    0.258    0.456    6.913
  364.648    0.000   84.408    0.261    0.454    6.904
  364.898    0.000   87.485    0.252    0.444    7.075
  365.148   -0.000   90.593    0.240    0.437    6.941
  365.398   -0.000   92.586    0.235    0.444    6.815
  365.648   -0.000   95.772    0.236    0.433    6.657
  365.898    0.000   97.255    0.243    0.427    6.593
  366.148    0.000   97.728    0.248    0.418    6.323
  366.398    0.000  100.440    0.246    0.413    6.337
  366.648   -0.000   99.804    0.228    0.434    6.338
  366.898   -0.000   97.874    0.221    0.454    6.342
  367.148   -0.000   94.840    0.233    0.452    6.625
  367.398    0.000   90.818    0.256    0.430    6.792
  367.648    0.000   88.140    0.249    0.419    7.004
  367.898    0.000   87.228    0.243    0.424    7.149
  368.148   -0.000   90.026    0.229    0.436    7.146
  368.398   -0.000   89.300    0.221    0.447    7.125
  368.648    0.000   88.432    0.233    0.458    7.043
  368.898    0.000   90.500    0.247    0.449    6.903
  369.148    0.000   89.910    0.247    0.474    6.923
  369.398   -0.000   83.317    0.267    0.480    6.939
  369.648   -0.000   78.766    0.284    0.456    6.737
  369.898   -0.000   79.183    0.266    0.446    6.686
  370.148    0.000   81.912    0.265    0.434    6.484
  370.398    0.000   85.347    0.256    0.435    6.291
  370.648    0.000   91.728    0.234    0.454    6.238
  370.898   -0.000   94.552    0.258    0.449    6.242
  371.148   -0.000   94.685    0.234    0.464    6.242
  371.398    0.000   89.422    0.243    0.449    6.373
  371.648    0.000   82.563    0.256    0.455    6.307
  371.898    0.000   76.837    0.269    0.447    6.279
  372.148   -0.000   75.617    0.296    0.458    6.181
  372.398   -0.000   74.521    0.309    0.477    6.050
  372.648   -0.000   70.209    0.320    0.496    6.068
  372.898    0.000   69.348    0.324    0.495    5.978
  373.148    0.000   71.015    0.307    0.478    6.018
  373.398    0.000   75.770    0.294    0.474    6.081
  373.648   -0.000   75.277    0.303    0.467    6.080
  373.898   -0.000   73.604    0.312    0.462    6.255
  374.148   -0.000   72.701    0.321    0.464    6.451
  374.398    0.000   71.692    0.328    0.470    6.626
  374.648    0.000   71.673    0.311    0.472    7.138
  374.898   -0.000   75.652    0.300    0.463    7.613
  375.148   -0.000   74.578    0.286    0.471    8.092
  375.398   -0.000   71.186    0.255    0.473    8.567
  375.648    0.000   67.356    0.216    0.423    8.808
  375.898    0.000   60.144    0.174    0.355    9.513
  376.148    0.000   56.171    0.121    0.287    9.777
  376.398   -0.000   61.570    0.106    0.358    9.660
  376.648   -0.005   66.835    0.150    0.340    9.195
  376.898   -0.008   64.436    0.125    0.254    8.585
  377.148    0.319   62.539    0.057    0.234    8.144
  377.398    3.057   71.222    0.148    0.345    7.189
