~VERSION INFORMATION
 VERS.                 2.0:   CWLS LOG ASCII STANDARD -VERSION 2.0
 WRAP.                  NO:   ONE LINE PER DEPTH STEP
~WELL INFORMATION BLOCK
#MNEM.UNIT           DATA                    DESCRIPTION OF MNEMONIC
#---------    -------------------            -------------------------------
# Generated from Intellog Unique Number	CS_71_72/WELL/620
WELL.         SULPETRO BRENDA IPIATIK        : Well_name    - WELL
LOC .         00/03-04-072-09W4/0            : Location     - LOCATION
UWI .         00/03-04-072-09W4/0            : Uwi          - UNIQUE WELL ID
ENTR.         SP                             : Entered      - ENTERED BY
SRVC.         SCHLUMBERGER                   : Scn          - SERVICE COMPANY
STRT.M        305                            : top_depth    - START DEPTH
STOP.M        498.5                          : bot_depth    - STOP DEPTH
STEP.M        0.25                           : increment    - STEP LENGTH
 NULL. -999.2500:NULL Value
~CURVE INFORMATION BLOCK
#MNEM UNIT       ERCB CURVE CODE    CURVE DESCRIPTION
#-----------   ------------------   ----------------------------------
DEPT.M        00 001 00 00         : DEPTH        - DEPTH
ILD .OHMM     00 120 00 00         : RESD         - DEEP RESISTIVITY (DIL)
DPHI.V/V      00 890 00 00         : PHID         - DENSITY POROSITY (LIMESTONE)
NPHI.V/V      00 330 00 00         : PHIN         - NEUTRON POROSITY (LIMESTONE)
GR  .API      00 310 00 00         : GR           - GAMMA RAY
~PARAMETER INFORMATION
#MNEM.UNIT           DATA             DESCRIPTION OF MNEMONIC
#---------         -----------     ------------------------------
GL  .M        666.64               : gl           - GROUND LEVEL ELEVATION
EREF.M        670                  : kb           - ELEVATION OF DEPTH REFERENCE
DATM.M        666.64               : datum        - DATUM ELEVATION
TDD .M        508                  : tdd          - TOTAL DEPTH DRILLER
RUN .         ONE                  : Run          - RUN NUMBER
ENG .         BILL                 : Engineer     - RECORDING ENGINEER
WIT .         JIM                  : Witness      - WITNESSED BY
MUD .         GEL                  : Mud_type     - MUD TYPE
MATR.         LIMESTONE            : Logunit      - NEUTRON MATRIX
TMAX.C        20                   : BHT          - MAXIMUM RECORDED TEMPERATURE
BHTD.M        508                  : BHTDEP       - MAXIMUM RECORDED TEMPERATURE
MATR.         1                    : LOGUNIT      - NEUTRON MATRIX
RMT .C        25                   : MDTP         - TEMPERATURE OF MUD
NEUT.         1                    : NEUTRON      - NEUTRON TYPE
RESI.         0                    : RESIST       - RESISTIVITY TYPE
RMC .OHMM     0.25                 : RMC          - RESISTIVITY OF MUD CAKE
RMF .OHMM     0.25                 : RMF          - RESISTIVITY OF MUD FILTRATE
SUFT.C        15                   : SUFT         - SURFACE TEMPERATURE
~A  DEPTH     RESD     PHID     PHIN       GR
# ...
  348.500    8.823    0.192    0.396   94.947
  348.750    8.666    0.207    0.401   99.169
  349.000    8.509    0.226    0.420  101.584
  349.250    8.355    0.241    0.453  104.600
  349.500    7.906    0.251    0.475  106.409
  349.750    7.764    0.257    0.469  106.403
  350.000    7.626    0.257    0.460  103.978
  350.250    7.488    0.251    0.454  100.946
  350.500    7.493    0.244    0.454  100.939
  350.750    7.638    0.238    0.456  103.351
  351.000    7.641    0.244    0.462  102.741
  351.250    7.646    0.246    0.470  103.336
  351.500    7.649    0.234    0.478  105.750
  351.750    7.513    0.227    0.485  106.952
  352.000    7.516    0.226    0.491  106.947
  352.250    7.520    0.224    0.484  100.888
  352.500    7.524    0.231    0.477   97.253
  352.750    7.671    0.237    0.473  102.687
  353.000    7.673    0.234    0.458  105.101
  353.250    7.677    0.238    0.448  106.911
  353.500    7.401    0.225    0.436  109.924
  353.750    7.404    0.217    0.431  110.525
  354.000    7.549    0.214    0.430  109.307
  354.250    7.695    0.215    0.441  108.092
  354.500    7.699    0.226    0.442  105.663
  354.750    7.703    0.229    0.444  103.842
  355.000    7.706    0.219    0.462  102.628
  355.250    7.710    0.220    0.472   99.596
  355.500    7.858    0.214    0.483   96.566
  355.750    8.012    0.205    0.470   92.326
  356.000    8.167    0.205    0.465   89.295
  356.250    8.171    0.216    0.470   93.519
  356.500    8.327    0.225    0.475   95.328
  356.750    8.334    0.232    0.484   94.717
  357.000    8.183    0.238    0.490   97.730
  357.250    7.887    0.240    0.489  100.749
  357.500    6.927    0.221    0.483  104.373
  357.750    6.315    0.208    0.488  110.412
  358.000    5.757    0.207    0.492  113.432
  358.250    5.653    0.232    0.490  105.560
  358.500    5.762    0.251    0.476   96.478
  358.750    6.329    0.251    0.467   93.450
  359.000    7.349    0.262    0.458   86.790
  359.250    9.024    0.282    0.458   80.736
  359.500   10.879    0.289    0.461   75.890
  359.750   11.508    0.305    0.457   78.904
  360.000   12.405    0.292    0.465   81.319
  360.250   12.883    0.280    0.460   83.732
  360.500   13.130    0.267    0.459   85.539
  360.750   13.384    0.259    0.465   83.113
  361.000   13.143    0.254    0.454   83.102
  361.250   12.908    0.260    0.454   85.515
  361.500   12.677    0.261    0.466   86.719
  361.750   12.219    0.255    0.485   87.923
  362.000   11.780    0.241    0.491   89.727
  362.250   11.786    0.230    0.481   90.327
  362.500   11.792    0.227    0.465   90.925
  362.750   11.580    0.221    0.462   91.525
  363.000   10.958    0.219    0.459   89.704
  363.250   10.563    0.219    0.448   84.252
  363.500   10.181    0.231    0.445   81.827
  363.750    9.815    0.238    0.451   85.448
  364.000    9.638    0.244    0.447   86.650
  364.250    9.467    0.254    0.440   87.248
  364.500    9.471    0.260    0.430   86.637
  364.750   10.019    0.249    0.426   86.630
  365.000   10.600    0.243    0.424   89.646
  365.250   10.806    0.232    0.432   91.454
  365.500   11.016    0.228    0.435   90.841
  365.750   10.818    0.222    0.441   91.437
  366.000   10.624    0.220    0.442   92.639
  366.250   10.243    0.222    0.433   94.450
  366.500    9.871    0.220    0.428   98.071
  366.750    9.340    0.208    0.418   99.881
  367.000    8.676    0.201    0.426  102.896
  367.250    8.209    0.196    0.434  105.308
  367.500    7.913    0.200    0.445  104.092
  367.750    7.486    0.212    0.443   99.850
  368.000    7.215    0.220    0.437   96.215
  368.250    6.828    0.236    0.435   91.975
  368.500    6.832    0.247    0.450   87.734
  368.750    6.963    0.252    0.455   84.702
  369.000    7.230    0.260    0.447   81.065
  369.250    7.795    0.263    0.438   78.641
  369.500    8.094    0.241    0.429   74.399
  369.750    8.406    0.222    0.419   71.975
  370.000    8.568    0.216    0.414   76.805
  370.250    8.574    0.206    0.411   82.844
  370.500    8.577    0.205    0.416   85.863
  370.750    8.426    0.213    0.416   88.881
  371.000    8.430    0.221    0.415   92.503
  371.250    8.434    0.224    0.413   94.914
  371.500    8.282    0.231    0.414   94.907
  371.750    8.132    0.241    0.414   91.875
  372.000    8.137    0.250    0.416   90.055
  372.250    8.142    0.256    0.417   87.021
  372.500    8.145    0.259    0.420   84.595
  372.750    8.304    0.261    0.428   83.381
  373.000    8.464    0.263    0.430   81.561
  373.250    8.627    0.264    0.432   78.525
  373.500    9.128    0.263    0.427   77.312
  373.750    9.660    0.264    0.418   76.701
  374.000   10.030    0.276    0.403   77.299
  374.250   10.223    0.288    0.399   74.266
  374.500   11.441    0.310    0.402   70.024
  374.750   11.879    0.317    0.408   67.601
  375.000   12.566    0.328    0.422   65.174
  375.250   13.294    0.338    0.430   66.376
  375.500   14.332    0.326    0.436   66.369
  375.750   14.882    0.317    0.438   65.758
  376.000   15.746    0.321    0.437   65.147
  376.250   15.755    0.326    0.432   68.163
  376.500   15.474    0.316    0.433   70.575
  376.750   15.481    0.307    0.442   71.174
  377.000   15.203    0.304    0.445   67.537
  377.250   15.210    0.302    0.443   65.716
  377.500   15.220    0.304    0.436   63.288
  377.750   15.228    0.303    0.429   62.677
  378.000   15.236    0.303    0.425   62.669
  378.250   15.244    0.307    0.424   63.873
  378.500   15.252    0.314    0.429   65.077
  378.750   15.258    0.322    0.431   66.276
  379.000   14.983    0.327    0.432   66.271
  379.250   14.991    0.320    0.431   66.265
  379.500   15.004    0.314    0.424   65.049
  379.750   15.011    0.310    0.418   61.409
  380.000   15.015    0.308    0.414   59.591
  380.250   15.306    0.304    0.417   56.559
  380.500   15.315    0.303    0.419   55.343
  380.750   15.327    0.306    0.420   56.544
  381.000   15.049    0.313    0.420   58.353
  381.250   15.055    0.314    0.417   61.972
  381.500   15.062    0.314    0.415   62.574
  381.750   15.073    0.315    0.412   65.589
  382.000   14.802    0.309    0.414   68.001
  382.250   14.807    0.298    0.423   70.414
  382.500   14.547    0.294    0.431   71.013
  382.750   14.554    0.303    0.431   67.978
  383.000   14.560    0.309    0.430   67.367
  383.250   14.298    0.314    0.430   66.757
  383.500   14.306    0.320    0.428   66.751
  383.750   14.049    0.324    0.425   66.137
  384.000   14.055    0.313    0.424   66.133
  384.250   14.062    0.303    0.424   67.335
  384.500   14.073    0.311    0.425   67.931
  384.750   14.080    0.319    0.427   68.526
  385.000   14.085    0.320    0.428   68.522
  385.250   13.836    0.323    0.429   68.512
  385.500   13.840    0.320    0.430   68.507
  385.750   13.848    0.313    0.431   68.503
  386.000   13.854    0.312    0.427   67.286
  386.250   13.863    0.313    0.422   65.463
  386.500   13.870    0.313    0.421   66.061
  386.750   13.877    0.305    0.425   66.055
  387.000   14.413    0.300    0.435   62.418
  387.250   14.689    0.308    0.431   60.597
  387.500   14.703    0.313    0.424   62.404
  387.750   14.986    0.312    0.416   63.605
  388.000   14.991    0.317    0.406   64.205
  388.250   15.282    0.324    0.412   64.198
  388.500   15.287    0.329    0.417   62.372
  388.750   15.587    0.319    0.421   61.763
  389.000   15.594    0.316    0.424   61.151
  389.250   15.603    0.317    0.426   61.144
  389.500   15.611    0.319    0.421   61.140
  389.750   15.617    0.319    0.413   62.946
  390.000   15.337    0.318    0.424   65.357
  390.250   15.346    0.317    0.432   66.561
  390.500   15.071    0.316    0.440   66.554
  390.750   15.078    0.313    0.430   65.943
  391.000   15.086    0.307    0.423   64.726
  391.250   14.814    0.306    0.418   65.929
  391.500   14.820    0.309    0.416   67.733
  391.750   14.557    0.313    0.420   67.730
