~VERSION INFORMATION
 VERS.                 2.0:   CWLS LOG ASCII STANDARD -VERSION 2.0
 WRAP.                  NO:   ONE LINE PER DEPTH STEP
~WELL INFORMATION BLOCK
#MNEM.UNIT           DATA                    DESCRIPTION OF MNEMONIC
#---------    -------------------            -------------------------------
# Generated from Intellog Unique Number	CW_82_90/WELL/3433
WELL.         TEXEX WOODEN                   : Well_name    - WELL
LOC .         00/07-35-088-24W4/0            : Location     - LOCATION
UWI .         00/07-35-088-24W4/0            : Uwi          - UNIQUE WELL ID
ENTR.         MAX                            : Entered      - ENTERED BY
SRVC.         SCHLUMBERGER                   : Scn          - SERVICE COMPANY
STRT.M        60.96                          : top_depth    - START DEPTH
STOP.M        304.71                         : bot_depth    - STOP DEPTH
STEP.M        0.25                           : increment    - STEP LENGTH
 NULL. -999.2500:NULL Value
~CURVE INFORMATION BLOCK
#MNEM UNIT       ERCB CURVE CODE    CURVE DESCRIPTION
#-----------   ------------------   ----------------------------------
DEPT.M        00 001 00 00         : DEPTH        - DEPTH
ILD .OHMM     00 120 00 00         : RESD         - DEEP RESISTIVITY (DIL)
NPHI.V/V      00 330 00 00         : PHIN         - NEUTRON POROSITY (SANDSTONE)
DPHI.V/V      00 890 00 00         : PHID         - DENSITY POROSITY (SANDSTONE)
CALI.MM       00 280 01 00         : CAL          - CALIPER
GR  .API      00 310 00 00         : GR           - GAMMA RAY
~PARAMETER INFORMATION
#MNEM.UNIT           DATA             DESCRIPTION OF MNEMONIC
#---------         -----------     ------------------------------
GL  .M        524.866              : gl           - GROUND LEVEL ELEVATION
EREF.M        527.914              : kb           - ELEVATION OF DEPTH REFERENCE
DATM.M        524.866              : datum        - DATUM ELEVATION
TDD .M        304.495              : tdd          - TOTAL DEPTH DRILLER
RUN .         ONE                  : Run          - RUN NUMBER
ENG .         BILL                 : Engineer     - RECORDING ENGINEER
WIT .         JIM                  : Witness      - WITNESSED BY
MUD .         GEL                  : Mud_type     - MUD TYPE
MATR.         SANDSTONE            : Logunit      - NEUTRON MATRIX
TMAX.C        14.4444              : BHT          - MAXIMUM RECORDED TEMPERATURE
BHTD.M        304.495              : BHTDEP       - MAXIMUM RECORDED TEMPERATURE
MATR.         1                    : LOGUNIT      - NEUTRON MATRIX
RMT .C        6.66667              : MDTP         - TEMPERATURE OF MUD
NEUT.         1                    : NEUTRON      - NEUTRON TYPE
RESI.         0                    : RESIST       - RESISTIVITY TYPE
RMC .OHMM     4.24                 : RMC          - RESISTIVITY OF MUD CAKE
RMF .OHMM     4.24                 : RMF          - RESISTIVITY OF MUD FILTRATE
SUFT.C        -23.3333             : SUFT         - SURFACE TEMPERATURE
~A  DEPTH     RESD     PHIN     PHID      CAL       GR
# ...
   97.460    7.106    0.450    0.193  247.762   85.340
   97.710    6.790    0.459    0.195  247.734   88.151
   97.960    6.315    0.468    0.198  247.703   88.759
   98.210    5.980    0.457    0.215  247.676   87.486
   98.460    5.871    0.463    0.232  247.651   86.528
   98.710    6.305    0.471    0.234  248.149   85.256
   98.960    7.476    0.473    0.230  248.121   81.786
   99.210    9.355    0.466    0.233  248.628   76.118
   99.460   13.517    0.460    0.241  252.847   62.599
   99.710   18.014    0.432    0.258  256.545   23.962
   99.960   23.366    0.415    0.279  265.024   16.096
  100.210   30.310    0.428    0.301  280.946   11.681
  100.460   33.743    0.440    0.338  304.311   11.352
  100.710   34.335    0.463    0.323  334.588   11.650
  100.960   34.319    0.505    0.317  372.309   11.630
  101.210   34.301    0.570    0.297  372.813   11.299
  101.460   33.971    0.584    0.322  372.785   11.283
  101.710   33.348    0.599    0.372  372.751   10.953
  101.960   32.737    0.601    0.412  372.726   10.934
  102.210   32.718    0.597    0.491  372.699   10.920
  102.460   33.296    0.587    0.532  372.668   11.532
  102.710   33.579    0.560    0.543  373.703   15.595
  102.960   33.256    0.530    0.502  374.208   16.521
  103.210   32.354    0.471    0.397  315.694   14.934
  103.460   32.050    0.590    0.377  283.231   12.404
  103.710   33.206    0.596    0.573  332.648   13.012
  103.960   32.303    0.502    0.586  357.081   15.509
  104.210   30.315    0.462    0.510  374.063   18.633
  104.460   28.451    0.469    0.448  354.364   19.554
  104.710   28.954    0.473    0.409  258.630   18.598
  104.960   29.462    0.436    0.357  252.223   16.698
  105.210   29.183    0.412    0.333  248.998   13.226
  105.460   28.135    0.391    0.289  249.506   11.642
  105.710   26.883    0.408    0.267  257.453   11.940
  105.960   25.687    0.440    0.281  276.565   14.117
  106.210   24.545    0.474    0.293  303.121   17.870
  106.460   23.454    0.510    0.333  324.359   16.912
  106.710   23.023    0.506    0.357  331.775   15.954
  106.960   23.853    0.489    0.361  354.074   17.506
  107.210   24.938    0.493    0.322  334.906   16.233
  107.460   26.069    0.502    0.303  333.284   14.331
  107.710   27.497    0.490    0.309  350.269   13.373
  107.960   28.748    0.495    0.320  360.875   15.864
  108.210   29.255    0.520    0.322  371.477   15.534
  108.460   28.974    0.532    0.347  374.101   15.208
  108.710   28.699    0.542    0.401  374.080   18.015
  108.960   28.684    0.524    0.475  374.584   21.451
  109.210   28.410    0.477    0.522  267.154   22.064
  109.460   28.143    0.419    0.438  243.202   20.476
  109.710   28.380    0.391    0.284  236.788   16.692
  109.960   28.623    0.379    0.289  241.548   15.732
  110.210   28.865    0.404    0.315  258.534   16.657
  110.460   28.334    0.418    0.309  281.899   16.955
  110.710   27.319    0.430    0.295  298.353   17.567
  110.960   26.104    0.445    0.306  304.174   18.174
  111.210   24.720    0.460    0.333  292.978   18.786
  111.460   24.265    0.473    0.330  263.177   19.712
  111.710   23.819    0.472    0.307  258.354   20.637
  111.960   23.595    0.465    0.289  259.390   21.875
  112.210   22.953    0.463    0.293  259.366   23.114
  112.460   22.532    0.465    0.313  256.677   24.354
  112.710   22.118    0.485    0.304  260.906   24.968
  112.960   21.134    0.492    0.339  273.638   25.891
  113.210   20.560    0.471    0.433  285.307   31.840
  113.460   19.825    0.445    0.406  260.288   37.162
  113.710   17.471    0.431    0.344  240.589   41.223
  113.960   15.960    0.422    0.294  224.605   43.722
  114.210   15.387    0.420    0.266  219.260   45.900
  114.460   14.834    0.421    0.248  216.043   46.824
  114.710   14.434    0.428    0.278  216.547   47.749
  114.960   13.545    0.423    0.261  217.051   49.307
  115.210   12.712    0.411    0.249  219.146   52.740
  115.460   11.930    0.399    0.233  222.305   57.435
  115.710   10.997    0.404    0.219  226.531   63.699
  115.960   10.794    0.413    0.207  231.288   69.648
  116.210   10.986    0.405    0.233  234.979   70.573
  116.460   10.783    0.396    0.260  231.233   62.706
  116.710   10.030    0.382    0.256  225.889   58.292
  116.960    9.162    0.385    0.247  223.196   61.415
  117.210    8.294    0.398    0.230  224.764   65.478
  117.460    7.646    0.406    0.216  229.521   68.290
  117.710    7.048    0.419    0.203  234.282   72.041
  117.960    6.381    0.436    0.209  238.504   77.049
  118.210    5.934    0.448    0.194  236.881   81.740
  118.460    5.826    0.457    0.176  236.850   84.863
  118.710    5.719    0.454    0.173  236.826   83.591
  118.960    5.767    0.438    0.215  236.792   82.319
  119.210    5.869    0.423    0.194  236.761   81.671
  119.460    5.972    0.427    0.214  236.736   83.852
  119.710    6.077    0.456    0.200  236.709   83.838
  119.960    6.129    0.453    0.185  236.674   82.250
  120.210    6.125    0.442    0.178  236.654   81.917
  120.460    5.959    0.429    0.179  236.623   81.589
  120.710    5.902    0.424    0.170  236.060   81.571
  120.960    5.846    0.435    0.176  235.504   81.240
  121.210    5.738    0.468    0.216  235.473   82.476
  121.460    5.684    0.464    0.199  234.910   83.406
  121.710    5.580    0.446    0.181  234.348   85.269
  121.960    5.380    0.445    0.193  233.795   85.565
  122.210    5.187    0.457    0.188  233.229   86.178
  122.460    4.957    0.470    0.180  232.666   87.732
  122.710    4.652    0.469    0.215  232.110   91.479
  122.960    4.405    0.470    0.202  232.086   93.349
  123.210    4.324    0.470    0.183  232.048   90.823
  123.460    4.283    0.479    0.170  231.493   87.979
  123.710    4.358    0.478    0.151  228.807   86.077
  123.960    4.435    0.487    0.136  226.652   83.237
  124.210    4.513    0.485    0.097  227.156   79.763
  124.460    4.551    0.481    0.063  230.315   82.574
  124.710    4.549    0.472    0.203  231.348   89.151
  124.960    4.386    0.456    0.219  232.380   88.507
  125.210    3.971    0.458    0.210  232.887   85.035
  125.460    3.437    0.498    0.199  234.455   84.077
  125.710    3.139    0.552    0.245  234.959   81.546
  125.960    2.817    0.545    0.274  233.864   80.274
  126.210    2.765    0.537    0.284  233.302   78.374
  126.460    2.788    0.526    0.297  233.806   73.646
  126.710    2.915    0.538    0.285  235.377   70.176
  126.960    3.075    0.545    0.337  238.007   65.450
  127.210    3.129    0.537    0.284  239.036   62.606
  127.460    3.100    0.534    0.225  236.882   62.902
  127.710    3.016    0.522    0.229  235.256   65.399
  127.960    2.881    0.546    0.117  234.168   66.953
  128.210    2.753    0.563    0.236  233.609   67.249
  128.460    2.776    0.546    0.252  233.050   67.860
  128.710    2.955    0.535    0.249  231.956   67.530
  128.960    3.350    0.538    0.246  231.389   63.430
  129.210    4.192    0.524    0.229  230.837   56.192
  129.460    5.245    0.499    0.220  229.211   49.895
  129.710    7.246    0.467    0.261  227.588   42.971
  129.960   10.951    0.423    0.286  223.839   36.047
  130.210   12.752    0.406    0.270  219.558   29.435
  130.460   12.746    0.391    0.259  216.341   25.337
  130.710   12.738    0.405    0.247  215.775   21.235
  130.960   12.505    0.416    0.241  216.810   19.021
  131.210   12.386    0.397    0.248  217.843   18.693
  131.460   12.380    0.389    0.267  219.413   18.047
  131.710   12.484    0.373    0.274  222.044   17.714
  131.960   12.704    0.360    0.267  224.143   17.698
  132.210   12.696    0.357    0.256  225.179   18.308
  132.460   12.577    0.357    0.257  225.148   18.289
  132.710   12.684    0.358    0.266  225.117   18.277
  132.960   12.676    0.354    0.276  222.959   18.261
  133.210   12.668    0.361    0.279  219.741   17.929
  133.460   12.776    0.371    0.264  217.056   16.340
  133.710   12.885    0.382    0.279  215.436   16.950
