~VERSION INFORMATION
 VERS.                 2.0:   CWLS LOG ASCII STANDARD -VERSION 2.0
 WRAP.                  NO:   ONE LINE PER DEPTH STEP
~WELL INFORMATION BLOCK
#MNEM.UNIT           DATA                    DESCRIPTION OF MNEMONIC
#---------    -------------------            -------------------------------
# Generated from Intellog Unique Number	CW_73_75/WELL/194
WELL.         WESTCOAST MARTEN H 07-29       : Well_name    - WELL
LOC .         00/07-29-073-23W4/0            : Location     - LOCATION
UWI .         00/07-29-073-23W4/0            : Uwi          - UNIQUE WELL ID
ENTR.         JJ                             : Entered      - ENTERED BY
SRVC.         WESTERN ATLAS                  : Scn          - SERVICE COMPANY
DATE.         21 MAR 71                      : Date         - LOG DATE
STRT.M        475.488                        : top_depth    - START DEPTH
STOP.M        603.488                        : bot_depth    - STOP DEPTH
STEP.M        0.25                           : increment    - STEP LENGTH
 NULL. -999.2500:NULL Value
~CURVE INFORMATION BLOCK
#MNEM UNIT       ERCB CURVE CODE    CURVE DESCRIPTION
#-----------   ------------------   ----------------------------------
DEPT.M        00 001 00 00         : DEPTH        - DEPTH
DELT.US/F     00 520 00 00         : DELT         - SONIC TRAVEL TIME
GR  .API      00 310 00 00         : GR           - GAMMA RAY
ILD .OHMM     00 120 00 00         : RESD         - DEEP RESISTIVITY (DIL)
~PARAMETER INFORMATION
#MNEM.UNIT           DATA             DESCRIPTION OF MNEMONIC
#---------         -----------     ------------------------------
GL  .M        659.282              : gl           - GROUND LEVEL ELEVATION
EREF.M        661.721              : kb           - ELEVATION OF DEPTH REFERENCE
DATM.M        659.282              : datum        - DATUM ELEVATION
TDD .M        605.028              : tdd          - TOTAL DEPTH DRILLER
RUN .         ONE                  : Run          - RUN NUMBER
ENG .         BERGLIND             : Engineer     - RECORDING ENGINEER
WIT .         PEDERSON             : Witness      - WITNESSED BY
BASE.         EDM                  : Branch       - HOME BASE OF LOGGING UNIT
MUD .         MUD                  : Mud_type     - MUD TYPE
MATR.         SANDSTONE            : Logunit      - NEUTRON MATRIX
TMAX.C        23.3333              : BHT          - MAXIMUM RECORDED TEMPERATURE
BHTD.M        605.028              : BHTDEP       - MAXIMUM RECORDED TEMPERATURE
RMT .C        16.6667              : MDTP         - TEMPERATURE OF MUD
MUDD.KG/M     1224                 : MWT          - MUD DENSITY
NEUT.         1                    : NEUTRON      - NEUTRON TYPE
RESI.         0                    : RESIST       - RESISTIVITY TYPE
RM  .OHMM     5.5                  : RM           - RESISTIVITY OF MUD
RMC .OHMM     5.8                  : RMC          - RESISTIVITY OF MUD CAKE
RMF .OHMM     5                    : RMF          - RESISTIVITY OF MUD FILTRATE
SUFT.C        5                    : SUFT         - SURFACE TEMPERATURE
~A  DEPTH     DELT       GR     RESD
  475.488  364.802   57.550    7.696
  475.738  363.786   59.231    7.778
  475.988  362.059   61.215    7.820
  476.238  356.852   60.600    8.019
  476.488  352.638   59.736    8.451
  476.738  346.846   58.872    8.884
  476.988  354.412   59.824    8.028
  477.238  366.111   62.746    6.937
  477.488  369.879   64.331    7.487
  477.738  399.914   66.954    8.506
  477.988  399.887   70.509    9.291
  478.238  308.488   71.905   10.153
  478.488  282.458   66.522   10.898
  478.738  338.363   60.110    9.026
  478.988  380.646   65.824    7.701
  479.238  383.959   70.462    7.353
  479.488  388.121   69.943    7.591
  479.738  376.368   67.360    7.516
  479.988  364.684   64.678    7.557
  480.238  351.488   61.555    7.795
  480.488  350.802   64.423    8.657
  480.738  362.891   63.709    9.833
  480.988  372.032   64.413   10.461
  481.238  378.819   66.889   10.894
  481.488  380.232   64.356   10.546
  481.738  305.470   59.073    9.650
  481.988  283.500   61.009    8.286
  482.238  376.936   71.584    6.609
  482.488  401.076   77.396    5.948
  482.738  406.155   79.478    5.561
  482.988  419.094   86.273    5.329
  483.238  426.863   79.716    4.980
  483.488  428.076   80.965    4.515
  483.738  430.343   84.617    4.245
  483.988  436.988   84.144    4.599
  484.238  440.700   85.833    4.994
  484.488  390.430   86.297    5.387
  484.738  389.945   84.057    5.663
  484.988  393.648   80.299    5.940
  485.238  391.195   82.430    6.060
  485.488  387.239   81.074    6.103
  485.738  384.846   77.020    6.028
  485.988  387.903   77.579    5.952
  486.238  391.996   78.680    5.956
  486.488  391.974   77.028    5.959
  486.738  391.086   75.233    5.962
  486.988  391.195   73.830    6.004
  487.238  391.954   71.739    6.046
  487.488  393.495   71.316    6.088
  487.738  399.360   71.481    6.130
  487.988  396.451   70.324    6.251
  488.238  391.838   70.198    6.215
  488.488  402.877   65.797    6.101
  488.738  408.811   60.859    6.104
  488.988  401.312   60.143    6.029
  489.238  397.814   63.600    5.915
  489.488  396.082   64.897    5.840
  489.738  390.095   65.997    5.843
  489.988  389.412   67.243    5.885
  490.238  394.879   69.180    5.888
  490.488  405.662   73.029    5.891
  490.738  423.779   73.687    5.894
  490.988  416.218   70.517    5.781
  491.238  406.296   65.478    5.706
  491.488  403.848   60.587    5.591
  491.738  401.917   66.698    5.439
  491.988  404.115   64.360    5.363
  492.238  408.412   61.042    5.328
  492.488  405.367   63.662    5.331
  492.738  405.539   65.204    5.373
  492.988  400.795   65.965    5.415
  493.238  395.717   66.472    5.497
  493.488  391.630   68.408    5.539
  493.738  387.150   67.888    5.619
  493.988  388.363   65.156    5.779
  494.238  404.058   63.166    5.938
  494.488  428.198   64.460    6.020
  494.738  424.566   62.173    5.945
  494.988  414.518   60.332    5.792
  495.238  416.314   61.231    5.678
  495.488  414.787   62.969    5.603
  495.738  405.062   65.149    5.567
  495.988  402.873   63.502    5.530
  496.238  407.231   64.944    5.534
  496.488  410.805   66.535    5.537
  496.738  410.908   67.978    5.540
  496.988  406.883   71.926    5.544
  497.238  403.846   73.075    5.547
  497.488  401.128   69.265    5.589
  497.738  398.283   65.652    5.670
  497.988  394.656   66.362    5.751
  498.238  392.001   69.867    5.832
  498.488  389.221   73.274    5.992
  498.738  386.246   72.166    6.151
  498.988  383.014   70.466    6.467
  499.238  373.227   70.145    7.798
  499.488  366.977   70.606    8.582
  499.738  372.973   71.556    9.601
  499.988  381.324   73.933    8.390
  500.238  382.805   66.785   10.332
  500.488  344.067   60.128   11.602
  500.738  291.250   53.618   18.350
  500.988  241.440   53.443   20.017
  501.238  237.287   54.740   20.027
  501.488  230.511   55.204   19.683
  501.738  250.789   55.419   18.945
  501.988  402.912   56.221   20.793
  502.238  378.254   57.026   39.031
  502.488  368.140   55.036   53.700
  502.738  339.359   51.373   60.837
  502.988  299.442   47.072   46.167
  503.238  263.193   49.893   31.101
  503.488  244.760   53.691   17.093
  503.738  239.097   58.916   14.347
  503.988  337.971   62.911   11.798
  504.238  362.243   67.792   10.824
  504.488  291.345   67.029   10.008
  504.738  267.607   68.376    9.074
  504.988  282.708   69.671    8.179
  505.238  347.980   70.034    7.679
  505.488  375.723   69.515    7.534
  505.738  371.302   69.041    7.467
  505.988  366.356   70.144    7.475
  506.238  362.599   72.079    6.949
  506.488  363.618   74.355    6.912
  506.738  373.352   77.172    6.915
  506.988  373.652   74.249    6.918
  507.238  372.303   73.139    6.921
  507.488  371.695   76.006    6.885
  507.738  370.814   79.216    6.810
  507.988  365.218   78.746    6.774
  508.238  368.794   79.358    6.739
  508.488  368.763   81.828    6.741
  508.738  368.606   81.561    6.784
  508.988  374.271   80.348    6.904
  509.238  373.453   77.372    7.064
  509.488  372.316   77.146    7.302
  509.738  375.234   81.683    7.461
  509.988  374.286   80.920    7.502
  510.238  371.906   80.055    7.545
  510.488  366.762   83.561    7.470
  510.738  366.541   85.740    7.395
  510.988  368.611   83.992    7.398
  511.238  388.165   83.718    7.479
  511.488  366.915   88.991    7.560
  511.738  365.576   84.200    7.681
  511.988  363.514   80.243    7.802
  512.238  359.034   80.756    7.921
  512.488  355.796   82.935    8.081
  512.738  357.861   84.038    8.280
  512.988  359.797   84.548    8.400
  513.238  360.362   84.567    8.559
  513.488  358.887   84.340    8.718
  513.738  357.947   83.918    8.878
  513.988  356.867   80.993    8.960
  514.238  357.104   79.049    8.962
  514.488  358.518   80.785    8.809
  514.738  356.191   80.907    8.539
  514.988  352.107   81.418    8.385
  515.238  347.294   85.804    8.154
  515.488  345.170   84.157    8.118
  515.738  350.316   83.095    8.278
  515.988  357.558   82.673    8.789
  516.238  355.096   81.077    9.495
  516.488  351.800   80.012   10.123
  516.738  346.078   77.823   10.321
  516.988  279.371   73.719    9.699
  517.238  244.105   66.571    9.039
  517.488  337.606   78.913    8.299
  517.738  382.179   88.704    7.756
  517.988  384.841   88.727    7.134
  518.238  388.217   85.803    6.668
  518.488  381.702   84.594    6.477
  518.738  375.646   89.374    6.479
  518.988  374.307   86.993    6.522
  519.238  378.932   85.245    6.564
  519.488  387.748   84.428    6.606
  519.738  389.026   83.369    6.648
  519.988  387.036   82.110    6.651
  520.238  382.997   81.785    6.693
  520.488  381.871   82.592    6.735
  520.738  379.087   83.888    6.738
  520.988  377.876   84.399    6.780
  521.238  377.917   88.689    6.784
  521.488  377.888   81.885    6.787
  521.738  378.584   81.904    6.829
  521.988  380.771   81.974    6.871
  522.238  382.578   82.098    6.875
  522.488  384.649   81.673    6.956
  522.738  388.094   81.592    6.998
  522.988  392.390   83.331    7.118
  523.238  385.877   86.691    7.199
  523.488  382.048   84.111    7.281
  523.738  389.551   84.816    7.362
  523.988  393.520   84.981    7.404
  524.238  386.811   84.755    7.485
  524.488  381.147   81.976    7.528
  524.738  377.912   80.577    7.609
  524.988  376.569   80.397    7.651
  525.238  376.800   78.502    7.616
  525.488  375.338   81.862    7.462
  525.738  367.844   84.780    7.231
  525.988  374.493   85.928    7.039
  526.238  376.628   88.204    6.964
  526.488  372.401   89.305    6.927
  526.738  371.463   85.791    6.931
  526.988  371.759   85.174    6.933
  527.238  374.353   84.603    7.015
  527.488  370.657   84.969    6.940
  527.738  370.040   85.186    6.983
  527.988  391.429   85.645    8.079
  528.238  384.850   87.480   10.465
  528.488  363.994   83.525   11.679
  528.738  304.099   68.765   11.253
  528.988  272.957   64.220    9.302
  529.238  271.882   66.105    7.587
  529.488  341.609   69.761    7.043
