~VERSION INFORMATION
 VERS.                 2.0:   CWLS LOG ASCII STANDARD -VERSION 2.0
 WRAP.                  NO:   ONE LINE PER DEPTH STEP
~WELL INFORMATION BLOCK
#MNEM.UNIT           DATA                    DESCRIPTION OF MNEMONIC
#---------    -------------------            -------------------------------
# Generated from Intellog Unique Number	CW_82_90/WELL/591
WELL.         07-11-082-20W4                 : Well_name    - WELL
LOC .         00/07-11-082-20W4/0            : Location     - LOCATION
UWI .         00/07-11-082-20W4/0            : Uwi          - UNIQUE WELL ID
ENTR.         JAYE                           : Entered      - ENTERED BY
SRVC.         SCHLUMBERGER                   : Scn          - SERVICE COMPANY
DATE.         07 FEB 77                      : Date         - LOG DATE
STRT.M        182.88                         : top_depth    - START DEPTH
STOP.M        373.13                         : bot_depth    - STOP DEPTH
STEP.M        0.25                           : increment    - STEP LENGTH
 NULL. -999.2500:NULL Value
~CURVE INFORMATION BLOCK
#MNEM UNIT       ERCB CURVE CODE    CURVE DESCRIPTION
#-----------   ------------------   ----------------------------------
DEPT.M        00 001 00 00         : DEPTH        - DEPTH
CALI.MM       00 280 01 00         : CAL          - CALIPER
GR  .API      00 310 00 00         : GR           - GAMMA RAY
NPHI.V/V      00 330 00 00         : PHIN         - NEUTRON POROSITY (SANDSTONE)
DPHI.V/V      00 890 00 00         : PHID         - DENSITY POROSITY (SANDSTONE)
ILD .OHMM     00 120 00 00         : RESD         - DEEP RESISTIVITY (DIL)
~PARAMETER INFORMATION
#MNEM.UNIT           DATA             DESCRIPTION OF MNEMONIC
#---------         -----------     ------------------------------
GL  .M        572.719              : gl           - GROUND LEVEL ELEVATION
EREF.M        581.863              : kb           - ELEVATION OF DEPTH REFERENCE
DATM.M        572.719              : datum        - DATUM ELEVATION
TDD .M        384.048              : tdd          - TOTAL DEPTH DRILLER
RUN .         ONE                  : Run          - RUN NUMBER
ENG .         CERANTOIA            : Engineer     - RECORDING ENGINEER
WIT .         GRAHAM               : Witness      - WITNESSED BY
BASE.         EDMONTON             : Branch       - HOME BASE OF LOGGING UNIT
MUD .         GEL CHEM             : Mud_type     - MUD TYPE
MATR.         SANDSTONE            : Logunit      - NEUTRON MATRIX
TMAX.C        24.4444              : BHT          - MAXIMUM RECORDED TEMPERATURE
BHTD.M        375.514              : BHTDEP       - MAXIMUM RECORDED TEMPERATURE
RMT .C        24.4444              : MDTP         - TEMPERATURE OF MUD
MUDD.KG/M     0                    : MWT          - MUD DENSITY
NEUT.         1                    : NEUTRON      - NEUTRON TYPE
RESI.         0                    : RESIST       - RESISTIVITY TYPE
RM  .OHMM     5                    : RM           - RESISTIVITY OF MUD
RMC .OHMM     5                    : RMC          - RESISTIVITY OF MUD CAKE
RMF .OHMM     5                    : RMF          - RESISTIVITY OF MUD FILTRATE
SUFT.C        4                    : SUFT         - SURFACE TEMPERATURE
~A  DEPTH      CAL       GR     PHIN     PHID     RESD
# ...
  255.880  143.090   38.408    0.262    0.186   14.533
  256.130  143.027   42.435    0.278    0.212   15.559
  256.380  142.962   48.670    0.302    0.247   15.408
  256.630  143.020   56.081    0.342    0.303   14.956
  256.880  143.190   60.041    0.487    0.305   13.970
  257.130  143.248   60.074    0.487    0.292   12.380
  257.380  143.100   60.182    0.487    0.297   10.870
  257.630  142.800   59.595    0.500    0.335    9.668
  257.880  142.049   54.528    0.504    0.344    8.692
  258.130  141.059   51.876    0.504    0.340    7.929
  258.380  140.188   49.086    0.496    0.334    7.585
  258.630  139.316   45.331    0.501    0.334    7.538
  258.880  137.750   37.786    0.509    0.345    7.657
  259.130  135.959   29.416    0.515    0.342    8.035
  259.380  136.366   22.629    0.513    0.347    8.328
  259.630  137.815   21.017    0.494    0.339    8.726
  259.880  139.277   21.665    0.486    0.345    9.276
  260.130  139.916   23.076    0.488    0.347   10.041
  260.380  139.631   25.799    0.506    0.347   10.871
  260.630  138.175   26.730    0.503    0.346   11.768
  260.880  135.911   27.039    0.498    0.337   12.532
  261.130  137.716   25.012    0.482    0.330   12.754
  261.380  140.105   25.943    0.472    0.324   12.511
  261.630  139.821   26.454    0.472    0.324   12.324
  261.880  138.943   24.219    0.475    0.325   12.293
  262.130  138.072   22.597    0.467    0.320   12.463
  262.380  137.793   22.014    0.482    0.331   12.522
  262.630  137.526   20.744    0.476    0.330   12.582
  262.880  137.573   20.223    0.469    0.318   12.524
  263.130  137.623   18.326    0.471    0.327   12.427
  263.380  137.683   16.503    0.489    0.319   12.236
  263.630  137.623   16.398    0.494    0.309   12.406
  263.880  137.586   18.855    0.493    0.314   12.535
  264.130  137.892   20.617    0.497    0.316   12.776
  264.380  137.928   20.638    0.493    0.321   12.838
  264.630  138.122   21.222    0.497    0.328   12.876
  264.880  138.541   21.394    0.495    0.332   12.913
  265.130  138.683   23.016    0.488    0.327   12.994
  265.380  139.340   23.807    0.495    0.333   13.080
  265.630  139.849   25.842    0.517    0.332   13.072
  265.880  140.507   28.013    0.506    0.323   13.133
  266.130  140.788   30.322    0.488    0.317   13.243
  266.380  141.448   34.764    0.469    0.301   13.355
  266.630  141.739   37.973    0.473    0.298   13.415
  266.880  142.137   37.590    0.475    0.302   13.408
  267.130  142.075   40.803    0.467    0.325   13.399
  267.380  142.264   45.446    0.471    0.327   13.316
  267.630  142.352   51.336    0.480    0.317   13.016
  267.880  142.487   56.678    0.478    0.305   12.406
  268.130  142.790   59.885    0.483    0.292   11.360
  268.380  143.086   62.603    0.494    0.274   10.177
  268.630  143.597   66.634    0.504    0.260    9.151
  268.880  146.724   72.804    0.502    0.275    8.228
  269.130  147.783   80.556    0.511    0.268    7.211
  269.380  159.683   88.926    0.528    0.236    6.229
  269.630  171.003   93.167    0.565    0.269    5.480
  269.880  176.288   90.304    0.568    0.273    4.699
  270.130  170.432   84.829    0.566    0.298    4.096
  270.380  171.298   80.801    0.592    0.347    3.610
  270.630  167.309   79.177    0.608    0.375    3.222
  270.880  163.185   78.528    0.601    0.395    2.907
  271.130  147.800   81.727    0.586    0.420    2.812
  271.380  149.023   84.728    0.558    0.394    2.841
  271.630  148.850   80.765    0.542    0.370    2.987
  271.880  142.177   78.873    0.504    0.345    3.396
  272.130  139.219   79.802    0.482    0.286    4.072
  272.380  137.675   73.775    0.484    0.264    4.758
  272.630  137.484   68.501    0.495    0.265    5.642
  272.880  136.637   62.264    0.492    0.308    6.606
  273.130  136.572   60.509    0.492    0.314    8.137
  273.380  136.295   61.388    0.490    0.303    9.372
  273.630  136.120   61.750    0.485    0.310   10.313
  273.880  136.054   59.923    0.483    0.313   10.343
  274.130  136.223   58.723    0.490    0.313   10.129
  274.380  135.931   59.995    0.490    0.288   10.050
  274.630  135.421   61.273    0.484    0.295    9.987
  274.880  135.473   60.552    0.482    0.300    9.980
  275.130  136.344   61.407    0.488    0.287    9.988
  275.380  137.127   66.886    0.500    0.280   10.073
  275.630  137.632   65.338    0.499    0.283   10.214
  275.880  137.930   63.167    0.482    0.273   10.449
  276.130  138.676   66.369    0.467    0.274   10.575
  276.380  140.831   71.227    0.468    0.274   10.626
  276.630  142.977   79.737    0.478    0.263   10.426
  276.880  143.860   80.735    0.489    0.255   10.139
  277.130  143.912   77.399    0.489    0.253    9.470
  277.380  143.746   76.743    0.482    0.253    8.912
  277.630  143.804   81.185    0.469    0.255    8.371
  277.880  143.419   86.320    0.465    0.245    7.920
  278.130  143.579   89.388    0.494    0.237    7.451
  278.380  143.636   89.973    0.493    0.231    7.194
  278.630  144.054   89.463    0.481    0.240    6.918
  278.880  144.338   87.493    0.471    0.249    6.727
  279.130  144.053   88.490    0.473    0.240    6.540
  279.380  143.994   92.039    0.485    0.243    6.407
  279.630  144.526   94.899    0.476    0.235    6.402
  279.880  144.600   95.074    0.473    0.224    6.527
  280.130  144.875   94.555    0.477    0.226    6.605
  280.380  145.631   92.386    0.476    0.239    6.820
  280.630  146.401   93.112    0.479    0.242    7.104
  280.880  147.373   93.075    0.488    0.234    7.178
  281.130  149.060   90.010    0.500    0.237    7.121
  281.380  150.526   90.042    0.505    0.221    7.014
  281.630  151.274   91.183    0.503    0.218    6.844
  281.880  150.872   87.013    0.496    0.235    6.703
  282.130  148.024   79.537    0.488    0.250    6.553
  282.380  145.311   72.198    0.481    0.243    6.466
  282.630  143.630   66.585    0.477    0.236    6.403
  282.880  142.985   62.690    0.475    0.284    6.433
  283.130  142.927   61.553    0.476    0.280    6.582
  283.380  143.221   65.933    0.474    0.283    6.842
  283.630  143.399   72.235    0.477    0.274    6.852
  283.880  143.939   77.713    0.478    0.252    6.885
  284.130  144.336   78.022    0.475    0.228    6.956
  284.380  145.437   79.576    0.462    0.249    6.913
  284.630  146.207   83.606    0.453    0.251    6.945
  284.880  147.300   87.362    0.452    0.238    6.953
  285.130  148.288   87.123    0.455    0.230    7.706
  285.380  149.278   85.918    0.503    0.213    8.016
  285.630  149.700   89.950    0.536    0.205    7.500
  285.880  149.751   91.637    0.540    0.224    7.020
  286.130  146.963   88.705    0.528    0.341    6.221
  286.380  146.152   82.957    0.524    0.363    4.826
  286.630  179.645   75.546    0.579    0.339    4.744
  286.880  226.141   75.583    0.575    0.321    4.741
  287.130  205.888   79.406    0.598    0.306    4.461
  287.380  150.112   82.058    0.587    0.298    3.629
  287.630  141.597   76.380    0.570    0.288    3.263
  287.880  140.712   67.107    0.536    0.282    3.400
  288.130  140.671   64.250    0.520    0.272    3.783
  288.380  140.602   64.695    0.515    0.262    4.626
  288.630  140.907   63.630    0.517    0.259    5.337
  288.880  140.847   68.834    0.525    0.267    6.114
  289.130  141.365   72.728    0.526    0.264    6.876
  289.380  141.892   72.208    0.519    0.273    6.997
  289.630  142.764   70.244    0.500    0.279    6.803
  289.880  142.834   66.696    0.493    0.279    6.543
  290.130  142.775   68.867    0.474    0.272    6.467
  290.380  142.257   71.865    0.471    0.269    6.497
  290.630  141.159   74.242    0.491    0.278    6.577
  290.880  140.873   78.280    0.512    0.277    6.631
  291.130  140.691   79.276    0.529    0.274    6.614
  291.380  140.050   77.455    0.530    0.266    6.478
  291.630  140.806   78.658    0.522    0.283    6.287
  291.880  145.280   80.687    0.508    0.273    6.181
  292.130  148.365   79.070    0.506    0.252    6.120
