~VERSION INFORMATION
 VERS.                 2.0:   CWLS LOG ASCII STANDARD -VERSION 2.0
 WRAP.                  NO:   ONE LINE PER DEPTH STEP
~WELL INFORMATION BLOCK
#MNEM.UNIT           DATA                    DESCRIPTION OF MNEMONIC
#---------    -------------------            -------------------------------
# Generated from Intellog Unique Number	CS_77_79/WELL/910
WELL.         BOW VALLEY EXPLORATION         : Well_name    - WELL
LOC .         00/07-28-077-14W4/0            : Location     - LOCATION
UWI .         00/07-28-077-14W4/0            : Uwi          - UNIQUE WELL ID
ENTR.         SP                             : Entered      - ENTERED BY
SRVC.         SCHLUMBERGER                   : Scn          - SERVICE COMPANY
STRT.M        275                            : top_depth    - START DEPTH
STOP.M        535                            : bot_depth    - STOP DEPTH
STEP.M        0.25                           : increment    - STEP LENGTH
 NULL. -999.2500:NULL Value
~CURVE INFORMATION BLOCK
#MNEM UNIT       ERCB CURVE CODE    CURVE DESCRIPTION
#-----------   ------------------   ----------------------------------
DEPT.M        00 001 00 00         : DEPTH        - DEPTH
ILD .OHMM     00 120 00 00         : RESD         - DEEP RESISTIVITY (DIL)
DPHI.V/V      00 890 00 00         : PHID         - DENSITY POROSITY (LIMESTONE)
NPHI.V/V      00 330 00 00         : PHIN         - NEUTRON POROSITY (LIMESTONE)
GR  .API      00 310 00 00         : GR           - GAMMA RAY
~PARAMETER INFORMATION
#MNEM.UNIT           DATA             DESCRIPTION OF MNEMONIC
#---------         -----------     ------------------------------
GL  .M        674.43               : gl           - GROUND LEVEL ELEVATION
EREF.M        677.88               : kb           - ELEVATION OF DEPTH REFERENCE
DATM.M        674.43               : datum        - DATUM ELEVATION
TDD .M        544                  : tdd          - TOTAL DEPTH DRILLER
RUN .         ONE                  : Run          - RUN NUMBER
ENG .         BILL                 : Engineer     - RECORDING ENGINEER
WIT .         JIM                  : Witness      - WITNESSED BY
MUD .         GEL                  : Mud_type     - MUD TYPE
MATR.         LIMESTONE            : Logunit      - NEUTRON MATRIX
TMAX.C        25                   : BHT          - MAXIMUM RECORDED TEMPERATURE
BHTD.M        544                  : BHTDEP       - MAXIMUM RECORDED TEMPERATURE
MATR.         1                    : LOGUNIT      - NEUTRON MATRIX
RMT .C        25                   : MDTP         - TEMPERATURE OF MUD
NEUT.         1                    : NEUTRON      - NEUTRON TYPE
RESI.         0                    : RESIST       - RESISTIVITY TYPE
RMC .OHMM     0.25                 : RMC          - RESISTIVITY OF MUD CAKE
RMF .OHMM     0.25                 : RMF          - RESISTIVITY OF MUD FILTRATE
SUFT.C        15                   : SUFT         - SURFACE TEMPERATURE
~A  DEPTH     RESD     PHID     PHIN       GR
# ...
  405.500    6.137    0.305    0.487   82.677
  405.750    6.257    0.304    0.483   82.692
  406.000    6.378    0.312    0.457   81.484
  406.250    6.752    0.323    0.436   79.662
  406.500    6.883    0.326    0.428   76.614
  406.750    7.150    0.320    0.440   69.282
  407.000    7.291    0.323    0.448   65.621
  407.250    7.295    0.347    0.450   60.742
  407.500    7.297    0.365    0.440   57.082
  407.750    7.302    0.370    0.424   53.423
  408.000    7.306    0.369    0.425   55.277
  408.250    7.311    0.366    0.431   54.679
  408.500    7.455    0.360    0.430   53.472
  408.750    7.458    0.357    0.429   54.095
  409.000    7.604    0.352    0.432   55.337
  409.250    7.608    0.349    0.431   54.128
  409.500    7.613    0.349    0.424   53.531
  409.750    7.617    0.352    0.421   56.611
  410.000    7.620    0.362    0.420   58.462
  410.250    7.626    0.366    0.412   56.025
  410.500    7.774    0.366    0.410   54.205
  410.750    7.776    0.362    0.423   54.218
  411.000    7.783    0.358    0.428   59.133
  411.250    7.934    0.353    0.434   62.209
  411.500    7.938    0.355    0.438   60.388
  411.750    7.945    0.356    0.426   57.955
  412.000    7.949    0.347    0.407   57.970
  412.250    7.953    0.337    0.401   59.209
  412.500    7.959    0.328    0.423   59.222
  412.750    7.524    0.335    0.431   58.630
  413.000    7.389    0.339    0.424   58.641
  413.250    7.534    0.335    0.419   58.660
  413.500    7.538    0.332    0.416   58.673
  413.750    7.542    0.336    0.427   58.085
  414.000    7.546    0.335    0.422   58.099
  414.250    7.411    0.333    0.416   58.108
  414.500    7.413    0.335    0.421   57.514
  414.750    7.419    0.336    0.429   57.523
  415.000    7.563    0.343    0.433   56.322
  415.250    7.568    0.348    0.412   55.718
  415.500    7.571    0.347    0.424   53.899
  415.750    7.576    0.343    0.427   54.528
  416.000    7.724    0.339    0.417   55.767
  416.250    7.874    0.346    0.413   58.233
  416.500    9.329    0.352    0.399   59.471
  416.750   10.846    0.353    0.385   60.094
  417.000   12.610    0.350    0.364   59.498
  417.250   13.351    0.334    0.370   57.065
  417.500   13.108    0.295    0.367   53.405
  417.750   12.396    0.041    0.190   50.364
  418.000   11.083    0.034    0.170   50.376
  418.250    9.723    0.048    0.259   51.615
  418.500    8.693    0.126    0.350   54.698
  418.750    7.772    0.243    0.419   57.160
  419.000    7.350    0.340    0.431   57.786
  419.250    7.218    0.348    0.432   54.737
  419.500    7.221    0.348    0.432   55.977
  419.750    7.092    0.350    0.431   58.442
  420.000    7.095    0.350    0.429   58.457
  420.250    6.968    0.349    0.428   57.249
  420.500    6.971    0.354    0.426   58.487
  420.750    6.975    0.363    0.424   57.277
  421.000    7.113    0.365    0.427   57.297
  421.250    7.116    0.358    0.443   57.923
  421.500    7.119    0.355    0.448   60.389
  421.750    6.990    0.352    0.443   61.012
  422.000    6.995    0.356    0.438   56.131
  422.250    6.868    0.363    0.447   54.309
  422.500    6.872    0.367    0.443   56.166
  422.750    6.877    0.366    0.453   56.788
  423.000    6.879    0.367    0.456   55.580
  423.250    6.883    0.373    0.449   54.983
  423.500    6.888    0.373    0.437   56.221
  423.750    7.157    0.369    0.435   59.916
  424.000    7.295    0.354    0.444   59.925
  424.250    7.579    0.363    0.453   57.493
  424.500    8.022    0.373    0.453   58.123
  424.750    8.332    0.375    0.443   58.748
  425.000    9.158    0.375    0.443   58.763
  425.250    9.878    0.353    0.440   56.332
  425.500   10.261    0.305    0.398   53.895
  425.750   10.461    0.303    0.353   52.078
  426.000   10.081    0.330    0.386   52.091
  426.250    9.537    0.362    0.417   53.940
  426.500    9.191    0.376    0.477   54.570
  426.750    8.856    0.342    0.442   52.748
  427.000    8.695    0.312    0.380   53.986
  427.250    8.072    0.337    0.415   55.842
  427.500    7.634    0.355    0.408   58.922
  427.750    7.220    0.358    0.410   60.155
  428.000    7.091    0.353    0.428   62.010
  428.250    6.963    0.351    0.436   62.638
  428.500    6.966    0.349    0.434   57.139
  428.750    6.970    0.349    0.436   55.321
  429.000    6.972    0.354    0.424   55.945
  429.250    6.977    0.359    0.416   55.964
  429.500    7.115    0.359    0.420   56.591
  429.750    7.117    0.359    0.426   57.831
  430.000    7.122    0.352    0.421   56.618
  430.250    7.127    0.350    0.420   54.798
  430.500    6.997    0.348    0.419   55.427
  430.750    7.002    0.349    0.421   56.054
  431.000    7.005    0.351    0.435   56.681
  431.250    7.010    0.354    0.444   55.478
  431.500    7.012    0.356    0.447   54.875
  431.750    7.017    0.355    0.436   53.664
  432.000    7.020    0.349    0.433   55.517
  432.250    7.025    0.347    0.433   57.984
  432.500    7.029    0.352    0.425   59.223
  432.750    6.901    0.349    0.431   60.462
  433.000    6.905    0.341    0.434   58.642
  433.250    6.909    0.339    0.418   57.429
  433.500    6.915    0.347    0.412   60.508
  433.750    6.918    0.347    0.407   60.525
  434.000    6.921    0.335    0.404   59.938
  434.250    6.927    0.330    0.402   60.563
  434.500    6.930    0.334    0.402   60.570
  434.750    7.064    0.331    0.408   58.751
  435.000    7.069    0.331    0.407   58.151
  435.250    7.072    0.342    0.402   60.007
  435.500    7.209    0.351    0.416   60.631
  435.750    7.216    0.349    0.435   58.810
  436.000    7.218    0.342    0.422   56.990
  436.250    7.222    0.338    0.408   55.777
  436.500    7.226    0.337    0.423   56.409
  436.750    7.367    0.333    0.416   58.872
  437.000    7.372    0.328    0.431   60.112
  437.250    7.238    0.327    0.450   58.898
  437.500    7.243    0.325    0.434   55.854
  437.750    7.246    0.323    0.420   54.643
  438.000    7.117    0.332    0.426   57.725
  438.250    7.120    0.332    0.431   57.125
  438.500    6.992    0.331    0.414   55.304
  438.750    6.997    0.332    0.418   55.933
  439.000    6.999    0.334    0.441   59.013
  439.250    7.004    0.347    0.454   60.246
  439.500    6.877    0.355    0.434   59.650
  439.750    6.753    0.360    0.426   59.664
  440.000    6.756    0.350    0.429   64.584
  440.250    6.634    0.308    0.434   66.429
  440.500    6.515    0.294    0.425   68.282
  440.750    6.279    0.301    0.419   72.588
  441.000    6.282    0.302    0.431   73.822
  441.250    6.169    0.289    0.432   78.738
  441.500    6.057    0.276    0.425   83.654
  441.750    5.948    0.262    0.425   84.278
  442.000    5.951    0.280    0.435   83.069
  442.250    6.183    0.285    0.449   85.536
  442.500    6.422    0.297    0.441   87.999
  442.750    6.672    0.282    0.438   88.012
  443.000    6.932    0.261    0.447   84.968
  443.250    6.935    0.279    0.431   83.760
  443.500    6.939    0.281    0.425   83.161
  443.750    6.814    0.274    0.433   79.503
  444.000    6.691    0.261    0.427   77.680
  444.250    7.216    0.243    0.442   76.471
  444.500    7.783    0.220    0.451   74.038
  444.750    8.716    0.121    0.450   67.318
  445.000    9.402    0.061    0.207   58.147
  445.250    9.406    0.012    0.205   45.918
  445.500    9.065    0.023    0.267   45.320
  445.750    8.104    0.157    0.327   60.031
  446.000    7.521    0.229    0.365   74.127
  446.250    7.114    0.229    0.429   81.490
  446.500    6.988    0.233    0.439   81.505
  446.750    6.992    0.239    0.438   80.300
  447.000    7.127    0.239    0.455   83.374
  447.250    7.265    0.236    0.452   84.613
  447.500    7.547    0.235    0.465   85.244
  447.750    7.694    0.234    0.465   86.483
  448.000    7.996    0.238    0.450   88.951
  448.250    8.306    0.233    0.434   89.572
  448.500    8.468    0.228    0.430   83.466
  448.750    8.632    0.223    0.435   84.705
