~VERSION INFORMATION
 VERS.                 2.0:   CWLS LOG ASCII STANDARD -VERSION 2.0
 WRAP.                  NO:   ONE LINE PER DEPTH STEP
~WELL INFORMATION BLOCK
#MNEM.UNIT           DATA                    DESCRIPTION OF MNEMONIC
#---------    -------------------            -------------------------------
# Generated from Intellog Unique Number	CS_71_72/WELL/771
WELL.         BVX ET AL CALL                 : Well_name    - WELL
LOC .         00/06-19-071-17W4/0            : Location     - LOCATION
UWI .         00/06-19-071-17W4/0            : Uwi          - UNIQUE WELL ID
ENTR.         SP                             : Entered      - ENTERED BY
SRVC.         SCHLUMBERGER                   : Scn          - SERVICE COMPANY
STRT.M        289.56                         : top_depth    - START DEPTH
STOP.M        469.06                         : bot_depth    - STOP DEPTH
STEP.M        0.25                           : increment    - STEP LENGTH
 NULL. -999.2500:NULL Value
~CURVE INFORMATION BLOCK
#MNEM UNIT       ERCB CURVE CODE    CURVE DESCRIPTION
#-----------   ------------------   ----------------------------------
DEPT.M        00 001 00 00         : DEPTH        - DEPTH
GR  .API      00 310 00 00         : GR           - GAMMA RAY
DPHI.V/V      00 890 00 00         : PHID         - DENSITY POROSITY (SANDSTONE)
NPHI.V/V      00 330 00 00         : PHIN         - NEUTRON POROSITY (SANDSTONE)
ILD .OHMM     00 120 00 00         : RESD         - DEEP RESISTIVITY (DIL)
~PARAMETER INFORMATION
#MNEM.UNIT           DATA             DESCRIPTION OF MNEMONIC
#---------         -----------     ------------------------------
GL  .M        588.569              : gl           - GROUND LEVEL ELEVATION
EREF.M        591.617              : kb           - ELEVATION OF DEPTH REFERENCE
DATM.M        588.569              : datum        - DATUM ELEVATION
TDD .M        487.68               : tdd          - TOTAL DEPTH DRILLER
RUN .         ONE                  : Run          - RUN NUMBER
ENG .         BILL                 : Engineer     - RECORDING ENGINEER
WIT .         JIM                  : Witness      - WITNESSED BY
MUD .         GEL                  : Mud_type     - MUD TYPE
MATR.         SANDSTONE            : Logunit      - NEUTRON MATRIX
TMAX.C        25.5556              : BHT          - MAXIMUM RECORDED TEMPERATURE
BHTD.M        487.68               : BHTDEP       - MAXIMUM RECORDED TEMPERATURE
MATR.         1                    : LOGUNIT      - NEUTRON MATRIX
RMT .C        25                   : MDTP         - TEMPERATURE OF MUD
NEUT.         1                    : NEUTRON      - NEUTRON TYPE
RESI.         0                    : RESIST       - RESISTIVITY TYPE
RMC .OHMM     0.25                 : RMC          - RESISTIVITY OF MUD CAKE
RMF .OHMM     0.25                 : RMF          - RESISTIVITY OF MUD FILTRATE
SUFT.C        15                   : SUFT         - SURFACE TEMPERATURE
~A  DEPTH       GR     PHID     PHIN     RESD
  289.560   96.906    0.205    0.554    3.088
  289.810   91.898    0.193    0.547    3.095
  290.060   87.418    0.141    0.509    3.107
  290.310   84.913    0.096    0.488    3.210
  290.560   95.772    0.136    0.502    3.339
  290.810   97.434    0.180    0.508    3.068
  291.060   92.914    0.191    0.523    2.904
  291.310   90.766    0.212    0.548    2.791
  291.560   91.927    0.229    0.553    2.772
  291.810   94.110    0.240    0.538    2.852
  292.060   95.100    0.245    0.520    2.982
  292.310   97.911    0.253    0.463    3.042
  292.560  101.150    0.270    0.474    3.147
  292.810   99.117    0.284    0.486    3.164
  293.060   94.013    0.294    0.469    3.079
  293.310   94.168    0.307    0.455    3.016
  293.560   95.733    0.326    0.460    2.866
  293.810   93.593    0.341    0.474    2.729
  294.060   90.142    0.351    0.482    2.817
  294.310   91.744    0.341    0.470    3.148
  294.560   92.613    0.352    0.484    3.466
  294.810   82.169    0.376    0.502    4.082
  295.060   71.044    0.402    0.521    4.713
  295.310   60.353    0.437    0.542    5.275
  295.560   51.665    0.450    0.565    5.313
  295.810   52.411    0.472    0.565    4.864
  296.060   56.159    0.414    0.542    4.490
  296.310   59.499    0.308    0.518    4.162
  296.560   62.922    0.291    0.450    3.872
  296.810   65.323    0.299    0.412    3.700
  297.060   64.268    0.297    0.403    3.512
  297.310   58.606    0.299    0.399    3.373
  297.560   55.269    0.302    0.427    3.440
  297.810   54.636    0.321    0.422    3.538
  298.060   62.710    0.317    0.438    3.692
  298.310   70.115    0.302    0.455    3.901
  298.560   75.806    0.294    0.450    4.127
  298.810   81.593    0.292    0.435    4.339
  299.060   87.740    0.299    0.422    4.526
  299.310   92.066    0.289    0.425    4.609
  299.560   93.001    0.275    0.439    4.593
  299.810   89.001    0.263    0.443    4.839
  300.060   90.360    0.269    0.418    4.928
  300.310   94.368    0.273    0.406    4.924
  300.560   95.337    0.284    0.401    5.077
  300.810   96.444    0.276    0.393    4.977
  301.060  100.277    0.256    0.395    4.976
  301.310  103.067    0.238    0.405    5.001
  301.560  104.114    0.216    0.414    5.086
  301.810   97.499    0.222    0.420    5.234
  302.060   89.349    0.211    0.416    5.453
  302.310   86.920    0.237    0.416    5.765
  302.560   83.395    0.247    0.418    5.848
  302.810   79.255    0.229    0.394    5.498
  303.060   74.205    0.212    0.367    5.126
  303.310   68.267    0.199    0.339    4.880
  303.560   62.353    0.215    0.344    4.727
  303.810   57.301    0.239    0.354    4.562
  304.060   52.478    0.256    0.367    4.467
  304.310   53.354    0.274    0.366    4.422
  304.560   56.491    0.251    0.357    4.393
  304.810   55.143    0.228    0.356    4.492
  305.060   59.696    0.198    0.366    4.528
  305.310   67.457    0.224    0.378    4.360
  305.560   76.994    0.252    0.380    4.311
  305.810   88.821    0.275    0.379    4.317
  306.060   93.999    0.330    0.579    4.319
  306.310   97.775    0.406    0.578    4.257
  306.560   98.227    0.416    0.574    4.048
  306.810  101.323    0.378    0.578    3.826
  307.060  104.319    0.353    0.561    3.647
  307.310  106.048    0.302    0.562    3.487
  307.560  108.689    0.286    0.580    3.390
  307.810  108.266    0.307    0.584    3.413
  308.060  105.127    0.339    0.591    3.414
  308.310  101.768    0.351    0.597    3.377
  308.560  102.017    0.309    0.597    3.228
  308.810  107.141    0.241    0.596    2.973
  309.060  110.076    0.189    0.591    2.887
  309.310  106.357    0.204    0.592    3.012
  309.560  106.779    0.213    0.581    3.605
  309.810  108.348    0.206    0.542    4.068
  310.060  108.240    0.336    0.481    4.414
  310.310  106.368    0.317    0.454    4.689
  310.560  100.907    0.275    0.440    4.955
  310.810  105.190    0.247    0.446    5.232
  311.060  105.087    0.246    0.440    5.309
  311.310   98.788    0.235    0.441    5.218
  311.560   94.118    0.237    0.457    5.287
  311.810   90.070    0.238    0.485    5.623
  312.060   88.699    0.280    0.530    5.461
  312.310   90.143    0.303    0.515    5.227
  312.560   93.928    0.206    0.510    5.251
  312.810   96.328    0.181    0.529    5.122
  313.060   96.972    0.214    0.554    4.776
  313.310   94.381    0.253    0.581    4.596
  313.560   89.074    0.252    0.581    4.561
  313.810   76.386    0.275    0.539    4.638
  314.060   73.116    0.303    0.505    4.719
  314.310   71.408    0.296    0.484    4.828
  314.560   70.934    0.277    0.466    4.951
  314.810   73.374    0.272    0.461    5.012
  315.060   74.264    0.294    0.458    5.082
  315.310   70.755    0.293    0.448    5.095
  315.560   68.854    0.270    0.462    5.178
  315.810   70.191    0.261    0.483    5.244
  316.060   73.329    0.272    0.506    5.284
  316.310   78.330    0.274    0.523    5.335
  316.560   81.421    0.280    0.516    5.411
  316.810   81.775    0.293    0.508    5.490
  317.060   84.143    0.285    0.506    5.618
  317.310   84.982    0.278    0.490    5.895
  317.560   81.706    0.265    0.460    6.068
  317.810   86.058    0.254    0.440    6.229
  318.060   92.643    0.242    0.421    6.240
  318.310   96.372    0.233    0.416    6.169
  318.560   99.678    0.242    0.451    6.054
  318.810  100.279    0.243    0.446    5.936
  319.060  100.225    0.224    0.432    5.729
  319.310  102.541    0.216    0.451    5.509
  319.560  102.763    0.241    0.464    5.366
  319.810  106.794    0.213    0.482    5.390
  320.060  110.113    0.230    0.504    5.524
  320.310  109.653    0.253    0.482    5.755
  320.560  114.782    0.252    0.464    5.904
  320.810  119.928    0.239    0.462    5.942
  321.060  121.513    0.235    0.479    5.882
  321.310  111.075    0.252    0.510    5.637
  321.560  100.965    0.267    0.504    5.664
  321.810   97.295    0.308    0.462    5.760
  322.060   97.999    0.272    0.432    5.964
  322.310  101.506    0.230    0.417    6.117
  322.560  104.535    0.212    0.411    5.956
  322.810  105.177    0.208    0.415    5.363
  323.060  105.090    0.199    0.435    4.827
  323.310  108.151    0.184    0.485    4.407
  323.560  112.431    0.175    0.535    4.079
  323.810  115.139    0.208    0.561    3.814
  324.060  114.866    0.229    0.571    3.736
  324.310  104.321    0.248    0.536    3.899
  324.560   97.113    0.266    0.541    4.249
  324.810   91.769    0.265    0.550    4.630
  325.060   86.899    0.251    0.535    4.993
  325.310   82.406    0.240    0.519    5.241
  325.560   78.008    0.226    0.496    5.375
  325.810   78.629    0.202    0.506    5.335
  326.060   79.130    0.227    0.514    5.266
  326.310   76.947    0.277    0.497    5.126
  326.560   77.160    0.267    0.490    5.020
  326.810   78.847    0.289    0.481    4.955
  327.060   80.977    0.304    0.491    4.990
  327.310   82.905    0.293    0.475    5.039
  327.560   87.020    0.287    0.465    5.160
  327.810   89.047    0.237    0.468    5.259
  328.060   87.322    0.262    0.483    5.498
  328.310   82.262    0.288    0.549    5.747
  328.560   77.056    0.302    0.507    6.065
  328.810   73.070    0.311    0.472    6.392
  329.060   73.320    0.291    0.455    6.559
  329.310   74.940    0.294    0.473    6.604
  329.560   79.532    0.271    0.481    6.460
  329.810   84.659    0.221    0.391    6.242
  330.060   86.648    0.203    0.376    6.059
  330.310   85.735    0.230    0.401    5.874
  330.560   81.429    0.241    0.450    5.705
  330.810   76.841    0.233    0.498    5.585
  331.060   71.251    0.225    0.503    5.508
  331.310   65.458    0.216    0.519    5.512
  331.560   62.225    0.275    0.488    5.525
  331.810   59.382    0.320    0.471    5.554
  332.060   62.641    0.321    0.471    5.649
  332.310   65.672    0.312    0.488    5.788
  332.560   68.986    0.303    0.484    5.928
  332.810   72.216    0.289    0.478    5.894
