~VERSION INFORMATION
 VERS.                 2.0:   CWLS LOG ASCII STANDARD -VERSION 2.0
 WRAP.                  NO:   ONE LINE PER DEPTH STEP
~WELL INFORMATION BLOCK
#MNEM.UNIT           DATA                    DESCRIPTION OF MNEMONIC
#---------    -------------------            -------------------------------
# Generated from Intellog Unique Number	CC_80_83/WELL/2485
WELL.         UNEX ET AL BOHN                : Well_name    - WELL
LOC .         00/06-30-081-07W4/0            : Location     - LOCATION
UWI .         00/06-30-081-07W4/0            : Uwi          - UNIQUE WELL ID
ENTR.         TIM                            : Entered      - ENTERED BY
SRVC.         SCHLUMBERGER                   : Scn          - SERVICE COMPANY
STRT.M        250                            : top_depth    - START DEPTH
STOP.M        490                            : bot_depth    - STOP DEPTH
STEP.M        0.25                           : increment    - STEP LENGTH
 NULL. -999.2500:NULL Value
~CURVE INFORMATION BLOCK
#MNEM UNIT       ERCB CURVE CODE    CURVE DESCRIPTION
#-----------   ------------------   ----------------------------------
DEPT.M        00 001 00 00         : DEPTH        - DEPTH
NPHI.V/V      00 330 00 00         : PHIN         - NEUTRON POROSITY (SANDSTONE)
DPHI.V/V      00 890 00 00         : PHID         - DENSITY POROSITY (SANDSTONE)
ILD .OHMM     00 120 00 00         : RESD         - DEEP RESISTIVITY (DIL)
GR  .API      00 310 00 00         : GR           - GAMMA RAY
~PARAMETER INFORMATION
#MNEM.UNIT           DATA             DESCRIPTION OF MNEMONIC
#---------         -----------     ------------------------------
GL  .M        704                  : gl           - GROUND LEVEL ELEVATION
EREF.M        707.9                : kb           - ELEVATION OF DEPTH REFERENCE
DATM.M        707.9                : datum        - DATUM ELEVATION
TDD .M        498                  : tdd          - TOTAL DEPTH DRILLER
RUN .         ONE                  : Run          - RUN NUMBER
ENG .         BILL                 : Engineer     - RECORDING ENGINEER
WIT .         JIM                  : Witness      - WITNESSED BY
MUD .         GEL                  : Mud_type     - MUD TYPE
MATR.         SANDSTONE            : Logunit      - NEUTRON MATRIX
TMAX.C        29                   : BHT          - MAXIMUM RECORDED TEMPERATURE
BHTD.M        498                  : BHTDEP       - MAXIMUM RECORDED TEMPERATURE
MATR.         1                    : LOGUNIT      - NEUTRON MATRIX
RMT .C        25                   : MDTP         - TEMPERATURE OF MUD
NEUT.         1                    : NEUTRON      - NEUTRON TYPE
RESI.         4                    : RESIST       - RESISTIVITY TYPE
RMC .OHMM     3.5                  : RMC          - RESISTIVITY OF MUD CAKE
RMF .OHMM     4.4                  : RMF          - RESISTIVITY OF MUD FILTRATE
SUFT.C        15                   : SUFT         - SURFACE TEMPERATURE
~A  DEPTH     PHIN     PHID     RESD       GR
# ...
  380.500    0.402    0.287   14.043   63.852
  380.750    0.404    0.273   14.079   65.652
  381.000    0.399    0.271   14.370   68.052
  381.250    0.396    0.196   15.218   65.160
  381.500    0.391    0.138   16.712   62.256
  381.750    0.343    0.095   18.723   59.977
  382.000    0.174    0.032   17.753   48.841
  382.250    0.140    0.020   16.833   43.586
  382.500    0.177    0.038   15.670   45.986
  382.750    0.224    0.065   14.858   57.217
  383.000    0.232    0.104   13.831   61.380
  383.250    0.293    0.172   12.640   65.544
  383.500    0.380    0.285   12.215   66.180
  383.750    0.403    0.289   12.004   66.228
  384.000    0.380    0.294   11.815   65.124
  384.250    0.369    0.302   11.406   65.160
  384.500    0.395    0.275   10.815   65.808
  384.750    0.404    0.247    9.352   67.620
  385.000    0.398    0.242    8.083   72.359
  385.250    0.425    0.245    7.391   83.579
  385.500    0.430    0.246    7.012   91.870
  385.750    0.426    0.232    6.769   94.858
  386.000    0.425    0.220    6.779   92.554
  386.250    0.424    0.214    6.317   93.190
  386.500    0.428    0.218    6.095   96.766
  386.750    0.433    0.224    5.271   98.601
  387.000    0.434    0.228    4.732   98.061
  387.250    0.439    0.238    4.652   98.097
  387.500    0.449    0.246    4.331   99.909
  387.750    0.482    0.242    3.679  102.309
  388.000    0.504    0.237    3.423  104.721
  388.250    0.517    0.237    3.247  104.757
  388.500    0.541    0.240    3.316  104.817
  388.750    0.485    0.242    3.381  104.865
  389.000    0.470    0.245    3.582  104.937
  389.250    0.471    0.248    3.864  105.561
  389.500    0.468    0.246    4.168  102.669
  389.750    0.488    0.240    4.582   96.813
  390.000    0.496    0.226    5.035   97.473
  390.250    0.470    0.221    5.434   97.509
  390.500    0.458    0.215    5.970   95.205
  390.750    0.439    0.207    6.440   94.090
  391.000    0.426    0.190    7.072   92.950
  391.250    0.418    0.197    8.066   88.882
  391.500    0.444    0.218    8.701   84.226
  391.750    0.448    0.221    9.214   86.626
  392.000    0.443    0.226    9.763   88.462
  392.250    0.418    0.225   10.339   87.898
  392.500    0.389    0.225   11.359   86.182
  392.750    0.371    0.233   12.030   85.642
  393.000    0.366    0.240   12.278   85.126
  393.250    0.366    0.228   12.092   85.162
  393.500    0.366    0.210   11.883   84.610
  393.750    0.361    0.193   11.273   84.658
  394.000    0.360    0.192   10.695   92.361
  394.250    0.371    0.190   10.319   99.465
  394.500    0.382    0.191    9.794   98.925
  394.750    0.401    0.197    9.625   97.797
  395.000    0.403    0.201    9.132   97.845
  395.250    0.402    0.208    8.500   99.069
  395.500    0.398    0.213    8.210   96.177
  395.750    0.397    0.212    8.223   99.201
  396.000    0.397    0.211    8.393  102.177
  396.250    0.407    0.207    8.726  104.576
  396.500    0.412    0.206    9.072  105.200
  396.750    0.419    0.205    9.973  102.908
  397.000    0.411    0.207   10.763  100.593
  397.250    0.379    0.208   11.610   96.525
  397.500    0.353    0.208   12.064   90.105
  397.750    0.350    0.212   12.549   86.638
  398.000    0.352    0.240   12.802   89.625
  398.250    0.356    0.255   12.835   92.601
  398.500    0.357    0.245   12.390   93.825
  398.750    0.360    0.231   11.117   90.357
  399.000    0.385    0.227   10.159   89.805
  399.250    0.410    0.226    9.462   87.501
  399.500    0.418    0.225    8.648   92.265
  399.750    0.414    0.222    7.903  101.132
  400.000    0.409    0.221    7.633   98.241
  400.250    0.407    0.217    7.505   95.949
  400.500    0.412    0.215    7.387  102.452
  400.750    0.420    0.212    7.540  104.276
  401.000    0.425    0.210    7.692  101.372
  401.250    0.426    0.213    8.302   99.081
  401.500    0.427    0.220    9.131  111.476
  401.750    0.430    0.231    9.488  113.875
  402.000    0.427    0.250    9.859  102.752
  402.250    0.417    0.255   10.635   95.157
  402.500    0.408    0.257   10.657   88.149
  402.750    0.392    0.245    9.387   81.730
  403.000    0.388    0.237    7.978   81.766
  403.250    0.393    0.230    7.557   83.014
  403.500    0.393    0.228    6.906   84.225
  403.750    0.400    0.227    6.312   90.741
  404.000    0.433    0.230    5.985   95.493
  404.250    0.484    0.235    5.780   96.141
  404.500    0.497    0.238    5.906   95.025
  404.750    0.440    0.241    6.025   94.485
  405.000    0.419    0.248    6.261   91.581
  405.250    0.403    0.274    7.010   86.913
  405.500    0.377    0.286    8.296   82.258
  405.750    0.359    0.298    9.452   77.014
  406.000    0.355    0.275   11.393   74.734
  406.250    0.363    0.245   12.065   74.770
  406.500    0.386    0.230   12.321   74.806
  406.750    0.393    0.234   12.121   73.678
  407.000    0.399    0.241   11.918   73.162
  407.250    0.405    0.249   11.725   73.798
  407.500    0.409    0.249   11.540   72.670
  407.750    0.408    0.220   11.152   72.130
  408.000    0.402    0.220   10.960   72.178
  408.250    0.401    0.248   10.793   72.238
  408.500    0.399    0.266   10.809   72.262
  408.750    0.404    0.238   10.629   72.310
  409.000    0.411    0.214   10.276   71.770
  409.250    0.417    0.207    9.920   74.170
  409.500    0.425    0.198    9.070   77.758
  409.750    0.431    0.210    8.751   82.509
  410.000    0.431    0.211    8.151   86.673
  410.250    0.431    0.210    7.732   90.837
  410.500    0.427    0.206    7.603   92.648
  410.750    0.424    0.205    7.351   93.308
  411.000    0.414    0.204    7.362   93.944
  411.250    0.408    0.202    7.514   95.756
  411.500    0.403    0.202    7.666   97.568
  411.750    0.396    0.201    7.970   98.204
  412.000    0.387    0.201    8.139   98.840
  412.250    0.377    0.201    8.156   98.300
  412.500    0.379    0.201    7.596   97.748
  412.750    0.397    0.200    6.939   97.220
  413.000    0.400    0.200    6.109   96.080
  413.250    0.400    0.200    5.092   94.952
  413.500    0.402    0.203    4.485   94.412
  413.750    0.409    0.210    3.878   93.296
  414.000    0.415    0.214    3.543   92.180
  414.250    0.428    0.229    3.359   92.816
  414.500    0.450    0.251    3.563   92.864
  414.750    0.501    0.260    3.633   91.724
  415.000    0.539    0.261    3.847   88.257
  415.250    0.484    0.257    4.310   90.644
  415.500    0.463    0.250    4.562   91.880
  415.750    0.448    0.230    5.111   90.153
  416.000    0.436    0.224    5.507   90.800
  416.250    0.399    0.215    6.054   91.436
  416.500    0.388    0.207    6.527   89.721
  416.750    0.374    0.203    7.041   86.817
  417.000    0.377    0.198    7.740   86.889
  417.250    0.381    0.193    8.047   89.276
  417.500    0.385    0.192    7.920   82.845
  417.750    0.386    0.199    7.106   79.377
  418.000    0.391    0.212    6.491   88.245
  418.250    0.399    0.210    5.935   95.348
  418.500    0.408    0.209    5.729   94.808
  418.750    0.416    0.205    5.336   94.280
  419.000    0.423    0.203    5.060   94.928
  419.250    0.420    0.203    4.887   95.552
  419.500    0.418    0.200    4.631   96.200
  419.750    0.415    0.200    4.475   97.424
  420.000    0.421    0.201    4.482   97.484
  420.250    0.428    0.205    4.494   96.920
  420.500    0.434    0.209    4.505   95.828
  420.750    0.437    0.212    4.510   96.440
  421.000    0.435    0.217    4.519   97.664
  421.250    0.434    0.218    4.529   98.888
  421.500    0.433    0.217    4.540  101.287
  421.750    0.429    0.216    4.547  104.287
  422.000    0.428    0.211    4.557  104.923
  422.250    0.424    0.204    4.653  105.547
  422.500    0.414    0.197    4.838  106.783
  422.750    0.406    0.195    5.123  102.127
  423.000    0.399    0.195    5.529   97.472
  423.250    0.391    0.194    5.853   93.992
  423.500    0.387    0.187    6.316   90.512
  423.750    0.394    0.165    6.940   87.608
