~VERSION INFORMATION
 VERS.                 2.0:   CWLS LOG ASCII STANDARD -VERSION 2.0
 WRAP.                  NO:   ONE LINE PER DEPTH STEP
~WELL INFORMATION BLOCK
#MNEM.UNIT           DATA                    DESCRIPTION OF MNEMONIC
#---------    -------------------            -------------------------------
# Generated from Intellog Unique Number	CC_80_83/WELL/1168
NULL.         -999.25                        : NULL_VALUE
WELL.         CAVALIER ET AL ALGAR           : Well_name    - WELL
LOC .         06-35-080-18W4                 : Location     - LOCATION          
UWI .         00/06-35-080-18W4/0            : Uwi          - UNIQUE WELL ID    
ENTR.         DW                             : Entered      - ENTERED BY        
SRVC.         SCHLUMBERGER                   : Scn          - SERVICE COMPANY   
DATE.         08 MAR 78                      : Date         - LOG DATE
STRT.M        195.072                        : top_depth    - START DEPTH       
STOP.M        329.185                        : bot_depth    - STOP DEPTH        
STEP.M        0.305                          : increment    - STEP LENGTH       
~CURVE INFORMATION BLOCK
#MNEM UNIT       ERCB CURVE CODE    CURVE DESCRIPTION
#-----------   ------------------   ----------------------------------
DEPT.M        00 001 00 00         : DEPTH        - DEPTH                       
DPHI.V/V      00 890 00 00         : PHID         - DENSITY POROSITY (LIMESTONE)
NPHI.V/V      00 330 00 00         : PHIN         - NEUTRON POROSITY (LIMESTONE)
GR  .API      00 310 00 00         : GR           - GAMMA RAY                   
ILD .OHMM     00 120 00 00         : RESD         - DEEP RESISTIVITY (DIL)      
~PARAMETER INFORMATION       
#MNEM.UNIT           DATA             DESCRIPTION OF MNEMONIC
#---------         -----------     ------------------------------
GL  .M        550.469              : gl           - GROUND LEVEL ELEVATION      
EREF.M        553.517              : kb           - ELEVATION OF DEPTH REFERENCE
DATM.M        553.517              : datum        - DATUM ELEVATION             
TDD .M        329.184              : tdd          - TOTAL DEPTH DRILLER         
RUN .         ONE                  : Run          - RUN NUMBER                  
ENG .         BILL                 : Engineer     - RECORDING ENGINEER          
WIT .         JIM                  : Witness      - WITNESSED BY                
MUD .         GEL                  : Mud_type     - MUD TYPE                    
MATR.         LIMESTONE            : Logunit      - NEUTRON MATRIX              
TMAX.C        25                   : BHT          - MAXIMUM RECORDED TEMPERATURE
BHTD.M        329.184              : BHTDEP       - MAXIMUM RECORDED TEMPERATURE
MATR.         1                    : LOGUNIT      - NEUTRON MATRIX              
RMT .C        25                   : MDTP         - TEMPERATURE OF MUD          
NEUT.         1                    : NEUTRON      - NEUTRON TYPE                
RESI.         0                    : RESIST       - RESISTIVITY TYPE            
RMC .OHMM     0.25                 : RMC          - RESISTIVITY OF MUD CAKE     
RMF .OHMM     0.25                 : RMF          - RESISTIVITY OF MUD FILTRATE 
SUFT.C        15                   : SUFT         - SURFACE TEMPERATURE         
~A  DEPTH     PHID     PHIN       GR     RESD
# ...
  248.106    0.265    0.496   79.146    8.267
  248.411    0.257    0.501   70.157    8.348
  248.716    0.243    0.496   68.374    8.269
  249.021    0.257    0.486   70.185    7.874
  249.325    0.280    0.470   73.197    7.558
  249.630    0.253    0.465   78.013    7.322
  249.935    0.243    0.467   81.031    7.243
  250.240    0.256    0.474   77.443    7.166
  250.545    0.266    0.478   78.053    7.008
  250.849    0.268    0.478   83.475    6.772
  251.154    0.255    0.476   84.688    6.376
  251.459    0.237    0.474   86.505    6.219
  251.764    0.233    0.476   85.917    6.141
  252.069    0.240    0.498   84.730    6.301
  252.373    0.250    0.516   82.940    7.176
  252.678    0.264    0.509   81.157    8.447
  252.983    0.273    0.489   79.967    9.480
  253.288    0.265    0.472   76.976    8.767
  253.593    0.234    0.488   69.187    7.657
  253.897    0.248    0.487   69.797    8.136
  254.202    0.268    0.467   70.409    8.692
  254.507    0.244    0.454   69.823    9.011
  254.812    0.218    0.491   76.441    9.251
  255.116    0.194    0.479   84.260    9.728
  255.421    0.099    0.424   72.869    9.888
  255.726    0.130    0.361   71.080    8.620
  256.031    0.237    0.456   79.497    8.066
  256.336    0.252    0.489   82.513    8.226
  256.641    0.253    0.504   81.928    8.545
  256.945    0.259    0.503   80.747    8.546
  257.250    0.272    0.498   80.754    8.548
  257.555    0.278    0.494   82.568    8.788
  257.860    0.266    0.492   86.784    8.947
  258.165    0.247    0.491   86.199    8.870
  258.469    0.233    0.482   76.603    8.554
  258.774    0.228    0.483   73.016    8.317
  259.079    0.257    0.500   74.830    7.922
  259.384    0.244    0.482   78.445    7.606
  259.689    0.242    0.501   81.462    7.449
  259.993    0.241    0.486   81.475    7.212
  260.298    0.233    0.471   80.892    7.134
  260.603    0.240    0.475   79.106    7.135
  260.908    0.248    0.499   77.311    6.978
  261.213    0.239    0.512   74.927    6.900
  261.517    0.240    0.503   74.337    6.505
  261.822    0.245    0.493   75.553    5.950
  262.127    0.249    0.480   79.169    5.713
  262.432    0.254    0.480   83.985    6.191
  262.737    0.250    0.497   87.002    6.590
  263.042    0.249    0.516   87.016    7.781
  263.346    0.256    0.510   85.827    9.529
  263.651    0.292    0.487   75.029   10.642
  263.956    0.293    0.444   64.236   10.961
  264.261    0.303    0.446   62.447   10.566
  264.566    0.315    0.473   61.261   10.487
  264.870    0.319    0.469   59.476   10.172
  265.175    0.327    0.447   58.883   10.014
  265.480    0.318    0.447   57.102    9.063
  265.785    0.288    0.454   56.508    9.065
  266.090    0.285    0.461   57.123    9.939
  266.394    0.291    0.455   60.141   11.845
  266.699    0.269    0.409   60.755   12.640
  267.004    0.170    0.247   55.963   12.404
  267.309    0.072    0.223   49.972   11.294
  267.614    0.158    0.289   48.783   10.343
  267.918    0.254    0.384   55.402   10.027
  268.223    0.294    0.422   60.823    9.949
  268.528    0.316    0.455   65.039   10.188
  268.833    0.311    0.455   66.853   10.190
  269.138    0.294    0.453   60.262    9.636
  269.443    0.292    0.479   63.277    9.241
  269.747    0.307    0.473   66.295    9.242
  270.052    0.300    0.469   64.504    9.957
  270.357    0.283    0.477   62.115   11.864
  270.662    0.267    0.465   58.527   15.595
  270.967    0.238    0.319   54.335   37.082
  271.271    0.049    0.185   47.143   32.335
  271.576    0.054    0.189   47.761   13.933
  271.881    0.071    0.215   48.973   11.633
  272.186    0.098    0.288   56.794   10.126
  272.491    0.136    0.340   61.008    9.810
  272.795    0.224    0.383   63.425    9.891
  273.100    0.287    0.441   64.640   11.083
  273.405    0.314    0.441   63.453   17.513
  273.710    0.313    0.383   59.861   18.864
  274.015    0.302    0.297   54.474   14.341
  274.319    0.254    0.288   54.484   10.454
  274.624    0.163    0.306   62.306    9.741
  274.929    0.239    0.438   67.126    9.266
  275.234    0.295    0.465   67.741    8.712
  275.539    0.303    0.479   67.155    9.270
  275.844    0.306    0.481   67.161    9.191
  276.148    0.286    0.469   70.180    8.796
  276.453    0.284    0.449   74.398    8.956
  276.758    0.289    0.453   77.412    9.830
  277.063    0.291    0.469   77.427   12.371
  277.368    0.279    0.470   74.436   12.770
  277.672    0.195    0.452   62.439   12.295
  277.977    0.104    0.270   52.244   10.789
  278.282    0.150    0.243   48.654    9.044
  278.587    0.217    0.361   58.277    9.680
  278.892    0.284    0.419   67.897   11.586
  279.196    0.270    0.466   71.515   12.540
  279.501    0.250    0.470   63.122   12.224
  279.806    0.255    0.407   60.134   10.162
  280.111    0.244    0.299   59.547    9.132
  280.416    0.223    0.336   64.963    8.181
  280.720    0.234    0.392   73.985    7.785
  281.025    0.238    0.487   81.203    7.628
  281.330    0.229    0.465   81.217    7.471
  281.635    0.217    0.451   79.428    7.235
  281.940    0.210    0.451   81.845    7.077
  282.245    0.226    0.470   87.863    7.079
  282.549    0.230    0.472   90.880    7.159
  282.854    0.218    0.465   90.294    7.558
  283.159    0.216    0.467   89.712    8.115
  283.464    0.224    0.473   90.319    8.433
  283.769    0.230    0.461   92.736    8.593
  284.073    0.230    0.452   93.948    8.596
  284.378    0.236    0.462   85.557    8.438
  284.683    0.227    0.455   86.773    8.439
  284.988    0.208    0.453   91.590    8.440
  285.293    0.213    0.454   94.602    8.442
  285.597    0.219    0.477   97.019    8.523
  285.902    0.224    0.499   94.631    8.525
  286.207    0.224    0.486   92.242    8.526
  286.512    0.215    0.478   91.059    8.528
  286.817    0.212    0.460   91.069    8.528
  287.121    0.202    0.457   92.883    8.451
  287.426    0.189    0.463   94.097    8.293
  287.731    0.181    0.469   91.107    7.580
  288.036    0.199    0.480   92.324    6.630
  288.341    0.207    0.487   92.335    6.473
  288.646    0.199    0.481   89.349    6.712
  288.950    0.216    0.462   92.964    7.824
  289.255    0.227    0.470   97.179    9.334
  289.560    0.228    0.480   93.591    9.970
  289.865    0.201    0.453   88.199    9.495
  290.170    0.167    0.436   84.612    7.592
  290.474    0.189    0.450   88.830    6.641
  290.779    0.210    0.473   91.844    6.325
  291.084    0.198    0.466   94.262    6.406
  291.389    0.210    0.461   94.275    6.883
  291.694    0.211    0.460   92.483    8.393
  291.998    0.204    0.457   93.699   11.251
  292.303    0.189    0.449   93.719   14.348
  292.608    0.151    0.424   92.525   14.508
  292.913    0.100    0.381   73.921   12.684
  293.218    0.114    0.316   81.742   10.781
  293.522    0.104    0.306   78.752    9.195
  293.827    0.113    0.316   74.562    8.403
  294.132    0.196    0.414   77.584    8.167
  294.437    0.242    0.436   78.194    8.247
  294.742    0.241    0.449   80.007    8.090
  295.047    0.233    0.455   87.226    8.012
  295.351    0.228    0.452   85.442    8.331
  295.656    0.234    0.438   83.057    8.729
  295.961    0.241    0.447   81.264    9.683
  296.266    0.225    0.477   78.277   10.161
  296.571    0.212    0.440   78.890   10.241
  296.875    0.197    0.414   81.305    9.925
  297.180    0.162    0.428   84.923    9.530
  297.485    0.223    0.451   86.735    9.373
  297.790    0.210    0.450   86.748    9.453
  298.095    0.200    0.458   86.161    9.852
  298.399    0.201    0.461   81.976   11.043
  298.704    0.232    0.451   79.586   14.696
  299.009    0.213    0.428   75.996   27.294
  299.314    0.158    0.362   72.403   24.927
  299.619    0.083    0.302   67.017   16.764
  299.923    0.063    0.273   64.024   13.908
  300.228    0.075    0.282   60.435   12.401
  300.533    0.169    0.395   68.253   11.371
  300.838    0.220    0.445   76.075   11.531
