~VERSION INFORMATION
 VERS.                 2.0:   CWLS LOG ASCII STANDARD -VERSION 2.0
 WRAP.                  NO:   ONE LINE PER DEPTH STEP
~WELL INFORMATION BLOCK
#MNEM.UNIT           DATA                    DESCRIPTION OF MNEMONIC
#---------    -------------------            -------------------------------
# Generated from Intellog Unique Number	CW_82_90/WELL/199
WELL.         SHELL FINA RUBIN 03-25         : Well_name    - WELL
LOC .         00/03-25-083-02W5/0            : Location     - LOCATION
UWI .         00/03-25-083-02W5/0            : Uwi          - UNIQUE WELL ID
ENTR.         JAYE                           : Entered      - ENTERED BY
SRVC.         SCHLUMBERGER                   : Scn          - SERVICE COMPANY
DATE.         9 JAN 79                       : Date         - LOG DATE
STRT.M        225                            : top_depth    - START DEPTH
STOP.M        485                            : bot_depth    - STOP DEPTH
STEP.M        0.25                           : increment    - STEP LENGTH
 NULL. -999.2500:NULL Value
~CURVE INFORMATION BLOCK
#MNEM UNIT       ERCB CURVE CODE    CURVE DESCRIPTION
#-----------   ------------------   ----------------------------------
DEPT.M        00 001 00 00         : DEPTH        - DEPTH
CALI.MM       00 280 01 00         : CAL          - CALIPER
GR  .API      00 310 00 00         : GR           - GAMMA RAY
NPHI.V/V      00 330 00 00         : PHIN         - NEUTRON POROSITY (SANDSTONE)
DPHI.V/V      00 890 00 00         : PHID         - DENSITY POROSITY (SANDSTONE)
ILD .OHMM     00 120 00 00         : RESD         - DEEP RESISTIVITY (DIL)
~PARAMETER INFORMATION
#MNEM.UNIT           DATA             DESCRIPTION OF MNEMONIC
#---------         -----------     ------------------------------
GL  .M        613.4                : gl           - GROUND LEVEL ELEVATION
EREF.M        618                  : kb           - ELEVATION OF DEPTH REFERENCE
DATM.M        613.4                : datum        - DATUM ELEVATION
TDD .M        413.2                : tdd          - TOTAL DEPTH DRILLER
RUN .         ONE                  : Run          - RUN NUMBER
WIT .         CRAIG                : Witness      - WITNESSED BY
BASE.         EDMONTON             : Branch       - HOME BASE OF LOGGING UNIT
MUD .         GEL                  : Mud_type     - MUD TYPE
MATR.         SANDSTONE            : Logunit      - NEUTRON MATRIX
TMAX.C        0                    : BHT          - MAXIMUM RECORDED TEMPERATURE
BHTD.M        413.2                : BHTDEP       - MAXIMUM RECORDED TEMPERATURE
RMT .C        15                   : MDTP         - TEMPERATURE OF MUD
MUDD.KG/M     1050                 : MWT          - MUD DENSITY
NEUT.         1                    : NEUTRON      - NEUTRON TYPE
RESI.         0                    : RESIST       - RESISTIVITY TYPE
RM  .OHMM     2.26                 : RM           - RESISTIVITY OF MUD
RMC .OHMM     0                    : RMC          - RESISTIVITY OF MUD CAKE
RMF .OHMM     3.6                  : RMF          - RESISTIVITY OF MUD FILTRATE
SUFT.C        0                    : SUFT         - SURFACE TEMPERATURE
~A  DEPTH      CAL       GR     PHIN     PHID     RESD
  225.000  314.989   93.525    0.594    0.289    0.010
  225.250  314.238   96.706    0.575    0.284    0.010
  225.500  312.962   97.173    0.573    0.281    0.010
  225.750  312.717   94.501    0.589    0.286    0.010
  226.000  313.395   94.725    0.610    0.281    0.010
  226.250  314.091   95.313    0.602    0.288    0.010
  226.500  314.441   94.980    0.586    0.291    0.010
  226.750  315.029   96.503    0.551    0.292    0.010
  227.000  315.916   95.430    0.569    0.276    0.010
  227.250  315.754   94.173    0.584    0.275    0.010
  227.500  315.617   95.624    0.588    0.272    0.010
  227.750  315.377  100.045    0.602    0.281    0.010
  228.000  315.032  101.990    0.619    0.276    0.010
  228.250  314.790  103.755    0.628    0.270    0.010
  228.500  314.449  104.351    0.616    0.263    0.010
  228.750  314.285  106.299    0.596    0.250    0.010
  229.000  313.939  110.591    0.571    0.252    0.010
  229.250  313.696  112.597    0.554    0.269    0.010
  229.500  313.553  114.547    0.554    0.248    0.010
  229.750  314.340  117.175    0.583    0.255    0.010
  230.000  317.069  117.462    0.582    0.246    0.010
  230.250  319.581  115.835    0.569    0.234    0.010
  230.500  322.307  112.728    0.603    0.287    0.010
  230.750  321.244  105.432    0.592    0.277    0.010
  231.000  317.109  103.307    0.584    0.260    0.010
  231.250  313.689  102.487    0.615    0.250    0.010
  231.500  311.388  103.078    0.610    0.301    0.010
  231.750  309.393  105.467    0.596    0.288    0.010
  232.000  307.819  107.836    0.570    0.267    0.010
  232.250  231.085  109.232    0.545    0.255    0.010
  232.500  231.874  108.847    0.540    0.262    0.010
  232.750  241.058  109.373    0.562    0.268    0.010
  233.000  267.875  109.777    0.597    0.274    0.010
  233.250  293.878  108.150    0.619    0.261    0.010
  233.500  260.106  105.971    0.614    0.264    0.010
  233.750  264.277  104.221    0.600    0.242    0.010
  234.000  285.659  103.086    0.598    0.200    0.010
  234.250  296.792  104.055    0.591    0.190    0.010
  234.500  301.469  107.355    0.582    0.158    0.010
  234.750  309.854  110.971    0.580    0.217    0.010
  235.000  312.771  112.491    0.588    0.259    0.010
  235.250  312.729  112.342    0.634    0.255    0.010
  235.500  311.974  109.977    0.646    0.269    0.010
  235.750  310.708  109.026    0.643    0.298    0.010
  236.000  309.741  108.264    0.637    0.302    0.010
  236.250  309.596  108.856    0.645    0.293    0.010
  236.500  310.181  111.546    0.634    0.282    0.010
  236.750  312.604  112.566    0.595    0.260    0.010
  237.000  314.912  112.734    0.582    0.275    0.010
  237.250  315.384  112.831    0.590    0.260    0.010
  237.500  312.688  112.683    0.613    0.245    0.010
  237.750  310.792  110.437    0.599    0.255    0.010
  238.000  309.522  109.796    0.597    0.244    0.010
  238.250  308.363  110.081    0.597    0.231    0.010
  238.500  308.523  109.509    0.601    0.224    0.010
  238.750  307.454  108.677    0.608    0.228    0.010
  239.000  308.236  107.795    0.593    0.225    0.010
  239.250  309.230  109.435    0.597    0.234    0.010
  239.500  308.880  112.678    0.605    0.224    0.010
  239.750  309.149  113.886    0.584    0.212    0.010
  240.000  309.510  113.120    0.584    0.221    0.010
  240.250  309.994  111.619    0.592    0.224    0.010
  240.500  310.562  110.916    0.608    0.235    0.010
  240.750  311.136  111.204    0.623    0.243    0.010
  241.000  311.407  110.559    0.550    0.244    0.010
  241.250  311.369  110.850    0.548    0.234    0.010
  241.500  311.424  110.886    0.549    0.225    0.010
  241.750  311.587  111.108    0.552    0.211    0.010
  242.000  312.582  110.651    0.564    0.190    0.010
  242.250  314.890  108.347    0.593    0.165    0.010
  242.500  321.217  107.584    0.553    0.186    0.010
  242.750  320.973  109.901    0.563    0.234    0.010
  243.000  318.980  112.590    0.580    0.226    0.010
  243.250  317.915  114.232    0.572    0.231    0.010
  243.500  317.881  114.642    0.566    0.227    0.010
  243.750  318.040  113.814    0.568    0.228    0.010
  244.000  318.305  113.604    0.574    0.233    0.010
  244.250  318.782  113.154    0.580    0.239    0.010
  244.500  319.253  112.573    0.561    0.227    0.010
  244.750  319.621  112.612    0.551    0.239    0.010
  245.000  320.704  112.771    0.553    0.243    0.010
  245.250  321.487  110.716    0.565    0.243    0.010
  245.500  322.061  108.592    0.573    0.243    0.010
  245.750  324.378  106.785    0.580    0.239    0.010
  246.000  327.623  108.916    0.573    0.246    0.010
  246.250  330.969  111.486    0.566    0.255    0.010
  246.500  331.131  112.513    0.575    0.251    0.010
  246.750  326.170  111.869    0.587    0.233    0.010
  247.000  322.025  110.240    0.616    0.266    0.010
  247.250  319.218  107.627    0.612    0.254    0.010
  247.500  319.700  106.924    0.571    0.251    0.010
  247.750  320.986  106.102    0.552    0.243    0.010
  248.000  321.150  103.918    0.535    0.227    0.010
  248.250  320.289   99.578    0.501    0.206    0.010
  248.500  318.304   98.822    0.496    0.208    0.010
  248.750  316.003  102.246    0.509    0.234    0.010
  249.000  313.297  105.427    0.522    0.234    0.010
  249.250  310.912  107.880    0.536    0.229    0.010
  249.500  309.527  109.204    0.550    0.217    0.010
  249.750  309.195  107.700    0.562    0.222    0.010
  250.000  309.558  104.657    0.567    0.239    4.798
  250.250  309.922  101.979    0.561    0.233    4.750
  250.500  310.405   97.272    0.556    0.221    4.528
  250.750  310.561   97.307    0.479    0.230    4.341
  251.000  310.211  101.481    0.510    0.216    4.169
  251.250  310.475  105.831    0.520    0.214    4.150
  251.500  310.640  107.109    0.529    0.222    4.229
  251.750  311.123  107.145    0.551    0.231    4.294
  252.000  311.802  107.299    0.560    0.246    4.264
  252.250  313.087  109.621    0.557    0.249    4.198
  252.500  314.376  109.481    0.534    0.243    4.095
  252.750  313.521  107.294    0.529    0.239    3.980
  253.000  312.051  106.409    0.533    0.242    3.861
  253.250  311.600  107.123    0.550    0.257    3.726
  253.500  311.049  108.028    0.579    0.258    3.609
  253.750  310.493  107.752    0.624    0.261    3.526
  254.000  310.451  103.847    0.618    0.266    3.478
  254.250  312.051  103.512    0.581    0.269    3.451
  254.500  313.755  104.236    0.568    0.260    3.437
  254.750  316.792  104.204    0.568    0.258    3.443
  255.000  318.293  101.836    0.582    0.250    3.483
  255.250  316.810  100.213    0.600    0.261    3.545
  255.500  313.492  100.871    0.609    0.268    3.589
  255.750  311.396  100.472    0.607    0.251    3.691
  256.000  309.516   98.722    0.599    0.245    4.032
  256.250  308.261   97.897    0.602    0.247    4.666
  256.500  307.510   96.578    0.595    0.254    5.483
  256.750  307.149   90.574    0.531    0.265    6.479
  257.000  306.392   65.029    0.487    0.281    7.113
  257.250  306.145   52.676    0.428    0.290    6.842
  257.500  306.203   54.257    0.448    0.279    5.971
  257.750  306.466   55.589    0.472    0.283    5.299
  258.000  306.939   53.345    0.502    0.284    4.734
  258.250  306.897   64.911    0.475    0.279    4.270
  258.500  306.553   72.287    0.519    0.281    4.350
  258.750  306.214   78.672    0.535    0.278    4.607
  259.000  306.272   74.333    0.519    0.295    4.737
  259.250  306.737   65.929    0.523    0.276    4.758
  259.500  307.935   59.188    0.509    0.268    4.638
  259.750  308.508   62.303    0.500    0.268    4.525
  260.000  309.385   70.046    0.503    0.261    4.387
  260.250  309.965   74.832    0.541    0.242    4.261
  260.500  310.444   73.459    0.567    0.227    4.165
  260.750  310.500   77.623    0.554    0.243    4.081
  261.000  310.468   80.310    0.559    0.255    4.018
  261.250  310.231   77.947    0.561    0.247    3.968
