~VERSION INFORMATION
 VERS.                 2.0:   CWLS LOG ASCII STANDARD -VERSION 2.0
 WRAP.                  NO:   ONE LINE PER DEPTH STEP
~WELL INFORMATION BLOCK
#MNEM.UNIT           DATA                    DESCRIPTION OF MNEMONIC
#---------    -------------------            -------------------------------
# Generated from Intellog Unique Number	CS_77_79/WELL/874
WELL.         ICGR LOCHIEL CHARD             : Well_name    - WELL
LOC .         00/06-12-079-06W4/0            : Location     - LOCATION
UWI .         00/06-12-079-06W4/0            : Uwi          - UNIQUE WELL ID
ENTR.         JHS                            : Entered      - ENTERED BY
SRVC.         SCHLUMBERGER                   : Scn          - SERVICE COMPANY
STRT.M        125                            : top_depth    - START DEPTH
STOP.M        305                            : bot_depth    - STOP DEPTH
STEP.M        0.25                           : increment    - STEP LENGTH
 NULL. -999.2500:NULL Value
~CURVE INFORMATION BLOCK
#MNEM UNIT       ERCB CURVE CODE    CURVE DESCRIPTION
#-----------   ------------------   ----------------------------------
DEPT.M        00 001 00 00         : DEPTH        - DEPTH
DPHI.V/V      00 890 00 00         : PHID         - DENSITY POROSITY (LIMESTONE)
NPHI.V/V      00 330 00 00         : PHIN         - NEUTRON POROSITY (LIMESTONE)
GR  .API      00 310 00 00         : GR           - GAMMA RAY
ILD .OHMM     00 120 00 00         : RESD         - DEEP RESISTIVITY (DIL)
RHOB.KG/M3    00 350 00 00         : DENS         - BULK DENSITY
~PARAMETER INFORMATION
#MNEM.UNIT           DATA             DESCRIPTION OF MNEMONIC
#---------         -----------     ------------------------------
GL  .M        475.8                : gl           - GROUND LEVEL ELEVATION
EREF.M        479.3                : kb           - ELEVATION OF DEPTH REFERENCE
DATM.M        479.3                : datum        - DATUM ELEVATION
TDD .M        313                  : tdd          - TOTAL DEPTH DRILLER
RUN .         ONE                  : Run          - RUN NUMBER
ENG .         BILL                 : Engineer     - RECORDING ENGINEER
WIT .         JIM                  : Witness      - WITNESSED BY
MUD .         GEL                  : Mud_type     - MUD TYPE
MATR.         LIMESTONE            : Logunit      - NEUTRON MATRIX
TMAX.C        20                   : BHT          - MAXIMUM RECORDED TEMPERATURE
BHTD.M        313                  : BHTDEP       - MAXIMUM RECORDED TEMPERATURE
MATR.         1                    : LOGUNIT      - NEUTRON MATRIX
RMT .C        25                   : MDTP         - TEMPERATURE OF MUD
NEUT.         1                    : NEUTRON      - NEUTRON TYPE
RESI.         0                    : RESIST       - RESISTIVITY TYPE
RMC .OHMM     0.25                 : RMC          - RESISTIVITY OF MUD CAKE
RMF .OHMM     0.25                 : RMF          - RESISTIVITY OF MUD FILTRATE
SUFT.C        15                   : SUFT         - SURFACE TEMPERATURE
~A  DEPTH     PHID     PHIN       GR     RESD     DENS
# ...
  271.000    0.200    0.402   89.795    6.635 2367.970
  271.250    0.188    0.415   92.891    6.390 2389.050
  271.500    0.202    0.406   91.086    5.928 2364.050
  271.750    0.234    0.414   81.943    5.710 2309.740
  272.000    0.273    0.416   69.738    5.710 2242.890
  272.250    0.267    0.389   66.099    5.929 2253.500
  272.500    0.252    0.382   76.546    6.041 2278.720
  272.750    0.236    0.410   84.551    6.391 2306.070
  273.000    0.240    0.427   88.253    6.513 2299.950
  273.250    0.259    0.415   88.288    6.513 2266.550
  273.500    0.257    0.395   76.692    6.636 2270.860
  273.750    0.227    0.384   86.531    6.637 2321.240
  274.000    0.194    0.386   95.132    6.763 2377.890
  274.250    0.193    0.407   99.457    6.637 2380.100
  274.500    0.226    0.421   90.310    6.393 2323.710
  274.750    0.239    0.414   78.108    6.393 2300.820
  275.000    0.256    0.398   74.469    6.637 2271.630
  275.250    0.255    0.386   80.629    6.892 2273.850
  275.500    0.218    0.399   87.399    7.291 2336.810
  275.750    0.188    0.391   92.336    8.009 2389.270
  276.000    0.178    0.376   95.431    8.473 2406.130
  276.250    0.173    0.374   99.147    8.315 2414.680
  276.500    0.168    0.387   93.063    7.860 2423.140
  276.750    0.193    0.397   83.311    7.430 2379.310
  277.000    0.219    0.403   79.062    7.023 2335.450
  277.250    0.259    0.387   76.036    6.765 2266.500
  277.500    0.262    0.366   74.232    6.765 2262.460
  277.750    0.247    0.350   77.953    6.893 2287.680
  278.000    0.232    0.347   81.666    6.894 2312.940
  278.250    0.227    0.358   84.755    6.894 2321.460
  278.500    0.237    0.350   89.082    6.894 2304.820
  278.750    0.254    0.347   92.172    6.894 2275.640
  279.000    0.248    0.352   93.434    6.766 2286.270
  279.250    0.245    0.359   90.413    6.766 2290.560
  279.500    0.254    0.359   83.717    6.766 2276.030
  279.750    0.262    0.359   77.027    6.767 2261.530
  280.000    0.252    0.363   76.446    6.767 2278.370
  280.250    0.244    0.376   77.705    6.767 2293.150
  280.500    0.239    0.388   81.421    6.397 2301.660
  280.750    0.245    0.372   86.357    5.824 2291.310
  281.000    0.264    0.387   87.615    5.302 2257.970
  281.250    0.272    0.408   82.138    5.107 2245.520
  281.500    0.297    0.392   66.875    5.012 2201.680
  281.750    0.287    0.382   63.235    4.919 2218.590
  282.000    0.282    0.413   65.116    4.828 2227.070
  282.250    0.297    0.419   59.646    4.828 2202.080
  282.500    0.286    0.411   58.454    4.828 2221.060
  282.750    0.283    0.402   64.006    4.828 2225.350
  283.000    0.308    0.392   63.429    4.738 2183.600
  283.250    0.304    0.378   60.405    4.650 2190.010
  283.500    0.292    0.369   56.161    4.396 2211.080
  283.750    0.311    0.368   51.293    4.155 2177.750
  284.000    0.327    0.416   51.335    4.078 2150.640
  284.250    0.345    0.421   47.082    3.928 2119.360
  284.500    0.355    0.435   40.388    3.855 2102.740
  284.750    0.357    0.424   37.976    3.855 2098.680
  285.000    0.338    0.390   33.123    4.003 2132.310
  285.250    0.321    0.367   32.556    4.156 2161.730
  285.500    0.311    0.360   33.191    4.235 2178.620
  285.750    0.328    0.383   33.228    4.397 2149.480
  286.000    0.330    0.387   33.879    4.480 2145.360
  286.250    0.320    0.375   38.811    4.480 2162.250
  286.500    0.306    0.367   50.482    4.565 2187.490
  286.750    0.287    0.379   62.761    4.566 2219.020
  287.000    0.274    0.438   71.372    4.397 2242.180
  287.250    0.294    0.391   62.834    4.398 2206.730
  287.500    0.316    0.348   39.614    4.398 2169.160
  287.750    0.299    0.370   50.063    4.398 2198.620
  288.000    0.301    0.392   49.488    4.481 2194.540
  288.250    0.314    0.370   48.297    4.481 2173.750
  288.500    0.290    0.354   60.577    4.481 2213.650
  288.750    0.268    0.405   64.286    4.482 2251.470
  289.000    0.266    0.404   60.647    4.482 2255.800
  289.250    0.301    0.388   51.503    4.482 2195.180
  289.500    0.301    0.373   69.292    4.482 2195.310
  289.750    0.263    0.401   95.651    4.482 2260.330
  290.000    0.243    0.607  115.278    4.742 2293.960
  290.250    0.254    0.592  126.948    5.017 2275.250
  290.500    0.279    0.499  122.700    5.830 2233.510
  290.750    0.227    0.430  107.437    6.525 2321.560
  291.000    0.189    0.400   94.006    7.034 2386.580
  291.250    0.169    0.380   95.880    7.582 2420.210
  291.500    0.169    0.349  107.542    8.174 2420.360
  291.750    0.163    0.336  120.438    8.174 2430.940
  292.000    0.168    0.335  130.273    8.329 2422.710
  292.250    0.121    0.333  130.926    8.648 2502.380
  292.500    0.109    0.326  121.168    9.322 2523.470
  292.750    0.109    0.316  111.410   10.434 2523.560
  293.000    0.106    0.312  105.935   10.434 2527.890
  293.250    0.057    0.332   91.278    9.863 2611.740
  293.500    0.033    0.377   81.521    9.150 2653.760
  293.750    0.014    0.409   88.905    7.584 2685.280
  294.000    0.019    0.460  105.468    6.905 2677.020
  294.250    0.274    0.504  117.143    6.287 2241.700
  294.500    0.304    0.548  115.341    5.617 2189.510
  294.750    0.335    0.599  111.703    5.310 2137.280
  295.000    0.320    0.501  106.844    5.617 2162.530
  295.250    0.274    0.430  100.147    6.651 2242.230
  295.500    0.205    0.387   98.969    7.445 2359.580
  295.750    0.144    0.351  103.288    8.177 2464.400
  296.000    0.146    0.354  107.609    8.490 2460.360
  296.250    0.143    0.341  105.204    8.491 2464.650
  296.500    0.131    0.331  101.567    8.333 2485.720
  296.750    0.130    0.333  101.597    8.652 2487.920
  297.000    0.131    0.351   99.800    9.153 2485.960
  297.250    0.111    0.365   91.881    8.816 2519.580
  297.500    0.073    0.382   87.016    8.179 2584.610
  297.750    0.065    0.415   81.549    8.027 2599.400
  298.000    0.076    0.427   88.936    7.878 2580.680
  298.250    0.132    0.409   95.089    7.878 2484.510
  298.500    0.182    0.404   99.409    8.493 2398.810
  298.750    0.202    0.405   78.633    8.985 2365.440
  299.000    0.215    0.399   68.266    9.329 2342.540
  299.250    0.193    0.381   59.733   10.056 2380.360
  299.500    0.151    0.363   43.241   13.079 2451.670
  299.750    0.119    0.340   30.424   17.333    0.000
  300.000    0.088    0.286   23.115   25.709    0.000
  300.250    0.064    0.212   17.037   38.132    0.000
  300.500    0.047    0.165   14.018   48.673    0.000
  300.750    0.039    0.151   13.438   54.477    0.000
  301.000    0.042    0.149   12.872   54.478    0.000
  301.250    0.049    0.152   14.735   51.496    0.000
  301.500    0.038    0.148   20.901   49.601    0.000
  301.750    0.022    0.147   23.386   49.601    0.000
  302.000    0.011    0.160   22.803   50.543    0.000
  302.250    0.007    0.169   18.559   52.478    0.000
  302.500    0.013    0.169   14.924   54.487    0.000
  302.750    0.025    0.161   14.347   57.645    0.000
  303.000    0.036    0.160   18.058   58.738    0.000
  303.250    0.043    0.161   15.040   59.853    0.000
  303.500    0.057    0.174   13.847   59.855    0.000
  303.750    0.059    0.176   13.883   58.743    0.000
  304.000    0.037    0.166   13.923   58.745    0.000
  304.250    0.033    0.158   14.572   58.745    0.000
  304.500    0.036    0.159   15.229   59.861    0.000
  304.750    0.033    0.165   15.265   62.152    0.000
  305.000    0.038    0.163   14.681   64.532    0.000
