~VERSION INFORMATION
 VERS.                 2.0:   CWLS LOG ASCII STANDARD -VERSION 2.0
 WRAP.                  NO:   ONE LINE PER DEPTH STEP
~WELL INFORMATION BLOCK
#MNEM.UNIT           DATA                    DESCRIPTION OF MNEMONIC
#---------    -------------------            -------------------------------
# Generated from Intellog Unique Number	CS_73_76/WELL/689
WELL.         SULPETRO BRENDA CLYDE LAKE     : Well_name    - WELL
LOC .         00/06-32-073-09W4/0            : Location     - LOCATION
UWI .         00/06-32-073-09W4/0            : Uwi          - UNIQUE WELL ID
ENTR.         SP                             : Entered      - ENTERED BY
SRVC.         SCHLUMBERGER                   : Scn          - SERVICE COMPANY
STRT.M        285                            : top_depth    - START DEPTH
STOP.M        475                            : bot_depth    - STOP DEPTH
STEP.M        0.25                           : increment    - STEP LENGTH
 NULL. -999.2500:NULL Value
~CURVE INFORMATION BLOCK
#MNEM UNIT       ERCB CURVE CODE    CURVE DESCRIPTION
#-----------   ------------------   ----------------------------------
DEPT.M        00 001 00 00         : DEPTH        - DEPTH
ILD .OHMM     00 120 00 00         : RESD         - DEEP RESISTIVITY (DIL)
DPHI.V/V      00 890 00 00         : PHID         - DENSITY POROSITY (LIMESTONE)
NPHI.V/V      00 330 00 00         : PHIN         - NEUTRON POROSITY (LIMESTONE)
GR  .API      00 310 00 00         : GR           - GAMMA RAY
~PARAMETER INFORMATION
#MNEM.UNIT           DATA             DESCRIPTION OF MNEMONIC
#---------         -----------     ------------------------------
GL  .M        656.52               : gl           - GROUND LEVEL ELEVATION
EREF.M        659.42               : kb           - ELEVATION OF DEPTH REFERENCE
DATM.M        656.52               : datum        - DATUM ELEVATION
TDD .M        486.9                : tdd          - TOTAL DEPTH DRILLER
RUN .         ONE                  : Run          - RUN NUMBER
ENG .         BILL                 : Engineer     - RECORDING ENGINEER
WIT .         JIM                  : Witness      - WITNESSED BY
MUD .         GEL                  : Mud_type     - MUD TYPE
MATR.         LIMESTONE            : Logunit      - NEUTRON MATRIX
TMAX.C        29                   : BHT          - MAXIMUM RECORDED TEMPERATURE
BHTD.M        486.9                : BHTDEP       - MAXIMUM RECORDED TEMPERATURE
MATR.         1                    : LOGUNIT      - NEUTRON MATRIX
RMT .C        25                   : MDTP         - TEMPERATURE OF MUD
NEUT.         1                    : NEUTRON      - NEUTRON TYPE
RESI.         0                    : RESIST       - RESISTIVITY TYPE
RMC .OHMM     0.25                 : RMC          - RESISTIVITY OF MUD CAKE
RMF .OHMM     0.25                 : RMF          - RESISTIVITY OF MUD FILTRATE
SUFT.C        15                   : SUFT         - SURFACE TEMPERATURE
~A  DEPTH     RESD     PHID     PHIN       GR
# ...
  415.500    6.939    0.187    0.406  105.208
  415.750    6.942    0.193    0.387  107.657
  416.000    7.077    0.197    0.384  110.103
  416.250    7.215    0.189    0.392  110.712
  416.500    7.219    0.183    0.376  111.324
  416.750    7.224    0.179    0.367  108.857
  417.000    7.090    0.172    0.399  107.618
  417.250    7.092    0.168    0.414  105.764
  417.500    6.964    0.171    0.407  104.529
  417.750    6.836    0.171    0.404  101.445
  418.000    6.711    0.166    0.409  100.209
  418.250    6.589    0.176    0.400   98.358
  418.500    6.593    0.191    0.380   97.735
  418.750    6.472    0.186    0.357   98.341
  419.000    6.473    0.185    0.376   98.334
  419.250    6.355    0.207    0.385  101.399
  419.500    6.121    0.218    0.387  106.924
  419.750    5.897    0.204    0.359  110.604
  420.000    5.470    0.181    0.341  106.908
  420.250    5.169    0.183    0.348  102.596
  420.500    4.531    0.178    0.360  102.587
  420.750    4.282    0.172    0.361  102.579
  421.000    3.824    0.164    0.361  103.801
  421.250    3.480    0.160    0.377  106.249
  421.500    3.167    0.170    0.407  107.472
  421.750    2.776    0.193    0.402  106.236
  422.000    2.624    0.212    0.413  101.924
  422.250    2.576    0.222    0.435   96.997
  422.500    2.528    0.223    0.445   97.605
  422.750    2.529    0.226    0.437  104.360
  423.000    2.531    0.226    0.423  109.269
  423.250    2.532    0.214    0.428  108.031
  423.500    2.533    0.203    0.437  107.409
  423.750    2.534    0.206    0.443  111.088
  424.000    2.683    0.202    0.468  115.999
  424.250    2.951    0.201    0.479  115.990
  424.500    3.568    0.210    0.484  111.678
  424.750    3.778    0.202    0.413  109.214
  425.000    4.154    0.195    0.365  105.517
  425.250    4.316    0.169    0.339  101.203
  425.500    4.571    0.169    0.347  100.581
  425.750    4.660    0.176    0.359  101.189
  426.000    4.751    0.174    0.370  101.797
  426.250    5.225    0.168    0.378   99.943
  426.500    6.083    0.174    0.391   91.941
  426.750    6.688    0.191    0.337   87.017
  427.000    8.240    0.223    0.311   80.248
  427.250    9.591    0.253    0.289   73.477
  427.500   10.547    0.279    0.272   75.929
  427.750   11.382    0.298    0.296   75.303
  428.000   10.759    0.294    0.327   74.068
  428.250   10.171    0.307    0.361   72.214
  428.500    9.796    0.311    0.386   70.365
  428.750    8.919    0.269    0.398   66.666
  429.000    8.921    0.258    0.422   69.733
  429.250    8.433    0.251    0.448   74.643
  429.500    7.970    0.256    0.433   77.708
  429.750    7.534    0.268    0.404   77.700
  430.000    7.121    0.267    0.388   74.617
  430.250    6.859    0.266    0.373   73.995
  430.500    6.609    0.266    0.395   76.444
  430.750    6.610    0.277    0.398   77.665
  431.000    7.269    0.283    0.361   77.661
  431.250    8.148    0.283    0.366   75.808
  431.500    9.131    0.288    0.389   72.724
  431.750   10.043    0.295    0.414   69.027
  432.000   10.634    0.263    0.431   66.561
  432.250   10.841    0.172    0.376   66.553
  432.500    9.681    0.140    0.336   68.390
  432.750    8.170    0.112    0.279   71.456
  433.000    7.160    0.150    0.276   72.675
  433.250    6.767    0.214    0.312   72.671
  433.500    6.396    0.251    0.361   71.428
  433.750    5.933    0.268    0.387   72.039
  434.000    5.823    0.254    0.405   75.103
  434.250    5.718    0.254    0.394   75.710
  434.500    5.720    0.257    0.383   75.086
  434.750    5.724    0.255    0.404   73.850
  435.000    5.726    0.245    0.413   71.383
  435.250    5.729    0.249    0.396   70.760
  435.500    6.065    0.261    0.406   72.597
  435.750    5.953    0.269    0.422   76.277
  436.000    5.958    0.264    0.443   76.268
  436.250    5.960    0.257    0.396   74.417
  436.500    5.851    0.248    0.346   70.717
  436.750    5.853    0.254    0.361   70.098
  437.000    5.745    0.269    0.348   74.389
  437.250    5.536    0.279    0.358   75.000
  437.500    5.538    0.270    0.376   72.529
  437.750    5.436    0.271    0.398   71.910
  438.000    5.042    0.264    0.423   81.737
  438.250    4.856    0.243    0.409   94.637
  438.500    4.337    0.226    0.380  105.080
  438.750    4.023    0.216    0.423  113.680
  439.000    3.394    0.205    0.465  113.054
  439.250    3.594    0.198    0.507  107.512
  439.500    4.028    0.202    0.353  103.818
  439.750    4.514    0.192    0.344  100.738
  440.000    5.157    0.179    0.361  100.727
  440.250    6.117    0.170    0.389  101.947
  440.500    6.727    0.164    0.411  103.173
  440.750    7.683    0.141    0.392   97.631
  441.000    8.449    0.120    0.347   90.860
  441.250    9.837    0.139    0.326   87.165
  441.500   10.219    0.199    0.299   82.239
  441.750   10.821    0.223    0.311   82.844
  442.000   10.826    0.238    0.328   85.296
  442.250   10.830    0.228    0.321   86.518
  442.500   10.835    0.220    0.305   84.666
  442.750   10.841    0.220    0.318   80.355
  443.000   10.641    0.222    0.330   79.116
  443.250    9.504    0.217    0.349   79.722
  443.500    8.649    0.199    0.327   75.411
  443.750    6.638    0.191    0.309   73.560
  444.000    5.096    0.201    0.327   77.855
  444.250    5.098    0.221    0.383  113.502
  444.500    6.904    0.231    0.430  127.632
  444.750    9.897    0.242    0.400  117.789
  445.000   13.402    0.254    0.368   98.109
  445.250   18.849    0.259    0.331   84.577
  445.500   28.598    0.263    0.310   66.126
  445.750   32.670    0.271    0.269   50.751
  446.000   33.938    0.282    0.268   40.908
  446.250   37.326    0.259    0.301   35.367
  446.500   41.834    0.247    0.324   37.818
  446.750   42.648    0.243    0.347   35.350
  447.000   34.649    0.250    0.346   35.343
  447.250   27.621    0.255    0.308   41.482
  447.500   21.202    0.235    0.294   76.513
  447.750   16.586    0.221    0.311   84.496
  448.000   14.533    0.208    0.319   95.553
  448.250   13.740    0.195    0.290  105.381
  448.500   13.236    0.202    0.288  100.453
  448.750   12.992    0.215    0.283   94.299
  449.000   12.753    0.212    0.286   94.291
  449.250   12.059    0.205    0.294  104.733
  449.500   11.616    0.194    0.317  112.103
  449.750   11.402    0.176    0.338  108.403
  450.000   11.192    0.183    0.355  106.555
  450.250   10.986    0.188    0.356  106.545
  450.500   10.785    0.196    0.347  110.839
  450.750   10.589    0.191    0.339  113.907
  451.000   10.592    0.181    0.338  123.734
  451.250   10.597    0.175    0.388  137.863
  451.500   11.438    0.190    0.409  132.938
  451.750   11.883    0.202    0.394  116.334
  452.000   12.823    0.214    0.357   86.818
  452.250   13.839    0.223    0.313   82.507
  452.500   14.377    0.218    0.290   84.343
  452.750   14.938    0.197    0.282   90.481
  453.000   14.945    0.183    0.283   89.860
  453.250   14.951    0.185    0.301   81.243
  453.500   14.959    0.192    0.287   75.702
  453.750   15.251    0.198    0.275   73.237
  454.000   15.257    0.205    0.280   76.915
  454.250   14.979    0.209    0.267   80.597
  454.500   14.161    0.195    0.261   87.352
  454.750   13.639    0.172    0.269   99.023
  455.000   13.137    0.160    0.289  106.393
  455.250   12.655    0.171    0.276   99.621
  455.500   12.424    0.185    0.269   92.237
  455.750   12.666    0.201    0.263   89.771
  456.000   13.931    0.197    0.289   88.533
  456.250   15.319    0.208    0.319   76.842
  456.500   17.834    0.217    0.342   70.689
  456.750   18.882    0.228    0.318   62.075
  457.000   20.378    0.223    0.301   68.216
  457.250   20.385    0.199    0.296   78.042
  457.500   16.562    0.189    0.316   85.409
  457.750   13.976    0.186    0.309   87.862
  458.000   12.960    0.192    0.327   88.469
  458.250   12.021    0.206    0.378   83.543
  458.500   12.029    0.223    0.364   73.085
  458.750   12.498    0.242    0.344   65.085
