~VERSION INFORMATION
 VERS.                 2.0:   CWLS LOG ASCII STANDARD -VERSION 2.0
 WRAP.                  NO:   ONE LINE PER DEPTH STEP
~WELL INFORMATION BLOCK
#MNEM.UNIT           DATA                    DESCRIPTION OF MNEMONIC
#---------    -------------------            -------------------------------
# Generated from Intellog Unique Number	CS_67_68/WELL/2178
WELL.         07-25-067-05W4                 : Well_name    - WELL
LOC .         00/07-25-067-05W4/0            : Location     - LOCATION
UWI .         00/07-25-067-05W4/0            : Uwi          - UNIQUE WELL ID
ENTR.         SP                             : Entered      - ENTERED BY
SRVC.         SCHLUMBERGER                   : Scn          - SERVICE COMPANY
STRT.M        330                            : top_depth    - START DEPTH
STOP.M        560                            : bot_depth    - STOP DEPTH
STEP.M        0.25                           : increment    - STEP LENGTH
 NULL. -999.2500:NULL Value
~CURVE INFORMATION BLOCK
#MNEM UNIT       ERCB CURVE CODE    CURVE DESCRIPTION
#-----------   ------------------   ----------------------------------
DEPT.M        00 001 00 00         : DEPTH        - DEPTH
ILD .OHMM     00 120 00 00         : RESD         - DEEP RESISTIVITY (DIL)
DPHI.V/V      00 890 00 00         : PHID         - DENSITY POROSITY (LIMESTONE)
NPHI.V/V      00 330 00 00         : PHIN         - NEUTRON POROSITY (LIMESTONE)
GR  .API      00 310 00 00         : GR           - GAMMA RAY
CALI.MM       00 280 01 00         : CAL          - CALIPER
~PARAMETER INFORMATION
#MNEM.UNIT           DATA             DESCRIPTION OF MNEMONIC
#---------         -----------     ------------------------------
GL  .M        673.74               : gl           - GROUND LEVEL ELEVATION
EREF.M        677.64               : kb           - ELEVATION OF DEPTH REFERENCE
DATM.M        677.64               : datum        - DATUM ELEVATION
TDD .M        566                  : tdd          - TOTAL DEPTH DRILLER
RUN .         ONE                  : Run          - RUN NUMBER
ENG .         BILL                 : Engineer     - RECORDING ENGINEER
WIT .         JIM                  : Witness      - WITNESSED BY
MUD .         GEL                  : Mud_type     - MUD TYPE
MATR.         LIMESTONE            : Logunit      - NEUTRON MATRIX
TMAX.C        18.8                 : BHT          - MAXIMUM RECORDED TEMPERATURE
BHTD.M        566                  : BHTDEP       - MAXIMUM RECORDED TEMPERATURE
MATR.         1                    : LOGUNIT      - NEUTRON MATRIX
RMT .C        25                   : MDTP         - TEMPERATURE OF MUD
NEUT.         1                    : NEUTRON      - NEUTRON TYPE
RESI.         0                    : RESIST       - RESISTIVITY TYPE
RMC .OHMM     0.25                 : RMC          - RESISTIVITY OF MUD CAKE
RMF .OHMM     0.25                 : RMF          - RESISTIVITY OF MUD FILTRATE
SUFT.C        15                   : SUFT         - SURFACE TEMPERATURE
~A  DEPTH     RESD     PHID     PHIN       GR      CAL
# ...
  512.500    4.188    0.308    0.391   75.459  155.361
  512.750    4.166    0.302    0.397   78.939  155.161
  513.000    4.176    0.300    0.382   81.809  154.860
  513.250    4.249    0.304    0.370   74.123  154.762
  513.500    4.339    0.309    0.364   68.266  154.969
  513.750    4.448    0.305    0.366   66.133  155.176
  514.000    4.569    0.290    0.365   66.562  155.383
  514.250    4.692    0.275    0.363   66.076  155.590
  514.500    4.837    0.263    0.362   69.313  155.594
  514.750    4.996    0.268    0.361   72.733  155.903
  515.000    5.083    0.280    0.371   75.969  155.907
  515.250    5.114    0.288    0.385   77.497  156.215
  515.500    5.031    0.293    0.396   73.716  156.525
  515.750    4.931    0.295    0.407   70.056  156.528
  516.000    4.762    0.304    0.408   65.665  156.532
  516.250    4.598    0.307    0.395   69.206  156.739
  516.500    4.382    0.307    0.385   72.748  156.641
  516.750    4.114    0.311    0.377   71.346  156.644
  517.000    4.178    0.309    0.379   77.695  156.446
  517.250    4.323    0.299    0.388   80.505  156.347
  517.500    4.465    0.300    0.393   85.389  156.045
  517.750    4.646    0.296    0.393   90.578  155.947
  518.000    4.835    0.286    0.405   88.262  155.850
  518.250    4.974    0.275    0.413   72.458  155.649
  518.500    5.118    0.261    0.398   69.592  155.551
  518.750    5.218    0.248    0.373   71.120  155.657
  519.000    5.279    0.252    0.359   71.183  156.271
  519.250    5.361    0.255    0.347   74.481  156.986
  519.500    5.455    0.239    0.337   80.830  157.499
  519.750    5.624    0.216    0.328   95.539  158.011
  520.000    5.775    0.191    0.347  105.366  158.523
  520.250    6.043    0.189    0.365  108.237  159.137
  520.500    6.383    0.183    0.374  104.273  159.446
  520.750    6.679    0.178    0.376  101.223  159.754
  521.000    6.976    0.181    0.370  104.399  159.758
  521.250    7.314    0.182    0.381  107.269  160.169
  521.500    7.540    0.177    0.384  103.610  160.681
  521.750    7.685    0.167    0.373  101.415  161.092
  522.000    7.704    0.166    0.363  102.028  161.299
  522.250    7.580    0.160    0.358  102.274  161.506
  522.500    7.597    0.156    0.371  102.520  161.917
  522.750    7.715    0.155    0.387  102.523  161.514
  523.000    7.821    0.151    0.396  101.670  161.416
  523.250    7.928    0.146    0.389   98.133  161.114
  523.500    8.006    0.149    0.380   93.986  160.711
  523.750    8.010    0.162    0.376   90.326  160.511
  524.000    7.984    0.172    0.386   88.132  160.211
  524.250    7.943    0.168    0.379   89.293  160.010
  524.500    7.917    0.159    0.372   92.286  159.505
  524.750    7.848    0.159    0.366   95.156  159.102
  525.000    7.837    0.161    0.366   95.586  158.495
  525.250    7.797    0.160    0.370   96.320  158.296
  525.500    7.786    0.160    0.381   96.933  157.994
  525.750    7.790    0.177    0.377   88.574  157.591
  526.000    7.780    0.193    0.369   80.887  157.188
  526.250    7.783    0.198    0.362   79.364  156.581
  526.500    7.787    0.179    0.357   84.492  155.771
  526.750    7.791    0.187    0.353   87.973  154.962
  527.000    7.824    0.195    0.348   90.050  154.457
  527.250    7.872    0.191    0.344   88.771  154.155
  527.500    7.920    0.191    0.339   85.050  153.956
  527.750    7.969    0.190    0.348   84.259  153.552
  528.000    8.032    0.185    0.360   85.909  153.251
  528.250    8.143    0.177    0.372   88.658  152.847
  528.500    8.192    0.185    0.363   90.674  152.546
  528.750    8.273    0.184    0.353   91.591  152.855
  529.000    8.355    0.183    0.346   87.139  152.960
  529.250    8.406    0.184    0.349   87.446  153.168
  529.500    8.441    0.188    0.349   91.476  153.171
  529.750    8.493    0.192    0.348   95.262  153.175
  530.000    8.561    0.197    0.343   97.827  153.077
  530.250    8.614    0.200    0.339   95.571  153.284
  530.500    8.699    0.200    0.333   98.930  153.288
  530.750    8.786    0.192    0.328  104.730  153.495
  531.000    8.839    0.183    0.324  111.383  153.601
  531.250    8.910    0.188    0.331  120.295  154.010
  531.500    8.947    0.183    0.341  124.142  154.116
  531.750    8.936    0.178    0.344  122.863  154.222
  532.000    8.906    0.186    0.337  112.674  154.123
  532.250    8.745    0.193    0.333   98.274  153.924
  532.500    8.366    0.225    0.347   82.593  153.622
  532.750    7.666    0.247    0.358   61.053  153.524
  533.000    6.869    0.259    0.362   57.088  153.426
  533.250    6.341    0.268    0.367   54.223  153.328
  533.500    6.089    0.295    0.360   49.709  153.128
  533.750    5.979    0.295    0.353   44.829  153.234
  534.000    5.795    0.287    0.347   42.024  152.932
  534.250    5.658    0.279    0.348   40.623  152.530
  534.500    5.494    0.290    0.347   39.282  152.025
  534.750    5.365    0.306    0.343   36.904  151.520
  535.000    5.278    0.317    0.353   33.123  151.625
  535.250    5.193    0.317    0.375   29.952  151.731
  535.500    5.109    0.317    0.366   27.635  151.327
  535.750    5.035    0.317    0.356   25.990  151.026
  536.000    4.991    0.324    0.362   27.029  150.623
  536.250    5.003    0.315    0.360   27.764  150.525
  536.500    5.024    0.309    0.345   26.851  150.427
  536.750    5.055    0.310    0.332   25.511  150.837
  537.000    5.057    0.311    0.339   25.085  152.570
  537.250    5.041    0.306    0.355   25.942  154.608
  537.500    5.024    0.317    0.356   28.080  156.340
  537.750    4.999    0.328    0.354   28.998  155.937
  538.000    4.964    0.334    0.357   28.146  155.331
  538.250    4.911    0.347    0.369   29.246  154.826
  538.500    4.913    0.366    0.376   34.314  154.423
  538.750    4.953    0.375    0.381   39.991  153.918
  539.000    5.077    0.363    0.422   45.669  153.922
  539.250    5.214    0.325    0.404   53.238  153.926
  539.500    5.385    0.286    0.361   55.803  154.132
  539.750    5.657    0.257    0.376   54.036  154.442
  540.000    5.930    0.232    0.364   51.048  154.852
  540.250    6.275    0.246    0.338   70.029  155.364
  540.500    6.779    0.210    0.323   82.419  156.284
  540.750    7.160    0.176    0.320   87.304  157.101
  541.000    7.492    0.166    0.329   90.906  157.816
  541.250    7.580    0.175    0.344   93.533  158.125
  541.500    7.416    0.241    0.356   91.460  158.536
  541.750    6.846    0.274    0.368   70.958  158.844
  542.000    6.157    0.310    0.371   51.432  159.153
  542.250    5.569    0.346    0.365   38.069  159.259
  542.500    5.027    0.354    0.366   30.688  159.365
  542.750    4.702    0.349    0.366   26.967  159.367
  543.000    4.507    0.345    0.361   25.078  158.863
  543.250    4.442    0.339    0.356   24.592  158.054
  543.500    4.444    0.336    0.360   24.228  157.446
  543.750    4.488    0.337    0.373   24.291  156.738
  544.000    4.550    0.336    0.367   29.481  156.335
  544.250    4.603    0.322    0.362   38.209  156.033
  544.500    4.692    0.300    0.359   51.820  155.630
  544.750    4.855    0.283    0.357   59.450  155.329
  545.000    5.071    0.270    0.356   62.443  154.926
  545.250    5.227    0.258    0.358   63.605  154.828
  545.500    5.299    0.275    0.362   64.340  154.831
  545.750    5.117    0.298    0.371   43.043  154.937
  546.000    4.715    0.321    0.376   38.347  154.839
  546.250    4.553    0.331    0.376   35.725  154.844
  546.500    4.479    0.333    0.373   36.521  154.949
  546.750    4.423    0.322    0.370   40.551  154.952
  547.000    4.392    0.312    0.376   39.088  155.159
  547.250    4.362    0.322    0.381   35.795  155.264
  547.500    4.315    0.334    0.385   33.295  155.573
  547.750    4.285    0.345    0.387   30.307  155.780
  548.000    4.287    0.349    0.379   28.845  156.089
  548.250    4.273    0.344    0.369   28.664  156.195
  548.500    4.292    0.334    0.364   31.290  156.401
  548.750    4.375    0.330    0.352   37.029  156.202
