~VERSION INFORMATION
 VERS.                 2.0:   CWLS LOG ASCII STANDARD -VERSION 2.0
 WRAP.                  NO:   ONE LINE PER DEPTH STEP
~WELL INFORMATION BLOCK
#MNEM.UNIT           DATA                    DESCRIPTION OF MNEMONIC
#---------    -------------------            -------------------------------
# Generated from Intellog Unique Number	CW_73_75/WELL/56
WELL.         AMOCO ET AL JO-1 MARTIN HILLS  : Well_name    - WELL
LOC .         00/06-11-075-03W5/0            : Location     - LOCATION
UWI .         00/06-11-075-03W5/0            : Uwi          - UNIQUE WELL ID
ENTR.         JJ                             : Entered      - ENTERED BY
SRVC.         SCHLUMBERGER                   : Scn          - SERVICE COMPANY
DATE.         4 MAR 73                       : Date         - LOG DATE
STRT.M        542.794                        : top_depth    - START DEPTH
STOP.M        670.544                        : bot_depth    - STOP DEPTH
STEP.M        0.25                           : increment    - STEP LENGTH
 NULL. -999.2500:NULL Value
~CURVE INFORMATION BLOCK
#MNEM UNIT       ERCB CURVE CODE    CURVE DESCRIPTION
#-----------   ------------------   ----------------------------------
DEPT.M        00 001 00 00         : DEPTH        - DEPTH
NPHI.V/V      00 330 00 00         : PHIN         - NEUTRON POROSITY (SANDSTONE)
GR  .API      00 310 00 00         : GR           - GAMMA RAY
DELT.US/F     00 520 00 00         : DELT         - SONIC TRAVEL TIME
ILD .OHMM     00 120 00 00         : RESD         - DEEP RESISTIVITY (DIL)
~PARAMETER INFORMATION
#MNEM.UNIT           DATA             DESCRIPTION OF MNEMONIC
#---------         -----------     ------------------------------
GL  .M        716.067              : gl           - GROUND LEVEL ELEVATION
EREF.M        720.547              : kb           - ELEVATION OF DEPTH REFERENCE
DATM.M        716.067              : datum        - DATUM ELEVATION
TDD .M        659.587              : tdd          - TOTAL DEPTH DRILLER
RUN .         ONE                  : Run          - RUN NUMBER
ENG .         BOYKO                : Engineer     - RECORDING ENGINEER
WIT .         HUCULAK              : Witness      - WITNESSED BY
BASE.         EDM                  : Branch       - HOME BASE OF LOGGING UNIT
MUD .         CHEM GEL             : Mud_type     - MUD TYPE
MATR.         SANDSTONE            : Logunit      - NEUTRON MATRIX
TMAX.C        27.7778              : BHT          - MAXIMUM RECORDED TEMPERATURE
BHTD.M        659.282              : BHTDEP       - MAXIMUM RECORDED TEMPERATURE
RMT .C        20                   : MDTP         - TEMPERATURE OF MUD
MUDD.KG/M     1104                 : MWT          - MUD DENSITY
NEUT.         1                    : NEUTRON      - NEUTRON TYPE
RESI.         0                    : RESIST       - RESISTIVITY TYPE
RM  .OHMM     4.96                 : RM           - RESISTIVITY OF MUD
RMC .OHMM     0                    : RMC          - RESISTIVITY OF MUD CAKE
RMF .OHMM     4.75                 : RMF          - RESISTIVITY OF MUD FILTRATE
SUFT.C        5                    : SUFT         - SURFACE TEMPERATURE
~A  DEPTH     PHIN       GR     DELT     RESD
# ...
  586.294    0.374   77.056  116.324    3.998
  586.544    0.366   81.192  116.320    3.997
  586.794    0.355   84.042  115.728    4.085
  587.044    0.352   83.840  115.039    4.252
  587.294    0.359   83.570  114.155    4.315
  587.544    0.366   82.565  113.466    4.574
  587.794    0.366   82.477  113.169    4.607
  588.044    0.356   82.758  112.870    4.581
  588.294    0.350   80.293  113.257    4.522
  588.544    0.353   83.028  113.448    4.472
  588.794    0.364   83.682  114.519    4.374
  589.044    0.369   83.712  115.883    4.271
  589.294    0.349   83.760  116.367    4.247
  589.544    0.353   83.363  116.069    4.277
  589.794    0.342   79.231  115.869    4.339
  590.044    0.329   76.701  115.083    4.387
  590.294    0.326   77.291  113.905    4.533
  590.544    0.340   79.960  114.779    4.976
  590.794    0.362   75.347  114.091    5.491
  591.044    0.361   71.591  112.816    5.633
  591.294    0.354   77.501  107.630    5.235
  591.544    0.347   81.453  104.497    4.873
  591.794    0.351   78.371  107.621    4.479
  592.044    0.366   78.718  113.872    4.263
  592.294    0.363   82.055  114.748    4.056
  592.544    0.363   85.457  115.427    3.953
  592.794    0.349   87.153  115.814    3.881
  593.044    0.360   87.488  116.005    3.831
  593.294    0.361   87.651  115.414    3.852
  593.544    0.335   87.016  115.213    3.851
  593.794    0.325   86.075  116.089    3.850
  594.044    0.331   84.031  115.889    3.822
  594.294    0.343   79.243  115.005    3.842
  594.544    0.357   76.345  113.241    3.891
  594.794    0.368   76.871  111.672    4.050
  595.044    0.364   78.922  111.471    4.270
  595.294    0.336   83.485  112.444    4.586
  595.544    0.332   83.708  114.787    5.426
  595.794    0.335   73.779  117.519    6.807
  596.044    0.352   62.806  118.198    8.761
  596.294    0.365   58.013  120.051   10.791
  596.544    0.368   60.080  122.686   11.274
  596.794    0.358   60.474  124.148   11.108
  597.044    0.350   57.700  121.895   10.456
  597.294    0.354   52.659  121.793    9.645
  597.544    0.361   57.839  120.614    9.045
  597.794    0.353   60.259  120.219    8.103
  598.044    0.348   58.223  119.238    7.712
  598.294    0.349   56.914  117.473    7.272
  598.544    0.338   56.645  115.709    6.611
  598.794    0.343   57.906  115.900    5.944
  599.044    0.352   62.649  116.970    5.565
  599.294    0.361   64.344  116.184    5.374
  599.544    0.336   61.929  115.202    5.275
  599.794    0.331   58.481  113.633    5.169
  600.044    0.348   56.316  112.260    5.216
  600.294    0.351   57.395  111.669    5.273
  600.544    0.353   63.368  110.980    5.272
  600.794    0.350   58.453  111.561    5.157
  601.044    0.356   58.668  112.828    5.044
  601.294    0.346   63.233  114.192    4.943
  601.544    0.354   60.886  114.970    4.808
  601.794    0.344   61.602  115.942    4.626
  602.044    0.320   61.145  116.426    4.418
  602.294    0.324   62.346  116.813    4.306
  602.544    0.341   64.156  116.906    4.212
  602.794    0.355   67.194  115.631    4.045
  603.044    0.318   74.871  114.258    3.787
  603.294    0.313   79.923  113.080    3.630
  603.544    0.305   80.143  111.414    3.423
  603.794    0.295   76.456  111.214    3.312
  604.044    0.252   75.760  111.209    3.391
  604.294    0.190   68.890  110.325    4.027
  604.544    0.141   60.727  101.523    4.978
  604.794    0.182   55.260   91.547    5.773
  605.044    0.215   54.258   75.413    6.706
  605.294    0.328   59.255   64.460    6.930
  605.544    0.373   64.427   67.095    6.007
  605.794    0.350   69.170   89.965    5.198
  606.044    0.344   72.266  104.721    4.769
  606.294    0.342   72.797  116.154    4.014
  606.544    0.337   71.797  118.006    3.920
  606.794    0.337   71.158  118.686    4.406
  607.044    0.352   71.321  118.975    4.697
  607.294    0.353   71.787  118.383    4.979
  607.544    0.352   69.685  117.694    5.173
  607.794    0.359   68.436  116.517    5.424
  608.044    0.351   68.842  116.219    5.636
  608.294    0.333   70.588  116.508    5.771
  608.544    0.323   71.976  115.819    6.040
  608.794    0.296   69.931  114.739    6.474
  609.044    0.281   69.476  113.953    7.093
  609.294    0.298   69.514  109.843    7.772
  609.544    0.303   66.991  103.288    7.827
  609.794    0.309   67.149   94.681    7.614
  610.044    0.302   71.834  103.768    7.312
  610.294    0.304   72.495  109.238    7.062
  610.544    0.303   72.394  111.676    6.708
  610.794    0.312   71.271  111.966    6.466
  611.044    0.323   71.371  111.766    6.255
  611.294    0.332   72.331  110.783    5.997
  611.544    0.318   74.139  109.996    5.728
  611.794    0.321   76.068  109.601    5.431
  612.044    0.321   73.904  109.595    5.381
  612.294    0.318   73.883  109.884    5.331
  612.544    0.327   78.447  110.369    5.418
  612.794    0.336   79.215  111.244    5.568
  613.044    0.326   74.491  112.315    5.936
  613.294    0.321   71.831  113.191    6.456
  613.544    0.319   69.727  113.577    6.895
  613.794    0.311   70.198  113.181    7.404
  614.044    0.304   70.723  112.591    7.834
  614.294    0.320   69.360  111.706    8.051
  614.544    0.313   69.695  110.626    7.789
  614.794    0.333   72.060  109.644    7.225
  615.044    0.345   74.363  107.293    6.532
  615.294    0.348   76.726  107.484    5.884
  615.544    0.351   75.910  110.999    5.064
  615.794    0.320   77.723  111.189    4.570
  616.044    0.302   79.770  111.966    4.397
  616.294    0.304   84.029  112.256    4.192
  616.544    0.322   90.059  112.153    4.108
  616.794    0.328   85.263  112.051    4.055
  617.044    0.312   87.076  112.047    4.084
  617.294    0.313   88.155  111.651    4.151
  617.544    0.303   87.277  110.864    4.377
  617.794    0.309   86.575  111.642    4.648
  618.044    0.316   83.562  111.051    4.742
  618.294    0.319   83.105  109.971    4.856
  618.544    0.320   86.261  109.282    4.926
  618.794    0.331   85.869  109.179    4.935
  619.044    0.336   81.689  109.273    4.853
  619.294    0.348   82.525  109.659    4.644
  619.544    0.344   86.536  109.849    4.526
  619.794    0.311   90.005  109.845    4.460
  620.044    0.298   92.302  109.840    4.533
  620.294    0.300   90.989  109.739    4.727
  620.544    0.297   84.487  109.148    5.104
  620.794    0.304   78.898  106.992    5.245
  621.044    0.334   83.095  104.447    5.264
  621.294    0.341   87.843  106.984    4.963
  621.544    0.303   90.322  110.889    4.811
  621.794    0.296   89.746  110.102    4.731
  622.044    0.312   88.937  108.534    5.108
  622.294    0.328   92.637  108.137    5.617
  622.544    0.314   86.987  108.036    6.054
  622.794    0.289   80.847  105.881    7.458
  623.044    0.300   84.315  103.725    8.632
  623.294    0.308   85.327  102.255    9.792
  623.544    0.302   85.612  102.249   11.565
  623.794    0.297   85.649  102.148   13.708
  624.044    0.276   82.138  100.970   14.613
  624.294    0.272   76.551   99.792   13.654
  624.544    0.286   78.114   98.224   11.727
  624.794    0.302   82.439   97.730   10.858
  625.044    0.302   84.742  100.854   10.072
  625.294    0.280   86.608  103.098    9.073
  625.544    0.271   87.988  103.582    7.765
  625.794    0.273   84.602  102.600    7.229
  626.044    0.291   83.297  103.182    7.071
  626.294    0.297   80.157  103.567    7.148
  626.544    0.279   75.236  103.466    7.889
  626.794    0.264   70.446  101.702    9.015
  627.044    0.265   71.092   99.058   10.097
  627.294    0.259   74.127   95.925   11.184
  627.544    0.253   77.046   96.996   12.367
  627.794    0.247   75.733   97.382   13.182
  628.044    0.242   72.591   95.618   13.424
  628.294    0.244   73.610   92.582   12.963
  628.544    0.253   79.640   91.112   12.633
  628.794    0.270   81.389   90.814   11.891
  629.044    0.257   77.756   92.569   11.010
  629.294    0.256   84.340   92.956   10.364
  629.544    0.291   89.573   91.289    9.387
