~VERSION INFORMATION
 VERS.                 2.0:   CWLS LOG ASCII STANDARD -VERSION 2.0
 WRAP.                  NO:   ONE LINE PER DEPTH STEP
~WELL INFORMATION BLOCK
#MNEM.UNIT           DATA                    DESCRIPTION OF MNEMONIC
#---------    -------------------            -------------------------------
# Generated from Intellog Unique Number	CC_80_83/WELL/1173
NULL.         -999.25                        : NULL_VALUE
WELL.         NOVALTA NEWBY                  : Well_name    - WELL
LOC .         07-06-083-04W4                 : Location     - LOCATION          
UWI .         00/07-06-083-04W4/0            : Uwi          - UNIQUE WELL ID    
ENTR.         DW                             : Entered      - ENTERED BY        
SRVC.         COMPUTALOG                     : Scn          - SERVICE COMPANY   
DATE.         26 JAN 84                      : Date         - LOG DATE
STRT.M        65                             : top_depth    - START DEPTH       
STOP.M        323.899                        : bot_depth    - STOP DEPTH        
STEP.M        0.3                            : increment    - STEP LENGTH       
~CURVE INFORMATION BLOCK
#MNEM UNIT       ERCB CURVE CODE    CURVE DESCRIPTION
#-----------   ------------------   ----------------------------------
DEPT.M        00 001 00 00         : DEPTH        - DEPTH                       
DPHI.V/V      00 890 00 00         : PHID         - DENSITY POROSITY (LIMESTONE)
NPHI.V/V      00 330 00 00         : PHIN         - NEUTRON POROSITY (LIMESTONE)
GR  .API      00 310 00 00         : GR           - GAMMA RAY                   
ILD .OHMM     00 120 00 00         : RESD         - DEEP RESISTIVITY (DIL)      
~PARAMETER INFORMATION       
#MNEM.UNIT           DATA             DESCRIPTION OF MNEMONIC
#---------         -----------     ------------------------------
GL  .M        462.5                : gl           - GROUND LEVEL ELEVATION      
EREF.M        465.5                : kb           - ELEVATION OF DEPTH REFERENCE
DATM.M        465.5                : datum        - DATUM ELEVATION             
TDD .M        325                  : tdd          - TOTAL DEPTH DRILLER         
RUN .         ONE                  : Run          - RUN NUMBER                  
ENG .         BILL                 : Engineer     - RECORDING ENGINEER          
WIT .         JIM                  : Witness      - WITNESSED BY                
MUD .         GEL                  : Mud_type     - MUD TYPE                    
MATR.         LIMESTONE            : Logunit      - NEUTRON MATRIX              
TMAX.C        26                   : BHT          - MAXIMUM RECORDED TEMPERATURE
BHTD.M        325                  : BHTDEP       - MAXIMUM RECORDED TEMPERATURE
MATR.         1                    : LOGUNIT      - NEUTRON MATRIX              
RMT .C        25                   : MDTP         - TEMPERATURE OF MUD          
NEUT.         1                    : NEUTRON      - NEUTRON TYPE                
RESI.         0                    : RESIST       - RESISTIVITY TYPE            
RMC .OHMM     0.25                 : RMC          - RESISTIVITY OF MUD CAKE     
RMF .OHMM     0.25                 : RMF          - RESISTIVITY OF MUD FILTRATE 
SUFT.C        15                   : SUFT         - SURFACE TEMPERATURE         
~A  DEPTH     PHID     PHIN       GR     RESD
# ...
  273.801    0.281    0.364   72.466    1.888
  274.101    0.232    0.347   79.197    2.154
  274.401    0.217    0.342   79.803    2.323
  274.701    0.235    0.338   77.962    2.458
  275.001    0.222    0.340   79.182    2.701
  275.301    0.150    0.352   88.973    3.025
  275.601    0.125    0.364  111.621    3.452
  275.901    0.144    0.375  123.249    3.793
  276.201    0.167    0.389  126.918    3.939
  276.501    0.173    0.395  118.342    3.652
  276.801    0.199    0.329   81.601    2.804
  277.101    0.249    0.292   69.352    1.851
  277.401    0.292    0.309   54.653    1.653
  277.701    0.307    0.331   51.586    1.532
  278.001    0.301    0.329   56.479    1.532
  278.301    0.272    0.353   63.821    1.782
  278.601    0.232    0.345   73.000    2.152
  278.901    0.201    0.329   83.403    2.699
  279.201    0.193    0.345   93.807    3.198
  279.501    0.200    0.330   91.353    3.198
  279.801    0.226    0.310   83.388    2.802
  280.101    0.238    0.296   79.097    2.501
  280.401    0.238    0.339   86.440    2.501
  280.701    0.227    0.364  101.129    2.801
  281.001    0.210    0.363   96.225    3.257
  281.301    0.174    0.299   91.935    3.319
  281.601    0.180    0.303   91.930    3.319
  281.901    0.228    0.306   80.905    3.020
  282.201    0.255    0.308   66.818    2.548
  282.501    0.274    0.334   61.915    1.993
  282.801    0.277    0.364   56.399    1.919
  283.101    0.277    0.351   52.109    2.069
  283.401    0.269    0.315   50.880    2.407
  283.701    0.235    0.328   85.774    2.595
  284.001    0.204    0.352   69.238    2.746
  284.301    0.246    0.341   61.274    2.798
  284.601    0.231    0.320   66.166    2.798
  284.901    0.200    0.309   75.957    2.798
  285.201    0.178    0.307   85.136    2.851
  285.501    0.199    0.335   90.030    3.017
  285.801    0.206    0.355   81.453    3.253
  286.101    0.203    0.360   84.509    3.378
  286.401    0.187    0.368  102.259    3.442
  286.701    0.181    0.396  107.764    3.507
  287.001    0.181    0.409  104.698    3.377
  287.301    0.193    0.378   88.163    3.131
  287.601    0.215    0.360   63.056    2.146
  287.901    0.269    0.361   56.928    1.744
  288.201    0.286    0.347   56.311    1.617
  288.501    0.332    0.334   56.919    1.587
  288.801    0.410    0.360   61.811    1.586
  289.101    0.426    0.347   67.928    1.586
  289.401    0.286    0.359   69.149    1.499
  289.701    0.284    0.371   63.021    1.416
  290.001    0.302    0.354   49.547    1.313
  290.301    0.298    0.339   51.990    1.264
  290.601    0.298    0.345   52.597    1.264
  290.901    0.300    0.354   51.368    1.264
  291.201    0.297    0.357   48.914    1.217
  291.500    0.300    0.341   37.889    1.172
  291.800    0.318    0.343   37.271    1.129
  292.100    0.314    0.362   43.388    1.172
  292.400    0.289    0.354   45.833    1.194
  292.700    0.284    0.360   48.276    1.194
  293.000    0.288    0.368   47.661    1.194
  293.300    0.310    0.361   34.797    1.150
  293.600    0.321    0.368   28.058    1.107
  293.900    0.327    0.354   21.318    1.026
  294.200    0.330    0.342   20.089    0.952
  294.500    0.340    0.342   20.697    0.899
  294.800    0.346    0.364   19.466    0.850
  295.100    0.351    0.369   17.012    0.834
  295.400    0.356    0.365   15.784    0.818
  295.700    0.360    0.364   19.451    0.833
  296.000    0.355    0.358   22.509    0.899
  296.300    0.340    0.353   31.075    0.969
  296.600    0.323    0.358   34.131    1.026
  296.900    0.333    0.364   30.453    1.065
  297.200    0.342    0.361   23.100    1.085
  297.500    0.344    0.347   20.035    1.065
  297.800    0.339    0.329   21.866    1.045
  298.100    0.333    0.328   23.698    1.006
  298.400    0.333    0.340   25.530    0.987
  298.700    0.329    0.349   24.301    0.969
  299.000    0.324    0.356   18.785    0.968
  299.300    0.329    0.367   14.494    0.968
  299.600    0.349    0.378   13.265    0.968
  299.900    0.354    0.361   15.097    0.950
  300.200    0.343    0.353   16.317    0.915
  300.500    0.340    0.366   18.761    0.915
  300.800    0.343    0.359   18.142    0.915
  301.100    0.338    0.347   16.913    0.932
  301.400    0.344    0.318   21.807    1.005
  301.700    0.359    0.369   73.232    1.125
  302.000    0.328    0.463   84.248    1.284
  302.300    0.233    0.398   33.425    1.581
  302.600    0.249    0.280   27.298    1.804
  302.900    0.249    0.271   35.864    2.058
  303.200    0.238    0.288   37.083    2.097
  303.500    0.244    0.301   35.242    2.058
  303.800    0.258    0.305   38.911    1.982
  304.100    0.267    0.299   43.192    1.908
  304.400    0.268    0.301   44.410    1.769
  304.700    0.283    0.333   34.609    1.610
  305.000    0.315    0.344   26.646    1.384
  305.300    0.326    0.335   21.743    1.236
  305.600    0.327    0.327   21.738    1.103
  305.900    0.335    0.337   22.345    1.023
  306.200    0.346    0.349   16.216    0.948
  306.500    0.348    0.336   14.376    0.931
  306.800    0.348    0.325   15.596    0.896
  307.100    0.341    0.330   21.712    0.913
  307.400    0.325    0.338   24.156    0.930
  307.700    0.313    0.320   24.764    0.985
  308.000    0.303    0.333   22.310    1.042
  308.300    0.297    0.344   21.692    1.102
  308.600    0.310    0.330   21.076    1.123
  308.900    0.325    0.315   20.458    1.145
  309.200    0.321    0.306   20.454    1.166
  309.500    0.314    0.349   24.735    1.234
  309.800    0.272    0.364   29.628    1.331
  310.100    0.241    0.336   44.930    1.548
  310.400    0.234    0.302   57.782    1.766
  310.700    0.233    0.311   56.552    1.978
  311.000    0.248    0.329   47.976    1.941
  311.300    0.284    0.330   49.807    1.904
  311.600    0.295    0.338   51.027    1.799
  311.900    0.292    0.345   48.573    1.668
  312.200    0.299    0.341   41.222    1.434
  312.500    0.325    0.331   28.972    1.281
  312.800    0.340    0.336   19.783    1.060
  313.100    0.354    0.338   16.717    0.895
  313.400    0.359    0.332   17.324    0.814
  313.700    0.353    0.348   19.768    0.799
  314.000    0.337    0.329   31.396    0.845
  314.300    0.277    0.350  115.270    1.122
  314.600    0.234    0.441  118.326    1.546
  314.900    0.231    0.437   91.994    2.052
  315.200    0.296    0.368   90.764    2.882
  315.500    0.314    0.377   96.270    3.683
  315.799    0.293    0.461   93.203    3.824
  316.099    0.189    0.449   87.688    3.824
  316.399    0.167    0.331   95.029    3.824
  316.699    0.156    0.308   98.087    3.823
  316.999    0.150    0.305  106.653    3.970
  317.299    0.162    0.294  115.832    4.201
  317.599    0.184    0.292  118.888    4.201
  317.899    0.200    0.334  107.863    4.122
  318.199    0.180    0.394   88.266    4.280
  318.499    0.146    0.367   88.872    4.529
  318.799    0.153    0.330   88.255    4.793
  319.099    0.178    0.315   86.414    4.884
  319.399    0.187    0.318   85.184    4.792
  319.699    0.133    0.394   85.792    4.883
  319.999    0.024    0.385   89.461    5.167
  320.299    0.015    0.324   93.742    6.009
  320.599    0.024    0.193   95.572    7.395
  320.899    0.030    0.190   94.344    9.451
  321.199    0.038    0.189   91.890   12.783
  321.499    0.035    0.181   82.089   15.148
  321.799    0.026    0.177   28.205   18.643
  322.099    0.027    0.174   19.017   20.486
  322.399    0.036    0.173   13.502   26.182
  322.699    0.058    0.174   15.333   27.705
  322.999    0.048    0.176   17.777   27.185
  323.299    0.026    0.174   19.607   27.183
  323.599    0.036    0.173   19.604   27.181
  323.899    0.059    0.175   17.151   27.696
