~VERSION INFORMATION
 VERS.                 2.0:   CWLS LOG ASCII STANDARD -VERSION 2.0
 WRAP.                  NO:   ONE LINE PER DEPTH STEP
~WELL INFORMATION BLOCK
#MNEM.UNIT           DATA                    DESCRIPTION OF MNEMONIC
#---------    -------------------            -------------------------------
# Generated from Intellog Unique Number	CC_80_83/WELL/1044
NULL.         -999.25                        : NULL_VALUE
LOC .         01-27-080-14W4                 : Location     - LOCATION          
UWI .         00/01-27-080-14W4/0            : Uwi          - UNIQUE WELL ID    
ENTR.         DW                             : Entered      - ENTERED BY        
SRVC.         SCHLUMBERGER                   : Scn          - SERVICE COMPANY   
STRT.M        240                            : top_depth    - START DEPTH       
STOP.M        474.75                         : bot_depth    - STOP DEPTH        
STEP.M        0.25                           : increment    - STEP LENGTH       
~CURVE INFORMATION BLOCK
#MNEM UNIT       ERCB CURVE CODE    CURVE DESCRIPTION
#-----------   ------------------   ----------------------------------
DEPT.M        00 001 00 00         : DEPTH        - DEPTH                       
GR  .API      00 310 00 00         : GR           - GAMMA RAY                   
DPHI.V/V      00 890 00 00         : PHID         - DENSITY POROSITY (SANDSTONE)
NPHI.V/V      00 330 00 00         : PHIN         - NEUTRON POROSITY (SANDSTONE)
ILD .OHMM     00 120 00 00         : RESD         - DEEP RESISTIVITY (DIL)      
~PARAMETER INFORMATION       
#MNEM.UNIT           DATA             DESCRIPTION OF MNEMONIC
#---------         -----------     ------------------------------
GL  .M        663.1                : gl           - GROUND LEVEL ELEVATION      
EREF.M        667.1                : kb           - ELEVATION OF DEPTH REFERENCE
DATM.M        667.1                : datum        - DATUM ELEVATION             
TDD .M        477                  : tdd          - TOTAL DEPTH DRILLER         
RUN .         ONE                  : Run          - RUN NUMBER                  
ENG .         BILL                 : Engineer     - RECORDING ENGINEER          
WIT .         JIM                  : Witness      - WITNESSED BY                
MUD .         GEL                  : Mud_type     - MUD TYPE                    
MATR.         SANDSTONE            : Logunit      - NEUTRON MATRIX              
TMAX.C        21.1                 : BHT          - MAXIMUM RECORDED TEMPERATURE
BHTD.M        477                  : BHTDEP       - MAXIMUM RECORDED TEMPERATURE
MATR.         1                    : LOGUNIT      - NEUTRON MATRIX              
RMT .C        25                   : MDTP         - TEMPERATURE OF MUD          
NEUT.         1                    : NEUTRON      - NEUTRON TYPE                
RESI.         0                    : RESIST       - RESISTIVITY TYPE            
RMC .OHMM     0.25                 : RMC          - RESISTIVITY OF MUD CAKE     
RMF .OHMM     0.25                 : RMF          - RESISTIVITY OF MUD FILTRATE 
SUFT.C        15                   : SUFT         - SURFACE TEMPERATURE         
~A  DEPTH       GR     PHID     PHIN     RESD
# ...
  283.500   91.191    0.280    0.466   12.768
  283.750   95.205    0.281    0.435   12.537
  284.000   99.648    0.266    0.423   12.619
  284.250  102.967    0.262    0.415   13.042
  284.500  104.717    0.276    0.401   13.288
  284.750  105.715    0.292    0.395   13.676
  285.000  102.949    0.306    0.394   14.860
  285.250   86.219    0.322    0.400   15.424
  285.500   65.413    0.321    0.416   15.242
  285.750   60.965    0.302    0.426   15.042
  286.000   67.599    0.285    0.429   14.509
  286.250   72.425    0.272    0.425   13.155
  286.500   77.595    0.253    0.405   11.544
  286.750   79.625    0.243    0.397   10.386
  287.000   77.242    0.246    0.426   10.346
  287.250   76.289    0.263    0.459   10.611
  287.500   75.613    0.281    0.442   10.736
  287.750   72.749    0.290    0.403   10.930
  288.000   71.394    0.295    0.413   11.088
  288.250   71.297    0.303    0.443   10.934
  288.500   71.597    0.314    0.462   10.651
  288.750   67.850    0.324    0.454   10.929
  289.000   64.825    0.329    0.426   11.469
  289.250   67.025    0.332    0.403   11.795
  289.500   70.192    0.325    0.407   11.947
  289.750   73.255    0.294    0.428   11.415
  290.000   70.527    0.281    0.445   10.843
  290.250   65.305    0.302    0.458   11.252
  290.500   64.684    0.333    0.454   12.415
  290.750   73.497    0.321    0.441   12.807
  291.000   87.609    0.263    0.451   11.918
  291.250   91.408    0.246    0.466   11.549
  291.500   84.459    0.250    0.475   10.891
  291.750   79.207    0.258    0.477   10.405
  292.000   83.856    0.267    0.470   10.492
  292.250   90.714    0.272    0.449   10.926
  292.500   89.441    0.271    0.426   11.675
  292.750   88.643    0.256    0.425   12.519
  293.000   90.662    0.255    0.441   12.485
  293.250   94.040    0.268    0.470   12.246
  293.500   97.915    0.277    0.484   11.909
  293.750  102.100    0.282    0.467   11.331
  294.000  105.607    0.289    0.444   10.991
  294.250  106.895    0.277    0.428   10.380
  294.500  105.581    0.253    0.419    9.181
  294.750  101.915    0.259    0.421    9.034
  295.000   97.959    0.293    0.438   10.041
  295.250   94.156    0.308    0.454   11.227
  295.500   88.848    0.290    0.442   12.309
  295.750   85.423    0.284    0.419   12.730
  296.000   90.872    0.304    0.422   13.012
  296.250   93.852    0.321    0.424   12.819
  296.500   91.814    0.312    0.418   12.379
  296.750   89.499    0.292    0.414   11.917
  297.000   87.656    0.280    0.404   11.154
  297.250   92.131    0.263    0.406   10.537
  297.500   96.943    0.254    0.431    8.994
  297.750   99.460    0.251    0.458    7.729
  298.000   98.504    0.244    0.480    7.355
  298.250   92.992    0.233    0.485    7.530
  298.500   83.235    0.247    0.459    8.192
  298.750   71.374    0.311    0.447    9.090
  299.000   65.164    0.341    0.448   11.007
  299.250   54.628    0.358    0.441   13.651
  299.500   44.813    0.359    0.430   15.934
  299.750   47.651    0.335    0.421   17.637
  300.000   54.839    0.336    0.419   19.017
  300.250   51.947    0.348    0.433   19.092
  300.500   50.104    0.360    0.450   18.547
  300.750   53.993    0.361    0.455   17.865
  301.000   55.874    0.357    0.468   17.523
  301.250   52.087    0.353    0.491   17.586
  301.500   48.617    0.343    0.481   17.567
  301.750   47.357    0.336    0.445   17.548
  302.000   48.260    0.339    0.443   17.732
  302.250   48.656    0.343    0.456   18.241
  302.500   47.343    0.345    0.456   18.759
  302.750   46.049    0.348    0.434   18.952
  303.000   46.179    0.357    0.402   18.931
  303.250   46.190    0.361    0.399   18.929
  303.500   46.403    0.364    0.413   18.876
  303.750   47.941    0.364    0.429   19.097
  304.000   50.133    0.361    0.441   19.299
  304.250   51.237    0.361    0.445   19.267
  304.500   50.529    0.359    0.440   19.250
  304.750   48.524    0.345    0.434   18.915
  305.000   46.215    0.344    0.418   18.927
  305.250   45.249    0.352    0.411   18.500
  305.500   46.135    0.353    0.420   18.105
  305.750   47.775    0.349    0.431   18.087
  306.000   48.705    0.352    0.433   17.793
  306.250   48.304    0.360    0.427   18.353
  306.500   47.237    0.360    0.430   18.780
  306.750   49.274    0.361    0.415   18.836
  307.000   53.375    0.364    0.406   18.819
  307.250   53.825    0.362    0.429   18.797
  307.500   49.309    0.351    0.444   18.441
  307.750   46.102    0.343    0.436   17.526
  308.000   43.958    0.340    0.400   17.325
  308.250   44.777    0.342    0.388   17.454
  308.500   48.624    0.347    0.402   17.281
  308.750   51.458    0.354    0.411   17.023
  309.000   50.593    0.363    0.423   17.044
  309.250   49.062    0.373    0.437   17.067
  309.500   47.591    0.376    0.449   16.800
  309.750   48.339    0.367    0.464   16.676
  310.000   49.748    0.360    0.476   16.685
  310.250   51.137    0.364    0.479   16.729
  310.500   53.738    0.355    0.474   17.008
  310.750   52.136    0.314    0.457   17.250
  311.000   47.193    0.300    0.426   17.810
  311.250   50.413    0.339    0.424   18.075
  311.500   56.722    0.382    0.440   17.908
  311.750   57.474    0.388    0.443   17.534
  312.000   57.472    0.375    0.446   16.965
  312.250   57.105    0.361    0.441   16.667
  312.500   54.764    0.355    0.422   16.597
  312.750   49.984    0.355    0.439   16.770
  313.000   45.262    0.363    0.469   17.064
  313.250   41.908    0.377    0.467   17.322
  313.500   39.498    0.384    0.454   17.600
  313.750   40.769    0.386    0.447   17.903
  314.000   44.391    0.382    0.454   17.900
  314.250   47.046    0.379    0.456   18.093
  314.500   47.583    0.378    0.448   18.270
  314.750   45.665    0.378    0.442   18.292
  315.000   41.987    0.378    0.448   18.598
  315.250   40.829    0.377    0.471   18.604
  315.500   40.597    0.372    0.494   18.577
  315.750   41.607    0.367    0.487   18.567
  316.000   43.212    0.367    0.471   18.594
  316.250   43.972    0.368    0.480   18.516
  316.500   43.885    0.370    0.495   18.204
  316.750   43.301    0.372    0.484   18.178
  317.000   43.649    0.375    0.475   18.235
  317.250   44.053    0.384    0.476   18.006
  317.500   43.650    0.390    0.480   17.794
  317.750   43.310    0.372    0.475   17.833
  318.000   43.283    0.343    0.462   17.816
  318.250   41.671    0.364    0.459   17.812
  318.500   41.320    0.377    0.453   17.796
  318.750   41.426    0.374    0.451   17.825
  319.000   41.628    0.366    0.452   17.707
  319.250   42.116    0.357    0.454   17.381
  319.500   42.703    0.358    0.465   17.108
  319.750   45.253    0.362    0.471   16.839
  320.000   47.065    0.364    0.457   16.495
  320.250   43.552    0.363    0.442   16.579
  320.500   42.012    0.359    0.446   16.805
  320.750   46.799    0.354    0.451   16.732
  321.000   48.275    0.352    0.439   16.747
  321.250   43.127    0.356    0.457   17.031
  321.500   40.133    0.354    0.456   17.044
  321.750   43.997    0.349    0.438   17.211
  322.000   47.958    0.342    0.434   17.416
  322.250   47.538    0.338    0.450   17.363
  322.500   47.711    0.342    0.461   17.360
  322.750   49.378    0.347    0.454   17.355
  323.000   49.489    0.349    0.447   17.351
  323.250   50.483    0.345    0.445   17.335
  323.500   51.613    0.341    0.439   17.363
  323.750   51.452    0.342    0.428   17.286
  324.000   51.430    0.345    0.424   16.995
  324.250   49.888    0.349    0.427   16.977
  324.500   48.686    0.347    0.416   16.986
  324.750   47.803    0.342    0.419   16.975
  325.000   48.183    0.338    0.438   16.964
  325.250   49.935    0.336    0.442   16.975
  325.500   50.844    0.333    0.422   16.958
  325.750   50.837    0.331    0.421   16.676
  326.000   51.185    0.329    0.472   16.567
  326.250   52.008    0.329    0.484   16.788
  326.500   53.375    0.329    0.458   16.965
  326.750   55.840    0.324    0.450   16.917
