~VERSION INFORMATION
 VERS.                 2.0:   CWLS LOG ASCII STANDARD -VERSION 2.0
 WRAP.                  NO:   ONE LINE PER DEPTH STEP
~WELL INFORMATION BLOCK
#MNEM.UNIT           DATA                    DESCRIPTION OF MNEMONIC
#---------    -------------------            -------------------------------
# Generated from Intellog Unique Number	CW_70_72/WELL/3003
NULL.         -999.25                        : NULL_VALUE
WELL.         BRASCAN ET AL MEYER 04-11      : Well_name    - WELL              
LOC .         04-11-070-25W4                 : Location     - LOCATION          
UWI .         00/04-11-070-25W4/0            : Uwi          - UNIQUE WELL ID    
ENTR.         J                              : Entered      - ENTERED BY        
SRVC.         WESTERN ATLAS                  : Scn          - SERVICE COMPANY   
DATE.         27 JULY 80                     : Date         - LOG DATE          
STRT.M        485                            : top_depth    - START DEPTH       
STOP.M        685                            : bot_depth    - STOP DEPTH        
STEP.M        0.25                           : increment    - STEP LENGTH       
~CURVE INFORMATION BLOCK
#MNEM UNIT       ERCB CURVE CODE    CURVE DESCRIPTION
#-----------   ------------------   ----------------------------------
DEPT.M        00 001 00 00         : DEPTH        - DEPTH                       
ILD .OHMM     00 120 00 00         : RESD         - DEEP RESISTIVITY (DIL)      
CALI.MM       00 280 01 00         : CAL          - CALIPER                     
GR  .API      00 310 00 00         : GR           - GAMMA RAY                   
NPHI.V/V      00 330 00 00         : PHIN         - NEUTRON POROSITY (SANDSTONE)
DPHI.V/V      00 890 00 00         : PHID         - DENSITY POROSITY (SANDSTONE)
~PARAMETER INFORMATION       
#MNEM.UNIT           DATA             DESCRIPTION OF MNEMONIC
#---------         -----------     ------------------------------
GL  .M        670.9                : gl           - GROUND LEVEL ELEVATION      
EREF.M        674.46               : kb           - ELEVATION OF DEPTH REFERENCE
DATM.M        670.9                : datum        - DATUM ELEVATION             
TDD .M        726                  : tdd          - TOTAL DEPTH DRILLER         
RUN .         ONE                  : Run          - RUN NUMBER                  
ENG .         WEBER                : Engineer     - RECORDING ENGINEER          
WIT .         GOULD                : Witness      - WITNESSED BY                
MUD .         GEL CHEMX            : Mud_type     - MUD TYPE                    
MATR.         SANDSTONE            : Logunit      - NEUTRON MATRIX              
TMAX.C        35                   : BHT          - MAXIMUM RECORDED TEMPERATURE
BHTD.M        728.1                : BHTDEP       - MAXIMUM RECORDED TEMPERATURE
RMT .C        12                   : MDTP         - TEMPERATURE OF MUD          
MUDD.KG/M     9.5                  : MWT          - MUD DENSITY                 
NEUT.         1                    : NEUTRON      - NEUTRON TYPE                
RESI.         0                    : RESIST       - RESISTIVITY TYPE            
RM  .OHMM     3.9                  : RM           - RESISTIVITY OF MUD          
RMC .OHMM     4.5                  : RMC          - RESISTIVITY OF MUD CAKE     
RMF .OHMM     3.2                  : RMF          - RESISTIVITY OF MUD FILTRATE 
SUFT.C        0                    : SUFT         - SURFACE TEMPERATURE         
~A  DEPTH     RESD      CAL       GR     PHIN     PHID
# ...
  558.000    2.554  165.838   67.991    0.392    0.315
  558.250    2.485  166.734   68.155    0.401    0.318
  558.500    2.485  166.901   68.566    0.409    0.319
  558.750    2.485  167.382   69.163    0.421    0.318
  559.000    2.401  167.444   69.822    0.421    0.314
  559.250    2.419  167.406   71.336    0.412    0.308
  559.500    2.498  168.091   72.606    0.404    0.303
  559.750    2.628  168.373   73.209    0.394    0.296
  560.000    2.697  168.439   74.159    0.381    0.285
  560.250    2.880  167.995   73.968    0.367    0.278
  560.500    3.216  166.936   73.391    0.346    0.264
  560.750    3.313  166.285   73.391    0.332    0.249
  561.000    3.577  166.455   69.403    0.335    0.228
  561.250    3.666  167.857   69.075    0.375    0.210
  561.500    3.526  169.775   71.089    0.438    0.238
  561.750    3.184  170.349   75.935    0.464    0.255
  562.000    2.881  168.364   84.477    0.476    0.266
  562.250    2.705  166.487   89.572    0.478    0.268
  562.500    2.545  165.830   94.788    0.476    0.272
  562.750    2.541  166.209   96.614    0.464    0.283
  563.000    2.584  169.461   94.992    0.453    0.292
  563.250    2.806  173.533   90.413    0.441    0.294
  563.500    3.282  173.706   85.219    0.429    0.289
  563.750    3.523  171.202   87.410    0.419    0.282
  564.000    3.904  169.211   90.779    0.415    0.273
  564.250    4.168  168.669   94.089    0.426    0.257
  564.500    4.312  168.129   96.410    0.436    0.248
  564.750    4.394  166.348   95.584    0.439    0.240
  565.000    4.445  165.072   94.020    0.438    0.237
  565.250    4.413  164.735   93.329    0.433    0.235
  565.500    4.333  164.293   90.657    0.427    0.230
  565.750    4.294  166.308   89.221    0.429    0.227
  566.000    4.224  168.527   83.901    0.430    0.228
  566.250    4.179  170.041   84.869    0.427    0.230
  566.500    4.165  169.392   88.605    0.422    0.228
  566.750    4.165  168.639   91.600    0.419    0.224
  567.000    4.145  168.085   90.595    0.424    0.221
  567.250    4.138  168.057   87.620    0.433    0.220
  567.500    4.193  168.014   87.782    0.430    0.220
  567.750    4.193  167.883   89.303    0.420    0.224
  568.000    4.005  167.953   86.879    0.409    0.227
  568.250    4.081  168.023   85.626    0.402    0.228
  568.500    4.152  169.422   86.345    0.395    0.228
  568.750    4.223  170.825   88.042    0.390    0.224
  569.000    4.320  170.688   88.825    0.390    0.213
  569.250    4.345  168.188   89.423    0.399    0.210
  569.500    4.371  166.822   90.016    0.404    0.215
  569.750    4.405  166.373   90.610    0.407    0.222
  570.000    4.398  166.644   90.897    0.407    0.227
  570.250    4.310  166.304   90.636    0.405    0.233
  570.500    4.154  167.395   89.690    0.409    0.233
  570.750    3.981  169.007   88.067    0.415    0.232
  571.000    3.809  171.031   86.075    0.418    0.248
  571.250    3.596  173.355   81.127    0.409    0.261
  571.500    3.321  172.602   76.488    0.399    0.274
  571.750    3.171  168.973   72.955    0.400    0.284
  572.000    2.999  165.649   71.394    0.404    0.293
  572.250    2.875  163.568   69.645    0.404    0.284
  572.500    2.791  163.222   67.965    0.402    0.280
  572.750    2.695  163.188   66.215    0.402    0.283
  573.000    2.651  164.482   65.522    0.405    0.287
  573.250    2.594  165.378   65.745    0.404    0.286
  573.500    2.565  165.854   66.279    0.397    0.288
  573.750    2.524  165.721   66.136    0.390    0.294
  574.000    2.515  164.558   65.435    0.385    0.301
  574.250    2.456  163.087   64.738    0.385    0.306
  574.500    2.416  163.252   64.347    0.386    0.307
  574.750    2.354  165.376   65.742    0.387    0.301
  575.000    2.324  166.262   66.157    0.384    0.294
  575.250    2.351  166.232   65.704    0.379    0.290
  575.500    2.396  165.889   64.446    0.371    0.283
  575.750    2.573  165.340   63.383    0.364    0.275
  576.000    2.772  165.099   60.345    0.354    0.261
  576.250    3.015  165.069   56.748    0.334    0.244
  576.500    3.335  165.135   54.637    0.311    0.223
  576.750    3.758  165.510   54.116    0.291    0.207
  577.000    4.188  165.679   54.591    0.294    0.193
  577.250    4.564  165.957   55.498    0.304    0.204
  577.500    4.625  165.510   57.197    0.333    0.228
  577.750    4.215  164.753   57.115    0.354    0.247
  578.000    3.715  163.901   57.156    0.383    0.262
  578.250    3.155  163.246   58.184    0.397    0.279
  578.500    2.833  162.908   59.706    0.415    0.295
  578.750    2.680  163.593   63.193    0.415    0.303
  579.000    2.607  164.791   65.637    0.403    0.298
  579.250    2.599  165.578   67.465    0.397    0.282
  579.500    2.599  165.950   72.309    0.394    0.270
  579.750    2.614  165.917   75.556    0.389    0.260
  580.000    2.635  164.855   74.980    0.390    0.262
  580.250    2.675  162.361   72.065    0.396    0.267
  580.500    2.777  163.046   69.888    0.402    0.269
  580.750    2.852  161.979   70.052    0.407    0.268
  581.000    3.017  161.429   73.114    0.405    0.265
  581.250    3.103  160.987   74.200    0.403    0.259
  581.500    3.245  162.082   74.180    0.402    0.253
  581.750    3.471  164.505   74.775    0.410    0.244
  582.000    3.665  166.527   77.156    0.419    0.234
  582.250    3.728  167.112   77.624    0.421    0.227
  582.500    3.661  165.849   77.297    0.418    0.219
  582.750    3.548  165.610   75.675    0.409    0.226
  583.000    3.451  168.141   72.692    0.402    0.239
  583.250    3.326  168.414   71.383    0.398    0.254
  583.500    3.211  166.735   69.638    0.395    0.264
  583.750    3.107  164.959   66.723    0.392    0.266
  584.000    3.017  163.274   64.667    0.389    0.267
  584.250    2.967  162.631   63.171    0.385    0.267
  584.500    2.930  162.390   62.288    0.380    0.267
  584.750    2.953  162.664   62.448    0.374    0.265
  585.000    3.048  163.644   62.924    0.367    0.263
  585.250    3.118  164.540   63.953    0.362    0.256
  585.500    3.154  165.017   63.992    0.366    0.247
  585.750    3.103  165.602   64.215    0.388    0.250
  586.000    3.007  165.868   64.009    0.401    0.263
  586.250    2.925  165.842   63.806    0.409    0.274
  586.500    2.840  165.803   62.304    0.412    0.266
  586.750    2.779  165.673   61.115    0.412    0.261
  587.000    2.733  165.331   60.047    0.415    0.262
  587.250    2.729  164.882   60.520    0.416    0.262
  587.500    2.740  164.539   63.086    0.411    0.260
  587.750    2.782  164.303   64.296    0.402    0.260
  588.000    2.809  164.363   63.534    0.394    0.261
  588.250    2.846  165.146   62.713    0.387    0.262
  588.500    2.885  166.556   62.326    0.391    0.259
  588.750    2.923  167.853   63.414    0.404    0.255
  589.000    2.968  167.616   66.041    0.411    0.262
  589.250    3.008  162.860   66.263    0.421    0.276
  589.500    3.043  158.203   66.676    0.427    0.281
  589.750    3.072  160.219   68.013    0.417    0.273
  590.000    3.166  164.093   69.717    0.408    0.261
  590.250    3.293  164.877   71.483    0.402    0.254
  590.500    3.496  164.130   73.431    0.400    0.252
  590.750    3.524  165.430   74.893    0.405    0.252
  591.000    3.499  166.421   76.165    0.400    0.252
  591.250    3.487  166.582   75.158    0.395    0.249
  591.500    3.469  166.247   72.608    0.387    0.243
  591.750    3.450  165.795   72.467    0.386    0.242
  592.000    3.400  165.564   73.123    0.386    0.250
  592.250    3.339  165.420   72.548    0.384    0.256
  592.500    3.272  165.381   68.894    0.371    0.260
  592.750    3.213  165.559   63.572    0.361    0.265
  593.000    3.143  165.629   60.660    0.357    0.268
  593.250    3.086  166.008   59.100    0.359    0.269
  593.500    3.024  165.764   60.923    0.366    0.273
  593.750    2.925  160.088   62.139    0.382    0.281
  594.000    2.798  160.356   62.487    0.392    0.290
  594.250    2.667  164.016   63.146    0.384    0.292
