~VERSION INFORMATION
 VERS.                 2.0:   CWLS LOG ASCII STANDARD -VERSION 2.0
 WRAP.                  NO:   ONE LINE PER DEPTH STEP
~WELL INFORMATION BLOCK
#MNEM.UNIT           DATA                    DESCRIPTION OF MNEMONIC
#---------    -------------------            -------------------------------
# Generated from Intellog Unique Number	CW_70_72/WELL/2902
NULL.         -999.25                        : NULL_VALUE
WELL.         CHEVRON GAMBLER                : Well_name    - WELL              
LOC .         06-33-070-21W4                 : Location     - LOCATION          
UWI .         00/06-33-070-21W4/0            : Uwi          - UNIQUE WELL ID    
ENTR.         MAX                            : Entered      - ENTERED BY        
SRVC.         SCHLUMBERGER                   : Scn          - SERVICE COMPANY   
DATE.         01 FEB 76                      : Date         - LOG DATE
STRT.M        405.384                        : top_depth    - START DEPTH       
STOP.M        588.384                        : bot_depth    - STOP DEPTH        
STEP.M        0.25                           : increment    - STEP LENGTH       
~CURVE INFORMATION BLOCK
#MNEM UNIT       ERCB CURVE CODE    CURVE DESCRIPTION
#-----------   ------------------   ----------------------------------
DEPT.M        00 001 00 00         : DEPTH        - DEPTH                       
ILD .OHMM     00 120 00 00         : RESD         - DEEP RESISTIVITY (DIL)      
NPHI.V/V      00 330 00 00         : PHIN         - NEUTRON POROSITY (SANDSTONE)
DPHI.V/V      00 890 00 00         : PHID         - DENSITY POROSITY (SANDSTONE)
CALI.MM       00 280 01 00         : CAL          - CALIPER                     
GR  .API      00 310 00 00         : GR           - GAMMA RAY                   
~PARAMETER INFORMATION       
#MNEM.UNIT           DATA             DESCRIPTION OF MNEMONIC
#---------         -----------     ------------------------------
GL  .M        651.358              : gl           - GROUND LEVEL ELEVATION      
EREF.M        654.71               : kb           - ELEVATION OF DEPTH REFERENCE
DATM.M        651.358              : datum        - DATUM ELEVATION             
TDD .M        586.74               : tdd          - TOTAL DEPTH DRILLER         
RUN .         ONE                  : Run          - RUN NUMBER                  
ENG .         BILL                 : Engineer     - RECORDING ENGINEER          
WIT .         JIM                  : Witness      - WITNESSED BY                
MUD .         GEL                  : Mud_type     - MUD TYPE                    
MATR.         SANDSTONE            : Logunit      - NEUTRON MATRIX              
TMAX.C        23.8889              : BHT          - MAXIMUM RECORDED TEMPERATURE
BHTD.M        586.74               : BHTDEP       - MAXIMUM RECORDED TEMPERATURE
RMT .C        14.4444              : MDTP         - TEMPERATURE OF MUD          
MUDD.KG/M     9200                 : MWT          - MUD DENSITY                 
NEUT.         1                    : NEUTRON      - NEUTRON TYPE                
RESI.         0                    : RESIST       - RESISTIVITY TYPE            
RM  .OHMM     3.72                 : RM           - RESISTIVITY OF MUD          
RMC .OHMM     3.3                  : RMC          - RESISTIVITY OF MUD CAKE     
RMF .OHMM     6.4                  : RMF          - RESISTIVITY OF MUD FILTRATE 
SUFT.C        -20.5556             : SUFT         - SURFACE TEMPERATURE         
~A  DEPTH     RESD     PHIN     PHID      CAL       GR
# ...
  478.384    3.614    0.445    0.307  184.990   55.356
  478.634    4.936    0.438    0.278  184.974   55.044
  478.884    5.395    0.411    0.251  183.935   54.431
  479.134    6.276    0.388    0.212  183.917   53.517
  479.384    5.737    0.374    0.172  183.388   53.809
  479.634    3.603    0.354    0.139  183.374   55.609
  479.884    3.352    0.390    0.162  183.871   57.408
  480.134    3.352    0.423    0.273  184.870   57.399
  480.384    3.260    0.436    0.295  185.367   59.198
  480.634    2.927    0.445    0.310  185.351   60.395
  480.884    2.927    0.457    0.310  185.333   59.480
  481.134    2.795    0.443    0.296  185.318   59.168
  481.384    2.744    0.459    0.276  185.812   61.872
  481.634    2.920    0.499    0.287  186.307   63.673
  481.884    3.219    0.542    0.292  186.289   65.173
  482.134    3.487    0.504    0.299  186.784   66.972
  482.384    3.677    0.459    0.288  187.281   69.977
  482.634    3.675    0.431    0.264  187.769   66.650
  482.884    3.450    0.406    0.243  186.224   63.321
  483.134    3.210    0.405    0.244  184.167   60.599
  483.384    2.907    0.449    0.257  183.638   59.081
  483.634    2.907    0.453    0.271  183.621   59.674
  483.884    2.853    0.467    0.296  184.115   60.871
  484.134    2.631    0.479    0.294  185.631   59.354
  484.384    2.560    0.480    0.296  185.103   58.741
  484.634    2.513    0.465    0.298  184.062   62.048
  484.884    2.489    0.468    0.302  184.050   62.341
  485.134    2.487    0.470    0.299  184.034   62.633
  485.384    2.464    0.450    0.307  184.018   64.733
  485.634    2.463    0.438    0.315  184.509   66.835
  485.884    2.483    0.484    0.300  185.514   69.236
  486.134    2.481    0.513    0.293  186.521   68.625
  486.384    2.525    0.561    0.297  187.527   66.503
  486.634    2.639    0.581    0.292  188.532   63.178
  486.884    2.962    0.537    0.273  190.046   62.866
  487.134    3.477    0.466    0.256  193.092   59.237
  487.384    4.344    0.449    0.233  193.585   49.578
  487.634    5.333    0.424    0.125  194.080   43.835
  487.884    9.525    0.224    0.082  199.171   44.731
  488.134   13.367    0.204    0.076  199.663   45.628
  488.384   17.309    0.195    0.070  197.605   45.618
  488.634   16.841    0.175    0.052  195.544   47.416
  488.884   13.224    0.194    0.029  195.022   49.819
  489.134   10.477    0.265    0.046  193.474   52.827
  489.384    7.591    0.418    0.083  193.454   56.737
  489.634    6.877    0.467    0.126  192.419   60.647
  489.884    5.749    0.492    0.170  188.824   63.049
  490.134    4.763    0.482    0.228  185.746   64.851
  490.384    3.946    0.459    0.276  184.709   68.459
  490.634    2.759    0.449    0.311  184.181   68.750
  490.884    2.499    0.459    0.310  185.186   63.313
  491.134    2.453    0.561    0.308  185.681   63.605
  491.384    2.474    0.551    0.319  186.172   64.800
  491.634    2.539    0.506    0.322  185.647   68.712
  491.884    2.537    0.484    0.307  185.631   68.703
  492.134    2.582    0.472    0.315  186.124   69.296
  492.384    2.651    0.473    0.318  186.106   71.999
  492.634    2.651    0.475    0.308  186.078   73.799
  492.884    2.672    0.483    0.293  186.585   75.600
  493.134    2.792    0.498    0.281  187.590   78.605
  493.384    2.792    0.501    0.293  188.083   82.517
  493.634    2.864    0.483    0.271  189.088   89.142
  493.884    3.102    0.479    0.257  190.606   94.257
  494.134    3.242    0.461    0.233  193.650   97.866
  494.384    3.388    0.461    0.220  194.147   94.541
  494.634    3.637    0.457    0.233  194.131   91.516
  494.884    3.767    0.449    0.250  194.113   89.394
  495.134    3.867    0.463    0.246  194.098   89.081
  495.384    3.970    0.470    0.239  194.098   87.866
  495.634    4.075    0.479    0.255  193.551   85.745
  495.884    4.184    0.493    0.269  194.046   80.006
  496.134    4.411    0.544    0.289  194.543   77.582
  496.384    4.610    0.589    0.292  194.012   79.081
  496.634    4.733    0.555    0.207  193.996   79.070
  496.884    4.815    0.502    0.176  193.982   78.762
  497.134    4.812    0.442    0.210  192.941   82.972
  497.384    4.766    0.452    0.216  191.906   82.361
  497.634    4.763    0.461    0.190  190.356   80.541
  497.884    4.847    0.458    0.197  189.321   79.324
  498.134    4.847    0.427    0.225  189.303   76.602
  498.384    4.885    0.368    0.211  189.285   72.369
  498.634    5.150    0.391    0.208  188.760   74.771
  498.884    5.334    0.414    0.212  187.721   75.365
  499.134    5.574    0.415    0.213  187.705   73.245
  499.384    5.723    0.386    0.209  189.217   71.125
  499.634    6.143    0.358    0.183  190.737   70.207
  499.884    6.535    0.317    0.155  192.760   71.707
  500.134    6.532    0.375    0.183  191.723   73.810
  500.384    6.188    0.431    0.218  189.666   77.720
  500.634    5.758    0.491    0.267  186.072   79.520
  500.884    5.170    0.570    0.276  185.547   84.939
  501.134    4.518    0.526    0.260  186.551   88.246
  501.384    4.280    0.466    0.256  187.043   87.330
  501.634    4.280    0.450    0.241  186.008   86.416
  501.884    4.237    0.445    0.227  186.499   87.311
  502.134    4.197    0.470    0.212  189.040   90.618
  502.384    4.194    0.483    0.213  190.554   92.721
  502.634    4.192    0.485    0.223  190.026   88.188
  502.884    4.190    0.480    0.234  188.480   85.162
  503.134    4.187    0.468    0.243  184.375   86.660
  503.384    4.187    0.460    0.230  183.848   88.762
  503.634    4.182    0.470    0.199  186.386   91.768
  503.884    4.180    0.474    0.191  190.457   90.853
  504.134    4.214    0.478    0.208  191.971   88.428
  504.384    4.365    0.491    0.186  194.506   89.325
  504.634    4.521    0.492    0.188  194.491   91.124
  504.884    4.560    0.495    0.195  193.960   91.719
  505.134    4.516    0.499    0.191  194.459   92.613
  505.384    4.433    0.495    0.197  195.973   93.808
  505.634    4.276    0.537    0.223  194.427   91.388
  505.884    3.943    0.552    0.249  189.302   79.315
  506.134    3.446    0.509    0.291  182.646   68.750
  506.384    2.906    0.459    0.324  181.098   63.614
  506.634    2.803    0.475    0.325  181.082   65.112
  506.884    2.777    0.473    0.320  181.577   68.418
  507.134    2.800    0.458    0.317  182.072   67.201
  507.384    3.006    0.451    0.309  182.561   66.588
  507.634    3.255    0.431    0.285  183.059   68.691
  507.884    3.589    0.421    0.286  183.554   68.682
  508.134    3.887    0.442    0.274  183.536   68.371
  508.384    3.650    0.464    0.264  183.518   66.550
  508.634    3.366    0.477    0.291  184.522   65.034
  508.884    3.246    0.462    0.259  186.042   63.817
  509.134    3.302    0.439    0.192  188.066   62.601
  509.384    4.089    0.317    0.137  190.602   58.671
  509.634    4.390    0.304    0.130  191.609   57.757
  509.884    5.534    0.300    0.134  191.079   57.445
  510.134    5.531    0.325    0.135  189.531   58.339
  510.384    5.193    0.370    0.141  188.496   59.234
  510.634    4.226    0.421    0.169  186.944   60.431
  510.884    3.727    0.375    0.242  184.885   62.230
  511.134    3.287    0.472    0.286  183.339   64.635
  511.384    2.873    0.472    0.307  183.319   66.735
  511.634    2.871    0.469    0.300  184.327   66.123
  511.884    2.948    0.476    0.288  186.350   65.509
  512.134    3.136    0.475    0.268  187.357   66.403
  512.384    3.458    0.487    0.238  188.362   69.713
  512.634    3.779    0.496    0.254  188.855   71.812
  512.884    4.020    0.493    0.257  188.839   69.690
  513.134    4.017    0.485    0.238  188.313   68.476
  513.384    3.979    0.485    0.230  187.275   66.656
  513.634    3.979    0.490    0.255  186.749   65.138
  513.884    3.939    0.490    0.284  186.731   64.226
  514.134    3.699    0.489    0.286  186.204   62.709
  514.384    3.699    0.481    0.275  186.187   60.889
  514.634    3.565    0.472    0.273  186.681   64.197
