~VERSION INFORMATION
 VERS.                 2.0:   CWLS LOG ASCII STANDARD -VERSION 2.0
 WRAP.                  NO:   ONE LINE PER DEPTH STEP
~WELL INFORMATION BLOCK
#MNEM.UNIT           DATA                    DESCRIPTION OF MNEMONIC
#---------    -------------------            -------------------------------
# Generated from Intellog Unique Number	CC_84_87/WELL/1168
NULL.         -999.25                        : NULL_VALUE
WELL.         BP GRANOR                      : Well_name    - WELL              
LOC .         07-26-084-18W4                 : Location     - LOCATION          
UWI .         00/07-26-084-18W400            : Uwi          - UNIQUE WELL ID    
ENTR.         JHS                            : Entered      - ENTERED BY        
SRVC.         SCHLUMBERGER                   : Scn          - SERVICE COMPANY   
DATE.         01 MAR 81                      : Date         - LOG DATE
STRT.M        95                             : top_depth    - START DEPTH       
STOP.M        299.9                          : bot_depth    - STOP DEPTH        
STEP.M        0.3                            : increment    - STEP LENGTH       
~CURVE INFORMATION BLOCK
#MNEM UNIT       ERCB CURVE CODE    CURVE DESCRIPTION
#-----------   ------------------   ----------------------------------
DEPT.M        00 001 00 00         : DEPTH        - DEPTH                       
DPHI.V/V      00 890 00 00         : PHID         - DENSITY POROSITY (LIMESTONE)
NPHI.V/V      00 330 00 00         : PHIN         - NEUTRON POROSITY (LIMESTONE)
GR  .API      00 310 00 00         : GR           - GAMMA RAY                   
ILD .OHMM     00 120 00 00         : RESD         - DEEP RESISTIVITY (DIL)      
~PARAMETER INFORMATION       
#MNEM.UNIT           DATA             DESCRIPTION OF MNEMONIC
#---------         -----------     ------------------------------
GL  .M        555                  : gl           - GROUND LEVEL ELEVATION      
EREF.M        558.37               : kb           - ELEVATION OF DEPTH REFERENCE
DATM.M        558.37               : datum        - DATUM ELEVATION             
TDD .M        302                  : tdd          - TOTAL DEPTH DRILLER         
RUN .         ONE                  : Run          - RUN NUMBER                  
ENG .         BILL                 : Engineer     - RECORDING ENGINEER          
WIT .         JIM                  : Witness      - WITNESSED BY                
MUD .         GEL                  : Mud_type     - MUD TYPE                    
MATR.         LIMESTONE            : Logunit      - NEUTRON MATRIX              
TMAX.C        30                   : BHT          - MAXIMUM RECORDED TEMPERATURE
BHTD.M        302                  : BHTDEP       - MAXIMUM RECORDED TEMPERATURE
MATR.         1                    : LOGUNIT      - NEUTRON MATRIX              
RMT .C        25                   : MDTP         - TEMPERATURE OF MUD          
NEUT.         1                    : NEUTRON      - NEUTRON TYPE                
RESI.         0                    : RESIST       - RESISTIVITY TYPE            
RMC .OHMM     0.25                 : RMC          - RESISTIVITY OF MUD CAKE     
RMF .OHMM     0.25                 : RMF          - RESISTIVITY OF MUD FILTRATE 
SUFT.C        15                   : SUFT         - SURFACE TEMPERATURE         
~A  DEPTH     PHID     PHIN       GR     RESD
# ...
  199.401    0.308    0.403   61.655    7.858
  199.701    0.309    0.422   66.561    7.718
  200.001    0.311    0.442   65.957    7.868
  200.301    0.315    0.426   69.639    7.874
  200.601    0.323    0.408   73.322    7.877
  200.901    0.315    0.400   70.268    7.882
  201.201    0.323    0.391   61.092    7.742
  201.501    0.317    0.387   59.263    7.745
  201.801    0.298    0.405   64.782    7.751
  202.101    0.286    0.401   69.079    7.756
  202.401    0.289    0.368   69.696    7.617
  202.701    0.287    0.375   69.092    7.480
  203.001    0.303    0.397   70.326    7.210
  203.301    0.298    0.437   69.722    5.985
  203.601    0.270    0.453   71.567    4.047
  203.901    0.268    0.468   81.371    2.840
  204.201    0.237    0.440  108.318    2.687
  204.501    0.221    0.400  113.224    2.740
  204.801    0.238    0.381  113.233    2.793
  205.101    0.233    0.388  108.343    3.068
  205.401    0.210    0.404  104.065    3.246
  205.701    0.198    0.433   97.340    3.634
  206.001    0.217    0.448   97.348    3.918
  206.301    0.233    0.439  102.866    4.146
  206.601    0.252    0.450  101.651    4.554
  206.901    0.255    0.473   97.985    5.097
  207.201    0.244    0.432   88.809    5.705
  207.501    0.219    0.396   80.245    6.628
  207.801    0.204    0.374   78.417    7.282
  208.101    0.221    0.365   80.874    7.563
  208.401    0.239    0.361   77.209    7.856
  208.701    0.239    0.355   78.442    8.010
  209.001    0.236    0.355   89.472    8.014
  209.301    0.234    0.400   92.540    8.018
  209.601    0.227    0.417   83.365    7.731
  209.901    0.230    0.412   76.026    7.451
  210.201    0.229    0.407   82.769    7.182
  210.501    0.229    0.424   94.410    7.053
  210.801    0.231    0.418   96.256    7.059
  211.101    0.220    0.416   95.040    7.196
  211.401    0.228    0.419   89.537    7.335
  211.701    0.223    0.409   80.973    7.620
  212.001    0.217    0.341   80.370    7.914
  212.301    0.233    0.355   80.378    8.068
  212.601    0.228    0.403   79.162    8.073
  212.901    0.208    0.413   79.782    7.928
  213.201    0.204    0.402   79.791    7.787
  213.501    0.223    0.396   76.738    7.648
  213.801    0.223    0.406   71.848    7.653
  214.101    0.224    0.387   69.407    7.656
  214.401    0.229    0.398   73.090    7.244
  214.701    0.220    0.423   73.709    6.602
  215.001    0.191    0.419   70.657    5.907
  215.301    0.196    0.413   70.665    5.801
  215.601    0.224    0.420   78.020    5.592
  215.901    0.237    0.428   84.151    5.595
  216.201    0.242    0.412   78.037    5.597
  216.501    0.241    0.376   67.637    5.925
  216.801    0.240    0.391   70.096    6.039
  217.101    0.223    0.386   73.776    5.609
  217.401    0.229    0.381   82.356    4.321
  217.701    0.241    0.410   76.853    4.013
  218.001    0.235    0.443   77.474    4.091
  218.301    0.253    0.382   77.482    4.410
  218.601    0.270    0.370   72.593    4.936
  218.901    0.266    0.379   71.989    5.953
  219.201    0.255    0.390   72.609    6.789
  219.501    0.257    0.402   72.618    6.920
  219.801    0.271    0.420   72.626    7.056
  220.101    0.291    0.422   65.898    6.801
  220.401    0.285    0.341   63.458    6.200
  220.701    0.255    0.328   65.303    5.864
  221.001    0.238    0.370   77.558    5.247
  221.301    0.250    0.413   76.953    5.057
  221.601    0.259    0.405   80.022    5.060
  221.901    0.254    0.380   79.418    5.256
  222.201    0.238    0.380   75.752    5.562
  222.501    0.231    0.392   76.986    5.777
  222.801    0.225    0.380   83.116    6.001
  223.101    0.227    0.365   89.248    5.894
  223.401    0.237    0.370   88.033    5.680
  223.701    0.242    0.383   88.651    5.684
  224.001    0.245    0.370   90.497    5.688
  224.301    0.256    0.364   91.117    5.798
  224.601    0.260    0.349   85.003    6.022
  224.901    0.231    0.370   80.725    6.616
  225.201    0.192    0.366   78.898    7.545
  225.501    0.210    0.342   79.517    8.135
  225.801    0.228    0.349   77.077    8.293
  226.101    0.245    0.378   78.922    8.614
  226.401    0.265    0.368   80.766    8.620
  226.701    0.278    0.394   74.040    8.464
  227.001    0.272    0.400   66.089    8.314
  227.301    0.245    0.389   66.710    8.318
  227.601    0.224    0.376   78.351    8.481
  227.901    0.226    0.354   75.912    8.808
  228.201    0.223    0.321   71.019    9.321
  228.501    0.024    0.201   55.110   11.889
  228.801    0.000    0.185   45.934   19.693
  229.101    0.043    0.188   41.657   22.879
  229.401    0.106    0.204   46.564   21.247
  229.701    0.184    0.247   55.143   16.067
  230.001    0.235    0.346   66.171   11.068
  230.301    0.222    0.357   72.915   11.713
  230.601    0.155    0.336   71.086   13.863
  230.901    0.104    0.254   57.625   13.364
  231.201    0.103    0.244   53.959   12.180
  231.501    0.178    0.262   64.376   10.694
  231.801    0.200    0.333   83.365    9.045
  232.101    0.211    0.380   85.822    8.246
  232.401    0.218    0.385   83.993    7.949
  232.701    0.238    0.395   77.266    7.953
  233.001    0.244    0.402   73.602    7.811
  233.301    0.211    0.390   74.835    7.962
  233.601    0.198    0.373   79.741    7.966
  233.901    0.209    0.368   85.260    8.122
  234.201    0.212    0.386   85.269    8.129
  234.501    0.189    0.401   82.826    8.286
  234.801    0.169    0.376   83.447    8.447
  235.101    0.118    0.328   76.108    8.938
  235.401    0.102    0.329   66.933   10.779
  235.701    0.204    0.347   70.003    9.826
  236.001    0.228    0.353   74.296    9.124
  236.301    0.223    0.364   77.978    8.472
  236.601    0.214    0.352   77.987    8.321
  236.901    0.212    0.339   81.669    8.172
  237.201    0.212    0.358   81.678    8.330
  237.501    0.231    0.378   81.685    8.493
  237.801    0.242    0.386   83.530    8.660
  238.101    0.232    0.381   82.313    8.503
  238.401    0.209    0.388   87.832    8.351
  238.701    0.203    0.398   93.351    8.203
  239.001    0.199    0.386   84.787    8.056
  239.301    0.215    0.382   79.898    7.912
  239.601    0.236    0.418   81.132    7.770
  239.901    0.238    0.416   84.200    7.631
  240.201    0.227    0.404   85.435    7.635
  240.501    0.216    0.409   83.605    7.639
  240.801    0.208    0.421   80.551    7.645
  241.101    0.210    0.438   78.722    7.507
  241.401    0.221    0.444   79.343    7.237
  241.701    0.224    0.419   83.026    7.242
  242.001    0.215    0.381   84.871    7.245
  242.301    0.194    0.363   80.594    7.251
  242.602    0.191    0.368   77.539    6.988
  242.902    0.205    0.376   78.161    6.736
  243.202    0.227    0.364   78.781    6.495
  243.502    0.246    0.381   76.953    6.498
  243.802    0.255    0.411   74.511    6.501
  244.102    0.269    0.410   73.909    6.880
  244.402    0.274    0.384   70.855    7.559
  244.702    0.273    0.366   71.475    8.303
  245.002    0.256    0.361   74.545    8.953
  245.302    0.227    0.344   74.553   10.207
  245.602    0.064    0.265   64.764   15.988
  245.902    0.081    0.275   52.530   13.778
  246.202    0.132    0.339   54.985   11.228
  246.502    0.237    0.359   65.403   10.046
  246.802    0.237    0.358   75.206    9.502
  247.102    0.249    0.354   75.827    8.991
  247.402    0.268    0.356   70.938    8.997
  247.702    0.276    0.357   61.761    9.173
  248.002    0.267    0.353   59.320    9.528
  248.302    0.239    0.362   66.064    9.532
  248.602    0.228    0.376   74.644    8.852
  248.902    0.222    0.365   79.550    8.694
  249.202    0.227    0.372   77.110    8.866
  249.502    0.234    0.387   75.281    8.869
  249.802    0.232    0.392   77.738    8.874
  250.102    0.275    0.402   78.346    8.033
  250.402    0.267    0.391   75.254    8.341
  250.702    0.260    0.381   72.161    8.499
  251.002    0.247    0.375   71.516    8.660
  251.302    0.238    0.381   72.698    8.660
