~VERSION INFORMATION
 VERS.                 2.0:   CWLS LOG ASCII STANDARD -VERSION 2.0
 WRAP.                  NO:   ONE LINE PER DEPTH STEP
~WELL INFORMATION BLOCK
#MNEM.UNIT           DATA                    DESCRIPTION OF MNEMONIC
#---------    -------------------            -------------------------------
# Generated from Intellog Unique Number	CW_70_72/WELL/994
NULL.         -999.25                        : NULL_VALUE
WELL.         CHIEFCO ET AL CALLW 09-19      : Well_name    - WELL              
LOC .         09-19-071-20W4                 : Location     - LOCATION          
UWI .         00/09-19-071-20W4/0            : Uwi          - UNIQUE WELL ID    
ENTR.         JAYE                           : Entered      - ENTERED BY        
SRVC.         SCHLUMBERGER                   : Scn          - SERVICE COMPANY   
DATE.         20 JAN 83                      : Date         - LOG DATE          
STRT.M        320                            : top_depth    - START DEPTH       
STOP.M        495                            : bot_depth    - STOP DEPTH        
STEP.M        0.25                           : increment    - STEP LENGTH       
~CURVE INFORMATION BLOCK
#MNEM UNIT       ERCB CURVE CODE    CURVE DESCRIPTION
#-----------   ------------------   ----------------------------------
DEPT.M        00 001 00 00         : DEPTH        - DEPTH                       
DPHI.V/V      00 890 00 00         : PHID         - DENSITY POROSITY (SANDSTONE)
NPHI.V/V      00 330 00 00         : PHIN         - NEUTRON POROSITY (SANDSTONE)
GR  .API      00 310 00 00         : GR           - GAMMA RAY                   
CALI.MM       00 280 01 00         : CAL          - CALIPER                     
ILD .OHMM     00 120 00 00         : RESD         - DEEP RESISTIVITY (DIL)      
~PARAMETER INFORMATION       
#MNEM.UNIT           DATA             DESCRIPTION OF MNEMONIC
#---------         -----------     ------------------------------
GL  .M        593.2                : gl           - GROUND LEVEL ELEVATION      
EREF.M        596.2                : kb           - ELEVATION OF DEPTH REFERENCE
DATM.M        593.2                : datum        - DATUM ELEVATION             
TDD .M        498                  : tdd          - TOTAL DEPTH DRILLER         
RUN .         ONE                  : Run          - RUN NUMBER                  
ENG .         GAGGINO              : Engineer     - RECORDING ENGINEER          
WIT .         BAILEY               : Witness      - WITNESSED BY                
BASE.         EDM                  : Branch       - HOME BASE OF LOGGING UNIT   
MUD .         GEL CHEM             : Mud_type     - MUD TYPE                    
MATR.         SANDSTONE            : Logunit      - NEUTRON MATRIX              
TMAX.C        22.2                 : BHT          - MAXIMUM RECORDED TEMPERATURE
BHTD.M        496.5                : BHTDEP       - MAXIMUM RECORDED TEMPERATURE
RMT .C        32.7                 : MDTP         - TEMPERATURE OF MUD          
MUDD.KG/M     1100                 : MWT          - MUD DENSITY                 
NEUT.         1                    : NEUTRON      - NEUTRON TYPE                
RESI.         0                    : RESIST       - RESISTIVITY TYPE            
RM  .OHMM     11                   : RM           - RESISTIVITY OF MUD          
RMC .OHMM     0                    : RMC          - RESISTIVITY OF MUD CAKE     
RMF .OHMM     9.9                  : RMF          - RESISTIVITY OF MUD FILTRATE 
SUFT.C        0                    : SUFT         - SURFACE TEMPERATURE         
~A  DEPTH     PHID     PHIN       GR      CAL     RESD
# ...
  466.000    0.151    0.363   93.483  171.054    6.214
  466.250    0.172    0.350   82.026  169.491    6.727
  466.500    0.169    0.335   73.059  168.965    7.504
  466.750    0.100    0.314   67.640  168.334    8.231
  467.000    0.056    0.292   71.931  168.328    9.234
  467.250    0.068    0.267   75.537  168.321   10.340
  467.500    0.090    0.322   78.208  168.211   11.005
  467.750    0.111    0.355   78.266  168.203   10.464
  468.000    0.133    0.342   78.698  168.300    9.369
  468.250    0.142    0.322   80.124  168.293    8.341
  468.500    0.126    0.330   82.424  168.596    7.609
  468.750    0.104    0.373   86.900  168.487    7.235
  469.000    0.112    0.372   90.133  168.686    7.023
  469.250    0.112    0.359   92.680  168.680    6.843
  469.500    0.109    0.354   92.116  169.086    6.718
  469.750    0.118    0.358   91.302  169.495    6.656
  470.000    0.134    0.375   91.983  169.694    6.596
  470.250    0.155    0.390   93.597  169.792    6.537
  470.500    0.156    0.407   93.281  169.992    6.527
  470.750    0.151    0.413   89.667  169.986    6.541
  471.000    0.142    0.394   86.426  170.083    6.580
  471.250    0.125    0.359   88.165  169.763    6.708
  471.500    0.096    0.336   91.273  169.653    6.915
  471.750    0.111    0.346   88.530  169.542    7.075
  472.000    0.117    0.334   88.650  169.326    7.376
  472.250    0.110    0.312   92.941  169.217    7.748
  472.500    0.132    0.304   98.351  168.898    7.838
  472.750    0.130    0.323  104.757  169.099    7.797
  473.000    0.118    0.329  109.483  170.233    7.669
  473.250    0.141    0.349  108.608  175.724    7.556
  473.500    0.160    0.377  104.558  174.472    7.432
  473.750    0.090    0.360   90.736  170.212    7.310
  474.000    0.058    0.338   80.587  168.752    7.217
  474.250    0.041    0.306   84.877  168.122    7.138
  474.500    0.073    0.323   89.915  167.286    7.114
  474.750    0.130    0.360   95.948  166.655    7.116
  475.000    0.146    0.380   90.217  166.130    7.118
  475.250    0.108    0.358   82.682  166.123    7.120
  475.500    0.050    0.324   75.769  166.531    7.190
  475.750    0.072    0.310   79.437  168.703    7.696
  476.000    0.145    0.312   85.096  177.721    6.942
  476.250    0.190    0.313   90.072  189.746    5.490
  476.500    0.366    0.386   83.407  225.631    4.050
  476.750    0.453    0.465   78.549  295.022    3.239
  477.000    0.411    0.540   79.167  299.060    2.830
  477.250    0.367    0.587   84.266  265.755    2.582
  477.500    0.348    0.575   89.739  233.589    2.578
  477.750    0.313    0.469   93.282  212.836    2.997
  478.000    0.184    0.377   84.066  190.527    3.687
  478.250    0.013    0.338   78.523  173.715    4.621
  478.500    0.109    0.339   83.809  171.632    6.072
  478.750    0.151    0.380   87.850  172.039    7.344
  479.000    0.108    0.370   93.572  172.033    7.264
  479.250    0.079    0.370   96.493  173.271    6.816
  479.500    0.131    0.376   97.920  179.384    6.372
  479.750    0.230    0.386   98.290  190.373    6.025
  480.000    0.250    0.406   97.227  199.080    5.926
  480.250    0.190    0.440   94.236  192.018    6.109
  480.500    0.003    0.373   89.999  178.837    6.840
  480.750   -0.012    0.311   76.924  168.767    7.849
  481.000    0.004    0.281   73.310  168.657    9.458
  481.250    0.071    0.292   80.028  171.865    9.972
  481.500    0.137    0.338   86.683  175.490    9.681
  481.750    0.192    0.394   93.525  176.415    9.118
  482.000    0.225    0.413   94.641  179.002    8.117
  482.250    0.182    0.377   93.143  179.098    6.999
  482.500    0.068    0.362   85.670  170.585    6.507
  482.750    0.008    0.359   81.496  169.022    6.424
  483.000    0.115    0.367   81.554  168.808    6.462
  483.250    0.195    0.393   84.164  169.008    6.308
  483.500    0.301    0.442   85.964  170.142    6.032
  483.750    0.275    0.449   87.641  174.180    5.682
  484.000    0.244    0.441   86.578  183.095    5.474
  484.250    0.252    0.452   86.138  191.075    5.263
  484.500    0.270    0.478   86.819  196.772    5.128
  484.750    0.293    0.503   88.868  197.803    5.092
  485.000    0.066    0.517   86.374  196.032    5.132
  485.250    0.063    0.438   84.379  175.694    5.251
  485.500    0.170    0.405   86.117  173.923    5.372
  485.750    0.204    0.440   90.158  179.933    5.496
  486.000    0.246    0.461   93.266  189.780    5.593
  486.250    0.223    0.415   88.096  173.591    5.647
  486.500    0.211    0.410   88.527  175.969    5.681
  486.750    0.241    0.429   91.262  181.875    5.693
  487.000    0.250    0.423   95.738  178.860    5.716
  487.250    0.210    0.395   96.543  174.289    5.761
  487.500    0.142    0.374   90.377  175.629    5.763
  487.750    0.205    0.403   90.933  181.328    5.669
  488.000    0.257    0.432   92.983  186.508    5.607
  488.250    0.262    0.460   96.339  195.629    5.463
  488.500    0.216    0.435   99.759  181.722    5.393
  488.750    0.235    0.427  103.987  176.943    5.344
  489.000    0.212    0.410  102.986  178.803    5.407
  489.250    0.120    0.399   97.879  173.298    5.606
  489.500    0.147    0.438   90.406  178.893    5.888
  489.750    0.200    0.425   78.078  189.881    6.495
  490.000    0.189    0.322   68.489  189.770    7.782
  490.250    0.093    0.248   53.173  166.004   10.399
  490.500    0.085    0.213   41.218  165.482   18.878
  490.750    0.095    0.208   38.787  165.786   32.150
  491.000    0.111    0.213   37.849  166.194   45.197
  491.250    0.157    0.209   38.032  166.187   47.299
  491.500    0.194    0.208   37.840  167.010   42.588
  491.750    0.191    0.207   37.712  165.343   35.499
  492.000    0.174    0.208   37.769  164.713   28.552
  492.250    0.219    0.209   37.765  166.573   28.347
  492.500    0.263    0.212   37.886  168.434   31.862
  492.750    0.305    0.215   38.067  167.908   37.822
  493.000    0.271    0.221   38.251  165.515   46.964
  493.250    0.216    0.226   38.433  162.603   61.010
  493.500    0.210    0.228   38.366  162.389   72.419
  493.750    0.193    0.229   38.611  162.278   80.184
  494.000    0.159    0.229   38.918  161.234   86.311
  494.250    0.134    0.229   39.163  159.774   89.647
  494.500    0.086    0.229   39.594  158.729   93.288
  494.750    0.106    0.230   40.213  158.204   96.351
  495.000    0.135    0.230   40.831  157.885   96.384
