~VERSION INFORMATION
 VERS.                 2.0:   CWLS LOG ASCII STANDARD -VERSION 2.0
 WRAP.                  NO:   ONE LINE PER DEPTH STEP
~WELL INFORMATION BLOCK
#MNEM.UNIT           DATA                    DESCRIPTION OF MNEMONIC
#---------    -------------------            -------------------------------
# Generated from Intellog Unique Number	CC_80_83/WELL/1185
NULL.         -999.25                        : NULL_VALUE
WELL.         GULF RESDELN                   : Well_name    - WELL              
LOC .         07-16-083-07W4                 : Location     - LOCATION          
UWI .         00/07-16-083-07W4/0            : Uwi          - UNIQUE WELL ID    
ENTR.         DW                             : Entered      - ENTERED BY        
SRVC.         SCHLUMBERGER                   : Scn          - SERVICE COMPANY   
DATE.         16 MAR 81                      : Date         - LOG DATE
STRT.M        250                            : top_depth    - START DEPTH       
STOP.M        504.99                         : bot_depth    - STOP DEPTH        
STEP.M        0.3                            : increment    - STEP LENGTH       
~CURVE INFORMATION BLOCK
#MNEM UNIT       ERCB CURVE CODE    CURVE DESCRIPTION
#-----------   ------------------   ----------------------------------
DEPT.M        00 001 00 00         : DEPTH        - DEPTH                       
DPHI.V/V      00 890 00 00         : PHID         - DENSITY POROSITY (LIMESTONE)
NPHI.V/V      00 330 00 00         : PHIN         - NEUTRON POROSITY (LIMESTONE)
GR  .API      00 310 00 00         : GR           - GAMMA RAY                   
ILD .OHMM     00 120 00 00         : RESD         - DEEP RESISTIVITY (DIL)      
~PARAMETER INFORMATION       
#MNEM.UNIT           DATA             DESCRIPTION OF MNEMONIC
#---------         -----------     ------------------------------
GL  .M        711.2                : gl           - GROUND LEVEL ELEVATION      
EREF.M        715                  : kb           - ELEVATION OF DEPTH REFERENCE
DATM.M        715                  : datum        - DATUM ELEVATION             
TDD .M        542                  : tdd          - TOTAL DEPTH DRILLER         
RUN .         ONE                  : Run          - RUN NUMBER                  
ENG .         BILL                 : Engineer     - RECORDING ENGINEER          
WIT .         JIM                  : Witness      - WITNESSED BY                
MUD .         GEL                  : Mud_type     - MUD TYPE                    
MATR.         LIMESTONE            : Logunit      - NEUTRON MATRIX              
TMAX.C        26                   : BHT          - MAXIMUM RECORDED TEMPERATURE
BHTD.M        542                  : BHTDEP       - MAXIMUM RECORDED TEMPERATURE
MATR.         1                    : LOGUNIT      - NEUTRON MATRIX              
RMT .C        25                   : MDTP         - TEMPERATURE OF MUD          
NEUT.         1                    : NEUTRON      - NEUTRON TYPE                
RESI.         0                    : RESIST       - RESISTIVITY TYPE            
RMC .OHMM     0.25                 : RMC          - RESISTIVITY OF MUD CAKE     
RMF .OHMM     0.25                 : RMF          - RESISTIVITY OF MUD FILTRATE 
SUFT.C        4                    : SUFT         - SURFACE TEMPERATURE         
~A  DEPTH     PHID     PHIN       GR     RESD
# ...
  406.594    0.259    0.488   98.497    4.920
  406.894    0.267    0.463   88.966    6.197
  407.194    0.264    0.451   85.443    8.265
  407.494    0.260    0.449   84.886    9.466
  407.794    0.257    0.453   80.157    9.847
  408.094    0.267    0.491   77.816   10.055
  408.394    0.245    0.485   76.674    9.882
  408.694    0.231    0.468   77.334    9.710
  408.994    0.205    0.476   78.590    9.541
  409.294    0.168    0.464   77.448    9.933
  409.594    0.178    0.441   71.523   10.138
  409.894    0.176    0.402   69.778    9.777
  410.194    0.260    0.442   75.831    9.428
  410.494    0.269    0.459   78.884    9.261
  410.794    0.246    0.466   80.133   10.016
  411.094    0.201    0.460   68.212   10.221
  411.394    0.041    0.295   69.476   10.640
  411.694    0.219    0.410   71.320   10.656
  411.994    0.243    0.431   77.970   10.086
  412.294    0.241    0.442   90.008    9.904
  412.594    0.218    0.479   94.257    8.681
  412.894    0.238    0.502   97.315    7.321
  413.194    0.230    0.502   99.180    6.058
  413.494    0.213    0.488  101.026    5.627
  413.794    0.205    0.469  101.077    5.635
  414.094    0.230    0.448   96.942    5.974
  414.394    0.223    0.433  100.001    6.971
  414.694    0.201    0.428  100.658    7.831
  414.994    0.198    0.439  104.904    8.153
  415.294    0.192    0.461  103.179    8.162
  415.594    0.194    0.466  100.231    7.436
  415.894    0.221    0.473   97.903    6.390
  416.194    0.212    0.486   97.350    3.822
  416.494    0.264    0.530   95.012    2.422
  416.794    0.274    0.553   90.879    2.335
  417.094    0.254    0.563   86.743    2.623
  417.393    0.237    0.533   88.001    3.119
  417.693    0.208    0.476   89.856    3.929
  417.993    0.192    0.494   91.724    4.585
  418.293    0.206    0.496   91.167    5.250
  418.593    0.207    0.449   86.445    5.786
  418.893    0.200    0.434   88.285    6.136
  419.193    0.176    0.434   91.337    6.385
  419.493    0.177    0.472   93.792    6.519
  419.793    0.206    0.448   92.664    6.406
  420.093    0.208    0.445   90.315    5.510
  420.393    0.219    0.448   87.379    4.828
  420.693    0.208    0.458   96.430    3.995
  420.993    0.204    0.477   98.873    3.371
  421.293    0.202    0.488   99.533    3.250
  421.593    0.200    0.498   97.802    3.193
  421.893    0.191    0.511   97.857    3.323
  422.193    0.195    0.509   98.504    3.393
  422.493    0.231    0.510   99.765    3.398
  422.793    0.225    0.517  101.034    3.340
  423.093    0.232    0.487  101.681    3.410
  423.393    0.254    0.468  104.133    3.548
  423.693    0.251    0.474  105.997    3.623
  423.993    0.228    0.535  106.645    3.559
  424.293    0.198    0.512  101.904    3.434
  424.593    0.205    0.493   97.777    3.373
  424.893    0.204    0.478   94.833    5.164
  425.193    0.190    0.467   96.084    5.366
  425.493    0.195    0.472   95.471    5.470
  425.793    0.178    0.477   93.622    5.266
  426.093    0.213    0.469   94.871    5.069
  426.393    0.194    0.474   96.120    5.369
  426.693    0.154    0.444   92.410    5.907
  426.993    0.153    0.414   81.263    7.429
  427.293    0.139    0.391   75.075    7.719
  427.593    0.188    0.401   80.662    7.574
  427.893    0.190    0.420   86.869    6.627
  428.193    0.216    0.442   85.019    5.689
  428.493    0.209    0.473   90.607    5.172
  428.793    0.212    0.496   91.856    5.173
  429.093    0.254    0.475   87.525    4.980
  429.393    0.253    0.455   80.718    4.275
  429.693    0.235    0.469   83.826    3.601
  429.993    0.248    0.509   90.653    3.033
  430.293    0.227    0.515   94.380    3.092
  430.593    0.205    0.520   99.347    3.814
  430.893    0.207    0.492  100.597    4.797
  431.193    0.197    0.461  101.846    6.637
  431.493    0.189    0.486  107.432    7.587
  431.793    0.191    0.467  106.202    7.445
  432.093    0.180    0.462  103.113    7.031
  432.393    0.183    0.465  106.222    7.032
  432.693    0.176    0.454  101.892    8.193
  432.993    0.198    0.430   88.886   15.094
  433.293    0.271    0.395   62.245   26.259
  433.593    0.283    0.237   47.999   37.744
  433.893    0.272    0.242   43.051   48.384
  434.193    0.290    0.236   57.936   55.308
  434.493    0.293    0.224   57.944   58.574
  434.793    0.283    0.227   56.095   55.321
  435.093    0.273    0.226   46.187   49.344
  435.393    0.267    0.231   37.520   49.349
  435.693    0.274    0.258   36.289   52.264
  435.993    0.277    0.248   46.215   60.894
  436.293    0.275    0.224   44.366   85.874
  436.593    0.293    0.201   32.599   90.947
  436.893    0.306    0.194   32.608   92.715
  437.193    0.296    0.189   33.237   89.254
  437.493    0.285    0.195   33.247   84.295
  437.793    0.263    0.225   32.016   79.614
  438.093    0.278    0.222   32.646   68.347
  438.393    0.264    0.203   33.897   52.325
  438.693    0.264    0.185   35.762   31.858
  438.993    0.301    0.185   35.773   19.030
  439.293    0.285    0.218   34.545   13.498
  439.593    0.276    0.284   32.693    9.393
  439.893    0.265    0.328   33.941    7.615
  440.193    0.260    0.346   32.092    6.923
  440.493    0.275    0.348   30.241    6.664
  440.793    0.270    0.351   27.770    6.666
  441.093    0.265    0.361   26.542    6.795
  441.393    0.265    0.354   25.311    7.196
  441.693    0.260    0.346   26.560    7.918
  441.992    0.272    0.344   26.568    8.880
  442.292    0.282    0.348   30.296   11.602
  442.592    0.282    0.362   34.023   16.361
  442.892    0.303    0.382   30.936   23.072
  443.192    0.293    0.367   25.366   31.318
  443.492    0.278    0.354   24.755   42.511
  443.792    0.287    0.351   28.483   61.105
  444.092    0.289    0.360   29.113   76.846
  444.392    0.301    0.390   30.981   89.538
  444.692    0.302    0.396   34.709   96.655
  444.992    0.289    0.420   38.436  112.617
  445.292    0.299    0.413   34.727  136.320
  445.592    0.304    0.375   27.300  178.107
  445.892    0.310    0.376   26.691  195.971
  446.192    0.300    0.391   26.700  168.245
  446.492    0.276    0.378   26.087  168.261
  446.792    0.259    0.385   26.097  165.102
  447.092    0.278    0.390   30.446  150.096
  447.392    0.288    0.389   29.215  147.279
  447.692    0.293    0.386   29.223  153.027
  447.992    0.293    0.396   33.571  178.298
  448.292    0.293    0.411   29.243  196.180
  448.592    0.277    0.400   22.436  211.778
  448.892    0.282    0.387   23.684  207.804
  449.192    0.268    0.381   26.171  196.259
  449.492    0.278    0.385   26.800  171.733
  449.792    0.279    0.411   29.909  141.909
  450.092    0.280    0.402   35.495  124.174
  450.392    0.288    0.417   33.029  108.658
  450.692    0.304    0.372   31.796   89.786
  450.992    0.309    0.378   32.424   75.623
  451.292    0.301    0.396   36.772   50.654
  451.592    0.273    0.387   39.881   35.249
  451.892    0.246    0.355   44.228   32.045
  452.192    0.233    0.351   49.815   36.632
  452.492    0.236    0.353   57.881   40.305
  452.792    0.245    0.412   58.510   72.849
  453.092    0.264    0.431   49.842   98.883
  453.392    0.279    0.398   43.655  119.697
  453.692    0.310    0.386   44.283  117.450
  453.992    0.296    0.388   44.913  134.261
  454.292    0.280    0.419   46.781  142.191
  454.592    0.274    0.411   45.550  129.263
  454.892    0.320    0.406   39.982   83.340
  455.192    0.322    0.407   43.711   72.925
  455.492    0.310    0.407   48.057   72.936
  455.792    0.281    0.413   56.743   83.374
  456.092    0.281    0.414   57.372  113.170
  456.392    0.303    0.409   48.705  131.862
  456.692    0.306    0.420   45.616  134.427
  456.992    0.304    0.444   45.007  131.898
  457.292    0.302    0.415   41.297  119.905
  457.592    0.307    0.421   38.827   93.566
  457.892    0.301    0.426   40.696   75.854
  458.192    0.302    0.411   40.706   63.888
  458.492    0.309    0.394   40.094   75.874
