~VERSION INFORMATION
 VERS.                 2.0:   CWLS LOG ASCII STANDARD -VERSION 2.0
 WRAP.                  NO:   ONE LINE PER DEPTH STEP
~WELL INFORMATION BLOCK
#MNEM.UNIT           DATA                    DESCRIPTION OF MNEMONIC
#---------    -------------------            -------------------------------
# Generated from Intellog Unique Number	CW_70_72/WELL/3001
NULL.         -999.25                        : NULL_VALUE
WELL.         NORCEN SHERRITT MITSUE 03-22   : Well_name    - WELL              
LOC .         03-22-070-02W5                 : Location     - LOCATION          
UWI .         00/03-22-070-02W5/0            : Uwi          - UNIQUE WELL ID    
ENTR.         JAYE                           : Entered      - ENTERED BY        
SRVC.         COMPUTALOG                     : Scn          - SERVICE COMPANY   
DATE.         23 FEB 84                      : Date         - LOG DATE          
STRT.M        435                            : top_depth    - START DEPTH       
STOP.M        655                            : bot_depth    - STOP DEPTH        
STEP.M        0.25                           : increment    - STEP LENGTH       
~CURVE INFORMATION BLOCK
#MNEM UNIT       ERCB CURVE CODE    CURVE DESCRIPTION
#-----------   ------------------   ----------------------------------
DEPT.M        00 001 00 00         : DEPTH        - DEPTH                       
ILD .OHMM     00 120 00 00         : RESD         - DEEP RESISTIVITY (DIL)      
CALI.MM       00 280 01 00         : CAL          - CALIPER                     
GR  .API      00 310 00 00         : GR           - GAMMA RAY                   
NPHI.V/V      00 330 00 00         : PHIN         - NEUTRON POROSITY (SANDSTONE)
DPHI.V/V      00 890 00 00         : PHID         - DENSITY POROSITY (SANDSTONE)
~PARAMETER INFORMATION       
#MNEM.UNIT           DATA             DESCRIPTION OF MNEMONIC
#---------         -----------     ------------------------------
GL  .M        597.2                : gl           - GROUND LEVEL ELEVATION      
EREF.M        600.95               : kb           - ELEVATION OF DEPTH REFERENCE
DATM.M        597.2                : datum        - DATUM ELEVATION             
TDD .M        673                  : tdd          - TOTAL DEPTH DRILLER         
RUN .         ONE                  : Run          - RUN NUMBER                  
ENG .         MACLEAN              : Engineer     - RECORDING ENGINEER          
WIT .         BOGNER/CARLSON       : Witness      - WITNESSED BY                
BASE.         EDMONTON             : Branch       - HOME BASE OF LOGGING UNIT   
MUD .         GEL CHEM             : Mud_type     - MUD TYPE                    
MATR.         SANDSTONE            : Logunit      - NEUTRON MATRIX              
TMAX.C        28                   : BHT          - MAXIMUM RECORDED TEMPERATURE
BHTD.M        671.5                : BHTDEP       - MAXIMUM RECORDED TEMPERATURE
RMT .C        19                   : MDTP         - TEMPERATURE OF MUD          
MUDD.KG/M     1120                 : MWT          - MUD DENSITY                 
NEUT.         1                    : NEUTRON      - NEUTRON TYPE                
RESI.         0                    : RESIST       - RESISTIVITY TYPE            
RM  .OHMM     3.5                  : RM           - RESISTIVITY OF MUD          
RMC .OHMM     2.8                  : RMC          - RESISTIVITY OF MUD CAKE     
RMF .OHMM     3.5                  : RMF          - RESISTIVITY OF MUD FILTRATE 
SUFT.C        5                    : SUFT         - SURFACE TEMPERATURE         
~A  DEPTH     RESD      CAL       GR     PHIN     PHID
# ...
  471.500    3.103  193.649   83.094    0.414    0.248
  471.750    2.988  193.625   86.829    0.409    0.246
  472.000    2.889  194.214   86.564    0.391    0.237
  472.250    2.820  195.429   81.603    0.384    0.222
  472.500    2.690  198.217   76.397    0.387    0.220
  472.750    2.523  202.675   70.502    0.390    0.243
  473.000    2.385  204.733   65.793    0.391    0.261
  473.250    2.271  204.809   67.961    0.391    0.267
  473.500    2.192  203.309   75.578    0.393    0.261
  473.750    2.135  198.386   81.190    0.395    0.239
  474.000    2.103  197.204   87.300    0.399    0.214
  474.250    2.080  197.909   97.794    0.415    0.195
  474.500    2.100  200.075  104.031    0.447    0.180
  474.750    2.124  202.339  110.767    0.461    0.167
  475.000    2.149  201.890  102.249    0.447    0.176
  475.250    2.198  200.291   94.977    0.420    0.198
  475.500    2.253  197.146   88.701    0.402    0.229
  475.750    2.305  194.817   80.732    0.410    0.248
  476.000    2.399  191.459   71.092    0.412    0.258
  476.250    2.588  190.181   68.191    0.399    0.257
  476.500    2.839  191.615   74.743    0.391    0.251
  476.750    3.320  192.506   80.920    0.402    0.234
  477.000    3.913  192.690   87.029    0.413    0.219
  477.250    4.358  191.614   90.827    0.399    0.219
  477.500    4.648  189.101   85.058    0.387    0.230
  477.750    4.536  189.266   77.034    0.376    0.235
  478.000    4.352  192.465   70.818    0.365    0.209
  478.250    4.083  196.295   74.121    0.372    0.192
  478.500    3.674  195.535   83.921    0.381    0.193
  478.750    3.275  191.029   91.848    0.376    0.197
  479.000    2.920  193.819   91.901    0.374    0.205
  479.250    2.622  198.380   89.433    0.378    0.221
  479.500    2.355  200.114   87.666    0.385    0.242
  479.750    2.116  200.821   81.705    0.386    0.258
  480.000    1.918  200.787   72.371    0.383    0.284
  480.250    1.779  200.978   67.471    0.377    0.295
  480.500    1.685  200.831   61.830    0.378    0.310
  480.750    1.650  201.125   57.432    0.390    0.318
  481.000    1.623  201.187   54.158    0.394    0.321
  481.250    1.623  201.809   52.266    0.384    0.322
  481.500    1.617  201.354   50.934    0.376    0.322
  481.750    1.590  201.417   50.040    0.374    0.316
  482.000    1.576  201.087   51.710    0.375    0.304
  482.250    1.555  200.648   51.697    0.377    0.312
  482.500    1.547  200.500   53.123    0.379    0.328
  482.750    1.541  201.097   55.733    0.379    0.328
  483.000    1.544  201.609   56.837    0.382    0.324
  483.250    1.589  201.882   56.253    0.385    0.324
  483.500    1.644  202.462   54.107    0.377    0.328
  483.750    1.704  202.351   51.902    0.377    0.330
  484.000    1.807  202.823   52.513    0.393    0.333
  484.250    1.920  203.219   50.365    0.404    0.333
  484.500    1.957  203.079   50.788    0.394    0.332
  484.750    2.014  203.151   52.836    0.377    0.331
  485.000    2.056  202.812   54.444    0.374    0.328
  485.250    2.068  202.482   56.741    0.374    0.322
  485.500    2.026  202.232   60.416    0.374    0.316
  485.750    1.992  202.007   63.529    0.376    0.305
  486.000    1.952  201.361   63.949    0.382    0.299
  486.250    1.934  201.333   63.927    0.378    0.305
  486.500    1.920  201.081   62.218    0.375    0.309
  486.750    1.898  201.047   59.332    0.380    0.302
  487.000    1.891  200.399   60.559    0.406    0.278
  487.250    1.892  200.170   62.671    0.403    0.268
  487.500    1.906  199.916   63.093    0.377    0.291
  487.750    2.033  200.000   64.323    0.361    0.301
  488.000    2.201  200.911   67.181    0.363    0.286
  488.250    2.397  201.501   73.359    0.383    0.262
  488.500    2.644  202.333   77.659    0.391    0.236
  488.750    2.762  202.503   78.581    0.395    0.224
  489.000    2.752  202.452   75.558    0.388    0.243
  489.250    2.701  202.229   69.722    0.380    0.266
  489.500    2.661  202.193   70.270    0.390    0.287
  489.750    2.597  202.404   72.383    0.405    0.294
  490.000    2.539  202.766   72.734    0.388    0.267
  490.250    2.559  203.147   67.153    0.371    0.234
  490.500    2.540  203.116   63.692    0.394    0.209
  490.750    2.560  203.211   74.935    0.416    0.202
  491.000    2.541  203.373   83.237    0.413    0.223
  491.250    2.499  203.253   84.907    0.403    0.223
  491.500    2.443  202.497   86.141    0.395    0.210
  491.750    2.266  202.553   93.192    0.406    0.252
  492.000    1.993  203.040  101.372    0.409    0.280
  492.250    1.790  202.697   81.021    0.409    0.300
  492.500    1.754  197.149   67.930    0.405    0.323
  492.750    2.091  192.220   61.721    0.388    0.347
  493.000    2.849  190.418   60.519    0.455    0.394
  493.250    3.540  191.947   57.745    0.490    0.447
  493.500    4.907  197.663   54.483    0.562    0.530
  493.750    6.109  202.108   58.527    0.601    0.577
  494.000    7.282  202.707   69.333    0.505    0.499
  494.250    8.599  200.799   71.125    0.466    0.575
  494.500    9.540  198.162   53.218    0.558    0.777
  494.750   10.041  194.171   36.497    0.594    0.808
  495.000    9.855  191.952   23.531    0.649    0.823
  495.250    7.343  191.098   22.326    0.670    0.812
  495.500    4.841  190.746   47.457    0.640    0.690
  495.750    3.774  190.418   68.774    0.489    0.623
  496.000    3.185  190.907   75.819    0.395    0.252
  496.250    2.678  191.307   79.054    0.360    0.232
  496.500    2.387  191.468   81.678    0.376    0.226
  496.750    2.189  191.974   81.212    0.368    0.241
  497.000    2.182  192.768   79.695    0.362    0.255
  497.250    2.245  194.097   80.361    0.390    0.255
  497.500    2.439  196.159   82.660    0.407    0.254
  497.750    2.641  197.679   85.589    0.393    0.251
  498.000    2.843  199.860   85.751    0.374    0.241
  498.250    3.113  199.707   88.801    0.392    0.226
  498.500    3.282  200.516   91.473    0.413    0.194
  498.750    3.396  200.065   94.400    0.433    0.174
  499.000    3.436  203.069   97.946    0.398    0.162
  499.250    3.449  205.219  102.618    0.375    0.158
  499.500    3.463  207.698  108.483    0.364    0.161
  499.750    3.457  209.343  109.841    0.381    0.163
  500.000    3.399  210.251  103.629    0.396    0.151
  500.250    3.201  210.634   95.798    0.392    0.097
  500.500    2.963  210.611   90.708    0.401    0.129
  500.750    2.800  208.188   83.063    0.418    0.169
  501.000    2.667  202.414   74.162    0.418    0.227
  501.250    2.469  193.103   67.635    0.403    0.272
  501.500    2.298  188.293   59.802    0.386    0.297
  501.750    2.189  187.750   55.028    0.361    0.309
  502.000    2.092  187.191   55.571    0.394    0.323
  502.250    1.963  186.732   58.563    0.381    0.339
  502.500    1.869  186.606   60.298    0.381    0.352
  502.750    1.783  186.469   61.285    0.380    0.349
  503.000    1.701  186.875   62.267    0.372    0.333
  503.250    1.657  187.032   64.057    0.362    0.319
  503.500    1.673  187.847   64.855    0.356    0.310
  503.750    1.957  195.626   63.589    0.347    0.313
  504.000    2.333  198.835   62.448    0.371    0.302
  504.250    2.683  198.208   62.109    0.375    0.279
  504.500    3.005  198.261   59.093    0.261    0.236
  504.750    2.960  202.104   54.571    0.232    0.131
  505.000    2.634  204.660   49.232    0.213    0.179
  505.250    2.313  206.624   51.722    0.308    0.276
  505.500    2.008  195.531   55.963    0.360    0.345
  505.750    1.817  190.396   61.257    0.394    0.344
  506.000    1.727  189.736   61.752    0.378    0.349
  506.250    1.767  191.065   57.842    0.391    0.375
  506.500    1.835  192.285   55.447    0.421    0.381
  506.750    1.885  192.888   59.750    0.412    0.360
  507.000    1.896  193.379   62.108    0.385    0.337
  507.250    1.903  194.285   59.836    0.409    0.323
  507.500    1.915  198.012   59.260    0.412    0.318
  507.750    1.937  197.982   59.492    0.402    0.312
