~VERSION INFORMATION
 VERS.                 2.0:   CWLS LOG ASCII STANDARD -VERSION 2.0
 WRAP.                  NO:   ONE LINE PER DEPTH STEP
~WELL INFORMATION BLOCK
#MNEM.UNIT           DATA                    DESCRIPTION OF MNEMONIC
#---------    -------------------            -------------------------------
# Generated from Intellog Unique Number	CS_77_79/WELL/901
WELL.         CWWE WINEFRED                  : Well_name    - WELL
LOC .         00/07-19-078-03W4/0            : Location     - LOCATION
UWI .         00/07-19-078-03W4/0            : Uwi          - UNIQUE WELL ID
ENTR.         JHS                            : Entered      - ENTERED BY
SRVC.         SCHLUMBERGER                   : Scn          - SERVICE COMPANY
STRT.M        135                            : top_depth    - START DEPTH
STOP.M        415                            : bot_depth    - STOP DEPTH
STEP.M        0.25                           : increment    - STEP LENGTH
 NULL. -999.2500:NULL Value
~CURVE INFORMATION BLOCK
#MNEM UNIT       ERCB CURVE CODE    CURVE DESCRIPTION
#-----------   ------------------   ----------------------------------
DEPT.M        00 001 00 00         : DEPTH        - DEPTH
DPHI.V/V      00 890 00 00         : PHID         - DENSITY POROSITY (LIMESTONE)
NPHI.V/V      00 330 00 00         : PHIN         - NEUTRON POROSITY (LIMESTONE)
GR  .API      00 310 00 00         : GR           - GAMMA RAY
ILD .OHMM     00 120 00 00         : RESD         - DEEP RESISTIVITY (DIL)
RHOB.KG/M3    00 350 00 00         : DENS         - BULK DENSITY
~PARAMETER INFORMATION
#MNEM.UNIT           DATA             DESCRIPTION OF MNEMONIC
#---------         -----------     ------------------------------
GL  .M        556.2                : gl           - GROUND LEVEL ELEVATION
EREF.M        560.15               : kb           - ELEVATION OF DEPTH REFERENCE
DATM.M        560.15               : datum        - DATUM ELEVATION
TDD .M        423                  : tdd          - TOTAL DEPTH DRILLER
RUN .         ONE                  : Run          - RUN NUMBER
ENG .         BILL                 : Engineer     - RECORDING ENGINEER
WIT .         JIM                  : Witness      - WITNESSED BY
MUD .         GEL                  : Mud_type     - MUD TYPE
MATR.         LIMESTONE            : Logunit      - NEUTRON MATRIX
TMAX.C        24                   : BHT          - MAXIMUM RECORDED TEMPERATURE
BHTD.M        423                  : BHTDEP       - MAXIMUM RECORDED TEMPERATURE
MATR.         1                    : LOGUNIT      - NEUTRON MATRIX
RMT .C        25                   : MDTP         - TEMPERATURE OF MUD
NEUT.         1                    : NEUTRON      - NEUTRON TYPE
RESI.         0                    : RESIST       - RESISTIVITY TYPE
RMC .OHMM     0.25                 : RMC          - RESISTIVITY OF MUD CAKE
RMF .OHMM     0.25                 : RMF          - RESISTIVITY OF MUD FILTRATE
SUFT.C        15                   : SUFT         - SURFACE TEMPERATURE
~A  DEPTH     PHID     PHIN       GR     RESD     DENS
  135.000    0.232    0.494  107.952    3.294    0.000
  135.250    0.235    0.470  100.430    3.237    0.000
  135.500    0.243    0.479   98.557    3.240    0.000
  135.750    0.257    0.499  105.471    3.183    0.000
  136.000    0.273    0.502  105.481    3.187    0.000
  136.250    0.286    0.504  108.001    3.130    0.000
  136.500    0.286    0.501  104.872    3.134    0.000
  136.750    0.276    0.481  100.488    3.079    0.000
  137.000    0.280    0.470   98.615    3.082    0.000
  137.250    0.280    0.475   95.485    3.027    0.000
  137.500    0.273    0.484   96.752    2.974    0.000
  137.750    0.264    0.502   98.642    2.921    0.000
  138.000    0.271    0.547  101.788    2.870    0.000
  138.250    0.280    0.570  104.937    2.819    0.000
  138.500    0.273    0.587  103.691    2.823    0.000
  138.750    0.268    0.591   99.936    2.773    0.000
  139.000    0.269    0.570  102.457    2.776    0.000
  139.250    0.276    0.549  104.975    2.779    0.000
  139.500    0.281    0.559  111.262    2.782    0.000
  139.750    0.275    0.592  114.409    2.733    0.000
  140.000    0.279    0.606  109.397    2.736    0.000
  140.250    0.295    0.538  103.758    2.739    0.000
  140.500    0.293    0.488  103.767    2.690    0.000
  140.750    0.287    0.519  106.917    2.695    0.000
  141.000    0.292    0.538  107.555    2.696    0.000
  141.250    0.307    0.514  107.561    2.700    0.000
  141.500    0.314    0.499  103.805    2.703    0.000
  141.750    0.312    0.523   98.167    2.706    0.000
  142.000    0.302    0.540   94.409    2.709    0.000
  142.250    0.293    0.513   91.282    2.711    0.000
  142.500    0.282    0.507   93.174    2.716    0.000
  142.750    0.275    0.503  100.715    2.718    0.000
  143.000    0.276    0.498  104.489    2.721    0.000
  143.250    0.273    0.494  102.617    2.776    0.000
  143.500    0.268    0.505   98.860    2.780    0.000
  143.750    0.261    0.515   97.615    2.782    0.000
  144.000    0.257    0.523   96.369    2.840    0.000
  144.250    0.255    0.530   95.123    2.842    0.000
  144.500    0.254    0.539   93.876    2.899    0.000
  144.750    0.257    0.529  114.597    2.958    0.000
  145.000    0.262    0.476  140.340    3.018    0.000
  145.250    0.257    0.472  149.136    3.079    0.000
  145.500    0.249    0.497  108.978    3.201    0.000
  145.750    0.246    0.520  101.456    3.328    0.000
  146.000    0.246    0.516   97.700    3.527    0.000
  146.250    0.220    0.536   88.923    3.599    0.000
  146.500    0.130    0.550   83.911    3.741    0.000
  146.750    0.095    0.515   97.728    3.746    0.000
  147.000    0.142    0.472  108.407    3.750    0.000
  147.250    0.204    0.480  112.184    3.753    0.000
  147.500    0.225    0.459  110.936    3.619    0.000
  147.750    0.231    0.471  110.318    3.555    0.000
  148.000    0.236    0.506  113.466    3.558    0.000
  148.250    0.246    0.536  109.709    3.630    0.000
  148.500    0.233    0.515  102.817    3.704    0.000
  148.750    0.221    0.489   97.806    3.924    0.000
  149.000    0.200    0.463   93.419    4.239    0.000
  149.250    0.186    0.456   87.153    4.491    0.000
  149.500    0.209    0.420   88.419    4.760    0.000
  149.750    0.222    0.393   91.566    4.949    0.000
  150.000    0.233    0.410   97.224    5.047    0.000
  150.250    0.269    0.436   92.842    5.248    0.000
  150.500    0.352    0.464   84.062    5.561    0.000
  150.750    0.399    0.483   77.169    6.005    0.000
  151.000    0.332    0.458   83.456    6.485    0.000
  151.250    0.290    0.418   79.070    7.135    0.000
  151.500    0.258    0.381   67.156    7.851    0.000
  151.750    0.265    0.363   64.654    9.146    0.000
  152.000    0.273    0.367   64.035   10.256    0.000
  152.250    0.295    0.397   63.418   11.502    0.000
  152.500    0.295    0.410   61.544   12.420    0.000
  152.750    0.286    0.401   58.416   13.669    0.000
  153.000    0.286    0.394   61.563   14.211    0.000
  153.250    0.287    0.401   74.753   13.441    0.000
  153.500    0.269    0.412   84.177   11.787    0.000
  153.750    0.249    0.413   89.834    9.952    0.000
  154.000    0.234    0.437   91.729    7.792    0.000
  154.250    0.227    0.443   98.013    7.231    0.000
  154.500    0.226    0.426  101.787    6.711    0.000
  154.750    0.221    0.421   98.659    6.469    0.000
  155.000    0.223    0.434   99.297    6.601    0.000
  155.250    0.240    0.432  103.072    6.735    0.000
  155.500    0.255    0.408   97.433    7.135    0.000
  155.750    0.251    0.404   80.496    7.707    0.000
  156.000    0.224    0.404   67.953    8.321    0.000
  156.250    0.198    0.395   66.708    9.155    0.000
  156.500    0.178    0.369   73.621   11.078    0.000
  156.750    0.196    0.344   77.396   12.421    0.000
  157.000    0.234    0.359   64.853   14.745    0.000
  157.250    0.255    0.381   67.374   16.536    0.000
  157.500    0.261    0.380   70.522   17.521    0.000
  157.750    0.272    0.375   70.530   18.215    0.000
  158.000    0.208    0.364   64.892   18.241    0.000
  158.250    0.164    0.350   66.156   18.260    0.000
  158.500    0.156    0.349   77.462   18.285    0.000
  158.750    0.201    0.366   85.631   18.298    0.000
  159.000    0.260    0.376   85.641   17.977    0.000
  159.250    0.293    0.387   86.905   17.999    0.000
  159.500    0.291    0.394   91.936   17.683    0.000
  159.750    0.276    0.386   99.477   17.696    0.000
  160.000    0.266    0.372  100.743   17.724    0.000
  160.250    0.261    0.373  102.007   17.413    0.000
  160.500    0.270    0.384  101.388   17.098    0.000
  160.750    0.271    0.413   97.005   16.798    0.000
  161.000    0.260    0.432  100.153   16.193    0.000
  161.250    0.242    0.416  106.438   15.611    0.000
  161.500    0.220    0.377  103.309   15.046    0.000
  161.750    0.214    0.371   98.929   14.507    0.000
  162.000    0.234    0.378   99.562   14.250    0.000
  162.250    0.234    0.377  102.710   14.261    0.000
  162.500    0.229    0.367  103.974   14.276    0.000
  162.750    0.227    0.366   87.666   14.570    0.000
  163.000    0.240    0.373   79.517   14.861    0.000
  163.250    0.264    0.382   80.156   14.598    0.000
  163.500    0.273    0.391   91.460   13.809    0.000
  163.750    0.273    0.385  100.885   13.063    0.000
  164.000    0.256    0.383  105.915   12.355    0.000
  164.250    0.240    0.395  109.691   11.251    0.000
  164.500    0.226    0.495  104.680   10.249    0.000
  164.750    0.222    0.514  102.177   10.066    0.000
  165.000    0.223    0.485  104.698    9.705    0.000
  165.250    0.230    0.453  107.217    9.178    0.000
  165.500    0.232    0.422  107.226    8.520    0.000
  165.750    0.236    0.410  109.120    8.212    0.000
  166.000    0.239    0.423  102.226    8.067    0.000
  166.250    0.242    0.438   89.685    8.230    0.000
  166.500    0.253    0.442   84.670    9.058    0.000
  166.750    0.280    0.443   75.893   10.351    0.000
  167.000    0.305    0.399   77.159   12.287    0.000
  167.250    0.311    0.384   87.210   14.309    0.000
  167.500    0.295    0.386   94.123   16.355    0.000
  167.750    0.271    0.397   91.623   17.005    0.000
  168.000    0.145    0.406   80.961   16.087    0.000
  168.250    0.048    0.432   67.792   14.930    0.000
  168.500    0.066    0.460   62.781   14.122    0.000
  168.750    0.313    0.477   55.886   14.139    0.000
  169.000    0.424    0.498   50.246   14.697    0.000
  169.250    0.359    0.445   43.979   16.177    0.000
  169.500    0.339    0.419   43.363   17.141    0.000
  169.750    0.340    0.407   46.510   18.506    0.000
  170.000    0.345    0.407   51.539   20.761    0.000
  170.250    0.351    0.417   53.431   21.995    0.000
  170.500    0.350    0.408   52.816   22.864    0.000
  170.750    0.346    0.390   53.451   23.774    0.000
  171.000    0.345    0.386   56.598   23.801    0.000
  171.250    0.348    0.375   56.608   23.826    0.000
