~VERSION INFORMATION
 VERS.                 2.0:   CWLS LOG ASCII STANDARD -VERSION 2.0
 WRAP.                  NO:   ONE LINE PER DEPTH STEP
~WELL INFORMATION BLOCK
#MNEM.UNIT           DATA                    DESCRIPTION OF MNEMONIC
#---------    -------------------            -------------------------------
# Generated from Intellog Unique Number	CW_82_90/WELL/642
WELL.         08-09-082-21W4                 : Well_name    - WELL
LOC .         00/08-09-082-21W4/0            : Location     - LOCATION
UWI .         00/08-09-082-21W4/0            : Uwi          - UNIQUE WELL ID
ENTR.         JAYE                           : Entered      - ENTERED BY
SRVC.         SCHLUMBERGER                   : Scn          - SERVICE COMPANY
DATE.         01 FEB 1974                    : Date         - LOG DATE
STRT.M        234.696                        : top_depth    - START DEPTH
STOP.M        444.946                        : bot_depth    - STOP DEPTH
STEP.M        0.25                           : increment    - STEP LENGTH
 NULL. -999.2500:NULL Value
~CURVE INFORMATION BLOCK
#MNEM UNIT       ERCB CURVE CODE    CURVE DESCRIPTION
#-----------   ------------------   ----------------------------------
DEPT.M        00 001 00 00         : DEPTH        - DEPTH
CALI.MM       00 280 01 00         : CAL          - CALIPER
GR  .API      00 310 00 00         : GR           - GAMMA RAY
DPHI.V/V      00 890 00 00         : PHID         - DENSITY POROSITY (SANDSTONE)
NPHI.V/V      00 330 00 00         : PHIN         - NEUTRON POROSITY (SANDSTONE)
ILD .OHMM     00 120 00 00         : RESD         - DEEP RESISTIVITY (DLL)
~PARAMETER INFORMATION
#MNEM.UNIT           DATA             DESCRIPTION OF MNEMONIC
#---------         -----------     ------------------------------
GL  .M        631.241              : gl           - GROUND LEVEL ELEVATION
EREF.M        627.583              : kb           - ELEVATION OF DEPTH REFERENCE
DATM.M        631.241              : datum        - DATUM ELEVATION
TDD .M        458.724              : tdd          - TOTAL DEPTH DRILLER
RUN .         ONE                  : Run          - RUN NUMBER
ENG .         STRUYK               : Engineer     - RECORDING ENGINEER
BASE.         EDMONTON             : Branch       - HOME BASE OF LOGGING UNIT
MUD .         GEL CHEM             : Mud_type     - MUD TYPE
MATR.         SANDSTONE            : Logunit      - NEUTRON MATRIX
TMAX.C        11.6667              : BHT          - MAXIMUM RECORDED TEMPERATURE
BHTD.M        458.724              : BHTDEP       - MAXIMUM RECORDED TEMPERATURE
RMT .C        11.6667              : MDTP         - TEMPERATURE OF MUD
MUDD.KG/M     8900                 : MWT          - MUD DENSITY
NEUT.         0                    : NEUTRON      - NEUTRON TYPE
RESI.         1                    : RESIST       - RESISTIVITY TYPE
RM  .OHMM     4.2                  : RM           - RESISTIVITY OF MUD
RMC .OHMM     3.9                  : RMC          - RESISTIVITY OF MUD CAKE
RMF .OHMM     0.25                 : RMF          - RESISTIVITY OF MUD FILTRATE
SUFT.C        4                    : SUFT         - SURFACE TEMPERATURE
~A  DEPTH      CAL       GR     PHID     PHIN     RESD
# ...
  380.696  167.517   91.131    0.192    0.513   10.742
  380.946  167.502   90.574    0.190    0.497   10.466
  381.196  167.687   89.584    0.203    0.494   10.310
  381.446  168.180   89.088    0.215    0.507   10.326
  381.696  168.264   89.137    0.216    0.499   10.340
  381.946  169.994   89.975    0.218    0.514   10.375
  382.196  171.007   90.632    0.216    0.537   10.392
  382.446  169.236   90.623    0.206    0.545   10.388
  382.696  169.212   90.123    0.200    0.522   10.291
  382.946  171.150   91.147    0.188    0.522   10.174
  383.196  170.307   93.938    0.178    0.502   10.172
  383.446  170.181   98.796    0.180    0.508   10.131
  383.696  171.296   98.298    0.164    0.505   10.109
  383.946  171.994  100.172    0.158    0.509   10.088
  384.196  171.254   99.249    0.186    0.519   10.011
  384.446  169.794   98.564    0.188    0.510    9.970
  384.696  169.053   98.007    0.183    0.518    9.859
  384.946  169.340   97.445    0.179    0.534    9.694
  385.196  168.292   95.730    0.191    0.507    9.498
  385.446  168.268   95.351    0.189    0.470    9.188
  385.696  170.209   96.556    0.184    0.463    8.903
  385.946  171.008   95.935    0.201    0.482    8.739
  386.196  169.963   93.855    0.200    0.498    8.995
  386.446  168.809   90.433    0.209    0.449    9.311
  386.696  169.304   90.418    0.186    0.438    9.325
  386.946  168.460   91.809    0.175    0.436    9.322
  387.196  170.291   92.771    0.183    0.438    9.234
  387.446  173.669   89.593    0.171    0.488    9.231
  387.696  172.518   82.821    0.185    0.512    9.537
  387.946  168.997   83.721    0.186    0.502   10.371
  388.196  167.946   81.822    0.194    0.482   11.828
  388.446  167.822   82.052    0.203    0.459   14.198
  388.696  167.903   81.310    0.228    0.439   17.107
  388.946  167.672   79.777    0.223    0.433   18.535
  389.196  167.865   76.659    0.213    0.439   19.396
  389.446  167.742   74.515    0.198    0.434   19.355
  389.696  167.413   72.859    0.235    0.426   18.790
  389.946  167.085   70.594    0.232    0.433   18.748
  390.196  166.548   67.963    0.226    0.428   19.230
  390.446  166.116   65.211    0.194    0.387   20.684
  390.696  165.990   60.449    0.167    0.370   23.119
  390.946  166.590   52.640    0.158    0.369   26.510
  391.196  166.672   52.994    0.161    0.382   29.525
  391.446  166.654   52.922    0.182    0.383   32.580
  391.696  167.046   54.614    0.162    0.352   33.721
  391.946  167.435   57.648    0.139    0.275   33.404
  392.196  167.725   61.230    0.103    0.272   31.149
  392.446  168.014   65.358    0.079    0.280   28.313
  392.696  168.716   66.686    0.100    0.320   22.558
  392.946  169.108   66.795    0.112    0.353   21.307
  393.196  168.364   67.941    0.152    0.390   18.670
  393.446  167.934   68.416    0.141    0.348   18.059
  393.696  168.116   70.109    0.127    0.311   17.151
  393.946  167.790   69.976    0.108    0.318   16.201
  394.196  165.298   65.884    0.171    0.357   15.757
  394.446  163.833   61.853    0.117    0.348   18.811
  394.696  166.491   63.057    0.099    0.305   20.345
  394.946  166.370   65.174    0.082    0.303   22.327
  395.196  165.730   66.384    0.100    0.294   22.816
  395.446  166.323   69.902    0.126    0.301   21.511
  395.696  166.619   72.085    0.149    0.353   19.877
  395.946  167.834   74.326    0.169    0.376   17.902
  396.196  168.532   76.505    0.174    0.400   15.068
  396.446  168.824   77.102    0.185    0.429   13.422
  396.696  169.211   76.665    0.202    0.444   12.725
  396.946  169.402   75.009    0.207    0.455   12.241
  397.196  169.689   76.154    0.207    0.461   11.841
  397.446  169.258   76.569    0.208    0.444   11.686
  397.696  169.752   76.070    0.202    0.433   11.491
  397.946  170.043   80.076    0.191    0.447   11.403
  398.196  170.227   81.588    0.204    0.457   11.358
  398.446  170.514   78.347    0.195    0.442   11.354
  398.696  170.497   78.030    0.174    0.437   11.392
  398.946  170.474   79.420    0.169    0.460   11.389
  399.196  170.250   80.562    0.223    0.474   11.138
  399.446  170.324   80.309    0.223    0.469   10.853
  399.696  170.517   82.489    0.214    0.474   10.672
  399.946  170.086   83.880    0.201    0.475   10.456
  400.196  170.272   81.918    0.191    0.469   10.395
  400.446  170.767   82.272    0.188    0.461   10.354
  400.696  170.231   84.756    0.180    0.457   10.388
  400.946  170.418   85.719    0.179    0.463   10.442
  401.196  171.113   83.637    0.196    0.485   10.553
  401.446  171.403   81.674    0.201    0.481   10.706
  401.696  170.872   81.116    0.181    0.468   10.880
  401.946  170.020   84.453    0.166    0.453   11.037
  402.196  170.111   85.599    0.164    0.469   11.033
  402.446  169.676   86.864    0.177    0.490   10.990
  402.696  169.757   87.706    0.191    0.485   10.866
  402.946  170.762   89.643    0.179    0.490   10.724
  403.196  171.164   92.371    0.158    0.471   10.604
  403.446  171.552   94.552    0.157    0.511   10.446
  403.696  171.123   92.592    0.186    0.520   10.104
  403.946  171.718   91.057    0.179    0.516    9.509
  404.196  172.107   92.081    0.182    0.534    9.064
  404.446  172.402   89.998    0.161    0.520    9.028
  404.696  169.908   89.255    0.140    0.493    9.159
  404.946  166.180   91.192    0.135    0.453    8.924
  405.196  169.455   93.738    0.112    0.424    8.569
  405.446  175.101   95.431    0.089    0.438    8.258
  405.696  174.871   97.549    0.171    0.459    8.151
  405.946  173.928   98.879    0.189    0.460    8.103
  406.196  169.890   99.781    0.176    0.458    8.174
  406.446  167.501   98.855    0.176    0.469    8.263
  406.696  167.583   95.311    0.169    0.455    8.413
  406.946  167.770   87.991    0.168    0.404    9.718
  407.196  166.202   83.594    0.159    0.378   11.164
  407.446  164.844   79.441    0.131    0.349   12.686
  407.696  162.661   81.681    0.109    0.336   16.088
  407.946  162.023   85.690    0.089    0.346   18.652
  408.196  162.001   89.027    0.089    0.367   20.696
  408.446  161.571   91.146    0.179    0.400   20.766
  408.696  161.962   87.724    0.213    0.392   20.234
  408.946  162.864   84.790    0.211    0.396   19.823
  409.196  163.160   83.254    0.194    0.414   19.926
  409.446  163.448   81.597    0.179    0.404   20.399
  409.696  162.604   77.323    0.171    0.397   20.998
  409.946  161.964   72.561    0.194    0.405   21.537
  410.196  161.531   66.276    0.185    0.401   22.537
  410.446  160.994   54.266    0.212    0.394   23.456
  410.696  160.462   45.363    0.234    0.395   29.100
  410.946  159.101   40.052    0.238    0.414   36.769
  411.196  159.491   36.265    0.246    0.409   44.299
  411.446  160.196   37.349    0.261    0.388   49.335
  411.696  160.484   38.251    0.272    0.374   53.162
  411.946  160.459   38.543    0.277    0.376   52.562
  412.196  160.236   39.810    0.275    0.378   49.920
  412.446  159.698   40.956    0.266    0.389   46.809
  412.696  159.371   41.551    0.257    0.398   42.623
  412.946  159.353   43.002    0.263    0.379   38.885
  413.196  159.846   44.147    0.258    0.380   34.703
  413.446  160.344   44.682    0.250    0.391   31.027
  413.696  160.939   45.644    0.250    0.395   27.238
  413.946  160.612   46.729    0.257    0.400   23.911
  414.196  159.665   47.997    0.265    0.404   21.694
  414.446  158.409   50.056    0.271    0.408   20.869
  414.696  158.080   54.245    0.272    0.410   20.297
  414.946  158.265   58.253    0.283    0.409   19.670
  415.196  161.026   63.114    0.274    0.401   17.910
  415.446  164.096   68.827    0.251    0.386   15.466
  415.696  167.989   79.228    0.217    0.381   13.356
  415.946  172.399   84.271    0.190    0.401   10.486
  416.196  176.705   86.270    0.170    0.441    9.022
  416.446  188.426   88.207    0.172    0.468    7.906
  416.696  179.136   90.629    0.187    0.452    6.310
  416.946  173.245   94.699    0.207    0.456    5.000
