~VERSION INFORMATION
 VERS.                 2.0:   CWLS LOG ASCII STANDARD -VERSION 2.0
 WRAP.                  NO:   ONE LINE PER DEPTH STEP
~WELL INFORMATION BLOCK
#MNEM.UNIT           DATA                    DESCRIPTION OF MNEMONIC
#---------    -------------------            -------------------------------
# Generated from Intellog Unique Number	CS_73_76/WELL/2177
WELL.         AMOCO CANADA PETOLEUM          : Well_name    - WELL
LOC .         00/07-27-074-09W4/0            : Location     - LOCATION
UWI .         00/07-27-074-09W4/0            : Uwi          - UNIQUE WELL ID
ENTR.         SP                             : Entered      - ENTERED BY
SRVC.         SCHLUMBERGER                   : Scn          - SERVICE COMPANY
STRT.M        286.512                        : top_depth    - START DEPTH
STOP.M        490.512                        : bot_depth    - STOP DEPTH
STEP.M        0.25                           : increment    - STEP LENGTH
 NULL. -999.2500:NULL Value
~CURVE INFORMATION BLOCK
#MNEM UNIT       ERCB CURVE CODE    CURVE DESCRIPTION
#-----------   ------------------   ----------------------------------
DEPT.M        00 001 00 00         : DEPTH        - DEPTH
GR  .API      00 310 00 00         : GR           - GAMMA RAY
DPHI.V/V      00 890 00 00         : PHID         - DENSITY POROSITY (SANDSTONE)
NPHI.V/V      00 330 00 00         : PHIN         - NEUTRON POROSITY (SANDSTONE)
ILD .OHMM     00 120 00 00         : RESD         - DEEP RESISTIVITY (DIL)
~PARAMETER INFORMATION
#MNEM.UNIT           DATA             DESCRIPTION OF MNEMONIC
#---------         -----------     ------------------------------
GL  .M        661.416              : gl           - GROUND LEVEL ELEVATION
EREF.M        665.074              : kb           - ELEVATION OF DEPTH REFERENCE
DATM.M        661.416              : datum        - DATUM ELEVATION
TDD .M        594.36               : tdd          - TOTAL DEPTH DRILLER
RUN .         ONE                  : Run          - RUN NUMBER
ENG .         BILL                 : Engineer     - RECORDING ENGINEER
WIT .         JIM                  : Witness      - WITNESSED BY
MUD .         GEL                  : Mud_type     - MUD TYPE
MATR.         SANDSTONE            : Logunit      - NEUTRON MATRIX
TMAX.C        24.4444              : BHT          - MAXIMUM RECORDED TEMPERATURE
BHTD.M        594.36               : BHTDEP       - MAXIMUM RECORDED TEMPERATURE
MATR.         1                    : LOGUNIT      - NEUTRON MATRIX
RMT .C        25                   : MDTP         - TEMPERATURE OF MUD
NEUT.         1                    : NEUTRON      - NEUTRON TYPE
RESI.         0                    : RESIST       - RESISTIVITY TYPE
RMC .OHMM     0.25                 : RMC          - RESISTIVITY OF MUD CAKE
RMF .OHMM     0.25                 : RMF          - RESISTIVITY OF MUD FILTRATE
SUFT.C        15                   : SUFT         - SURFACE TEMPERATURE
~A  DEPTH       GR     PHID     PHIN     RESD
  286.512  102.034    0.248    0.428    3.493
  286.762  103.438    0.251    0.425    3.457
  287.012  104.393    0.254    0.430    3.365
  287.262  103.365    0.250    0.438    3.311
  287.512  101.744    0.246    0.432    3.213
  287.762  100.007    0.242    0.430    3.123
  288.012   98.559    0.239    0.430    3.124
  288.262   97.601    0.238    0.428    3.214
  288.512  101.363    0.234    0.417    3.394
  288.762  100.613    0.227    0.421    3.675
  289.012   98.358    0.223    0.420    3.755
  289.262   97.836    0.209    0.413    3.632
  289.512   92.909    0.199    0.406    3.529
  289.762   95.409    0.190    0.392    3.484
  290.012   95.044    0.186    0.379    4.207
  290.262   92.465    0.215    0.367    5.400
  290.512   90.935    0.251    0.370    7.922
  290.762   94.295    0.275    0.382    9.697
  291.012   94.433    0.262    0.388   11.209
  291.262   94.643    0.248    0.385   12.319
  291.512   97.236    0.242    0.382   12.688
  291.762   99.945    0.235    0.381   12.614
  292.012  104.935    0.254    0.367   12.483
  292.262  102.995    0.276    0.360   12.410
  292.512   97.080    0.292    0.345   12.793
  292.762   91.460    0.311    0.335   13.735
  293.012   81.692    0.329    0.330   15.051
  293.262   74.668    0.338    0.313   16.421
  293.512   68.665    0.333    0.300   17.795
  293.762   65.917    0.320    0.302   18.737
  294.012   69.603    0.309    0.302   20.061
  294.262   72.627    0.313    0.306   20.662
  294.512   70.476    0.306    0.317   21.054
  294.762   65.871    0.288    0.330   19.460
  295.012   63.442    0.291    0.343   17.765
  295.262   62.163    0.303    0.357   16.205
  295.512   66.971    0.309    0.362   14.789
  295.762   72.433    0.276    0.366   13.438
  296.012   81.392    0.251    0.363   12.796
  296.262   86.777    0.239    0.367   12.097
  296.512   86.084    0.240    0.362   11.374
  296.762   81.723    0.254    0.368   11.834
  297.012   74.483    0.267    0.371   13.203
  297.262   71.767    0.273    0.368   14.368
  297.512   74.930    0.278    0.364   14.872
  297.762   80.002    0.277    0.363   14.860
  298.012   82.769    0.277    0.368   14.871
  298.262   83.198    0.290    0.372   14.886
  298.512   81.032    0.301    0.372   15.333
  298.762   78.914    0.308    0.372   16.147
  299.012   74.851    0.308    0.373   16.965
  299.262   73.112    0.308    0.368   17.715
  299.512   70.709    0.311    0.361   18.391
  299.762   68.904    0.315    0.355   18.629
  300.012   65.983    0.318    0.356   18.468
  300.262   64.273    0.314    0.354   17.951
  300.512   69.130    0.308    0.353   17.431
  300.762   71.463    0.323    0.363   16.193
  301.012   71.374    0.341    0.374   15.436
  301.262   70.985    0.355    0.383   15.449
  301.512   67.848    0.363    0.371   16.456
  301.762   61.408    0.354    0.366   17.669
  302.012   58.927    0.342    0.375   18.462
  302.262   60.068    0.346    0.377   19.042
  302.512   61.126    0.348    0.376   19.026
  302.762   61.794    0.335    0.372   19.029
  303.012   63.754    0.324    0.360   19.032
  303.262   65.318    0.322    0.352   19.054
  303.512   66.367    0.323    0.344   18.497
  303.762   67.414    0.311    0.337   17.962
  304.012   67.507    0.304    0.334   17.128
  304.262   64.547    0.295    0.346   16.400
  304.512   63.096    0.279    0.356   14.282
  304.762   66.617    0.256    0.359   12.447
  305.012   70.150    0.240    0.366   11.155
  305.262   75.947    0.219    0.375    9.728
  305.512   80.448    0.192    0.384    8.956
  305.762   82.986    0.161    0.393    7.926
  306.012   87.296    0.188    0.394    7.382
  306.262   92.545    0.194    0.409    6.699
  306.512   99.346    0.198    0.422    5.674
  306.762  104.300    0.198    0.434    5.296
  307.012  107.085    0.205    0.448    4.782
  307.262  112.117    0.213    0.442    4.411
  307.512  113.599    0.228    0.437    4.069
  307.762  112.260    0.239    0.447    3.838
  308.012  110.589    0.251    0.461    3.690
  308.262  109.426    0.262    0.467    3.512
  308.512  109.840    0.274    0.438    3.412
  308.762  103.463    0.279    0.390    3.767
  309.012   93.367    0.281    0.379    5.018
  309.262   85.785    0.289    0.368    6.805
  309.512   78.290    0.296    0.357    8.667
  309.762   72.517    0.298    0.351    9.815
  310.012   69.151    0.291    0.354   10.793
  310.262   66.136    0.286    0.353   11.296
  310.512   64.516    0.282    0.352   11.667
  310.762   65.323    0.277    0.356   12.026
  311.012   65.244    0.269    0.369   12.201
  311.262   66.220    0.261    0.366   12.259
  311.512   70.295    0.254    0.359   12.017
  311.762   75.290    0.249    0.368   11.006
  312.012   82.679    0.246    0.375   10.228
  312.262   83.602    0.241    0.379    9.115
  312.512   83.834    0.237    0.381    8.759
  312.762   86.475    0.235    0.370    8.253
  313.012   86.808    0.233    0.370    7.863
  313.262   84.842    0.233    0.369    7.773
  313.512   82.863    0.236    0.367    7.701
  313.762   81.340    0.238    0.380    7.703
  314.012   81.708    0.243    0.385    7.761
  314.262   83.783    0.244    0.382    7.839
  314.512   84.979    0.241    0.377    7.708
  314.762   82.598    0.241    0.382    7.501
  315.012   80.731    0.250    0.380    7.426
  315.262   79.049    0.266    0.377    7.405
  315.512   78.913    0.276    0.377    7.808
  315.762   79.540    0.280    0.372    8.148
  316.012   79.912    0.277    0.369    8.401
  316.262   80.186    0.270    0.367    8.651
  316.512   80.222    0.265    0.383    8.494
  316.762   80.242    0.263    0.386    8.481
  317.012   80.266    0.267    0.386    8.478
  317.262   79.453    0.263    0.383    8.496
  317.512   76.883    0.265    0.378    8.310
  317.762   76.007    0.267    0.393    8.329
  318.012   75.755    0.268    0.398    8.220
  318.262   79.077    0.262    0.396    8.182
  318.512   82.759    0.251    0.393    8.179
  318.762   82.104    0.243    0.387    8.198
  319.012   80.509    0.241    0.383    8.018
  319.262   78.102    0.247    0.378    8.032
  319.512   76.416    0.251    0.373    7.957
  319.762   75.799    0.257    0.373    7.893
  320.012   78.835    0.266    0.381    7.878
  320.262   82.650    0.274    0.387    8.050
  320.512   86.433    0.281    0.391    8.221
  320.762   80.860    0.291    0.392    8.625
  321.012   79.616    0.304    0.387    9.195
  321.262   79.286    0.311    0.389    9.889
  321.512   76.707    0.318    0.387   10.881
  321.762   74.123    0.325    0.378   11.307
  322.012   74.416    0.320    0.373   11.895
  322.262   76.150    0.321    0.367   12.241
  322.512   76.230    0.327    0.367   12.879
  322.762   75.319    0.334    0.375   13.049
  323.012   73.214    0.329    0.385   13.383
  323.262   72.646    0.323    0.390   13.069
  323.512   74.563    0.326    0.388   12.525
  323.762   77.002    0.320    0.385   11.529
  324.012   75.174    0.304    0.385   10.642
  324.262   74.225    0.302    0.390    9.800
  324.512   73.344    0.300    0.391    9.744
  324.762   74.034    0.290    0.382    9.558
  325.012   75.314    0.282    0.378    8.900
  325.262   78.054    0.277    0.387    8.127
  325.512   80.620    0.290    0.389    7.930
  325.762   81.413    0.297    0.383    8.084
  326.012   81.396    0.294    0.373    8.422
  326.262   81.949    0.309    0.379    9.261
  326.512   80.336    0.318    0.372   10.111
  326.762   77.652    0.328    0.368   11.002
  327.012   73.486    0.309    0.360   12.426
  327.262   71.213    0.278    0.345   14.553
  327.512   71.200    0.243    0.306   16.183
  327.762   73.280    0.171    0.244   19.186
  328.012   77.232    0.149    0.216   23.637
  328.262   74.410    0.212    0.191   27.202
  328.512   71.175    0.252    0.211   27.203
  328.762   72.000    0.281    0.288   22.471
  329.012   75.253    0.292    0.363   17.820
  329.262   80.493    0.285    0.401   14.752
  329.512   85.002    0.278    0.413   12.578
  329.762   88.409    0.261    0.431   11.294
