~VERSION INFORMATION
 VERS.                 2.0:   CWLS LOG ASCII STANDARD -VERSION 2.0
 WRAP.                  NO:   ONE LINE PER DEPTH STEP
~WELL INFORMATION BLOCK
#MNEM.UNIT           DATA                    DESCRIPTION OF MNEMONIC
#---------    -------------------            -------------------------------
# Generated from Intellog Unique Number	CC_84_87/WELL/1169
NULL.         -999.25                        : NULL_VALUE
WELL.         BP GRANOR                      : Well_name    - WELL              
LOC .         07-29-084-18W4                 : Location     - LOCATION          
UWI .         00/07-29-084-18W400            : Uwi          - UNIQUE WELL ID    
ENTR.         JHS                            : Entered      - ENTERED BY        
SRVC.         SCHLUMBERGER                   : Scn          - SERVICE COMPANY   
DATE.         01 MAR 81                      : Date         - LOG DATE
STRT.M        115                            : top_depth    - START DEPTH       
STOP.M        364.897                        : bot_depth    - STOP DEPTH        
STEP.M        0.3                            : increment    - STEP LENGTH       
~CURVE INFORMATION BLOCK
#MNEM UNIT       ERCB CURVE CODE    CURVE DESCRIPTION
#-----------   ------------------   ----------------------------------
DEPT.M        00 001 00 00         : DEPTH        - DEPTH                       
DPHI.V/V      00 890 00 00         : PHID         - DENSITY POROSITY (LIMESTONE)
NPHI.V/V      00 330 00 00         : PHIN         - NEUTRON POROSITY (LIMESTONE)
GR  .API      00 310 00 00         : GR           - GAMMA RAY                   
ILD .OHMM     00 120 00 00         : RESD         - DEEP RESISTIVITY (DIL)      
~PARAMETER INFORMATION       
#MNEM.UNIT           DATA             DESCRIPTION OF MNEMONIC
#---------         -----------     ------------------------------
GL  .M        567.8                : gl           - GROUND LEVEL ELEVATION      
EREF.M        571.5                : kb           - ELEVATION OF DEPTH REFERENCE
DATM.M        571.5                : datum        - DATUM ELEVATION             
TDD .M        350                  : tdd          - TOTAL DEPTH DRILLER         
RUN .         ONE                  : Run          - RUN NUMBER                  
ENG .         BILL                 : Engineer     - RECORDING ENGINEER          
WIT .         JIM                  : Witness      - WITNESSED BY                
MUD .         GEL                  : Mud_type     - MUD TYPE                    
MATR.         LIMESTONE            : Logunit      - NEUTRON MATRIX              
TMAX.C        20                   : BHT          - MAXIMUM RECORDED TEMPERATURE
BHTD.M        350                  : BHTDEP       - MAXIMUM RECORDED TEMPERATURE
MATR.         1                    : LOGUNIT      - NEUTRON MATRIX              
RMT .C        25                   : MDTP         - TEMPERATURE OF MUD          
NEUT.         1                    : NEUTRON      - NEUTRON TYPE                
RESI.         0                    : RESIST       - RESISTIVITY TYPE            
RMC .OHMM     0.25                 : RMC          - RESISTIVITY OF MUD CAKE     
RMF .OHMM     0.25                 : RMF          - RESISTIVITY OF MUD FILTRATE 
SUFT.C        15                   : SUFT         - SURFACE TEMPERATURE         
~A  DEPTH     PHID     PHIN       GR     RESD
  115.000    0.289    0.426   51.625    7.460
  115.300    0.281    0.412   50.449    7.323
  115.600    0.258    0.407   52.309    7.053
  115.900    0.259    0.414   52.959    7.057
  116.200    0.270    0.400   48.751    7.064
  116.500    0.287    0.426   46.971    7.486
  116.800    0.261    0.448   49.453    7.635
  117.100    0.277    0.442   51.927    7.790
  117.400    0.292    0.413   53.189    7.648
  117.700    0.258    0.413   55.048    7.507
  118.000    0.229    0.401   56.294    7.369
  118.300    0.258    0.409   56.335    7.098
  118.600    0.267    0.399   60.019    6.581
  118.900    0.270    0.405   64.311    6.218
  119.200    0.236    0.443   65.577    5.874
  119.500    0.238    0.456   66.223    5.445
  119.800    0.235    0.461   69.299    4.952
  120.100    0.239    0.471   69.341    4.504
  120.400    0.258    0.473   71.808    4.337
  120.700    0.270    0.486   76.718    4.098
  121.000    0.272    0.483   78.579    3.799
  121.300    0.268    0.490   76.193    3.590
  121.600    0.281    0.509   76.848    3.524
  121.900    0.265    0.525   77.488    3.394
  122.200    0.255    0.459   75.706    3.269
  122.500    0.274    0.447   71.500    3.335
  122.800    0.262    0.455   65.475    3.602
  123.100    0.279    0.427   68.549    3.536
  123.400    0.302    0.486   77.093    3.278
  123.700    0.308    0.519   77.133    3.098
  124.000    0.307    0.529   72.923    3.160
  124.300    0.253    0.516   63.249    3.349
  124.600    0.239    0.422   69.972    3.416
  124.900    0.263    0.500   80.948    3.167
  125.200    0.357    0.552   84.024    2.825
  125.500    0.366    0.553   81.637    2.426
  125.800    0.365    0.575   79.860    2.336
  126.100    0.314    0.581   79.294    2.250
  126.400    0.343    0.558   78.731    2.252
  126.700    0.350    0.554   78.776    2.297
  127.000    0.360    0.590   81.243    2.435
  127.300    0.360    0.565   83.718    2.580
  127.600    0.319    0.522   84.971    2.735
  127.900    0.295    0.526   84.407    2.789
  128.200    0.298    0.564   84.450    2.845
  128.500    0.270    0.550   84.499    2.902
  128.800    0.268    0.551   84.536    2.961
  129.100    0.285    0.524   83.976    3.020
  129.400    0.278    0.517   84.013    3.022
  129.700    0.298    0.536   83.445    3.083
  130.000    0.289    0.545   83.491    3.027
  130.300    0.320    0.551   86.572    3.029
  130.600    0.301    0.561   88.431    3.030
  130.900    0.301    0.551   86.043    3.091
  131.200    0.282    0.509   82.444    3.153
  131.500    0.264    0.465   82.481    3.407
  131.800    0.242    0.438   81.924    3.680
  132.100    0.251    0.446   78.932    3.976
  132.400    0.289    0.462   74.110    4.637
  132.700    0.303    0.492   62.613    6.183
  133.000    0.359    0.499   49.902    8.087
  133.300    0.313    0.424   48.730   11.643
  133.600    0.318    0.382   49.385   15.825
  133.900    0.329    0.370   45.172   20.702
  134.200    0.335    0.386   45.219   22.795
  134.500    0.349    0.399   46.478   23.701
  134.800    0.339    0.421   48.941   24.180
  135.100    0.340    0.431   52.631   24.194
  135.400    0.347    0.446   54.494   24.210
  135.700    0.357    0.460   55.747   24.230
  136.000    0.341    0.449   58.221   23.786
  136.300    0.350    0.440   58.261   23.354
  136.600    0.341    0.448   56.486   22.068
  136.900    0.347    0.456   53.493   21.251
  137.200    0.346    0.440   52.932   19.701
  137.500    0.340    0.419   53.574   18.260
  137.800    0.330    0.435   55.439   17.254
  138.100    0.348    0.471   53.662   16.617
  138.400    0.363    0.485   52.488   16.007
  138.700    0.352    0.473   54.348   15.713
  139.000    0.322    0.480   56.221   16.654
  139.300    0.300    0.496   55.041   18.695
  139.600    0.294    0.513   52.653   20.195
  139.900    0.348    0.501   51.484   21.817
  140.200    0.350    0.482   50.319   21.832
  140.500    0.360    0.469   50.353   21.848
  140.800    0.347    0.470   51.616   21.866
  141.100    0.339    0.459   53.479   21.467
  141.400    0.340    0.461   54.730   21.483
  141.700    0.334    0.494   53.557   21.913
  142.000    0.347    0.494   51.778   22.782
  142.300    0.353    0.499   50.609   23.240
  142.600    0.351    0.497   48.832   23.703
  142.900    0.362    0.466   47.052   24.182
  143.200    0.348    0.453   45.889   24.204
  143.500    0.353    0.448   44.703   24.682
  143.800    0.349    0.440   44.151   24.701
  144.100    0.351    0.431   44.179   24.716
  144.400    0.338    0.425   43.614   25.215
  144.700    0.348    0.433   42.443   25.232
  145.000    0.340    0.439   41.878   25.247
  145.300    0.332    0.442   42.529   25.270
  145.600    0.356    0.449   46.212   24.806
  145.900    0.341    0.449   46.861   24.823
  146.200    0.339    0.443   46.300   25.325
  146.500    0.339    0.446   45.132   25.344
  146.800    0.343    0.440   43.350   25.853
  147.100    0.326    0.434   44.611   26.367
  147.400    0.330    0.434   46.467   26.896
  147.700    0.332    0.431   47.120   27.433
  148.000    0.317    0.451   45.340   27.979
  148.300    0.295    0.433   42.346   28.544
  148.600    0.257    0.425   42.387   28.021
  148.900    0.285    0.448   46.070   27.508
  149.200    0.360    0.449   49.155   25.992
  149.500    0.354    0.443   49.800   25.037
  149.800    0.354    0.438   48.022   24.116
  150.100    0.340    0.446   49.276   23.677
  150.400    0.340    0.454   49.321   23.247
  150.700    0.340    0.458   51.189   23.256
  151.000    0.341    0.441   53.047   22.834
  151.300    0.324    0.422   53.702   22.416
  151.600    0.308    0.425   56.173   22.429
  151.900    0.313    0.429   57.425   22.022
  152.200    0.309    0.396   53.827   23.337
  152.500    0.254    0.353   50.221   22.912
  152.800    0.135    0.290   52.086   21.649
  153.100    0.109    0.306   56.379   19.315
  153.400    0.246    0.386   60.673   16.585
  153.700    0.312    0.432   59.503   14.241
  154.000    0.338    0.431   60.759   13.201
  154.300    0.329    0.448   63.235   13.728
  154.600    0.327    0.435   66.917   14.001
  154.900    0.324    0.433   71.210   13.485
  155.200    0.297    0.441   76.713   11.802
  155.500    0.271    0.445   83.434    5.708
  155.800    0.238    0.500   87.128    5.191
  156.100    0.265    0.485   82.914    5.397
  156.400    0.271    0.461   81.133    5.830
  156.700    0.266    0.459   78.142    6.801
  157.000    0.252    0.453   75.767    7.633
  157.300    0.262    0.422   77.620    8.406
  157.600    0.223    0.411   82.520    8.908
  157.900    0.212    0.447   83.174    8.915
  158.200    0.236    0.451   79.566    8.922
  158.500    0.248    0.436   79.007    9.277
  158.800    0.253    0.442   79.648    9.645
  159.100    0.259    0.454   71.189   10.221
  159.400    0.243    0.468   62.127   11.695
  159.700    0.247    0.439   61.563   12.878
  160.000    0.310    0.409   69.497   11.489
  160.300    0.280    0.412   80.466    7.547
  160.600    0.265    0.446   93.266    5.455
  160.900    0.228    0.487   96.341    4.684
  161.200    0.250    0.550   93.957    4.260
  161.500    0.241    0.548   97.040    4.103
  161.800    0.234    0.515   99.504    4.349
  162.100    0.217    0.504   97.725    4.436
  162.400    0.208    0.515   96.553    4.439
  162.700    0.250    0.516   95.988    4.357
  163.000    0.241    0.533   95.424    3.741
  163.300    0.254    0.574   90.001    3.152
  163.600    0.267    0.564   80.325    2.978
  163.900    0.290    0.518   71.263    3.279
  164.201    0.342    0.504   64.016    4.457
  164.501    0.353    0.466   56.772    6.175
  164.801    0.365    0.440   50.745    9.061
  165.101    0.384    0.429   47.746   13.297
  165.401    0.390    0.423   45.374   17.395
  165.701    0.367    0.430   45.404   21.076
  166.001    0.370    0.440   46.071   24.117
  166.301    0.362    0.442   46.701   25.558
  166.601    0.360    0.466   47.352   24.619
  166.901    0.354    0.471   50.430   23.263
