~VERSION INFORMATION
 VERS.                 2.0:   CWLS LOG ASCII STANDARD -VERSION 2.0
 WRAP.                  NO:   ONE LINE PER DEPTH STEP
~WELL INFORMATION BLOCK
#MNEM.UNIT           DATA                    DESCRIPTION OF MNEMONIC
#---------    -------------------            -------------------------------
# Generated from Intellog Unique Number	CW_82_90/WELL/3427
WELL.         TEXEX CORN                     : Well_name    - WELL
LOC .         00/07-14-089-25W4/0            : Location     - LOCATION
UWI .         00/07-14-089-25W4/0            : Uwi          - UNIQUE WELL ID
ENTR.         MAX                            : Entered      - ENTERED BY
SRVC.         SCHLUMBERGER                   : Scn          - SERVICE COMPANY
STRT.M        167.64                         : top_depth    - START DEPTH
STOP.M        337.14                         : bot_depth    - STOP DEPTH
STEP.M        0.25                           : increment    - STEP LENGTH
 NULL. -999.2500:NULL Value
~CURVE INFORMATION BLOCK
#MNEM UNIT       ERCB CURVE CODE    CURVE DESCRIPTION
#-----------   ------------------   ----------------------------------
DEPT.M        00 001 00 00         : DEPTH        - DEPTH
ILD .OHMM     00 120 00 00         : RESD         - DEEP RESISTIVITY (DIL)
NPHI.V/V      00 330 00 00         : PHIN         - NEUTRON POROSITY (SANDSTONE)
DPHI.V/V      00 890 00 00         : PHID         - DENSITY POROSITY (SANDSTONE)
CALI.MM       00 280 01 00         : CAL          - CALIPER
GR  .API      00 310 00 00         : GR           - GAMMA RAY
~PARAMETER INFORMATION
#MNEM.UNIT           DATA             DESCRIPTION OF MNEMONIC
#---------         -----------     ------------------------------
GL  .M        597.713              : gl           - GROUND LEVEL ELEVATION
EREF.M        601.066              : kb           - ELEVATION OF DEPTH REFERENCE
DATM.M        597.713              : datum        - DATUM ELEVATION
TDD .M        338.633              : tdd          - TOTAL DEPTH DRILLER
RUN .         ONE                  : Run          - RUN NUMBER
ENG .         BILL                 : Engineer     - RECORDING ENGINEER
WIT .         JIM                  : Witness      - WITNESSED BY
MUD .         GEL                  : Mud_type     - MUD TYPE
MATR.         SANDSTONE            : Logunit      - NEUTRON MATRIX
TMAX.C        22.7778              : BHT          - MAXIMUM RECORDED TEMPERATURE
BHTD.M        338.633              : BHTDEP       - MAXIMUM RECORDED TEMPERATURE
MATR.         1                    : LOGUNIT      - NEUTRON MATRIX
RMT .C        17.7778              : MDTP         - TEMPERATURE OF MUD
NEUT.         1                    : NEUTRON      - NEUTRON TYPE
RESI.         0                    : RESIST       - RESISTIVITY TYPE
RMC .OHMM     4.42                 : RMC          - RESISTIVITY OF MUD CAKE
RMF .OHMM     2.42                 : RMF          - RESISTIVITY OF MUD FILTRATE
SUFT.C        -26.1111             : SUFT         - SURFACE TEMPERATURE
~A  DEPTH     RESD     PHIN     PHID      CAL       GR
  167.640    3.719    0.588    0.283  223.621  127.575
  167.890    3.752    0.596    0.272  218.611  127.259
  168.140    3.819    0.578    0.239  217.085  126.937
  168.390    3.887    0.564    0.233  215.053  124.570
  168.640    3.957    0.554    0.241  215.008  125.714
  168.890    4.028    0.555    0.235  214.964  125.684
  169.140    4.175    0.564    0.238  215.409  126.239
  169.390    4.329    0.559    0.231  215.364  127.383
  169.640    4.487    0.492    0.228  215.809  127.064
  169.890    4.737    0.481    0.227  216.744  124.990
  170.140    5.047    0.476    0.232  217.194  121.156
  170.390    5.426    0.472    0.216  217.155  116.445
  170.640    5.942    0.476    0.187  216.119  112.319
  170.890    6.809    0.460    0.178  216.564  109.663
  171.140    7.188    0.447    0.163  220.984  104.363
  171.390    7.317    0.448    0.122  224.396  103.167
  171.640    7.182    0.456    0.082  221.869  108.117
  171.890    6.984    0.478    0.143  225.793  113.942
  172.140    6.609    0.486    0.203  226.733  120.060
  172.390    6.197    0.499    0.211  227.189  126.467
  172.640    5.653    0.498    0.211  227.629  128.489
  172.890    5.204    0.511    0.213  228.080  126.408
  173.140    5.016    0.519    0.215  228.035  124.629
  173.390    4.790    0.514    0.215  225.513  127.236
  173.640    4.658    0.504    0.214  222.495  130.135
  173.890    4.613    0.504    0.217  216.984  132.735
  174.140    4.612    0.518    0.226  214.473  131.538
  174.390    4.694    0.528    0.237  212.441  127.712
  174.640    4.778    0.536    0.232  214.372  121.538
  174.890    5.184    0.533    0.225  219.287  111.853
  175.140    6.218    0.506    0.247  223.200   92.513
  175.390    7.597    0.472    0.244  220.673   74.928
  175.640    9.281    0.409    0.245  226.083   53.540
  175.890   12.534    0.347    0.247  229.507   40.637
  176.140   19.590    0.316    0.237  224.502   35.926
  176.390   23.932    0.332    0.247  222.971   37.944
  176.640   24.137    0.356    0.288  223.421   39.962
  176.890   22.631    0.365    0.308  221.389   39.351
  177.140   22.010    0.370    0.298  219.858   38.739
  177.390   21.999    0.353    0.277  218.811   39.886
  177.640   21.789    0.327    0.252  215.298   42.200
  177.890   20.431    0.353    0.232  209.804   46.267
  178.140   17.809    0.369    0.261  207.282   51.214
  178.390   13.787    0.395    0.279  212.186   63.476
  178.640   10.871    0.432    0.246  213.622   79.545
  178.890    9.649    0.462    0.266  215.564   83.319
  179.140    9.645    0.469    0.284  218.987   81.823
  179.390    9.817    0.472    0.275  226.374   74.774
  179.640   11.670    0.471    0.291  234.251   70.362
  179.890   15.906    0.467    0.284  228.756   61.848
  180.140   19.253    0.461    0.318  222.265   55.963
  180.390   20.140    0.451    0.341  219.737   53.885
  180.640   20.316    0.450    0.345  218.702   53.569
  180.890   20.305    0.434    0.344  217.666   52.958
  181.140   20.294    0.426    0.345  217.616   52.053
  181.390   20.285    0.430    0.350  217.565   52.024
  181.640   19.196    0.440    0.338  219.502   52.576
  181.890   17.353    0.448    0.337  220.454   52.849
  182.140   16.419    0.442    0.329  221.890   53.404
  182.390   14.314    0.441    0.318  220.843   53.377
  182.640   13.794    0.433    0.305  219.818   53.640
  182.890   15.242    0.427    0.305  219.267   53.903
  183.140   15.800    0.430    0.307  218.237   54.172
  183.390   16.379    0.438    0.302  217.691   55.898
  183.640   16.521    0.436    0.298  218.142   57.916
  183.890   16.817    0.424    0.304  218.091   59.064
  184.140   15.484    0.439    0.310  217.055   61.960
  184.390   12.433    0.453    0.308  217.005   66.322
  184.640   10.544    0.468    0.301  216.470   71.269
  184.890    9.191    0.485    0.295  215.423   72.117
  185.140    8.697    0.495    0.301  214.889   71.509
  185.390    8.458    0.490    0.302  216.820   68.846
  185.640    8.609    0.487    0.298  217.761   66.768
  185.890    8.924    0.485    0.293  216.725   67.616
  186.140    9.252    0.480    0.289  215.689   67.586
  186.390    9.590    0.467    0.289  213.657   66.689
  186.640    9.674    0.457    0.294  211.630   66.656
  186.890    9.937    0.445    0.295  213.066   67.803
  187.140   10.395    0.454    0.302  213.022   66.895
  187.390   11.176    0.447    0.299  212.481   63.065
  187.640   12.126    0.434    0.302  213.422   60.698
  187.890   12.344    0.429    0.301  213.383   61.540
  188.140   12.338    0.418    0.298  213.338   62.105
  188.390   12.220    0.416    0.293  213.287   62.075
  188.640   11.775    0.422    0.284  213.237   61.464
  188.890   11.451    0.430    0.281  214.183   58.508
  189.140   11.136    0.434    0.289  214.628   55.556
  189.390   11.030    0.435    0.303  214.583   53.481
  189.640   10.924    0.438    0.307  215.028   57.544
  189.890   10.919    0.433    0.292  214.488   56.055
  190.140   12.176    0.426    0.280  214.443   51.935
  190.390   13.455    0.422    0.288  214.894   46.347
  190.640   15.561    0.416    0.282  214.849   41.928
  190.890   17.672    0.406    0.288  215.300   39.561
  191.140   19.706    0.398    0.293  217.721   37.184
  191.390   21.186    0.411    0.315  217.670   35.987
  191.640   21.566    0.418    0.338  216.640   35.086
  191.890   21.752    0.419    0.324  214.614   33.594
  192.140   21.741    0.417    0.314  212.086   32.400
  192.390   21.930    0.413    0.294  212.531   33.252
  192.640   21.918    0.411    0.302  215.464   34.386
  192.890   21.907    0.410    0.312  216.900   34.066
  193.140   21.897    0.406    0.298  215.865   33.169
  193.390   21.886    0.407    0.303  214.823   31.965
  193.640   21.876    0.413    0.308  214.289   31.646
  193.890   22.064    0.422    0.305  214.238   31.613
  194.140   22.460    0.429    0.297  213.698   31.886
  194.390   22.446    0.425    0.306  213.642   31.567
  194.640   22.232    0.412    0.314  212.601   31.534
  194.890   22.020    0.398    0.319  211.576   31.511
  195.140   21.610    0.382    0.321  211.520   32.651
  195.390   21.404    0.377    0.326  212.472   37.014
  195.640   21.390    0.391    0.336  216.385   37.865
  195.890   21.379    0.405    0.329  215.845   38.131
  196.140   21.369    0.409    0.325  214.803   37.809
  196.390   21.359    0.406    0.328  214.263   37.197
  196.640   21.350    0.400    0.324  213.723   36.585
  196.890   21.531    0.399    0.328  213.183   37.726
  197.140   21.522    0.407    0.333  212.637   40.037
  197.390   21.510    0.416    0.334  212.592   40.014
  197.640   21.306    0.424    0.335  213.043   39.984
  197.890   21.292    0.423    0.337  213.488   39.661
  198.140   21.283    0.416    0.333  213.933   39.638
  198.390   21.271    0.403    0.338  213.392   41.653
  198.640   21.259    0.401    0.335  212.847   42.797
  198.890   21.252    0.407    0.331  212.802   42.478
  199.140   21.432    0.417    0.331  212.757   42.159
  199.390   21.230    0.432    0.317  213.202   42.425
  199.640   20.835    0.432    0.337  214.643   42.099
  199.890   20.446    0.421    0.328  214.593   42.073
  200.140   20.437    0.428    0.333  214.554   43.510
  200.390   20.425    0.444    0.346  214.503   44.357
  200.640   20.417    0.447    0.348  213.952   44.620
  200.890   20.404    0.443    0.348  213.913   44.301
  201.140   20.583    0.437    0.346  214.859   43.982
  201.390   20.572    0.429    0.335  215.298   43.959
  201.640   20.562    0.422    0.325  215.265   45.103
  201.890   20.738    0.413    0.332  215.209   45.366
  202.140   20.728    0.410    0.346  214.167   44.751
  202.390   20.345    0.409    0.348  211.657   42.965
  202.640   20.148    0.416    0.347  216.059   41.184
  202.890   20.139    0.429    0.340  215.024   40.868
  203.140   20.127    0.434    0.342  213.493   42.294
  203.390   20.119    0.430    0.345  213.442   43.152
  203.640   20.108    0.427    0.344  213.898   43.997
  203.890   20.097    0.426    0.343  213.854   44.263
