~VERSION INFORMATION
 VERS.                 2.0:   CWLS LOG ASCII STANDARD -VERSION 2.0
 WRAP.                  NO:   ONE LINE PER DEPTH STEP
~WELL INFORMATION BLOCK
#MNEM.UNIT           DATA                    DESCRIPTION OF MNEMONIC
#---------    -------------------            -------------------------------
# Generated from Intellog Unique Number	CS_73_76/WELL/784
WELL.         ANR PRODUCTION COMPANY         : Well_name    - WELL
LOC .         00/09-17-073-18W4/0            : Location     - LOCATION
UWI .         00/09-17-073-18W4/0            : Uwi          - UNIQUE WELL ID
ENTR.         SP                             : Entered      - ENTERED BY
SRVC.         SCHLUMBERGER                   : Scn          - SERVICE COMPANY
STRT.M        225                            : top_depth    - START DEPTH
STOP.M        480                            : bot_depth    - STOP DEPTH
STEP.M        0.25                           : increment    - STEP LENGTH
 NULL. -999.2500:NULL Value
~CURVE INFORMATION BLOCK
#MNEM UNIT       ERCB CURVE CODE    CURVE DESCRIPTION
#-----------   ------------------   ----------------------------------
DEPT.M        00 001 00 00         : DEPTH        - DEPTH
ILD .OHMM     00 120 00 00         : RESD         - DEEP RESISTIVITY (DIL)
DPHI.V/V      00 890 00 00         : PHID         - DENSITY POROSITY (LIMESTONE)
NPHI.V/V      00 330 00 00         : PHIN         - NEUTRON POROSITY (LIMESTONE)
GR  .API      00 310 00 00         : GR           - GAMMA RAY
~PARAMETER INFORMATION
#MNEM.UNIT           DATA             DESCRIPTION OF MNEMONIC
#---------         -----------     ------------------------------
GL  .M        595.3                : gl           - GROUND LEVEL ELEVATION
EREF.M        599.2                : kb           - ELEVATION OF DEPTH REFERENCE
DATM.M        595.3                : datum        - DATUM ELEVATION
TDD .M        485                  : tdd          - TOTAL DEPTH DRILLER
RUN .         ONE                  : Run          - RUN NUMBER
ENG .         BILL                 : Engineer     - RECORDING ENGINEER
WIT .         JIM                  : Witness      - WITNESSED BY
MUD .         GEL                  : Mud_type     - MUD TYPE
MATR.         LIMESTONE            : Logunit      - NEUTRON MATRIX
TMAX.C        18                   : BHT          - MAXIMUM RECORDED TEMPERATURE
BHTD.M        485                  : BHTDEP       - MAXIMUM RECORDED TEMPERATURE
MATR.         1                    : LOGUNIT      - NEUTRON MATRIX
RMT .C        25                   : MDTP         - TEMPERATURE OF MUD
NEUT.         1                    : NEUTRON      - NEUTRON TYPE
RESI.         0                    : RESIST       - RESISTIVITY TYPE
RMC .OHMM     0.25                 : RMC          - RESISTIVITY OF MUD CAKE
RMF .OHMM     0.25                 : RMF          - RESISTIVITY OF MUD FILTRATE
SUFT.C        15                   : SUFT         - SURFACE TEMPERATURE
~A  DEPTH     RESD     PHID     PHIN       GR
# ...
  442.500    6.141    0.173    0.291   69.311
  442.750    6.030    0.180    0.292   69.307
  443.000    5.921    0.182    0.302   69.913
  443.250    5.925    0.171    0.319   69.911
  443.500    5.927    0.147    0.327   68.681
  443.750    6.041    0.139    0.316   66.842
  444.000    6.159    0.160    0.311   61.328
  444.250    6.161    0.180    0.321   62.547
  444.500    5.938    0.181    0.328   63.157
  444.750    4.839    0.181    0.327   63.151
  445.000    4.328    0.181    0.326   63.148
  445.250    3.660    0.181    0.327   62.530
  445.500    2.768    0.187    0.343   63.140
  445.750    2.475    0.228    0.376   64.972
  446.000    2.256    0.243    0.390   66.806
  446.250    2.134    0.232    0.398   69.860
  446.500    2.019    0.225    0.403   69.858
  446.750    2.019    0.216    0.394   68.017
  447.000    2.097    0.215    0.372   68.625
  447.250    2.347    0.213    0.349   69.234
  447.500    2.831    0.214    0.332   70.454
  447.750    3.051    0.205    0.315   68.613
  448.000    3.479    0.165    0.306   65.547
  448.250    3.966    0.164    0.310   64.320
  448.500    4.694    0.183    0.320   60.643
  448.750    5.352    0.190    0.313   64.310
  449.000    5.663    0.187    0.315   66.145
  449.250    5.881    0.186    0.327   68.589
  449.500    6.223    0.176    0.328   70.421
  449.750    6.464    0.133    0.309   70.417
  450.000    5.959    0.148    0.298   57.174
  450.250    5.579    0.165    0.302   60.259
  450.500    5.469    0.173    0.303   62.729
  450.750    5.260    0.178    0.307   63.351
  451.000    4.966    0.172    0.304   65.210
  451.250    5.051    0.159    0.302   65.218
  451.500    5.141    0.154    0.303   65.225
  451.750    5.430    0.152    0.312   63.393
  452.000    5.953    0.156    0.318   63.406
  452.250    6.901    0.160    0.319   64.028
  452.500    7.712    0.124    0.305   66.497
  452.750    8.944    0.053    0.287   63.435
  453.000    9.444    0.044    0.278   59.754
  453.250    8.117    0.060    0.273   54.231
  453.500    6.600    0.107    0.282   52.397
  453.750    5.568    0.133    0.294   60.400
  454.000    4.786    0.140    0.314   65.328
  454.250    4.435    0.157    0.325   68.411
  454.500    4.110    0.173    0.332   69.654
  454.750    3.807    0.162    0.332   69.663
  455.000    3.731    0.155    0.331   70.901
  455.250    3.656    0.151    0.341   71.527
  455.500    3.720    0.157    0.347   70.921
  455.750    3.853    0.165    0.359   69.088
  456.000    3.920    0.160    0.367   69.098
  456.250    3.989    0.147    0.358   70.340
  456.500    4.057    0.136    0.351   69.118
  456.750    4.054    0.129    0.349   66.668
  457.000    4.122    0.147    0.347   67.293
  457.250    4.118    0.153    0.331   67.920
  457.500    4.189    0.153    0.319   66.701
  457.750    4.181    0.151    0.313   66.095
  458.000    4.174    0.166    0.324   67.949
  458.250    4.091    0.171    0.336   72.264
  458.500    4.010    0.166    0.337   72.888
  458.750    3.928    0.128    0.332   69.826
  459.000    3.924    0.116    0.327   67.990
  459.250    3.847    0.136    0.322   66.770
  459.500    3.909    0.150    0.324   69.240
  459.750    3.978    0.158    0.330   72.941
  460.000    4.049    0.164    0.321   75.410
  460.250    4.522    0.173    0.311   74.189
  460.500    4.869    0.156    0.299   71.740
  460.750    5.860    0.116    0.277   69.904
  461.000    7.186    0.082    0.266   66.844
  461.250    7.593    0.084    0.272   65.008
  461.500    7.434    0.100    0.293   69.940
  461.750    7.286    0.120    0.305   71.792
  462.000    7.281    0.130    0.325   73.648
  462.250    7.833    0.130    0.307   73.040
  462.500    8.916    0.145    0.287   70.590
  462.750   10.737    0.204    0.263   57.078
  463.000   14.736    0.286    0.253   44.792
  463.250   23.052    0.318    0.262   32.507
  463.500   25.748    0.325    0.272   28.213
  463.750   23.408    0.319    0.283   29.454
  464.000   20.505    0.285    0.289   33.151
  464.250   17.960    0.261    0.296   42.999
  464.500   15.735    0.253    0.309   48.542
  464.750   13.527    0.245    0.318   53.470
  465.000   11.627    0.232    0.312   57.168
  465.250    9.993    0.215    0.309   60.254
  465.500    9.263    0.196    0.300   60.878
  465.750    8.261    0.192    0.296   61.501
  466.000    8.100    0.178    0.301   67.661
  466.250    7.788    0.165    0.309   73.204
  466.500    7.635    0.149    0.312   76.901
  466.750    7.616    0.158    0.296   81.214
  467.000    7.750    0.180    0.285   75.696
  467.250    7.887    0.191    0.296   72.628
  467.500    8.027    0.192    0.315   67.722
  467.750    8.319    0.187    0.316   64.659
  468.000    8.789    0.207    0.315   62.207
  468.250    9.279    0.203    0.317   58.532
  468.500    9.618    0.168    0.326   64.073
  468.750    9.606    0.143    0.317   71.460
  469.000    9.241    0.120    0.305   75.773
  469.250    8.718    0.142    0.292   75.168
  469.500    8.548    0.146    0.280   73.951
  469.750    7.919    0.133    0.274   72.730
  470.000    7.476    0.139    0.296   72.743
  470.250    6.927    0.151    0.327   75.212
  470.500    6.180    0.173    0.351   78.911
  470.750    5.946    0.185    0.344   81.380
  471.000    5.824    0.170    0.314   80.772
  471.250    6.152    0.154    0.289   73.410
  471.500    7.000    0.145    0.274   71.571
  471.750    7.398    0.144    0.262   69.124
  472.000    8.421    0.138    0.249   67.905
  472.250    9.765    0.148    0.243   67.301
  472.500   11.755    0.243    0.256   65.464
  472.750   14.153    0.287    0.262   60.557
  473.000   17.361    0.310    0.219   50.731
  473.250   17.011    0.294    0.199   35.987
  473.500   14.902    0.256    0.238   29.849
  473.750   12.341    0.216    0.276   43.384
  474.000    9.842    0.178    0.296   64.911
  474.250    8.623    0.169    0.309   76.602
  474.500    7.553    0.178    0.291   85.217
  474.750    6.997    0.196    0.292   82.771
  475.000    7.253    0.205    0.281   79.706
  475.250    9.231    0.169    0.231   75.414
  475.500   10.912    0.044    0.195   69.889
  475.750   15.262    0.009    0.176   55.146
  476.000   22.156    0.003    0.167   43.477
  476.250   24.283    0.011    0.169   37.955
  476.500   24.253    0.020    0.173   37.348
  476.750   27.091    0.016    0.166   42.283
  477.000   30.265    0.018    0.158   42.288
  477.250   32.568    0.038    0.153   36.764
  477.500   29.618    0.056    0.168   38.005
  477.750   24.527    0.056    0.187   46.008
  478.000   19.562    0.046    0.217   53.399
  478.250   19.900    0.039    0.232   55.247
  478.500   23.953    0.027    0.171   46.039
  478.750   29.934    0.027    0.139   41.128
  479.000   33.452    0.033    0.120   32.535
  479.250   36.679    0.017    0.103   27.625
  479.500   37.313    0.007    0.112   23.946
  479.750   24.685    0.022    0.145   30.107
  480.000   18.969    0.031    0.161   33.187
