~VERSION INFORMATION
 VERS.                 2.0:   CWLS LOG ASCII STANDARD -VERSION 2.0
 WRAP.                  NO:   ONE LINE PER DEPTH STEP
~WELL INFORMATION BLOCK
#MNEM.UNIT           DATA                    DESCRIPTION OF MNEMONIC
#---------    -------------------            -------------------------------
# Generated from Intellog Unique Number	CC_84_87/WELL/1073
NULL.         -999.25                        : NULL_VALUE
WELL.         PETROREP ET AL HOUSE           : Well_name    - WELL              
LOC .         06-34-084-16W4                 : Location     - LOCATION          
UWI .         00/06-34-084-16W400            : Uwi          - UNIQUE WELL ID    
ENTR.         JHS                            : Entered      - ENTERED BY        
SRVC.         COMPUTALOG                    : Scn          - SERVICE COMPANY   
DATE.         13 FEB 81                      : Date         - LOG DATE
STRT.M        100                            : top_depth    - START DEPTH       
STOP.M        277.901                        : bot_depth    - STOP DEPTH        
STEP.M        0.3                            : increment    - STEP LENGTH       
~CURVE INFORMATION BLOCK
#MNEM UNIT       ERCB CURVE CODE    CURVE DESCRIPTION
#-----------   ------------------   ----------------------------------
DEPT.M        00 001 00 00         : DEPTH        - DEPTH                       
DPHI.V/V      00 890 00 00         : PHID         - DENSITY POROSITY (LIMESTONE)
NPHI.V/V      00 330 00 00         : PHIN         - NEUTRON POROSITY (LIMESTONE)
GR  .API      00 310 00 00         : GR           - GAMMA RAY                   
ILD .OHMM     00 120 00 00         : RESD         - DEEP RESISTIVITY (DIL)      
~PARAMETER INFORMATION       
#MNEM.UNIT           DATA             DESCRIPTION OF MNEMONIC
#---------         -----------     ------------------------------
GL  .M        528.6                : gl           - GROUND LEVEL ELEVATION      
EREF.M        532.3                : kb           - ELEVATION OF DEPTH REFERENCE
DATM.M        532.3                : datum        - DATUM ELEVATION             
TDD .M        280                  : tdd          - TOTAL DEPTH DRILLER         
RUN .         ONE                  : Run          - RUN NUMBER                  
ENG .         BILL                 : Engineer     - RECORDING ENGINEER          
WIT .         JIM                  : Witness      - WITNESSED BY                
MUD .         GEL                  : Mud_type     - MUD TYPE                    
MATR.         LIMESTONE            : Logunit      - NEUTRON MATRIX              
TMAX.C        17                   : BHT          - MAXIMUM RECORDED TEMPERATURE
BHTD.M        280                  : BHTDEP       - MAXIMUM RECORDED TEMPERATURE
MATR.         1                    : LOGUNIT      - NEUTRON MATRIX              
RMT .C        25                   : MDTP         - TEMPERATURE OF MUD          
NEUT.         1                    : NEUTRON      - NEUTRON TYPE                
RESI.         0                    : RESIST       - RESISTIVITY TYPE            
RMC .OHMM     0.25                 : RMC          - RESISTIVITY OF MUD CAKE     
RMF .OHMM     0.25                 : RMF          - RESISTIVITY OF MUD FILTRATE 
SUFT.C        15                   : SUFT         - SURFACE TEMPERATURE         
~A  DEPTH     PHID     PHIN       GR     RESD
# ...
  204.401    0.200    0.332   87.113    7.610
  204.701    0.214    0.352   83.481    7.753
  205.001    0.213    0.316   77.419    8.047
  205.301    0.203    0.321   78.644    8.670
  205.601    0.202    0.303   78.049    9.340
  205.901    0.227    0.299   71.987   10.251
  206.201    0.240    0.292   64.713   10.840
  206.501    0.244    0.278   65.936   11.044
  206.801    0.256    0.263   64.125   11.463
  207.101    0.273    0.258   64.743   12.121
  207.401    0.272    0.276   70.829   14.069
  207.701    0.230    0.219   72.662   16.948
  208.001    0.067    0.127   61.741   18.258
  208.301    0.000    0.107   46.571   15.731
  208.601    0.000    0.125   49.619   12.818
  208.901    0.000    0.169   55.702   11.044
  209.201    0.039    0.232   68.467   10.062
  209.501    0.165    0.274   78.802    9.877
  209.801    0.185    0.280   80.635    9.877
  210.101    0.198    0.289   76.396   10.062
  210.401    0.217    0.289   77.015   10.251
  210.701    0.214    0.288   79.453   10.251
  211.001    0.219    0.273   81.895   10.251
  211.301    0.216    0.277   84.335   10.251
  211.601    0.204    0.317   77.666   10.251
  211.901    0.212    0.321   75.855   10.251
  212.201    0.217    0.300   80.118   10.251
  212.501    0.222    0.313   78.307   10.251
  212.801    0.223    0.317   79.534   10.251
  213.101    0.217    0.325   83.797   10.062
  213.401    0.204    0.307   82.591    9.877
  213.701    0.213    0.306   76.529    9.694
  214.001    0.207    0.269   78.364    9.168
  214.301    0.196    0.242   76.553    8.353
  214.601    0.194    0.246   72.919    7.332
  214.901    0.190    0.332   76.576    6.680
  215.201    0.198    0.325   85.696    6.436
  215.501    0.202    0.317   91.172    6.436
  215.801    0.200    0.300   85.720    7.332
  216.101    0.200    0.310   82.085    8.199
  216.401    0.206    0.306   75.417    9.168
  216.701    0.188    0.271   74.821    8.999
  217.001    0.185    0.268   81.513    8.353
  217.301    0.202    0.282   84.564    6.934
  217.601    0.197    0.288   83.357    6.436
  217.901    0.197    0.294   82.153    6.436
  218.201    0.191    0.288   82.165    6.557
  218.501    0.178    0.283   87.641    6.934
  218.801    0.173    0.305   91.904    7.470
  219.101    0.192    0.322   87.665    7.470
  219.401    0.190    0.346   88.283    7.197
  219.701    0.173    0.328   90.116    6.934
  220.001    0.181    0.288   87.697    6.680
  220.301    0.186    0.273   89.531    6.680
  220.601    0.193    0.288   96.222    6.934
  220.901    0.195    0.311   97.450    7.899
  221.201    0.196    0.298   98.069    8.999
  221.501    0.203    0.266   93.826    9.877
  221.801    0.148    0.237   79.265   10.444
  222.101    0.153    0.240   80.489   10.640
  222.401    0.179    0.248   84.754   10.444
  222.701    0.192    0.243   87.193   10.062
  223.001    0.185    0.231   91.454    9.877
  223.301    0.188    0.234   89.643    9.516
  223.601    0.197    0.243   88.440    9.516
  223.901    0.198    0.252   89.666    9.516
  224.201    0.192    0.273   91.498    9.340
  224.501    0.191    0.294   92.118    9.516
  224.801    0.201    0.301   89.701    9.516
  225.101    0.212    0.301   86.674    9.877
  225.401    0.204    0.291   83.649   10.251
  225.701    0.216    0.269   86.696   10.444
  226.001    0.234    0.279   77.599   10.840
  226.301    0.228    0.293   71.537   10.840
  226.601    0.216    0.313   70.941   10.640
  226.901    0.196    0.279   72.166   10.444
  227.201    0.216    0.244   68.537   10.062
  227.501    0.225    0.281   70.370   10.251
  227.801    0.211    0.262   69.165   11.463
  228.101    0.155    0.206   64.317   14.069
  228.401    0.059    0.087   57.648   19.670
  228.701    0.000    0.077   54.625   21.589
  229.001    0.000    0.091   57.062   18.951
  229.301    0.116    0.126   62.541   13.554
  229.601    0.182    0.235   66.195   11.678
  229.901    0.231    0.251   68.636   10.840
  230.201    0.241    0.251   70.471   10.444
  230.501    0.235    0.272   71.693   10.251
  230.801    0.240    0.304   72.921   10.062
  231.101    0.229    0.289   74.147   10.062
  231.401    0.206    0.271   78.408   10.062
  231.701    0.201    0.265   73.560   10.062
  232.001    0.204    0.266   75.398   10.251
  232.301    0.206    0.287   78.443   10.251
  232.601    0.212    0.305   77.238   10.444
  232.901    0.209    0.319   76.035   10.444
  233.201    0.205    0.311   74.832   10.444
  233.501    0.201    0.299   72.414   10.444
  233.801    0.196    0.295   72.425   10.251
  234.101    0.188    0.290   76.690   10.062
  234.401    0.185    0.299   79.738    9.694
  234.701    0.188    0.291   82.179    9.340
  235.001    0.208    0.279   83.401    8.670
  235.301    0.207    0.247   80.984    8.047
  235.601    0.177    0.265   76.137    7.332
  235.901    0.188    0.290   73.111    7.064
  236.201    0.242    0.285   76.158    6.934
  236.501    0.234    0.266   81.637    6.934
  236.801    0.208    0.254   82.862    6.557
  237.101    0.195    0.277   90.160    5.974
  237.401    0.208    0.292   87.742    5.443
  237.701    0.205    0.285   83.503    4.959
  238.001    0.198    0.280   82.906    4.603
  238.301    0.212    0.317   86.563    4.435
  238.601    0.207    0.342  100.540    4.435
  238.901    0.188    0.341   96.909    4.959
  239.201    0.170    0.298   95.706    5.650
  239.501    0.170    0.296   95.108    7.470
  239.801    0.172    0.285   88.439    9.516
  240.101    0.147    0.287   82.985   11.678
  240.401    0.116    0.261   78.138   13.809
  240.701    0.164    0.286   78.151   14.877
  241.001    0.173    0.292   80.591   15.156
  241.301    0.171    0.269   84.853   14.877
  241.601    0.168    0.245   72.717   14.602
  241.901    0.219    0.236   55.724   15.156
  242.201    0.240    0.242   52.094   16.328
  242.501    0.242    0.247   48.462   18.601
  242.801    0.251    0.252   42.397   20.800
  243.101    0.258    0.258   39.373   24.594
  243.401    0.265    0.263   39.385   28.545
  243.701    0.272    0.270   42.431   32.518
  244.001    0.282    0.277   40.624   33.752
  244.301    0.282    0.286   40.632   34.386
  244.601    0.276    0.282   35.785   34.386
  244.901    0.273    0.273   37.621   34.386
  245.201    0.264    0.267   42.487   33.752
  245.501    0.260    0.260   41.891   31.330
  245.801    0.264    0.247   43.120   28.545
  246.101    0.259    0.254   44.344   22.408
  246.401    0.250    0.253   46.783   18.258
  246.701    0.244    0.265   55.905   16.027
  247.001    0.256    0.283   55.915   15.156
  247.301    0.262    0.294   53.498   14.602
  247.602    0.256    0.301   54.727   13.809
  247.902    0.259    0.290   57.773   12.581
  248.202    0.254    0.288   65.677   10.640
  248.502    0.232    0.251   79.657    8.047
  248.802    0.182    0.256   76.631    6.680
  249.102    0.200    0.261   79.680    5.443
  249.402    0.220    0.294   85.155    4.603
  249.702    0.237    0.325   88.811    4.117
  250.002    0.237    0.318   87.000    3.682
  250.302    0.204    0.283   88.834    3.614
  250.602    0.200    0.267   90.667    3.821
  250.902    0.207    0.269   88.858    3.893
  251.202    0.201    0.240   84.616    3.966
  251.502    0.190    0.236   79.162    4.041
  251.802    0.166    0.244   76.137    4.117
  252.102    0.196    0.314   79.183    4.117
  252.402    0.217    0.299   96.806    4.041
  252.702    0.217    0.299   98.035    3.893
  253.002    0.217    0.290   98.650    3.966
  253.302    0.211    0.284   98.055    4.194
  253.602    0.189    0.282   86.527    4.518
  253.902    0.172    0.276   81.073    4.959
  254.202    0.190    0.267   78.655    5.864
  254.502    0.201    0.250   70.773    7.753
  254.802    0.225    0.277   61.066    9.340
  255.102    0.262    0.293   55.006   10.840
  255.402    0.262    0.292   54.408   12.818
  255.702    0.276    0.291   50.170   14.877
  256.002    0.285    0.298   48.359   15.441
  256.302    0.278    0.301   50.191   15.156
