~VERSION INFORMATION
 VERS.                 2.0:   CWLS LOG ASCII STANDARD -VERSION 2.0
 WRAP.                  NO:   ONE LINE PER DEPTH STEP
~WELL INFORMATION BLOCK
#MNEM.UNIT           DATA                    DESCRIPTION OF MNEMONIC
#---------    -------------------            -------------------------------
# Generated from Intellog Unique Number	CX_WELLS/WELL/3115
WELL.         CDNOXY NEWBY                   : Well_name    - WELL
LOC .         00/07-06-083-03W4/0            : Location     - LOCATION
UWI .         00/07-06-083-03W400            : Uwi          - UNIQUE WELL ID
ENTR.         TIM                            : Entered      - ENTERED BY
SRVC.         SCHLUMBERGER                   : Scn          - SERVICE COMPANY
STRT.M        100                            : top_depth    - START DEPTH
STOP.M        300                            : bot_depth    - STOP DEPTH
STEP.M        0.25                           : increment    - STEP LENGTH
 NULL. -999.2500:NULL Value
~CURVE INFORMATION BLOCK
#MNEM UNIT       ERCB CURVE CODE    CURVE DESCRIPTION
#-----------   ------------------   ----------------------------------
DEPT.M        00 001 00 00         : DEPTH        - DEPTH
GR  .API      00 310 00 00         : GR           - GAMMA RAY
NPHI.V/V      00 330 00 00         : PHIN         - NEUTRON POROSITY (SANDSTONE)
DPHI.V/V      00 890 00 00         : PHID         - DENSITY POROSITY (SANDSTONE)
ILD .OHMM     00 120 00 00         : RESD         - DEEP RESISTIVITY (OTHER)
~PARAMETER INFORMATION
#MNEM.UNIT           DATA             DESCRIPTION OF MNEMONIC
#---------         -----------     ------------------------------
GL  .M        502.3                : gl           - GROUND LEVEL ELEVATION
EREF.M        507.1                : kb           - ELEVATION OF DEPTH REFERENCE
DATM.M        507.1                : datum        - DATUM ELEVATION
TDD .M        311                  : tdd          - TOTAL DEPTH DRILLER
RUN .         ONE                  : Run          - RUN NUMBER
ENG .         BILL                 : Engineer     - RECORDING ENGINEER
WIT .         JIM                  : Witness      - WITNESSED BY
MUD .         GEL                  : Mud_type     - MUD TYPE
MATR.         SANDSTONE            : Logunit      - NEUTRON MATRIX
TMAX.C        17                   : BHT          - MAXIMUM RECORDED TEMPERATURE
BHTD.M        311                  : BHTDEP       - MAXIMUM RECORDED TEMPERATURE
MATR.         1                    : LOGUNIT      - NEUTRON MATRIX
RMT .C        17                   : MDTP         - TEMPERATURE OF MUD
NEUT.         1                    : NEUTRON      - NEUTRON TYPE
RESI.         4                    : RESIST       - RESISTIVITY TYPE
RMC .OHMM     7.7                  : RMC          - RESISTIVITY OF MUD CAKE
RMF .OHMM     8.4                  : RMF          - RESISTIVITY OF MUD FILTRATE
SUFT.C        4                    : SUFT         - SURFACE TEMPERATURE
~A  DEPTH       GR     PHIN     PHID     RESD
# ...
  143.500   45.854    0.430    0.382   19.634
  143.750   44.592    0.420    0.381   21.165
  144.000   43.953    0.409    0.366   21.974
  144.250   43.937    0.392    0.352   22.814
  144.500   42.675    0.391    0.337   23.245
  144.750   41.408    0.414    0.341   23.244
  145.000   40.777    0.437    0.368   23.683
  145.250   38.888    0.469    0.392   24.131
  145.500   38.252    0.509    0.415   24.130
  145.750   36.990    0.548    0.436   24.129
  146.000   36.351    0.511    0.391   23.679
  146.250   38.205    0.498    0.372   22.380
  146.500   40.683    0.481    0.381   21.554
  146.750   43.160    0.456    0.370   20.372
  147.000   46.885    0.445    0.359   18.545
  147.250   49.985    0.446    0.352   17.202
  147.500   53.082    0.436    0.350   15.659
  147.750   53.063    0.436    0.349   15.659
  148.000   51.800    0.442    0.347   16.565
  148.250   51.161    0.451    0.347   18.195
  148.500   50.526    0.443    0.346   20.365
  148.750   46.143    0.428    0.346   21.953
  149.000   44.261    0.441    0.346   21.951
  149.250   45.492    0.478    0.356   22.366
  149.500   47.966    0.513    0.385   22.789
  149.750   43.591    0.530    0.418   22.788
  150.000   38.585    0.559    0.444   22.363
  150.250   42.936    0.584    0.412   20.358
  150.500   46.037    0.564    0.360   18.883
  150.750   46.021    0.458    0.335   19.605
  151.000   45.382    0.424    0.338   20.740
  151.250   45.990    0.467    0.343   20.353
  151.500   44.728    0.540    0.408   19.237
  151.750   43.461    0.584    0.457   18.527
  152.000   43.442    0.608    0.473   18.181
  152.250   44.057    0.628    0.440   17.842
  152.500   45.907    0.510    0.415   18.179
  152.750   47.138    0.456    0.372   17.840
  153.000   47.123    0.429    0.353   17.839
  153.250   47.730    0.423    0.344   18.521
  153.500   47.087    0.431    0.345   20.729
  153.750   46.456    0.460    0.350   21.930
  154.000   43.943    0.479    0.359   23.200
  154.250   40.184    0.507    0.406   23.198
  154.500   38.298    0.510    0.414   21.518
  154.750   35.793    0.567    0.442   20.339
  155.000   33.907    0.586    0.457   18.170
  155.250   33.891    0.594    0.478   16.540
  155.500   37.612    0.582    0.433   16.232
  155.750   39.466    0.552    0.412   17.497
  156.000   40.073    0.438    0.367   19.584
  156.250   40.058    0.442    0.387   21.918
  156.500   40.665    0.447    0.393   21.917
  156.750   41.900    0.450    0.398   21.108
  157.000   44.378    0.461    0.402   20.329
  157.250   46.232    0.475    0.409   19.214
  157.500   44.969    0.490    0.416   18.160
  157.750   39.963    0.500    0.420   16.845
  158.000   41.818    0.460    0.427   15.921
  158.250   44.295    0.486    0.431   15.624
  158.500   45.526    0.522    0.433   16.221
  158.750   45.510    0.502    0.432   17.161
  159.000   43.625    0.477    0.424   17.486
  159.250   43.609    0.480    0.416   18.154
  159.500   44.220    0.494    0.412   18.497
  159.750   44.820    0.469    0.398   18.496
  160.000   44.812    0.441    0.357   18.495
  160.250   47.290    0.431    0.353   18.845
  160.500   52.884    0.443    0.359   18.844
  160.750   52.245    0.454    0.385   19.935
  161.000   50.982    0.466    0.408   20.312
  161.250   50.963    0.484    0.418   20.311
  161.500   50.951    0.505    0.446   20.310
  161.750   48.438    0.536    0.451   19.560
  162.000   43.432    0.570    0.463   18.838
  162.250   40.923    0.568    0.493   18.142
  162.500   39.037    0.555    0.506   16.828
  162.750   39.649    0.583    0.504   15.319
  163.000   40.880    0.608    0.502   14.754
  163.250   40.241    0.563    0.458   14.753
  163.500   37.108    0.434    0.336   15.032
  163.750   33.353    0.430    0.317   15.031
  164.000   47.050    0.428    0.315   15.902
  164.250   59.500    0.431    0.312   17.141
  164.500   61.974    0.441    0.311   17.466
  164.750   63.828    0.449    0.307   18.827
  165.000   65.059    0.447    0.304   19.917
  165.250   65.043    0.449    0.298   20.294
  165.500   65.028    0.452    0.290   20.293
  165.750   65.639    0.452    0.282   19.914
  166.000   66.247    0.449    0.273   19.913
  166.250   66.854    0.447    0.262   19.542
  166.500   66.835    0.446    0.236   19.177
  166.750   66.819    0.443    0.176   18.820
  167.000   65.561    0.429    0.101   20.671
  167.250   60.554    0.394    0.040   22.705
  167.500   57.422    0.278    0.044   24.940
  167.750   59.276    0.309    0.159   26.884
  168.000   60.511    0.382    0.188   28.441
  168.250   62.989    0.410    0.233   27.910
  168.500   66.085    0.438    0.263   25.407
  168.750   67.316    0.449    0.293   23.567
  169.000   67.928    0.449    0.313   21.055
  169.250   67.908    0.427    0.321   19.900
  169.500   67.269    0.417    0.324   19.528
  169.750   67.254    0.427    0.326   19.164
  170.000   67.865    0.433    0.327   18.457
  170.250   67.841    0.438    0.329   18.113
  170.500   67.202    0.444    0.329   17.444
  170.750   65.936    0.449    0.330   17.118
  171.000   65.924    0.448    0.327   17.117
  171.250   65.285    0.449    0.325   17.117
  171.500   65.269    0.450    0.320   17.116
  171.750   65.877    0.448    0.319   16.796
  172.000   67.108    0.442    0.318   16.795
  172.250   68.343    0.443    0.317   16.482
  172.500   70.816    0.450    0.315   16.481
  172.750   72.671    0.456    0.313   15.872
  173.000   73.282    0.466    0.312   15.576
  173.250   74.509    0.454    0.311   14.722
  173.500   75.113    0.440    0.312   13.915
  173.750   75.105    0.441    0.313   13.655
  174.000   75.709    0.449    0.315   13.914
  174.250   76.320    0.458    0.318   14.719
  174.500   75.058    0.459    0.322   15.572
  174.750   73.795    0.452    0.323   15.570
  175.000   73.780    0.452    0.322   15.570
  175.250   71.263    0.451    0.320   15.569
  175.500   70.008    0.448    0.320   15.569
  175.750   69.369    0.449    0.320   15.278
  176.000   69.973    0.449    0.322   15.277
  176.250   73.070    0.449    0.319   15.277
  176.500   74.309    0.448    0.310   14.991
  176.750   76.163    0.446    0.305   14.712
  177.000   76.143    0.456    0.305   14.437
  177.250   75.508    0.468    0.310   14.168
  177.500   74.242    0.450    0.312   14.167
  177.750   73.603    0.446    0.311   13.902
  178.000   73.587    0.453    0.307   13.643
  178.250   73.571    0.462    0.301   13.389
  178.500   73.555    0.465    0.295   13.139
  178.750   74.159    0.467    0.294   12.894
  179.000   74.143    0.468    0.294   12.653
  179.250   74.755    0.469    0.294   12.653
  179.500   75.982    0.472    0.292   12.185
  179.750   76.593    0.475    0.292   11.517
  180.000   79.067    0.478    0.296   10.886
  180.250   82.172    0.480    0.299   10.484
  180.500   89.013    0.486    0.299    9.724
  180.750   94.606    0.496    0.295    9.020
  181.000   98.954    0.517    0.289    8.211
  181.250  100.808    0.535    0.289    7.336
  181.500   98.922    0.557    0.298    6.079
  181.750   97.037    0.551    0.311    5.231
  182.000   97.021    0.539    0.305    4.254
  182.250   97.629    0.555    0.297    3.801
  182.500   98.236    0.578    0.289    3.660
  182.750   98.217    0.602    0.286    3.525
  183.000   98.197    0.617    0.285    3.270
  183.250   98.189    0.616    0.292    3.149
  183.500   98.165    0.617    0.300    3.090
  183.750   98.158    0.606    0.302    3.033
  184.000   98.757    0.588    0.296    3.033
  184.250   99.369    0.571    0.290    3.033
  184.500   99.357    0.556    0.288    3.090
  184.750   99.334    0.567    0.287    3.148
  185.000   99.326    0.587    0.286    3.208
  185.250   98.063    0.604    0.284    3.268
  185.500   95.554    0.601    0.282    3.458
  185.750   92.422    0.591    0.281    3.658
  186.000   87.420    0.562    0.279    4.018
  186.250   83.660    0.532    0.274    4.669
  186.500   82.398    0.526    0.280    5.325
  186.750   82.382    0.526    0.323    5.740
