~VERSION INFORMATION
 VERS.                 2.0:   CWLS LOG ASCII STANDARD -VERSION 2.0
 WRAP.                  NO:   ONE LINE PER DEPTH STEP
~WELL INFORMATION BLOCK
#MNEM.UNIT           DATA                    DESCRIPTION OF MNEMONIC
#---------    -------------------            -------------------------------
# Generated from Intellog Unique Number	CS_71_72/WELL/778
WELL.         PEX PHILLIPS AEC GRIST         : Well_name    - WELL
LOC .         00/06-27-071-08W4/0            : Location     - LOCATION
UWI .         00/06-27-071-08W4/0            : Uwi          - UNIQUE WELL ID
ENTR.         SP                             : Entered      - ENTERED BY
SRVC.         SCHLUMBERGER                   : Scn          - SERVICE COMPANY
STRT.M        295                            : top_depth    - START DEPTH
STOP.M        520                            : bot_depth    - STOP DEPTH
STEP.M        0.25                           : increment    - STEP LENGTH
 NULL. -999.2500:NULL Value
~CURVE INFORMATION BLOCK
#MNEM UNIT       ERCB CURVE CODE    CURVE DESCRIPTION
#-----------   ------------------   ----------------------------------
DEPT.M        00 001 00 00         : DEPTH        - DEPTH
ILD .OHMM     00 120 00 00         : RESD         - DEEP RESISTIVITY (DIL)
DPHI.V/V      00 890 00 00         : PHID         - DENSITY POROSITY (LIMESTONE)
NPHI.V/V      00 330 00 00         : PHIN         - NEUTRON POROSITY (LIMESTONE)
GR  .API      00 310 00 00         : GR           - GAMMA RAY
~PARAMETER INFORMATION
#MNEM.UNIT           DATA             DESCRIPTION OF MNEMONIC
#---------         -----------     ------------------------------
GL  .M        653.4                : gl           - GROUND LEVEL ELEVATION
EREF.M        657.2                : kb           - ELEVATION OF DEPTH REFERENCE
DATM.M        653.4                : datum        - DATUM ELEVATION
TDD .M        532                  : tdd          - TOTAL DEPTH DRILLER
RUN .         ONE                  : Run          - RUN NUMBER
ENG .         BILL                 : Engineer     - RECORDING ENGINEER
WIT .         JIM                  : Witness      - WITNESSED BY
MUD .         GEL                  : Mud_type     - MUD TYPE
MATR.         LIMESTONE            : Logunit      - NEUTRON MATRIX
TMAX.C        23                   : BHT          - MAXIMUM RECORDED TEMPERATURE
BHTD.M        532                  : BHTDEP       - MAXIMUM RECORDED TEMPERATURE
MATR.         1                    : LOGUNIT      - NEUTRON MATRIX
RMT .C        25                   : MDTP         - TEMPERATURE OF MUD
NEUT.         1                    : NEUTRON      - NEUTRON TYPE
RESI.         0                    : RESIST       - RESISTIVITY TYPE
RMC .OHMM     0.25                 : RMC          - RESISTIVITY OF MUD CAKE
RMF .OHMM     0.25                 : RMF          - RESISTIVITY OF MUD FILTRATE
SUFT.C        15                   : SUFT         - SURFACE TEMPERATURE
~A  DEPTH     RESD     PHID     PHIN       GR
# ...
  425.500    4.266    0.318    0.476  109.961
  425.750    4.469    0.351    0.501  112.772
  426.000    4.552    0.335    0.499  117.109
  426.250    4.475    0.323    0.509  119.308
  426.500    3.853    0.316    0.535  122.424
  426.750    2.809    0.296    0.562  121.890
  427.000    2.418    0.283    0.571  120.930
  427.250    2.210    0.285    0.530  121.430
  427.500    2.093    0.297    0.532  120.410
  427.750    2.004    0.304    0.549  117.685
  428.000    1.930    0.294    0.563  115.326
  428.250    1.873    0.312    0.580  113.393
  428.500    1.869    0.352    0.583  110.486
  428.750    2.002    0.366    0.553  103.199
  429.000    2.210    0.289    0.492  100.658
  429.250    2.458    0.257    0.469  102.192
  429.500    2.880    0.268    0.485  101.781
  429.750    3.017    0.266    0.491  100.454
  430.000    3.269    0.233    0.447  106.368
  430.250    3.470    0.212    0.440  111.492
  430.500    3.759    0.200    0.434  113.210
  430.750    3.901    0.189    0.429  112.918
  431.000    4.133    0.163    0.443  105.935
  431.250    4.427    0.094    0.392  102.481
  431.500    4.699    0.110    0.339  107.485
  431.750    5.177    0.161    0.385  111.391
  432.000    5.578    0.193    0.447  114.994
  432.250    5.854    0.211    0.474  117.745
  432.500    5.809    0.209    0.487  117.513
  432.750    5.553    0.202    0.451  111.017
  433.000    5.171    0.200    0.421  109.755
  433.250    4.887    0.201    0.427  115.545
  433.500    4.724    0.204    0.416  122.555
  433.750    4.688    0.205    0.406  119.711
  434.000    4.669    0.208    0.414  114.187
  434.250    4.686    0.222    0.446  109.576
  434.500    4.711    0.239    0.485  105.210
  434.750    4.718    0.249    0.464  108.205
  435.000    4.717    0.243    0.443  110.652
  435.250    4.751    0.225    0.437  112.489
  435.500    4.794    0.225    0.433  114.084
  435.750    4.830    0.221    0.425  117.929
  436.000    4.957    0.211    0.420  146.413
  436.250    5.087    0.237    0.433  155.368
  436.500    5.133    0.266    0.469  149.664
  436.750    5.093    0.222    0.500  136.963
  437.000    4.989    0.195    0.490  121.525
  437.250    4.786    0.197    0.453  111.501
  437.500    4.618    0.225    0.454  109.324
  437.750    4.506    0.249    0.473  103.437
  438.000    4.307    0.274    0.435  101.199
  438.250    4.219    0.309    0.427  101.091
  438.500    4.078    0.403    0.436  102.626
  438.750    3.847    0.414    0.447  103.307
  439.000    3.768    0.399    0.456  103.078
  439.250    3.739    0.391    0.459  104.855
  439.500    3.655    0.362    0.480  102.070
  439.750    3.410    0.341    0.554   97.461
  440.000    2.860    0.344    0.582   96.258
  440.250    2.499    0.362    0.572   95.785
  440.500    2.201    0.369    0.550   93.851
  440.750    2.030    0.343    0.551   95.263
  441.000    1.948    0.322    0.548   98.563
  441.250    1.926    0.316    0.534   99.914
  441.500    1.950    0.345    0.536  100.413
  441.750    2.137    0.413    0.529  101.951
  442.000    2.439    0.388    0.474  103.239
  442.250    2.688    0.295    0.437  103.555
  442.500    3.068    0.253    0.420  102.595
  442.750    3.406    0.225    0.428  103.703
  443.000    3.595    0.298    0.474   99.580
  443.250    3.717    0.368    0.515   95.275
  443.500    3.702    0.404    0.533   94.254
  443.750    3.559    0.427    0.536   97.372
  444.000    3.447    0.458    0.519  100.668
  444.250    3.420    0.453    0.508   99.039
  444.500    3.484    0.448    0.517   96.255
  444.750    3.548    0.428    0.516   94.078
  445.000    3.669    0.357    0.466   93.482
  445.250    3.822    0.247    0.443   96.052
  445.500    3.974    0.224    0.424   98.072
  445.750    4.055    0.273    0.452  100.640
  446.000    4.085    0.316    0.496   99.984
  446.250    4.031    0.338    0.517   93.854
  446.500    4.129    0.231    0.539   88.757
  446.750    4.465    0.106    0.228   79.158
  447.000    4.892    0.059    0.224   74.853
  447.250    5.501    0.196    0.268   73.771
  447.500    5.839    0.230    0.313   82.909
  447.750    6.037    0.250    0.345   84.687
  448.000    5.739    0.270    0.379   84.883
  448.250    5.196    0.284    0.401   85.323
  448.500    4.687    0.289    0.414   85.944
  448.750    4.284    0.299    0.427   87.234
  449.000    4.149    0.294    0.436   90.898
  449.250    4.132    0.285    0.436   95.838
  449.500    4.147    0.280    0.428   94.149
  449.750    4.192    0.275    0.422   90.147
  450.000    4.207    0.269    0.431   86.571
  450.250    4.277    0.255    0.433   82.996
  450.500    4.341    0.215    0.418   78.325
  450.750    4.405    0.188    0.410   81.562
  451.000    4.411    0.230    0.425   89.423
  451.250    4.402    0.250    0.437   95.519
  451.500    4.393    0.266    0.435  100.643
  451.750    4.302    0.267    0.427   99.926
  452.000    4.214    0.226    0.410   97.690
  452.250    4.112    0.203    0.396   94.847
  452.500    3.916    0.203    0.396  101.305
  452.750    3.474    0.261    0.426  111.417
  453.000    2.963    0.301    0.492  110.701
  453.250    2.555    0.399    0.609  105.485
  453.500    2.712    0.308    0.550  100.143
  453.750    3.269    0.263    0.463   94.376
  454.000    3.725    0.240    0.408   91.044
  454.250    4.268    0.222    0.395   91.362
  454.500    4.818    0.216    0.402   91.802
  454.750    5.439    0.223    0.389   92.240
  455.000    5.762    0.259    0.387   92.192
  455.250    5.880    0.320    0.408   89.652
  455.500    5.354    0.383    0.430   90.819
  455.750    4.776    0.268    0.437   95.215
  456.000    4.381    0.246    0.429   97.294
  456.250    4.149    0.234    0.421   96.943
  456.500    3.900    0.223    0.420   93.611
  456.750    3.877    0.275    0.440   91.191
  457.000    4.107    0.377    0.466   90.717
  457.250    4.551    0.312    0.409   92.131
  457.500    4.967    0.271    0.374   92.812
  457.750    5.493    0.252    0.364   90.635
  458.000    5.985    0.247    0.365   90.224
  458.250    6.424    0.243    0.391   91.700
  458.500    6.691    0.232    0.394   92.501
  458.750    6.803    0.223    0.376   88.561
  459.000    6.865    0.208    0.375   83.161
  459.250    7.125    0.072    0.393   78.671
  459.500    7.836    0.037    0.362   74.790
  459.750    8.666    0.093    0.335   88.249
  460.000    9.146    0.148    0.326  100.245
  460.250    9.075    0.196    0.347  106.402
  460.500    8.264    0.209    0.370  106.720
  460.750    7.739    0.237    0.383  104.181
  461.000    7.912    0.263    0.396  101.697
  461.250    8.461    0.280    0.412  100.859
  461.500    9.217    0.236    0.388  107.017
  461.750    9.674    0.221    0.379  114.575
  462.000    9.984    0.203    0.368  120.244
  462.250    9.981    0.225    0.373  125.185
  462.500    9.329    0.242    0.382  112.060
  462.750    9.155    0.252    0.392   96.803
  463.000   10.412    0.259    0.395   88.300
  463.250   12.133    0.265    0.364   79.858
  463.500   14.351    0.265    0.344   73.970
  463.750   15.636    0.268    0.331   77.207
  464.000   16.627    0.259    0.329   89.509
  464.250   16.498    0.249    0.350  101.689
  464.500   14.967    0.250    0.363  108.638
  464.750   11.735    0.247    0.371  104.028
  465.000   10.009    0.231    0.366  106.901
  465.250    8.879    0.225    0.372  112.206
  465.500    8.222    0.236    0.392  114.895
  465.750    7.903    0.247    0.404  116.491
  466.000    7.856    0.256    0.400  108.900
  466.250    7.899    0.251    0.396  107.149
  466.500    8.001    0.236    0.363  113.063
  466.750    8.134    0.230    0.350  118.186
  467.000    8.209    0.258    0.374  115.036
  467.250    8.268    0.277    0.397  116.936
  467.500    8.313    0.264    0.412  123.642
  467.750    8.452    0.248    0.405  117.875
  468.000    9.021    0.268    0.414   90.027
  468.250   10.221    0.287    0.418   78.177
  468.500   11.889    0.290    0.393   71.986
  468.750   13.396    0.294    0.372   71.453
