~VERSION INFORMATION
 VERS.                 2.0:   CWLS LOG ASCII STANDARD -VERSION 2.0
 WRAP.                  NO:   ONE LINE PER DEPTH STEP
~WELL INFORMATION BLOCK
#MNEM.UNIT           DATA                    DESCRIPTION OF MNEMONIC
#---------    -------------------            -------------------------------
# Generated from Intellog Unique Number	CS_67_68/WELL/2167
WELL.         06-13-067-07W4                 : Well_name    - WELL
LOC .         00/06-13-067-07W4/0            : Location     - LOCATION
UWI .         00/06-13-067-07W4/0            : Uwi          - UNIQUE WELL ID
ENTR.         SP                             : Entered      - ENTERED BY
SRVC.         SCHLUMBERGER                   : Scn          - SERVICE COMPANY
STRT.M        330                            : top_depth    - START DEPTH
STOP.M        545                            : bot_depth    - STOP DEPTH
STEP.M        0.25                           : increment    - STEP LENGTH
 NULL. -999.2500:NULL Value
~CURVE INFORMATION BLOCK
#MNEM UNIT       ERCB CURVE CODE    CURVE DESCRIPTION
#-----------   ------------------   ----------------------------------
DEPT.M        00 001 00 00         : DEPTH        - DEPTH
ILD .OHMM     00 120 00 00         : RESD         - DEEP RESISTIVITY (DIL)
DPHI.V/V      00 890 00 00         : PHID         - DENSITY POROSITY (LIMESTONE)
NPHI.V/V      00 330 00 00         : PHIN         - NEUTRON POROSITY (LIMESTONE)
GR  .API      00 310 00 00         : GR           - GAMMA RAY
CALI.MM       00 280 01 00         : CAL          - CALIPER
~PARAMETER INFORMATION
#MNEM.UNIT           DATA             DESCRIPTION OF MNEMONIC
#---------         -----------     ------------------------------
GL  .M        648.63               : gl           - GROUND LEVEL ELEVATION
EREF.M        652.41               : kb           - ELEVATION OF DEPTH REFERENCE
DATM.M        652.41               : datum        - DATUM ELEVATION
TDD .M        553                  : tdd          - TOTAL DEPTH DRILLER
RUN .         ONE                  : Run          - RUN NUMBER
ENG .         BILL                 : Engineer     - RECORDING ENGINEER
WIT .         JIM                  : Witness      - WITNESSED BY
MUD .         GEL                  : Mud_type     - MUD TYPE
MATR.         LIMESTONE            : Logunit      - NEUTRON MATRIX
TMAX.C        21                   : BHT          - MAXIMUM RECORDED TEMPERATURE
BHTD.M        501                  : BHTDEP       - MAXIMUM RECORDED TEMPERATURE
MATR.         1                    : LOGUNIT      - NEUTRON MATRIX
RMT .C        25                   : MDTP         - TEMPERATURE OF MUD
NEUT.         1                    : NEUTRON      - NEUTRON TYPE
RESI.         0                    : RESIST       - RESISTIVITY TYPE
RMC .OHMM     0.25                 : RMC          - RESISTIVITY OF MUD CAKE
RMF .OHMM     0.25                 : RMF          - RESISTIVITY OF MUD FILTRATE
SUFT.C        15                   : SUFT         - SURFACE TEMPERATURE
~A  DEPTH     RESD     PHID     PHIN       GR      CAL
# ...
  476.000    2.805    0.330    0.523   76.548  156.479
  476.250    2.732    0.323    0.508   77.031  156.472
  476.500    2.631    0.312    0.516   76.295  156.769
  476.750    2.533    0.299    0.538   78.485  157.168
  477.000    2.384    0.316    0.555   80.309  157.464
  477.250    2.253    0.465    0.577   75.002  157.863
  477.500    2.141    0.533    0.614   72.193  159.177
  477.750    2.065    0.573    0.609   73.347  186.902
  478.000    1.970    0.437    0.577   76.085  183.847
  478.250    1.908    0.407    0.605   78.640  182.518
  478.500    1.833    0.394    0.602   79.306  176.314
  478.750    1.749    0.383    0.557   80.642  171.430
  479.000    1.665    0.397    0.549   79.297  167.563
  479.250    1.624    0.412    0.580   78.012  175.883
  479.500    1.631    0.385    0.561   80.201  182.074
  479.750    1.719    0.355    0.545   80.197  192.223
  480.000    1.823    0.355    0.532   79.278  197.601
  480.250    1.930    0.368    0.558   79.213  202.165
  480.500    2.058    0.354    0.564   75.429  202.462
  480.750    2.146    0.334    0.571   72.865  197.882
  481.000    2.241    0.351    0.581   76.395  194.015
  481.250    2.323    0.369    0.587   75.598  189.842
  481.500    2.399    0.357    0.581   76.386  185.771
  481.750    2.431    0.336    0.559   78.453  178.652
  482.000    2.436    0.320    0.529   80.155  167.369
  482.250    2.422    0.330    0.508   81.127  162.384
  482.500    2.400    0.315    0.528   82.950  165.220
  482.750    2.364    0.330    0.544   84.043  163.486
  483.000    2.341    0.345    0.556   84.587  161.243
  483.250    2.342    0.321    0.558   83.790  159.305
  483.500    2.364    0.304    0.544   83.115  157.672
  483.750    2.386    0.291    0.536   83.110  156.546
  484.000    2.400    0.280    0.548   83.837  158.773
  484.250    2.428    0.310    0.557   83.588  161.205
  484.500    2.536    0.332    0.574   83.767  162.619
  484.750    2.709    0.329    0.593   88.151  162.307
  485.000    2.851    0.320    0.582   91.438  161.791
  485.250    2.978    0.301    0.537   91.250  161.072
  485.500    3.093    0.275    0.504   86.247  160.455
  485.750    3.093    0.270    0.496   83.135  160.143
  486.000    3.001    0.276    0.490   81.058  159.627
  486.250    2.912    0.278    0.485   83.978  159.213
  486.500    2.917    0.271    0.485   83.730  159.406
  486.750    2.868    0.265    0.503   83.725  159.909
  487.000    2.736    0.266    0.520   84.330  160.814
  487.250    2.532    0.251    0.519   79.754  161.620
  487.500    2.406    0.217    0.449   77.007  164.864
  487.750    2.410    0.169    0.457   85.779  177.046
  488.000    2.518    0.235    0.510   91.139  188.822
  488.250    2.615    0.258    0.561   93.937  188.307
  488.500    2.736    0.254    0.565   91.008  180.172
  488.750    2.907    0.229    0.529   87.833  177.015
  489.000    3.160    0.209    0.479   92.827  180.766
  489.250    3.357    0.221    0.495   99.100  183.502
  489.500    3.725    0.232    0.470   92.452  180.649
  489.750    4.166    0.226    0.444   82.329  176.985
  490.000    4.883    0.225    0.424   74.096  172.202
  490.250    5.649    0.201    0.409   68.301  167.725
  490.500    6.128    0.091    0.400   61.958  163.450
  490.750    6.353    0.044    0.379   58.235  163.139
  491.000    6.187    0.057    0.344   65.484  163.740
  491.250    6.341    0.107    0.349   71.026  164.646
  491.500    6.661    0.157    0.375   77.116  165.858
  491.750    6.931    0.208    0.403   71.077  166.866
  492.000    7.185    0.254    0.424   68.879  166.046
  492.250    7.351    0.288    0.410   69.056  164.311
  492.500    7.351    0.305    0.405   71.429  165.014
  492.750    7.172    0.303    0.406   76.788  166.530
  493.000    6.932    0.287    0.406   82.940  166.422
  493.250    6.476    0.273    0.405   87.202  163.875
  493.500    6.189    0.275    0.401   86.283  161.327
  493.750    5.815    0.276    0.410   84.754  159.390
  494.000    5.401    0.267    0.414   84.201  157.756
  494.250    5.094    0.260    0.401   90.231  156.834
  494.500    4.731    0.256    0.401   94.980  156.216
  494.750    4.462    0.253    0.414   97.719  156.209
  495.000    4.264    0.247    0.412  100.335  155.897
  495.250    4.014    0.252    0.402  101.001  155.686
  495.500    3.872    0.245    0.393  101.484  155.780
  495.750    3.887    0.233    0.386  109.708  155.872
  496.000    3.931    0.218    0.396  112.081  155.865
  496.250    3.961    0.213    0.402  107.931  155.960
  496.500    3.984    0.215    0.428  105.123  157.273
  496.750    4.007    0.221    0.442  105.972  158.890
  497.000    4.061    0.232    0.423   99.384  161.219
  497.250    4.091    0.243    0.394   91.638  163.650
  497.500    4.115    0.246    0.369   87.733  162.931
  497.750    4.061    0.208    0.364   83.767  161.196
  498.000    3.918    0.231    0.374   76.996  160.171
  498.250    3.751    0.273    0.359   71.567  159.759
  498.500    3.765    0.255    0.342   68.941  159.345
  498.750    3.780    0.230    0.328   70.278  158.931
  499.000    3.744    0.214    0.320   75.942  158.313
  499.250    3.619    0.247    0.336   61.187  157.898
  499.500    3.368    0.272    0.353   51.857  157.689
  499.750    3.206    0.287    0.343   52.645  157.477
  500.000    3.030    0.262    0.340   57.882  157.165
  500.250    2.939    0.240    0.366   67.203  156.853
  500.500    2.923    0.236    0.364   46.718  156.642
  500.750    2.984    0.253    0.344   40.984  156.431
  501.000    3.053    0.268    0.327   44.088  156.220
  501.250    3.141    0.271    0.329   50.849  155.807
  501.500    3.189    0.261    0.330   58.524  154.072
  501.750    3.238    0.245    0.328   62.482  154.876
  502.000    3.275    0.232    0.326   66.195  155.069
  502.250    3.214    0.233    0.323   66.556  154.963
  502.500    3.118    0.231    0.320   69.111  154.547
  502.750    2.952    0.229    0.318   73.496  154.032
  503.000    2.731    0.226    0.337   76.234  153.823
  503.250    2.485    0.291    0.356   73.913  155.135
  503.500    2.326    0.296    0.374   72.263  156.650
  503.750    2.218    0.302    0.382   72.624  157.456
  504.000    2.210    0.308    0.393   78.288  158.363
  504.250    2.317    0.292    0.404   80.112  159.168
  504.500    2.533    0.276    0.386   81.936  159.668
  504.750    2.848    0.266    0.362   87.965  160.168
  505.000    3.078    0.263    0.336   92.106  160.364
  505.250    3.301    0.256    0.354   96.306  160.560
  505.500    3.514    0.233    0.363  100.568  160.756
  505.750    3.733    0.210    0.365  104.648  161.153
  506.000    3.922    0.211    0.368  109.701  161.349
  506.250    4.120    0.215    0.376  113.416  161.747
  506.500    4.295    0.209    0.386  106.463  162.858
  506.750    4.461    0.192    0.389   96.645  163.866
  507.000    4.572    0.179    0.378   94.751  164.874
  507.250    4.668    0.167    0.369   99.744  165.882
  507.500    4.695    0.184    0.367  105.591  166.686
  507.750    4.668    0.203    0.373  103.758  167.391
  508.000    4.512    0.214    0.382   85.528  166.673
  508.250    4.395    0.244    0.387   76.016  164.633
  508.500    4.280    0.266    0.411   74.914  161.982
  508.750    4.216    0.193    0.393   85.271  160.859
  509.000    4.176    0.161    0.408   94.043  164.203
  509.250    4.248    0.153    0.397   91.601  166.430
  509.500    4.272    0.188    0.369   76.785  165.306
  509.750    4.240    0.202    0.338   69.039  163.571
  510.000    4.185    0.214    0.328   71.228  162.243
  510.250    4.075    0.237    0.324   75.673  161.523
  510.500    3.909    0.217    0.331   79.936  161.515
  510.750    3.851    0.202    0.338   84.137  162.728
  511.000    3.836    0.204    0.350   85.900  164.041
  511.250    3.807    0.221    0.359   87.846  164.439
  511.500    3.786    0.235    0.368   89.853  164.330
  511.750    3.765    0.224    0.375   93.444  163.915
  512.000    3.772    0.215    0.382   96.609  163.298
  512.250    3.794    0.212    0.390   99.286  162.985
