~VERSION INFORMATION
 VERS.                 2.0:   CWLS LOG ASCII STANDARD -VERSION 2.0
 WRAP.                  NO:   ONE LINE PER DEPTH STEP
~WELL INFORMATION BLOCK
#MNEM.UNIT           DATA                    DESCRIPTION OF MNEMONIC
#---------    -------------------            -------------------------------
# Generated from Intellog Unique Number	CS_77_79/WELL/889
WELL.         KANDEX HOMESTEAD THORNBURY     : Well_name    - WELL
LOC .         00/07-01-079-13W4/0            : Location     - LOCATION
UWI .         00/07-01-079-13W4/0            : Uwi          - UNIQUE WELL ID
ENTR.         JHS                            : Entered      - ENTERED BY
SRVC.         SCHLUMBERGER                   : Scn          - SERVICE COMPANY
STRT.M        259.08                         : top_depth    - START DEPTH
STOP.M        493.58                         : bot_depth    - STOP DEPTH
STEP.M        0.25                           : increment    - STEP LENGTH
 NULL. -999.2500:NULL Value
~CURVE INFORMATION BLOCK
#MNEM UNIT       ERCB CURVE CODE    CURVE DESCRIPTION
#-----------   ------------------   ----------------------------------
DEPT.M        00 001 00 00         : DEPTH        - DEPTH
RHOB.KG/M3    00 350 00 00         : DENS         - BULK DENSITY
GR  .API      00 310 00 00         : GR           - GAMMA RAY
DPHI.V/V      00 890 00 00         : PHID         - DENSITY POROSITY (SANDSTONE)
NPHI.V/V      00 330 00 00         : PHIN         - NEUTRON POROSITY (SANDSTONE)
ILD .OHMM     00 120 00 00         : RESD         - DEEP RESISTIVITY (DIL)
~PARAMETER INFORMATION
#MNEM.UNIT           DATA             DESCRIPTION OF MNEMONIC
#---------         -----------     ------------------------------
GL  .M        679.399              : gl           - GROUND LEVEL ELEVATION
EREF.M        683.057              : kb           - ELEVATION OF DEPTH REFERENCE
DATM.M        683.057              : datum        - DATUM ELEVATION
TDD .M        499.872              : tdd          - TOTAL DEPTH DRILLER
RUN .         ONE                  : Run          - RUN NUMBER
ENG .         BILL                 : Engineer     - RECORDING ENGINEER
WIT .         JIM                  : Witness      - WITNESSED BY
MUD .         GEL                  : Mud_type     - MUD TYPE
MATR.         SANDSTONE            : Logunit      - NEUTRON MATRIX
TMAX.C        21.6667              : BHT          - MAXIMUM RECORDED TEMPERATURE
BHTD.M        499.872              : BHTDEP       - MAXIMUM RECORDED TEMPERATURE
MATR.         1                    : LOGUNIT      - NEUTRON MATRIX
RMT .C        25                   : MDTP         - TEMPERATURE OF MUD
NEUT.         1                    : NEUTRON      - NEUTRON TYPE
RESI.         0                    : RESIST       - RESISTIVITY TYPE
RMC .OHMM     0.25                 : RMC          - RESISTIVITY OF MUD CAKE
RMF .OHMM     0.25                 : RMF          - RESISTIVITY OF MUD FILTRATE
SUFT.C        15                   : SUFT         - SURFACE TEMPERATURE
~A  DEPTH     DENS       GR     PHID     PHIN     RESD
# ...
  295.580    0.000  110.553    0.224    0.421   12.123
  295.830    0.000  110.106    0.225    0.432   12.496
  296.080    0.000  105.383    0.255    0.440   12.551
  296.330    0.000  101.802    0.278    0.446   11.840
  296.580    0.000  100.615    0.290    0.458    9.517
  296.830    0.000  102.854    0.236    0.459    7.501
  297.080    0.000  113.527    0.196    0.467    6.053
  297.330    0.000  120.690    0.166    0.477    5.691
  297.580    0.000  122.020    0.141    0.486    5.746
  297.830    0.000  120.825    0.145    0.483    6.104
  298.080    0.000  117.924    0.224    0.456    6.801
  298.330    0.000  114.952    0.222    0.431    8.080
  298.580    0.000  112.734    0.220    0.426    9.586
  298.830    0.000  109.905    0.246    0.434   10.463
  299.080    0.000  105.368    0.246    0.443   11.316
  299.330    0.000  101.042    0.249    0.456   11.904
  299.580    0.000   94.557    0.257    0.466   12.508
  299.830    0.000   91.453    0.274    0.469   12.491
  300.080    0.000   92.849    0.250    0.457   11.861
  300.330    0.000   98.534    0.230    0.437   11.293
  300.580    0.000  100.317    0.220    0.430   11.011
  300.830    0.000  100.714    0.222    0.433   11.023
  301.080    0.000  103.379    0.243    0.427   11.253
  301.330    0.000   99.368    0.245    0.413   11.567
  301.580    0.000   92.408    0.250    0.410   11.902
  301.830    0.000   84.419    0.265    0.416   12.243
  302.080    0.000   79.599    0.256    0.425   12.931
  302.330    0.000   75.454    0.277    0.435   14.398
  302.580    0.000   75.791    0.306    0.441   16.200
  302.830    0.000   80.332    0.322    0.427   17.353
  303.080    0.000   88.375    0.318    0.416   15.855
  303.330    0.000   99.120    0.266    0.414   13.738
  303.580    0.000  105.656    0.220    0.424   11.106
  303.830    0.000  111.423    0.208    0.440    8.596
  304.080    0.000  111.736    0.213    0.452    7.221
  304.330    0.000  107.217    0.227    0.463    6.383
  304.580    0.000  105.761    0.213    0.475    5.821
  304.830    0.000   99.571    0.230    0.490    6.179
  305.080    0.000   89.772    0.253    0.490    7.429
  305.330    0.000   84.248    0.263    0.472   10.237
  305.580    0.000   81.405    0.265    0.470   12.849
  305.830    0.000   82.864    0.276    0.474   14.860
  306.080    0.000   85.602    0.263    0.473   15.667
  306.330    0.000   87.556    0.272    0.473   15.308
  306.580    0.000   88.512    0.268    0.467   14.238
  306.830    0.000   89.243    0.255    0.465   13.050
  307.080    0.000   85.780    0.253    0.468   12.053
  307.330    0.000   86.267    0.273    0.471   11.680
  307.580    0.000   87.367    0.246    0.467   11.645
  307.830    0.000   88.824    0.233    0.467   12.895
  308.080    0.000   90.326    0.240    0.477   13.516
  308.330    0.000   93.549    0.255    0.483   13.435
  308.580    0.000   98.753    0.263    0.485   12.069
  308.830    0.000  101.391    0.280    0.481   10.903
  309.080    0.000  102.300    0.271    0.476    9.224
  309.330    0.000  102.933    0.259    0.460    8.362
  309.580    0.000  101.882    0.270    0.446    8.310
  309.830    0.000   99.840    0.271    0.431    8.471
  310.080    0.000   96.648    0.260    0.428    9.085
  310.330    0.000   92.842    0.273    0.428   10.160
  310.580    0.000   88.382    0.283    0.427   10.984
  310.830    0.000   84.735    0.281    0.428   11.222
  311.080    0.000   81.258    0.282    0.426   11.470
  311.330    0.000   77.785    0.281    0.423   11.641
  311.580    0.000   71.375    0.288    0.422   12.100
  311.830    0.000   64.052    0.269    0.425   13.228
  312.080    0.000   56.537    0.256    0.430   14.750
  312.330    0.000   50.827    0.274    0.431   16.942
  312.580    0.000   49.320    0.299    0.422   19.111
  312.830    0.000   50.402    0.288    0.408   21.109
  313.080    0.000   51.782    0.273    0.406   22.410
  313.330    0.000   55.959    0.273    0.408   23.862
  313.580    0.000   58.587    0.354    0.421   25.101
  313.830    0.000   61.341    0.345    0.442   27.545
  314.080    0.000   62.215    0.323    0.461   29.205
  314.330    0.000   61.242    0.323    0.471   31.371
  314.580    0.000   60.258    0.342    0.472   33.736
  314.830    0.000   59.226    0.332    0.472   34.681
  315.080    0.000   59.202    0.342    0.472   35.722
  315.330    0.000   58.475    0.352    0.471   37.648
  315.580    0.000   55.922    0.343    0.473   39.390
  315.830    0.000   54.507    0.344    0.482   41.066
  316.080    0.000   53.083    0.360    0.488   42.900
  316.330    0.000   52.444    0.378    0.497   44.621
  316.580    0.000   52.487    0.365    0.484   44.128
  316.830    0.000   52.503    0.352    0.484   39.308
  317.080    0.000   52.497    0.338    0.483   35.756
  317.330    0.000   52.440    0.336    0.476   28.818
  317.580    0.000   51.359    0.348    0.477   23.230
  317.830    0.000   51.297    0.349    0.474   20.440
  318.080    0.000   52.087    0.351    0.469   18.108
  318.330    0.000   53.201    0.356    0.473   17.600
  318.580    0.000   52.988    0.356    0.474   17.556
  318.830    0.000   51.944    0.352    0.465   17.556
  319.080    0.000   51.943    0.340    0.456   17.562
  319.330    0.000   51.650    0.352    0.448   17.547
  319.580    0.000   50.155    0.360    0.449   17.904
  319.830    0.000   49.813    0.338    0.454   17.950
  320.080    0.000   48.659    0.330    0.460   17.582
  320.330    0.000   47.643    0.334    0.462   17.307
  320.580    0.000   49.124    0.344    0.432   17.296
  320.830    0.000   48.255    0.338    0.427   17.298
  321.080    0.000   47.266    0.332    0.430   17.274
  321.330    0.000   46.258    0.345    0.440   17.672
  321.580    0.000   45.238    0.335    0.447   17.647
  321.830    0.000   43.719    0.338    0.451   17.652
  322.080    0.000   42.183    0.346    0.432   17.635
  322.330    0.000   42.313    0.337    0.414   18.008
  322.580    0.000   42.309    0.341    0.406   18.212
  322.830    0.000   42.193    0.330    0.407   18.840
  323.080    0.000   41.173    0.317    0.413   19.050
  323.330    0.000   39.103    0.318    0.411   20.056
  323.580    0.000   38.801    0.306    0.393   20.601
  323.830    0.000   40.245    0.293    0.391   20.606
  324.080    0.000   43.393    0.316    0.400   20.017
  324.330    0.000   44.951    0.317    0.413   19.427
  324.580    0.000   45.902    0.315    0.429   18.849
  324.830    0.000   45.345    0.321    0.430   18.287
  325.080    0.000   43.601    0.321    0.426   17.742
  325.330    0.000   44.844    0.330    0.426   17.461
  325.580    0.000   46.830    0.331    0.435   17.091
  325.830    0.000   45.508    0.342    0.445   17.135
  326.080    0.000   42.446    0.364    0.448   17.181
  326.330    0.000   41.330    0.370    0.441   16.819
  326.580    0.000   41.889    0.355    0.433   16.552
  326.830    0.000   41.254    0.349    0.430   16.546
  327.080    0.000   40.603    0.340    0.437   16.544
  327.330    0.000   40.182    0.331    0.446   16.552
  327.580    0.000   39.433    0.348    0.435   16.561
  327.830    0.000   38.753    0.348    0.419   16.568
  328.080    0.000   38.269    0.348    0.408   16.577
  328.330    0.000   37.554    0.359    0.403   16.581
  328.580    0.000   37.635    0.347    0.407   16.591
  328.830    0.000   38.517    0.352    0.416   16.816
  329.080    0.000   39.091    0.345    0.416   16.913
  329.330    0.000   41.290    0.335    0.409   16.928
  329.580    0.000   41.394    0.337    0.405   16.947
  329.830    0.000   39.713    0.356    0.406   17.004
  330.080    0.000   37.200    0.367    0.412   17.282
  330.330    0.000   36.188    0.358    0.424   17.285
  330.580    0.000   35.235    0.342    0.430   17.291
  330.830    0.000   35.298    0.346    0.430   17.299
  331.080    0.000   35.548    0.350    0.428   17.297
  331.330    0.000   35.915    0.342    0.430   17.298
  331.580    0.000   37.007    0.337    0.428   17.017
  331.830   -0.000   37.082    0.337    0.434   16.682
