~VERSION INFORMATION
 VERS.                 2.0:   CWLS LOG ASCII STANDARD -VERSION 2.0
 WRAP.                  NO:   ONE LINE PER DEPTH STEP
~WELL INFORMATION BLOCK
#MNEM.UNIT           DATA                    DESCRIPTION OF MNEMONIC
#---------    -------------------            -------------------------------
# Generated from Intellog Unique Number	CW_73_75/WELL/2731
WELL.         RIVA KELLY 07-22               : Well_name    - WELL
LOC .         00/07-22-073-19W4/0            : Location     - LOCATION
UWI .         00/07-22-073-19W4/0            : Uwi          - UNIQUE WELL ID
ENTR.         JAYE                           : Entered      - ENTERED BY
SRVC.         SCHLUMBERGER                   : Scn          - SERVICE COMPANY
DATE.         16 DEC 77                      : Date         - LOG DATE
STRT.M        365.76                         : top_depth    - START DEPTH
STOP.M        570.01                         : bot_depth    - STOP DEPTH
STEP.M        0.25                           : increment    - STEP LENGTH
 NULL. -999.2500:NULL Value
~CURVE INFORMATION BLOCK
#MNEM UNIT       ERCB CURVE CODE    CURVE DESCRIPTION
#-----------   ------------------   ----------------------------------
DEPT.M        00 001 00 00         : DEPTH        - DEPTH
ILD .OHMM     00 120 00 00         : RESD         - DEEP RESISTIVITY (DIL)
NPHI.V/V      00 330 00 00         : PHIN         - NEUTRON POROSITY (SANDSTONE)
DPHI.V/V      00 890 00 00         : PHID         - DENSITY POROSITY (SANDSTONE)
GR  .API      00 310 00 00         : GR           - GAMMA RAY
CALI.MM       00 280 01 00         : CAL          - CALIPER
~PARAMETER INFORMATION
#MNEM.UNIT           DATA             DESCRIPTION OF MNEMONIC
#---------         -----------     ------------------------------
GL  .M        670.865              : gl           - GROUND LEVEL ELEVATION
EREF.M        673.913              : kb           - ELEVATION OF DEPTH REFERENCE
DATM.M        670.865              : datum        - DATUM ELEVATION
TDD .M        567.842              : tdd          - TOTAL DEPTH DRILLER
RUN .         ONE                  : Run          - RUN NUMBER
ENG .         DALY                 : Engineer     - RECORDING ENGINEER
WIT .         STEIDEL              : Witness      - WITNESSED BY
BASE.         EDM                  : Branch       - HOME BASE OF LOGGING UNIT
MUD .         DAPP                 : Mud_type     - MUD TYPE
MATR.         SANDSTONE            : Logunit      - NEUTRON MATRIX
TMAX.C        23.3333              : BHT          - MAXIMUM RECORDED TEMPERATURE
BHTD.M        566.318              : BHTDEP       - MAXIMUM RECORDED TEMPERATURE
RMT .C        18.8889              : MDTP         - TEMPERATURE OF MUD
MUDD.KG/M     1176                 : MWT          - MUD DENSITY
NEUT.         1                    : NEUTRON      - NEUTRON TYPE
RESI.         0                    : RESIST       - RESISTIVITY TYPE
RM  .OHMM     0.99                 : RM           - RESISTIVITY OF MUD
RMC .OHMM     0                    : RMC          - RESISTIVITY OF MUD CAKE
RMF .OHMM     0                    : RMF          - RESISTIVITY OF MUD FILTRATE
SUFT.C        -17.7778             : SUFT         - SURFACE TEMPERATURE
~A  DEPTH     RESD     PHIN     PHID       GR      CAL
# ...
  511.760    4.563    0.450    0.324   61.000  149.919
  512.010    4.591    0.451    0.329   61.452  150.266
  512.260    4.610    0.442    0.324   62.094  150.503
  512.510    4.638    0.436    0.315   62.485  150.639
  512.760    4.666    0.428    0.313   63.377  150.986
  513.010    4.694    0.423    0.320   64.641  151.014
  513.260    4.713    0.438    0.328   70.030  151.360
  513.510    4.723    0.442    0.328   74.479  151.282
  513.760    4.716    0.439    0.327   78.681  151.413
  514.010    4.709    0.435    0.324   80.321  151.865
  514.260    4.710    0.431    0.320   80.464  151.999
  514.510    4.703    0.428    0.318   80.854  152.348
  514.760    4.704    0.425    0.316   82.746  153.007
  515.010    4.706    0.424    0.311   85.321  154.094
  515.260    4.707    0.425    0.306   87.212  155.071
  515.510    4.790    0.448    0.298   85.792  155.205
  515.760    5.032    0.438    0.279   84.060  153.964
  516.010    5.178    0.411    0.258   87.449  152.408
  516.260    5.141    0.397    0.251   92.274  151.695
  516.510    4.869    0.435    0.289   98.723  152.146
  516.760    4.424    0.439    0.270  104.736  153.548
  517.010    3.959    0.449    0.250  108.125  155.694
  517.260    3.604    0.461    0.246  105.956  157.942
  517.510    3.262    0.473    0.240   99.977  159.770
  517.760    3.101    0.481    0.230  101.305  160.224
  518.010    2.987    0.491    0.228  101.321  160.250
  518.260    2.905    0.506    0.226  100.527  160.277
  518.510    2.851    0.503    0.223  102.791  160.408
  518.760    2.868    0.491    0.216  104.495  160.866
  519.010    2.930    0.492    0.219  104.637  161.102
  519.260    2.981    0.494    0.224  102.966  161.238
  519.510    3.010    0.481    0.228  103.482  161.799
  519.760    3.045    0.478    0.232  105.686  161.927
  520.010    3.075    0.481    0.241  106.826  162.170
  520.260    3.117    0.485    0.235  105.968  162.301
  520.510    3.166    0.489    0.228  107.421  162.226
  520.760    3.245    0.499    0.224  110.249  162.355
  521.010    3.378    0.511    0.224  109.016  162.494
  521.260    3.509    0.519    0.221  103.536  161.143
  521.510    3.624    0.502    0.217  101.431  159.061
  521.760    3.786    0.486    0.207   99.822  158.554
  522.010    3.978    0.474    0.202   98.965  159.010
  522.260    4.164    0.467    0.203  102.167  159.458
  522.510    4.253    0.454    0.210  105.120  159.908
  522.760    4.238    0.438    0.206  105.450  159.514
  523.010    4.200    0.438    0.203  101.841  159.435
  523.260    4.162    0.444    0.201  100.173  159.463
  523.510    4.132    0.450    0.201  100.564  158.755
  523.760    4.102    0.449    0.201  100.643  157.937
  524.010    4.111    0.450    0.203   99.349  156.277
  524.260    4.167    0.448    0.216   98.429  155.348
  524.510    4.321    0.441    0.227   99.756  154.423
  524.760    4.497    0.431    0.225  104.395  154.135
  525.010    4.610    0.441    0.222  107.223  154.268
  525.260    4.646    0.459    0.222  108.488  155.884
  525.510    4.552    0.471    0.220  108.380  156.334
  525.760    4.402    0.481    0.210  105.899  153.827
  526.010    4.346    0.482    0.198   97.421  150.046
  526.260    4.523    0.481    0.185   88.756  147.430
  526.510    5.038    0.473    0.160   81.153  148.091
  526.760    5.612    0.420    0.138   78.297  150.027
  527.010    6.228    0.386    0.123   80.500  152.907
  527.260    7.300    0.331    0.124   80.704  155.791
  527.510    8.802    0.325    0.122   77.474  155.188
  527.760   10.735    0.340    0.123   76.303  154.050
  528.010   11.406    0.352    0.124   78.320  152.491
  528.260    9.646    0.352    0.126   81.957  150.934
  528.510    8.488    0.349    0.134   87.594  150.645
  528.760    7.858    0.360    0.154   94.106  151.098
  529.010    7.359    0.376    0.159   93.123  151.760
  529.260    6.982    0.402    0.160   93.639  152.526
  529.510    6.514    0.407    0.163   98.278  153.722
  529.760    6.157    0.404    0.166  102.667  154.803
  530.010    5.886    0.418    0.174  103.370  155.786
  530.260    5.713    0.409    0.181  103.265  155.918
  530.510    5.651    0.399    0.178  103.153  156.052
  530.760    5.642    0.397    0.173  102.545  156.397
  531.010    5.665    0.410    0.167  102.562  156.850
  531.260    5.700    0.445    0.166  104.828  157.302
  531.510    5.810    0.434    0.173  105.593  157.757
  531.760    5.912    0.425    0.175  104.612  157.781
  532.010    5.992    0.418    0.190  102.692  157.816
  532.260    6.051    0.404    0.179  104.082  157.839
  532.510    6.053    0.403    0.159  106.473  157.867
  532.760    6.101    0.410    0.151  108.551  157.899
  533.010    6.114    0.412    0.170  109.566  157.920
  533.260    6.139    0.408    0.172  109.520  157.954
  533.510    6.188    0.400    0.164  107.037  158.087
  533.760    6.225    0.392    0.159  107.617  158.215
  534.010    6.251    0.382    0.170  108.195  158.038
  534.260    6.253    0.376    0.184  107.775  157.642
  534.510    6.232    0.380    0.194  107.917  157.356
  534.760    6.163    0.393    0.190  106.622  157.165
  535.010    6.027    0.407    0.186  102.269  157.091
  535.260    5.850    0.415    0.188   99.473  157.228
  535.510    5.700    0.417    0.167   96.867  157.151
  535.760    5.637    0.398    0.133   98.944  156.748
  536.010    5.597    0.395    0.147   99.462  156.569
  536.260    5.567    0.398    0.169   98.416  156.382
  536.510    5.579    0.394    0.193   98.120  155.989
  536.760    5.581    0.380    0.189  100.385  155.593
  537.010    5.468    0.391    0.187  100.964  155.940
  537.260    5.268    0.414    0.205  101.730  157.449
  537.510    4.714    0.447    0.223  102.746  159.486
  537.760    3.957    0.481    0.242  103.824  162.051
  538.010    2.971    0.545    0.257  106.151  166.627
  538.260    2.007    0.514    0.251  110.477  170.040
  538.510    1.776    0.508    0.238  112.492  171.869
  538.760    1.666    0.507    0.237  108.576  172.740
  539.010    1.651    0.505    0.243  108.279  173.296
  539.260    1.755    0.501    0.230  107.858  173.009
  539.510    2.108    0.496    0.215  103.192  171.344
  539.760    2.499    0.463    0.183   98.900  165.662
  540.010    2.863    0.383    0.151   97.916  161.670
  540.260    3.407    0.348    0.123  101.492  160.008
  540.510    3.986    0.381    0.136  105.943  159.614
  540.760    4.424    0.405    0.175  106.085  159.852
  541.010    4.604    0.416    0.187  103.668  159.885
  541.260    4.729    0.422    0.165  101.559  160.016
  541.510    4.858    0.417    0.143   96.517  160.045
  541.760    5.027    0.368    0.102   89.726  159.860
  542.010    5.331    0.346    0.063   91.120  159.674
  542.260    5.665    0.356    0.096   92.383  159.281
  542.510    6.054    0.375    0.132   93.087  159.097
  542.760    6.580    0.392    0.153   89.730  158.596
  543.010    7.045    0.399    0.103   82.689  157.572
  543.260    7.600    0.369    0.069   76.586  156.537
  543.510    8.261    0.320    0.038   79.787  155.933
  543.760    9.395    0.293    0.058   85.051  155.331
  544.010   10.909    0.287    0.083   89.877  154.825
  544.260   11.120    0.313    0.107   94.140  154.218
  544.510    9.729    0.329    0.119   98.466  154.668
  544.760    8.059    0.346    0.135  103.041  155.226
  545.010    6.688    0.359    0.156  107.930  155.888
  545.260    5.656    0.381    0.171  111.568  158.455
  545.510    4.792    0.398    0.181  114.832  159.652
  545.760    4.395    0.412    0.193  116.098  159.676
  546.010    4.178    0.421    0.194  110.057  159.492
  546.260    4.063    0.426    0.180  107.013  159.202
  546.510    4.003    0.432    0.170  105.905  159.234
  546.760    3.997    0.440    0.182  104.610  159.156
  547.010    4.036    0.448    0.182  102.880  159.183
  547.260    4.123    0.460    0.176  101.022  159.427
  547.510    4.211    0.461    0.169  100.476  159.138
  547.760    4.268    0.441    0.151  105.551  159.054
  548.010    4.302    0.429    0.124  111.254  158.343
