~VERSION INFORMATION
 VERS.                 2.0:   CWLS LOG ASCII STANDARD -VERSION 2.0
 WRAP.                  NO:   ONE LINE PER DEPTH STEP
~WELL INFORMATION BLOCK
#MNEM.UNIT           DATA                    DESCRIPTION OF MNEMONIC
#---------    -------------------            -------------------------------
# Generated from Intellog Unique Number	CS_77_79/WELL/910
WELL.         BOW VALLEY EXPLORATION         : Well_name    - WELL
LOC .         00/07-28-077-14W4/0            : Location     - LOCATION
UWI .         00/07-28-077-14W4/0            : Uwi          - UNIQUE WELL ID
ENTR.         SP                             : Entered      - ENTERED BY
SRVC.         SCHLUMBERGER                   : Scn          - SERVICE COMPANY
STRT.M        275                            : top_depth    - START DEPTH
STOP.M        535                            : bot_depth    - STOP DEPTH
STEP.M        0.25                           : increment    - STEP LENGTH
 NULL. -999.2500:NULL Value
~CURVE INFORMATION BLOCK
#MNEM UNIT       ERCB CURVE CODE    CURVE DESCRIPTION
#-----------   ------------------   ----------------------------------
DEPT.M        00 001 00 00         : DEPTH        - DEPTH
ILD .OHMM     00 120 00 00         : RESD         - DEEP RESISTIVITY (DIL)
DPHI.V/V      00 890 00 00         : PHID         - DENSITY POROSITY (LIMESTONE)
NPHI.V/V      00 330 00 00         : PHIN         - NEUTRON POROSITY (LIMESTONE)
GR  .API      00 310 00 00         : GR           - GAMMA RAY
~PARAMETER INFORMATION
#MNEM.UNIT           DATA             DESCRIPTION OF MNEMONIC
#---------         -----------     ------------------------------
GL  .M        674.43               : gl           - GROUND LEVEL ELEVATION
EREF.M        677.88               : kb           - ELEVATION OF DEPTH REFERENCE
DATM.M        674.43               : datum        - DATUM ELEVATION
TDD .M        544                  : tdd          - TOTAL DEPTH DRILLER
RUN .         ONE                  : Run          - RUN NUMBER
ENG .         BILL                 : Engineer     - RECORDING ENGINEER
WIT .         JIM                  : Witness      - WITNESSED BY
MUD .         GEL                  : Mud_type     - MUD TYPE
MATR.         LIMESTONE            : Logunit      - NEUTRON MATRIX
TMAX.C        25                   : BHT          - MAXIMUM RECORDED TEMPERATURE
BHTD.M        544                  : BHTDEP       - MAXIMUM RECORDED TEMPERATURE
MATR.         1                    : LOGUNIT      - NEUTRON MATRIX
RMT .C        25                   : MDTP         - TEMPERATURE OF MUD
NEUT.         1                    : NEUTRON      - NEUTRON TYPE
RESI.         0                    : RESIST       - RESISTIVITY TYPE
RMC .OHMM     0.25                 : RMC          - RESISTIVITY OF MUD CAKE
RMF .OHMM     0.25                 : RMF          - RESISTIVITY OF MUD FILTRATE
SUFT.C        15                   : SUFT         - SURFACE TEMPERATURE
~A  DEPTH     RESD     PHID     PHIN       GR
# ...
  492.500   34.510    0.000    0.162   45.293
  492.750   41.623    0.026    0.192   42.261
  493.000   49.279    0.257    0.254   45.303
  493.250   50.225    0.297    0.306   50.167
  493.500   51.193    0.307    0.337   55.638
  493.750   53.160    0.312    0.367   58.681
  494.000   55.209    0.306    0.385   59.291
  494.250   55.233    0.305    0.377   58.689
  494.500   54.221    0.312    0.364   59.301
  494.750   53.225    0.311    0.365   61.129
  495.000   50.338    0.310    0.377   62.347
  495.250   45.852    0.308    0.391   65.996
  495.500   40.994    0.311    0.398   68.431
  495.750   35.304    0.307    0.403   70.258
  496.000   30.402    0.305    0.373   72.084
  496.250   25.220    0.300    0.386   76.948
  496.500   22.548    0.295    0.395   82.418
  496.750   20.928    0.281    0.366   90.927
  497.000   19.425    0.264    0.344   95.182
  497.250   17.695    0.232    0.355   96.401
  497.500   16.423    0.210    0.355   84.260
  497.750   15.531    0.224    0.334   79.407
  498.000   15.246    0.229    0.328   76.377
  498.250   15.253    0.236    0.330   72.131
  498.500   15.256    0.238    0.338   68.490
  498.750   15.552    0.240    0.343   58.780
  499.000   15.849    0.225    0.298   51.497
  499.250   15.852    0.080    0.235   48.468
  499.500   15.275    0.116    0.318   47.864
  499.750   14.719    0.156    0.335   49.082
  500.000   13.918    0.184    0.346   53.339
  500.250   12.919    0.258    0.351   56.989
  500.500   12.685    0.275    0.351   60.636
  500.750   12.688    0.266    0.345   67.929
  501.000   12.455    0.248    0.336   75.829
  501.250   12.228    0.214    0.324   81.299
  501.500   11.782    0.184    0.323   82.520
  501.750   11.567    0.192    0.322   80.095
  502.000   11.147    0.193    0.320   87.388
  502.250   10.942    0.162    0.324   93.466
  502.500   10.743    0.151    0.345   95.901
  502.750   10.748    0.141    0.372   97.726
  503.000   10.749    0.149    0.395  100.161
  503.250   10.553    0.151    0.389  101.988
  503.500   10.756    0.152    0.373  102.600
  503.750   10.963    0.158    0.368  100.176
  504.000   11.175    0.162    0.368   92.895
  504.250   11.178    0.185    0.366   88.041
  504.500   11.181    0.199    0.334   84.402
  504.750   10.976    0.196    0.320   82.584
  505.000   10.777    0.187    0.328   81.981
  505.250   10.780    0.183    0.330   79.558
  505.500   10.584    0.201    0.335   77.135
  505.750   10.586    0.215    0.346   75.317
  506.000   10.393    0.207    0.336   74.715
  506.250   10.015    0.178    0.323   77.149
  506.500   10.017    0.156    0.319   82.012
  506.750    9.653    0.131    0.318   83.839
  507.000    9.476    0.137    0.334   84.452
  507.250    9.132    0.153    0.345   83.243
  507.500    8.964    0.206    0.342   80.210
  507.750    8.478    0.244    0.340   77.179
  508.000    8.169    0.245    0.348   77.792
  508.250    7.871    0.246    0.351   71.725
  508.500    7.727    0.250    0.342   69.300
  508.750    7.587    0.255    0.339   67.482
  509.000    7.732    0.256    0.341   69.310
  509.250    8.182    0.258    0.354   68.707
  509.500    8.339    0.262    0.343   68.712
  509.750    8.499    0.237    0.332   77.827
  510.000    8.501    0.212    0.337   84.512
  510.250    8.503    0.196    0.335   89.983
  510.500    8.194    0.199    0.327   93.025
  510.750    8.351    0.183    0.324   97.280
  511.000    9.173    0.164    0.354  110.039
  511.250   10.268    0.154    0.380  116.723
  511.500   11.070    0.183    0.401  103.976
  511.750   11.495    0.222    0.385   93.050
  512.000   11.500    0.237    0.365   93.662
  512.250   11.503    0.222    0.358   97.312
  512.500   11.505    0.192    0.354  105.210
  512.750   11.511    0.192    0.369  112.503
  513.000   11.514    0.213    0.390   93.681
  513.250   11.304    0.254    0.371   91.257
  513.500   11.097    0.259    0.351   93.084
  513.750   10.894    0.224    0.342   97.947
  514.000   10.695    0.190    0.351  108.884
  514.250   10.307    0.170    0.365  111.319
  514.500   10.309    0.165    0.376  112.540
  514.750    9.933    0.143    0.380  114.367
  515.000    9.753    0.157    0.376  116.193
  515.250    9.755    0.176    0.398  119.841
  515.500   10.322    0.192    0.430  123.489
  515.750   11.130    0.184    0.424  112.563
  516.000   11.557    0.170    0.400  108.926
  516.250   12.001    0.171    0.381  107.715
  516.500   12.004    0.173    0.361  104.684
  516.750   12.007    0.150    0.346  100.438
  517.000   11.572    0.159    0.338   96.799
  517.250   11.149    0.168    0.326   90.124
  517.500   10.742    0.165    0.319   91.950
  517.750   10.160    0.158    0.343   98.028
  518.000    9.789    0.155    0.401  102.892
  518.250    9.432    0.137    0.370  101.682
  518.500    9.088    0.131    0.358  102.902
  518.750    8.758    0.126    0.339  103.515
  519.000    8.760    0.139    0.331  103.521
  519.250    8.762    0.156    0.329  102.309
  519.500    8.764    0.160    0.360   99.886
  519.750    8.769    0.159    0.399   95.639
  520.000    8.937    0.192    0.388   48.275
  520.250    9.109    0.231    0.363   37.956
  520.500    9.111    0.247    0.327   38.569
  520.750    9.286    0.230    0.302   54.971
  521.000    9.464    0.225    0.318   57.406
  521.250    9.293    0.213    0.305   59.232
  521.500    9.122    0.201    0.293   59.844
  521.750    8.790    0.221    0.304   57.420
  522.000    8.630    0.256    0.329   51.959
  522.250    8.632    0.286    0.361   38.603
  522.500    8.474    0.302    0.380   31.321
  522.750    8.800    0.302    0.397   33.755
  523.000   10.226    0.148    0.367   42.869
  523.250   11.444    0.078    0.251   53.806
  523.500   13.804    0.000    0.247   52.597
  523.750   16.653    0.000    0.245   52.601
  524.000   17.619    0.000    0.240   55.644
  524.250   17.625    0.026    0.235   56.256
  524.500   17.629    0.046    0.231   57.475
  524.750   17.311    0.042    0.234   59.910
  525.000   17.315    0.034    0.240   61.736
  525.250   17.319    0.020    0.253   64.171
  525.500   17.005    0.037    0.268   64.783
  525.750   16.693    0.038    0.265   64.180
  526.000   16.084    0.041    0.262   62.970
  526.250   16.090    0.069    0.258   61.761
  526.500   16.094    0.068    0.247   61.160
  526.750   16.405    0.052    0.243   61.772
  527.000   16.719    0.032    0.259   62.385
  527.250   19.793    0.041    0.254   62.996
  527.500   23.433    0.038    0.240   63.001
  527.750   26.721    0.033    0.225   60.578
  528.000   30.475    0.031    0.208   55.117
  528.250   32.243    0.033    0.182   47.226
  528.500   32.863    0.038    0.172   41.159
  528.750   29.379    0.047    0.186   42.985
  529.000   21.783    0.053    0.194   45.420
  529.250   18.070    0.064    0.230   52.105
  529.500   15.273    0.068    0.265   60.005
  529.750   15.567    0.071    0.284   67.906
  530.000   16.165    0.073    0.297   72.161
  530.250   18.094    0.070    0.303   75.809
  530.500   19.504    0.063    0.307   68.527
  530.750   30.010    0.059    0.300   58.815
  531.000   39.015    0.065    0.281   46.067
  531.250   44.490    0.063    0.157   39.392
  531.500   50.734    0.042    0.142   33.932
  531.750   56.784    0.022    0.134   30.292
  532.000   63.558    0.019    0.129   26.653
  532.250   67.247    0.023    0.128   21.800
  532.500   71.157    0.033    0.125   19.376
  532.750   72.518    0.028    0.124   17.559
  533.000   69.881    0.041    0.124   16.350
  533.250   68.605    0.057    0.124   15.749
  533.500   67.348    0.057    0.125   15.752
  533.750   64.902    0.053    0.129   15.758
  534.000   63.716    0.049    0.131   16.978
  534.250   62.547    0.042    0.137   17.590
  534.500   60.269    0.059    0.140   15.776
  534.750   58.078    0.063    0.139   15.173
  535.000   57.018    0.064    0.142   15.177
