~VERSION INFORMATION
 VERS.                 2.0:   CWLS LOG ASCII STANDARD -VERSION 2.0
 WRAP.                  NO:   ONE LINE PER DEPTH STEP
~WELL INFORMATION BLOCK
#MNEM.UNIT           DATA                    DESCRIPTION OF MNEMONIC
#---------    -------------------            -------------------------------
# Generated from Intellog Unique Number	CS_77_79/WELL/3264
WELL.         NUMAC OIL & GAS LTD.           : Well_name    - WELL
LOC .         00/01-12-079-14W4/0            : Location     - LOCATION
UWI .         00/01-12-079-14W4/0            : Uwi          - UNIQUE WELL ID
ENTR.         JOETTE                         : Entered      - ENTERED BY
SRVC.         SCHLUMBERGER                   : Scn          - SERVICE COMPANY
DATE.         08/24/92                       : Date         - LOG DATE
STRT.M        280                            : top_depth    - START DEPTH
STOP.M        510                            : bot_depth    - STOP DEPTH
STEP.M        0.25                           : increment    - STEP LENGTH
 NULL. -999.2500:NULL Value
~CURVE INFORMATION BLOCK
#MNEM UNIT       ERCB CURVE CODE    CURVE DESCRIPTION
#-----------   ------------------   ----------------------------------
DEPT.M        00 001 00 00         : DEPTH        - DEPTH
ILD .OHMM     00 120 00 00         : RESD         - DEEP RESISTIVITY (DIL)
DPHI.V/V      00 890 00 00         : PHID         - DENSITY POROSITY (SANDSTONE)
NPHI.V/V      00 330 00 00         : PHIN         - NEUTRON POROSITY (SANDSTONE)
GR  .API      00 310 00 00         : GR           - GAMMA RAY
~PARAMETER INFORMATION
#MNEM.UNIT           DATA             DESCRIPTION OF MNEMONIC
#---------         -----------     ------------------------------
GL  .M        688.6                : gl           - GROUND LEVEL ELEVATION
EREF.M        692.05               : kb           - ELEVATION OF DEPTH REFERENCE
DATM.M        692.05               : datum        - DATUM ELEVATION
TDD .M        521                  : tdd          - TOTAL DEPTH DRILLER
RUN .         ONE                  : Run          - RUN NUMBER
ENG .         BILL                 : Engineer     - RECORDING ENGINEER
WIT .         JIM                  : Witness      - WITNESSED BY
MUD .         GEL                  : Mud_type     - MUD TYPE
MATR.         SANDSTONE            : Logunit      - NEUTRON MATRIX
TMAX.C        34                   : BHT          - MAXIMUM RECORDED TEMPERATURE
BHTD.M        521                  : BHTDEP       - MAXIMUM RECORDED TEMPERATURE
RMT .C        22.1                 : MDTP         - TEMPERATURE OF MUD
MUDD.KG/M     1070                 : MWT          - MUD DENSITY
NEUT.         1                    : NEUTRON      - NEUTRON TYPE
RESI.         0                    : RESIST       - RESISTIVITY TYPE
RM  .OHMM     3.4                  : RM           - RESISTIVITY OF MUD
RMC .OHMM     5.1                  : RMC          - RESISTIVITY OF MUD CAKE
RMF .OHMM     2.8                  : RMF          - RESISTIVITY OF MUD FILTRATE
SUFT.C        4                    : SUFT         - SURFACE TEMPERATURE
~A  DEPTH     RESD     PHID     PHIN       GR
# ...
  410.500    8.636    0.334    0.437   90.581
  410.750    8.647    0.339    0.452   85.780
  411.000    8.342    0.336    0.475   83.386
  411.250    7.752    0.336    0.490   82.824
  411.500    7.615    0.333    0.499   82.273
  411.750    7.627    0.255    0.497   75.640
  412.000    7.631    0.285    0.488   76.899
  412.250    7.646    0.325    0.484   76.944
  412.500    7.653    0.333    0.485   78.810
  412.750    7.660    0.331    0.481   80.058
  413.000    7.532    0.322    0.475   78.292
  413.250    7.539    0.270    0.465   76.516
  413.500    7.696    0.294    0.470   77.168
  413.750    7.696    0.305    0.494   79.641
  414.000    8.007    0.319    0.495   79.090
  414.250    8.168    0.317    0.496   76.695
  414.500    8.328    0.307    0.495   76.740
  414.750    8.820    0.283    0.491   76.796
  415.000    8.998    0.254    0.463   76.234
  415.250    9.009   -0.013    0.332   72.626
  415.500    8.369   -0.021    0.227   65.993
  415.750    7.491    0.013    0.292   61.777
  416.000    7.093    0.304    0.425   66.701
  416.250    7.102    0.315    0.441   70.388
  416.500    7.240    0.321    0.460   74.682
  416.750    8.745    0.328    0.455   75.323
  417.000    9.797    0.191    0.419   74.761
  417.250   10.380    0.150    0.260   76.020
  417.500   10.990    0.067    0.231   72.422
  417.750   13.776    0.058    0.214   66.397
  418.000   19.694    0.052    0.210   62.799
  418.250   19.000    0.055    0.224   62.237
  418.500   15.190    0.061    0.261   61.079
  418.750    9.169    0.280    0.313   59.898
  419.000    7.197    0.337    0.361   62.990
  419.250    6.322    0.340    0.464   66.070
  419.500    6.097    0.335    0.509   71.590
  419.750    6.109    0.335    0.534   75.266
  420.000    6.113    0.336    0.529   77.739
  420.250    6.120    0.337    0.523   75.963
  420.500    6.128    0.336    0.519   77.222
  420.750    6.137    0.335    0.514   79.088
  421.000    6.141    0.334    0.513   79.751
  421.250    6.152    0.331    0.517   79.784
  421.500    6.158    0.329    0.520   78.649
  421.750    6.166    0.324    0.520   77.457
  422.000    6.172    0.309    0.513   75.074
  422.250    6.183    0.309    0.498   73.904
  422.500    6.308    0.309    0.489   76.377
  422.750    6.314    0.305    0.489   79.469
  423.000    6.321    0.294    0.490   78.300
  423.250    6.329    0.290    0.499   75.916
  423.500    6.341    0.290    0.506   73.522
  423.750    6.349    0.298    0.514   71.138
  424.000    6.353    0.309    0.518   74.219
  424.250    6.365    0.332    0.495   77.917
  424.500    6.369    0.328    0.490   81.008
  424.750    6.378    0.327    0.487   82.245
  425.000    6.386    0.331    0.486   83.504
  425.250    6.394    0.332    0.486   82.335
  425.500    6.402    0.329    0.489   80.558
  425.750    6.412    0.326    0.490   78.175
  426.000    6.418    0.306    0.493   78.838
  426.250    6.424    0.291    0.496   79.490
  426.500    6.432    0.283    0.495   78.321
  426.750    6.321    0.294    0.497   77.163
  427.000    6.215    0.304    0.503   77.803
  427.250    6.221    0.309    0.507   79.062
  427.500    6.003    0.314    0.509   80.940
  427.750    5.897    0.308    0.505   80.985
  428.000    5.793    0.298    0.502   81.018
  428.250    5.382    0.288    0.494   82.288
  428.500    4.817    0.283    0.491   84.750
  428.750    4.823    0.277    0.495   87.235
  429.000    5.205    0.267    0.512   84.851
  429.250    5.721    0.260    0.531   84.896
  429.500    6.409    0.254    0.520   86.762
  429.750    7.598    0.241    0.496   90.450
  430.000    7.749    0.228    0.489   97.172
  430.250    7.758    0.240    0.476  104.502
  430.500    7.768    0.250    0.473   99.690
  430.750    7.494    0.250    0.470   94.283
  431.000    7.229    0.256    0.464   91.281
  431.250    7.100    0.248    0.457   85.874
  431.500    6.851    0.223    0.460   80.444
  431.750    6.731    0.207    0.447   71.382
  432.000    6.620    0.165    0.418   65.964
  432.250    6.624    0.123    0.379   73.900
  432.500    6.630    0.165    0.362   83.658
  432.750    6.630    0.212    0.418   92.202
  433.000    6.777    0.226    0.471   96.508
  433.250    6.777    0.230    0.495   94.743
  433.500    6.791    0.230    0.503   92.370
  433.750    6.548    0.229    0.514   91.190
  434.000    6.682    0.226    0.520   88.806
  434.250    6.814    0.221    0.521   88.233
  434.500    6.954    0.218    0.511   91.313
  434.750    6.963    0.209    0.487   94.394
  435.000    7.101    0.208    0.466   95.045
  435.250    7.246    0.212    0.462   93.269
  435.500    7.532    0.215    0.456   92.100
  435.750    7.684    0.217    0.448   93.359
  436.000    7.839    0.216    0.444   95.225
  436.250    8.000    0.211    0.455   97.091
  436.500    8.010    0.207    0.451   97.743
  436.750    7.873    0.199    0.437   95.978
  437.000    7.589    0.133    0.414   91.155
  437.250    7.050    0.208    0.437   95.460
  437.500    6.429    0.212    0.459  101.587
  437.750    5.973    0.211    0.493  106.477
  438.000    5.655    0.209    0.495  114.425
  438.250    5.451    0.203    0.470  112.031
  438.500    5.257    0.200    0.463  108.444
  438.750    4.794    0.198    0.462  106.657
  439.000    4.371    0.200    0.467  104.892
  439.250    3.910    0.205    0.473  102.508
  439.500    3.246    0.212    0.471   98.900
  439.750    2.276    0.209    0.469  100.159
  440.000    1.963    0.206    0.474  109.939
  440.250    1.928    0.202    0.488  111.198
  440.500    1.860    0.219    0.501  107.589
  440.750    1.898    0.276    0.573  105.206
  441.000    1.935    0.272    0.579  101.608
  441.250    2.050    0.266    0.588   98.011
  441.500    2.476    0.268    0.597   95.032
  441.750    2.989    0.280    0.583   94.469
  442.000    3.542    0.289    0.593   94.503
  442.250    4.277    0.286    0.605   95.762
  442.500    5.165    0.267    0.608   90.343
  442.750    6.009    0.247    0.559   92.817
  443.000    6.861    0.230    0.532   87.398
  443.250    7.404    0.218    0.517   85.621
  443.500    7.696    0.207    0.446   91.737
  443.750    7.015    0.203    0.436   94.221
  444.000    6.398    0.197    0.403   93.041
  444.250    6.168    0.187    0.392   88.847
  444.500    5.949    0.176    0.376   86.453
  444.750    5.958    0.154    0.440   87.712
  445.000    5.964    0.201    0.453   90.792
  445.250    6.084    0.202    0.478   93.883
  445.500    5.869    0.202    0.494   92.118
  445.750    5.451    0.199    0.485   90.331
  446.000    4.698    0.177    0.475   87.340
  446.250    3.619    0.169    0.464   85.564
  446.500    3.300    0.164    0.448   88.048
  446.750    3.124    0.210    0.441   90.522
  447.000    3.070    0.225    0.453   91.781
  447.250    3.017    0.232    0.477   93.040
  447.500    2.964    0.244    0.480   95.513
  447.750    2.968    0.300    0.492   98.593
  448.000    3.084    0.284    0.544  102.887
  448.250    3.456    0.247    0.581  107.800
  448.500    3.661    0.234    0.579  105.416
  448.750    3.877    0.209    0.555  106.057
  449.000    4.109    0.198    0.533  111.565
  449.250    4.189    0.187    0.529  110.396
  449.500    4.521    0.198    0.523  113.488
  449.750    4.880    0.198    0.529  113.521
  450.000    5.264    0.197    0.546  115.387
  450.250    5.788    0.203    0.553  119.693
  450.500    6.366    0.214    0.552  121.570
  450.750    7.134    0.212    0.524  121.604
  451.000    7.699    0.206    0.516  117.399
  451.250    8.151    0.199    0.492  109.541
  451.500    9.305    0.193    0.468   89.553
  451.750   11.030    0.186    0.457   79.885
  452.000   12.132    0.192    0.430   84.179
  452.250   12.603    0.223    0.421   89.092
  452.500   13.604    0.244    0.404   90.339
  452.750   13.621    0.271    0.397   87.967
  453.000   13.634    0.273    0.402   86.202
  453.250   13.153    0.240    0.400   85.618
  453.500   12.219    0.237    0.392   83.841
  453.750   11.347    0.227    0.343   74.780
