~VERSION INFORMATION
 VERS.                 2.0:   CWLS LOG ASCII STANDARD -VERSION 2.0
 WRAP.                  NO:   ONE LINE PER DEPTH STEP
~WELL INFORMATION BLOCK
#MNEM.UNIT           DATA                    DESCRIPTION OF MNEMONIC
#---------    -------------------            -------------------------------
# Generated from Intellog Unique Number	CS_77_79/WELL/887
WELL.         MESA PORTAGE                   : Well_name    - WELL
LOC .         00/06-33-078-18W4/0            : Location     - LOCATION
UWI .         00/06-33-078-18W4/0            : Uwi          - UNIQUE WELL ID
ENTR.         JHS                            : Entered      - ENTERED BY
SRVC.         SCHLUMBERGER                   : Scn          - SERVICE COMPANY
STRT.M        213.360                        : top_depth    - START DEPTH
STOP.M        396.110                        : bot_depth    - STOP DEPTH
STEP.M        0.25                           : increment    - STEP LENGTH
 NULL. -999.2500:NULL Value
~CURVE INFORMATION BLOCK
#MNEM UNIT       ERCB CURVE CODE    CURVE DESCRIPTION
#-----------   ------------------   ----------------------------------
DEPT.M        00 001 00 00         : DEPTH        - DEPTH
RHOB.KG/M3    00 350 00 00         : DENS         - BULK DENSITY
GR  .API      00 310 00 00         : GR           - GAMMA RAY
DPHI.V/V      00 890 00 00         : PHID         - DENSITY POROSITY (SANDSTONE)
NPHI.V/V      00 330 00 00         : PHIN         - NEUTRON POROSITY (SANDSTONE)
ILD .OHMM     00 120 00 00         : RESD         - DEEP RESISTIVITY (DIL)
~PARAMETER INFORMATION
#MNEM.UNIT           DATA             DESCRIPTION OF MNEMONIC
#---------         -----------     ------------------------------
GL  .M        552.816              : gl           - GROUND LEVEL ELEVATION
EREF.M        555.955              : kb           - ELEVATION OF DEPTH REFERENCE
DATM.M        555.955              : datum        - DATUM ELEVATION
TDD .M        422.148              : tdd          - TOTAL DEPTH DRILLER
RUN .         ONE                  : Run          - RUN NUMBER
ENG .         BILL                 : Engineer     - RECORDING ENGINEER
WIT .         JIM                  : Witness      - WITNESSED BY
MUD .         GEL                  : Mud_type     - MUD TYPE
MATR.         SANDSTONE            : Logunit      - NEUTRON MATRIX
TMAX.C        21.1111              : BHT          - MAXIMUM RECORDED TEMPERATURE
BHTD.M        422.148              : BHTDEP       - MAXIMUM RECORDED TEMPERATURE
MATR.         1                    : LOGUNIT      - NEUTRON MATRIX
RMT .C        25                   : MDTP         - TEMPERATURE OF MUD
NEUT.         1                    : NEUTRON      - NEUTRON TYPE
RESI.         0                    : RESIST       - RESISTIVITY TYPE
RMC .OHMM     0.25                 : RMC          - RESISTIVITY OF MUD CAKE
RMF .OHMM     0.25                 : RMF          - RESISTIVITY OF MUD FILTRATE
SUFT.C        15                   : SUFT         - SURFACE TEMPERATURE
~A  DEPTH     DENS       GR     PHID     PHIN     RESD
# ...
  359.360 2206.180   44.401    0.295    0.459   17.525
  359.610 2188.350   41.143    0.305    0.453   25.725
  359.860 2147.480   39.360    0.329    0.434   52.620
  360.110 2159.930   41.082    0.322    0.420   79.278
  360.360 2163.970   46.277    0.319    0.415  111.430
  360.610 2156.900   51.281    0.323    0.415  142.031
  360.860 2189.230   51.577    0.305    0.419  154.296
  361.110 2163.230   53.977    0.320    0.439  102.532
  361.360 2150.690   56.610    0.327    0.454   61.193
  361.610 2179.970   59.430    0.310    0.454   47.555
  361.860 2199.070   58.005    0.299    0.443   36.962
  362.110 2214.150   51.537    0.290    0.438   30.765
  362.360 2202.410   35.662    0.297    0.453   31.130
  362.610 2177.780   28.131    0.311    0.439   36.127
  362.860 2201.850   26.454    0.297    0.407   52.773
  363.110 2188.860   26.778    0.305    0.394   81.491
  363.360 2163.980   27.888    0.319    0.392  119.460
  363.610 2135.920   29.940    0.336    0.394  152.995
  363.860 2168.720   30.506    0.317    0.396  201.425
  364.110 2192.890   34.216    0.302    0.390  253.286
  364.360 2201.880   39.099    0.297    0.377  284.524
  364.610 2190.380   45.478    0.304    0.370  257.264
  364.860 2185.000   55.217    0.307    0.374  117.722
  365.110 2235.040   62.757    0.278    0.380   57.888
  365.360 2295.570   67.707    0.242    0.379   34.739
  365.610 2383.030   68.195    0.191    0.374   30.479
  365.860 2398.080   63.011    0.182    0.380   32.137
  366.110 2277.300   33.560    0.253    0.383   36.619
  366.360 2240.330   31.394    0.275    0.361   49.429
  366.610 2267.830   36.584    0.259    0.362   67.106
  366.860 2303.570   42.529    0.238    0.362   87.875
  367.110 2316.620   50.913    0.230    0.351  104.062
  367.360 2233.670   55.177    0.279    0.361  104.380
  367.610 2233.700   63.394    0.279    0.379   60.613
  367.860 2277.160   71.827    0.253    0.373   34.008
  368.110 2329.840   81.244    0.222    0.365   21.027
  368.360 2424.710   87.696    0.167    0.373   17.583
  368.610 2465.970   93.038    0.143    0.376   15.009
  368.860 2415.470   91.690    0.172    0.371   13.507
  369.110 2472.340   85.467    0.139    0.373   12.941
  369.360 2530.190   81.703    0.105    0.400   12.232
  369.610 2553.530   86.195    0.092    0.431   10.677
  369.860 2402.810   88.322    0.180    0.484    9.842
  370.110 2387.730   86.154    0.188    0.493    9.186
  370.360 2401.030   80.245    0.181    0.461    9.881
  370.610 2548.380   73.999    0.095    0.375   10.903
  370.860 2652.210   78.890    0.034    0.334   12.693
  371.110 2639.840   87.397    0.041    0.341   14.280
  371.360 2433.070   89.672    0.162    0.345   14.514
  371.610 2410.200   81.807    0.175    0.339   14.221
  371.860 2366.210   76.353    0.201    0.357   13.982
  372.110 2372.150   76.488    0.198    0.373   13.555
  372.360 2395.910   79.511    0.184    0.383   13.498
  372.610 2423.800   78.415    0.167    0.397   13.486
  372.860 2451.890   71.736    0.151    0.411   13.877
  373.110 2369.390   63.539    0.199    0.394   14.652
  373.360 2309.260   59.834    0.234    0.381   15.584
  373.610 2304.330   56.735    0.237    0.368   16.107
  373.860 2300.820   49.575    0.239    0.383   18.736
  374.110 2199.310   37.938    0.299    0.447   23.482
  374.360 2104.750   35.165    0.354    0.440   29.474
  374.610 2135.900   34.948    0.336    0.433   43.600
  374.860 2126.320   37.672    0.341    0.432   58.017
  375.110 2136.600   42.495    0.335    0.430   72.187
  375.360 2136.560   45.143    0.335    0.414   82.323
  375.610 2130.750   49.152    0.339    0.402   87.800
  375.860 2185.530   52.306    0.307    0.394   83.010
  376.110 2210.460   58.009    0.292    0.382   77.409
  376.360 2200.810   64.204    0.298    0.369   66.159
  376.610 2198.680   71.936    0.299    0.375   51.900
  376.860 2278.820   77.360    0.252    0.400   33.097
  377.110 2332.530   78.800    0.221    0.381   23.878
  377.360 2358.820   71.348    0.205    0.369   20.673
  377.610 2347.010   60.946    0.212    0.382   19.085
  377.860 2216.930   49.992    0.288    0.417   19.973
  378.110 2169.860   43.553    0.316    0.416   22.043
  378.360 2137.990   44.885    0.335    0.397   25.198
  378.610 2161.810   55.436    0.321    0.396   28.520
  378.860 2137.990   62.662    0.335    0.403   30.706
  379.110 2182.180   68.986    0.309    0.403   30.208
  379.360 2204.860   73.354    0.295    0.400   28.438
  379.610 2206.170   70.804    0.295    0.395   25.884
  379.860 2230.820   65.138    0.280    0.384   24.051
  380.110 2252.940   63.522    0.267    0.376   22.333
  380.360 2254.210   64.403    0.267    0.364   20.050
  380.610 2267.800   57.835    0.259    0.364   17.023
  380.860 2226.480   51.569    0.283    0.368   14.703
  381.110 2233.590   60.775    0.279    0.340   12.302
  381.360 2285.900   66.724    0.248    0.332   11.317
  381.610 2334.140   60.244    0.220    0.358   11.232
  381.860 2302.110   51.410    0.239    0.385   11.231
  382.110 2267.820   54.367    0.259    0.369   11.197
  382.360 2298.490   54.795    0.241    0.355   11.050
  382.610 2283.650   53.773    0.249    0.350   10.742
  382.860 2254.280   57.637    0.267    0.339   10.451
  383.110 2304.390   78.129    0.237    0.333   10.453
  383.360 2375.480   83.922    0.196    0.349   10.694
  383.610 2378.650   83.117    0.194    0.387   10.683
  383.860 2356.100   87.904    0.207    0.369   11.042
  384.110 2376.480   89.016    0.195    0.368   11.060
  384.360 2352.220   86.073    0.209    0.389   11.297
  384.610 2421.450   90.353    0.169    0.375   11.078
  384.860 2448.540   95.529    0.153    0.347   11.105
  385.110 2441.700   95.177    0.157    0.337   11.102
  385.360 2392.610   92.661    0.186    0.345   11.330
  385.610 2383.760   87.318    0.191    0.358   11.635
  385.860 2374.480   76.183    0.196    0.364   12.135
  386.110 2372.720   61.235    0.197    0.374   13.632
  386.360 2414.300   48.004    0.173    0.392   15.768
  386.610 2413.850   29.070    0.171    0.432   22.484
  386.860 2341.630   20.566    0.182    0.450   30.861
  387.110 2336.260   19.972    0.160    0.432   53.421
  387.360 -158.686   19.963    0.100    0.405   71.683
  387.610  -18.518   19.911    0.068    0.307   72.566
  387.860    0.163   21.185    0.012    0.291   51.797
  388.110    0.274   23.944    0.051    0.291   39.531
  388.360    0.024   26.383    0.080    0.329   34.288
  388.610   -0.001   26.854    0.084    0.359   31.430
  388.860   -0.000   21.899    0.086    0.346   32.520
  389.110   -0.000   18.500    0.075    0.297   36.235
  389.360    0.000   17.443    0.033    0.262   44.370
  389.610    0.000   19.276    0.040    0.262   52.232
  389.860    0.000   19.526    0.026    0.273   64.135
  390.110   -0.000   18.643    0.039    0.271   70.814
  390.360   -0.000   17.484    0.005    0.261   71.066
  390.610   -0.000   17.146    0.000    0.247   68.315
  390.860    0.000   17.501   -0.000    0.239   65.411
  391.110    0.000   18.415   -0.001    0.252   64.575
  391.360   -0.000   18.408    0.026    0.305   62.429
  391.610   -0.000   17.500    0.066    0.290   63.979
  391.860   -0.000   16.863    0.041    0.267   70.672
  392.110    0.000   19.504    0.004    0.245   74.578
  392.360    0.000   21.570   -0.000    0.236   82.748
  392.610    0.000   22.072    0.008    0.245   90.039
  392.860   -0.000   21.642    0.036    0.274   99.329
  393.110   -0.000   20.654    0.047    0.318  100.229
  393.360   -0.000   19.683    0.046    0.345  101.463
  393.610    0.000   20.143    0.049    0.356  107.251
  393.860    0.000   19.928    0.090    0.389  105.386
  394.110   -0.000   19.146    0.189    0.426   99.543
  394.360   -0.000   18.067    0.143    0.343   97.663
  394.610   -0.000   18.803    0.111    0.295   97.984
  394.860    0.000   19.138    0.128    0.324   94.616
  395.110    0.000   20.594    0.113    0.352   85.883
  395.360    0.000   19.802    0.073    0.320   74.596
  395.610   -0.000   19.327    0.048    0.288   63.815
