~VERSION INFORMATION
 VERS.                 2.0:   CWLS LOG ASCII STANDARD -VERSION 2.0
 WRAP.                  NO:   ONE LINE PER DEPTH STEP
~WELL INFORMATION BLOCK
#MNEM.UNIT           DATA                    DESCRIPTION OF MNEMONIC
#---------    -------------------            -------------------------------
# Generated from Intellog Unique Number	CW_82_90/WELL/3067
WELL.         PARAMOUNT ET AL LIVOCK         : Well_name    - WELL
LOC .         00/07-29-086-21W4/0            : Location     - LOCATION
UWI .         00/07-29-086-21W4/0            : Uwi          - UNIQUE WELL ID
ENTR.         MAX                            : Entered      - ENTERED BY
SRVC.         COMPUTALOG                     : Scn          - SERVICE COMPANY
STRT.M        188.976                        : top_depth    - START DEPTH
STOP.M        368.726                        : bot_depth    - STOP DEPTH
STEP.M        0.25                           : increment    - STEP LENGTH
 NULL. -999.2500:NULL Value
~CURVE INFORMATION BLOCK
#MNEM UNIT       ERCB CURVE CODE    CURVE DESCRIPTION
#-----------   ------------------   ----------------------------------
DEPT.M        00 001 00 00         : DEPTH        - DEPTH
ILD .OHMM     00 120 00 00         : RESD         - DEEP RESISTIVITY (DIL)
NPHI.V/V      00 330 00 00         : PHIN         - NEUTRON POROSITY (SANDSTONE)
DPHI.V/V      00 890 00 00         : PHID         - DENSITY POROSITY (SANDSTONE)
CALI.MM       00 280 01 00         : CAL          - CALIPER
GR  .API      00 310 00 00         : GR           - GAMMA RAY
~PARAMETER INFORMATION
#MNEM.UNIT           DATA             DESCRIPTION OF MNEMONIC
#---------         -----------     ------------------------------
GL  .M        575.158              : gl           - GROUND LEVEL ELEVATION
EREF.M        578.206              : kb           - ELEVATION OF DEPTH REFERENCE
DATM.M        575.158              : datum        - DATUM ELEVATION
TDD .M        370.637              : tdd          - TOTAL DEPTH DRILLER
RUN .         ONE                  : Run          - RUN NUMBER
ENG .         BILL                 : Engineer     - RECORDING ENGINEER
WIT .         JIM                  : Witness      - WITNESSED BY
MUD .         GEL                  : Mud_type     - MUD TYPE
MATR.         SANDSTONE            : Logunit      - NEUTRON MATRIX
TMAX.C        16.6667              : BHT          - MAXIMUM RECORDED TEMPERATURE
BHTD.M        370.637              : BHTDEP       - MAXIMUM RECORDED TEMPERATURE
MATR.         1                    : LOGUNIT      - NEUTRON MATRIX
RMT .C        11.1111              : MDTP         - TEMPERATURE OF MUD
NEUT.         1                    : NEUTRON      - NEUTRON TYPE
RESI.         0                    : RESIST       - RESISTIVITY TYPE
RMC .OHMM     1.9                  : RMC          - RESISTIVITY OF MUD CAKE
RMF .OHMM     1.6                  : RMF          - RESISTIVITY OF MUD FILTRATE
SUFT.C        -26.1111             : SUFT         - SURFACE TEMPERATURE
~A  DEPTH     RESD     PHIN     PHID      CAL       GR
  188.976    5.593    0.490    0.289  220.602   79.117
  189.226    5.716    0.470    0.305  199.858   72.751
  189.476    6.073    0.438    0.315  166.240   64.640
  189.726    6.821    0.381    0.322  162.827   53.330
  189.976    8.117    0.359    0.336  161.400   46.673
  190.226   10.586    0.345    0.344  160.957   46.414
  190.476   13.916    0.329    0.338  160.514   49.652
  190.726   18.262    0.338    0.332  160.566   49.389
  190.976   18.463    0.346    0.338  160.130   47.095
  191.226   18.156    0.318    0.347  159.192   47.126
  191.476   18.240    0.348    0.349  158.254   51.524
  191.726   18.557    0.343    0.343  158.313   53.301
  191.976   19.345    0.322    0.343  158.365   51.886
  192.226   19.976    0.309    0.346  157.427   52.205
  192.476   21.663    0.309    0.344  156.502   54.272
  192.726   23.037    0.328    0.341  155.557   56.635
  192.976   24.059    0.343    0.344  155.616   52.890
  193.226   25.198    0.353    0.340  155.662   59.316
  193.476   25.987    0.368    0.345  156.209   61.387
  193.726   26.735    0.354    0.346  157.258   65.203
  193.976   27.758    0.361    0.344  158.307   63.781
  194.226   28.583    0.362    0.348  158.359   57.415
  194.476   29.253    0.333    0.363  158.412   56.283
  194.726   29.846    0.315    0.358  158.966   52.538
  194.976   30.008    0.322    0.332  159.507   50.530
  195.226   30.092    0.341    0.326  160.060   47.654
  195.476   30.136    0.324    0.330  160.113   47.112
  195.726   30.141    0.311    0.336  159.676   46.566
  195.976   30.108    0.300    0.343  159.729   46.594
  196.226   30.075    0.292    0.348  160.289   46.913
  196.476   30.079    0.302    0.351  159.840   47.821
  196.726   30.084    0.336    0.353  158.895   50.470
  196.976   30.051    0.354    0.349  158.452   63.592
  197.226   30.018    0.351    0.349  158.517   61.297
  197.476   29.983    0.357    0.352  159.065   57.548
  197.726   29.949    0.356    0.352  159.110   59.911
  197.976   29.917    0.363    0.344  158.674   58.488
  198.226   29.921    0.381    0.335  158.739   68.121
  198.476   29.888    0.380    0.343  158.290   70.774
  198.726   29.854    0.385    0.354  158.349   75.753
  198.976   29.820    0.391    0.361  158.394   76.371
  199.226   29.826    0.393    0.358  159.939   74.359
  199.476   29.831    0.373    0.354  160.988   70.319
  199.726   29.797    0.384    0.348  162.024   64.535
  199.976   29.763    0.398    0.348  163.073   69.805
  200.226   29.729    0.408    0.349  164.115   73.335
  200.476   29.696    0.410    0.348  165.659   76.270
  200.726   29.663    0.393    0.347  170.174   79.210
  200.976   29.669    0.391    0.350  170.715   82.154
  201.226   29.672    0.409    0.347  173.250   88.002
  201.476   29.678    0.418    0.345  180.729   83.966
  201.726   29.723    0.434    0.347  187.218   69.744
  201.976   29.768    0.432    0.355  179.348   57.275
  202.226   29.734    0.428    0.356  177.935   54.690
  202.476   29.699    0.425    0.351  177.987   54.717
  202.726   29.666    0.423    0.343  177.531   56.789
  202.976   29.750    0.420    0.337  176.606   55.948
  203.226   29.795    0.418    0.339  176.156   56.565
  203.476   29.761    0.414    0.349  175.714   54.267
  203.726   29.689    0.406    0.358  163.882   54.012
  203.976   29.693    0.400    0.355  160.964   57.242
  204.226   29.777    0.402    0.354  166.971   54.661
  204.476   29.781    0.416    0.359  168.515   51.207
  204.726   29.788    0.408    0.347  175.493   50.948
  204.976   29.794    0.400    0.354  173.069   51.848
  205.226   29.798    0.411    0.364  166.189   53.628
  205.476   29.803    0.412    0.358  160.306   55.995
  205.726   29.731    0.397    0.354  155.909   58.926
  205.976   29.697    0.383    0.344  154.964   59.835
  206.226   29.624    0.362    0.320  155.017   56.962
  206.476   29.630    0.365    0.292  155.069   56.711
  206.726   29.361    0.373    0.323  154.632   57.607
  206.976   28.936    0.397    0.349  154.685   61.420
  207.226   28.511    0.391    0.348  154.255   69.307
  207.476   27.031    0.376    0.350  154.301   73.992
  207.726   25.432    0.359    0.344  154.353   69.080
  207.976   22.465    0.359    0.335  153.910   61.264
  208.226   20.594    0.363    0.336  152.991   65.367
  208.476   20.756    0.365    0.339  153.044   68.016
  208.726   22.051    0.369    0.342  152.594   66.016
  208.976   29.644    0.363    0.345  151.656   66.338
  209.226   30.041    0.363    0.349  151.213   62.299
  209.476   29.929    0.368    0.350  151.767   60.295
  209.726   29.700    0.365    0.343  151.813   62.653
  209.976   28.961    0.351    0.337  152.367   67.342
  210.226   28.224    0.362    0.338  153.409   72.027
  210.476   25.335    0.375    0.331  153.963   79.333
  210.726   22.955    0.383    0.321  154.517   83.731
  210.976   21.122    0.388    0.322  154.569   86.961
  211.226   21.128    0.385    0.325  154.126   89.319
  211.476   23.518    0.388    0.334  154.680   91.104
  211.726   27.826    0.398    0.344  155.221   93.168
  211.976   29.434    0.411    0.352  156.772   92.327
  212.226   29.911    0.395    0.356  157.319   83.052
  212.476   29.994    0.378    0.358  156.876   88.323
  212.726   29.921    0.391    0.356  155.938   86.319
  212.976   29.769    0.401    0.349  155.495   78.208
  213.226   29.423    0.418    0.346  160.506   73.877
  213.476   28.919    0.426    0.340  166.018   71.882
  213.726   27.478    0.427    0.323  164.571   69.583
  213.976   26.740    0.415    0.309  163.145   70.196
  214.226   20.879    0.457    0.307  165.184   77.207
  214.476   17.600    0.466    0.317  165.731   84.223
  214.726   15.063    0.453    0.331  164.793   92.401
  214.976   12.761    0.434    0.334  161.868  102.324
  215.226   10.811    0.418    0.334  159.953  115.733
  215.476    8.666    0.406    0.320  157.529  130.314
  215.726    7.146    0.385    0.310  154.611  102.420
  215.976    6.291    0.364    0.287  154.161   76.282
  216.226    5.280    0.331    0.234  157.204   70.203
  216.476    4.465    0.295    0.134  159.230   56.853
  216.726    4.000    0.296    0.107  160.768   60.088
  216.976    3.497    0.330    0.146  161.811   82.807
  217.226    3.386    0.418    0.176  162.358  124.724
  217.476    3.353    0.479    0.216  163.413  123.887
  217.726    3.358    0.505    0.235  164.945  120.138
  217.976    3.362    0.509    0.236  164.997  115.812
  218.226    3.446    0.512    0.238  163.583  115.262
  218.476    3.529    0.510    0.231  163.622  124.600
  218.726    3.574    0.490    0.237  162.691  128.997
  218.976    3.580    0.496    0.237  163.245  131.646
  219.226    3.585    0.482    0.243  165.766  119.169
  219.476    3.708    0.504    0.253  168.796  111.935
  219.726    3.830    0.502    0.257  168.848  116.619
  219.976    3.993    0.480    0.237  167.923  118.982
  220.226    4.154    0.463    0.226  168.959  126.865
  220.476    4.278    0.468    0.217  168.516  121.081
  220.726    4.321    0.476    0.224  165.598  115.300
  220.976    4.326    0.471    0.209  163.174  111.548
  221.226    4.255    0.475    0.223  160.262  115.073
  221.476    4.181    0.486    0.232  159.826  118.308
  221.726    4.068    0.505    0.266  162.842  120.084
  221.976    3.917    0.517    0.308  165.370  113.136
  222.226    3.805    0.510    0.290  164.947  106.766
  222.476    3.694    0.484    0.299  164.999   98.369
  222.726    3.582    0.485    0.326  165.038   99.564
  222.976    3.509    0.505    0.341  164.602   92.624
  223.226    3.435    0.497    0.341  164.661   94.102
  223.476    3.403    0.478    0.331  165.208  102.280
  223.726    3.564    0.484    0.323  165.260  103.184
  223.976    3.883    0.467    0.320  161.847  100.599
  224.226    4.162    0.447    0.319  158.433   98.013
  224.476    4.481    0.431    0.323  157.006   91.356
  224.726    4.798    0.424    0.328  157.058   95.172
  224.976    5.116    0.434    0.313  157.117   90.260
  225.226    5.552    0.444    0.330  155.684   87.970
