~VERSION INFORMATION
 VERS.                 2.0:   CWLS LOG ASCII STANDARD -VERSION 2.0
 WRAP.                  NO:   ONE LINE PER DEPTH STEP
~WELL INFORMATION BLOCK
#MNEM.UNIT           DATA                    DESCRIPTION OF MNEMONIC
#---------    -------------------            -------------------------------
# Generated from Intellog Unique Number	CS_71_72/WELL/834
WELL.         KISSINGER ET AL TWEEDIE        : Well_name    - WELL
LOC .         00/08-01-072-12W4/0            : Location     - LOCATION
UWI .         00/08-01-072-12W4/0            : Uwi          - UNIQUE WELL ID
ENTR.         SP                             : Entered      - ENTERED BY
SRVC.         SCHLUMBERGER                   : Scn          - SERVICE COMPANY
STRT.M        290                            : top_depth    - START DEPTH
STOP.M        510                            : bot_depth    - STOP DEPTH
STEP.M        0.25                           : increment    - STEP LENGTH
 NULL. -999.2500:NULL Value
~CURVE INFORMATION BLOCK
#MNEM UNIT       ERCB CURVE CODE    CURVE DESCRIPTION
#-----------   ------------------   ----------------------------------
DEPT.M        00 001 00 00         : DEPTH        - DEPTH
GR  .API      00 310 00 00         : GR           - GAMMA RAY
NPHI.V/V      00 330 00 00         : PHIN         - NEUTRON POROSITY (LIMESTONE)
DPHI.V/V      00 890 00 00         : PHID         - DENSITY POROSITY (LIMESTONE)
ILD .OHMM     00 120 00 00         : RESD         - DEEP RESISTIVITY (DIL)
~PARAMETER INFORMATION
#MNEM.UNIT           DATA             DESCRIPTION OF MNEMONIC
#---------         -----------     ------------------------------
GL  .M        626.5                : gl           - GROUND LEVEL ELEVATION
EREF.M        630                  : kb           - ELEVATION OF DEPTH REFERENCE
DATM.M        626.5                : datum        - DATUM ELEVATION
TDD .M        522.6                : tdd          - TOTAL DEPTH DRILLER
RUN .         ONE                  : Run          - RUN NUMBER
ENG .         BILL                 : Engineer     - RECORDING ENGINEER
WIT .         JIM                  : Witness      - WITNESSED BY
MUD .         GEL                  : Mud_type     - MUD TYPE
MATR.         LIMESTONE            : Logunit      - NEUTRON MATRIX
TMAX.C        20                   : BHT          - MAXIMUM RECORDED TEMPERATURE
BHTD.M        522.6                : BHTDEP       - MAXIMUM RECORDED TEMPERATURE
MATR.         1                    : LOGUNIT      - NEUTRON MATRIX
RMT .C        25                   : MDTP         - TEMPERATURE OF MUD
NEUT.         1                    : NEUTRON      - NEUTRON TYPE
RESI.         0                    : RESIST       - RESISTIVITY TYPE
RMC .OHMM     0.25                 : RMC          - RESISTIVITY OF MUD CAKE
RMF .OHMM     0.25                 : RMF          - RESISTIVITY OF MUD FILTRATE
SUFT.C        15                   : SUFT         - SURFACE TEMPERATURE
~A  DEPTH       GR     PHIN     PHID     RESD
  290.000  110.817    0.471    0.203    2.787
  290.250  111.430    0.499    0.191    2.870
  290.500  112.655    0.515    0.212    2.870
  290.750  110.207    0.433    0.228    2.953
  291.000  105.921    0.432    0.205    3.035
  291.250   99.188    0.444    0.228    3.118
  291.500   96.739    0.408    0.225    3.283
  291.750   99.189    0.398    0.230    3.365
  292.000  102.863    0.457    0.222    3.530
  292.250  106.537    0.476    0.214    3.776
  292.500  104.701    0.450    0.176    4.105
  292.750  101.641    0.386    0.154    4.352
  293.000  101.029    0.409    0.206    4.352
  293.250  101.642    0.455    0.219    4.189
  293.500  105.928    0.411    0.193    3.944
  293.750  110.827    0.382    0.198    3.780
  294.000  114.501    0.497    0.228    3.535
  294.250  115.114    0.414    0.230    3.372
  294.500  115.727    0.430    0.217    3.209
  294.750  118.177    0.435    0.217    3.127
  295.000  116.341    0.429    0.224    3.128
  295.250  112.056    0.440    0.211    3.211
  295.500  108.383    0.457    0.200    3.211
  295.750  105.322    0.460    0.218    3.376
  296.000  103.486    0.433    0.211    3.377
  296.250   99.814    0.420    0.203    3.541
  296.500  101.039    0.402    0.198    3.542
  296.750  103.489    0.424    0.191    3.624
  297.000  104.714    0.427    0.197    3.625
  297.250  104.102    0.439    0.203    3.707
  297.500  104.103    0.456    0.148    3.626
  297.750  103.491    0.473    0.134    3.627
  298.000  101.043    0.482    0.179    3.546
  298.250  100.431    0.456    0.201    3.464
  298.500  102.881    0.422    0.208    3.383
  298.750  109.004    0.443    0.208    3.548
  299.000  113.291    0.467    0.209    4.122
  299.250  112.067    0.400    0.261    5.024
  299.500   93.088    0.347    0.367    6.172
  299.750   75.333    0.268    0.404    8.960
  300.000   56.354    0.268    0.421   11.010
  300.250   38.600    0.297    0.408   10.683
  300.500   42.886    0.313    0.360   10.191
  300.750   49.622    0.322    0.324    9.536
  301.000   52.072    0.328    0.299    8.799
  301.250   53.909    0.320    0.282    8.226
  301.500   38.604    0.310    0.267    8.473
  301.750   25.747    0.306    0.261    8.474
  302.000   21.462    0.301    0.261    8.474
  302.250   29.422    0.305    0.269    8.393
  302.500   37.994    0.316    0.279    8.230
  302.750   48.403    0.332    0.285    8.148
  303.000   54.526    0.337    0.292    8.067
  303.250   60.037    0.325    0.260    7.822
  303.500   72.283    0.345    0.216    7.740
  303.750   79.018    0.365    0.205    7.823
  304.000   86.978    0.358    0.206    8.069
  304.250   89.428    0.363    0.213    8.398
  304.500   90.041    0.343    0.160    8.563
  304.750   89.429    0.340    0.171    8.728
  305.000   89.430    0.360    0.195    8.728
  305.250   99.226    0.356    0.198    8.646
  305.500  102.900    0.343    0.216    8.483
  305.750  104.126    0.366    0.202    8.238
  306.000  102.902    0.401    0.196    7.911
  306.250  101.066    0.407    0.212    7.747
  306.500  101.679    0.388    0.218    7.502
  306.750  102.904    0.391    0.212    7.175
  307.000  109.640    0.398    0.206    6.930
  307.250  115.763    0.388    0.213    6.684
  307.500  119.437    0.398    0.226    6.603
  307.750  114.539    0.434    0.264    6.850
  308.000   99.846    0.477    0.306    7.014
  308.250   90.051    0.382    0.292    7.097
  308.500   80.256    0.349    0.258    7.098
  308.750   66.175    0.386    0.237    7.098
  309.000   77.808    0.360    0.222    6.689
  309.250   85.156    0.342    0.212    6.444
  309.500   90.055    0.360    0.201    6.526
  309.750   91.280    0.359    0.187    6.691
  310.000   91.893    0.354    0.232    7.101
  310.250   91.893    0.379    0.242    7.594
  310.500   82.710    0.379    0.263    7.841
  310.750   74.752    0.374    0.295    8.169
  311.000   71.691    0.376    0.312    8.415
  311.250   70.468    0.385    0.318    8.580
  311.500   66.795    0.371    0.318    8.663
  311.750   64.347    0.360    0.306    8.663
  312.000   66.796    0.353    0.316    8.582
  312.250   66.797    0.361    0.318    8.583
  312.500   65.573    0.372    0.304    8.665
  312.750   68.635    0.367    0.298    8.420
  313.000   75.983    0.396    0.300    8.093
  313.250   85.167    0.431    0.316    7.684
  313.500   88.841    0.450    0.324    7.520
  313.750   89.454    0.409    0.243    7.849
  314.000   88.842    0.376    0.233    8.177
  314.250   90.068    0.369    0.217    8.670
  314.500   91.293    0.376    0.203    8.917
  314.750   90.681    0.387    0.227    9.081
  315.000   83.947    0.382    0.249    9.164
  315.250   82.724    0.379    0.247    9.164
  315.500   85.173    0.382    0.229    9.165
  315.750   82.113    0.414    0.271    9.166
  316.000   79.052    0.422    0.274    9.330
  316.250   80.277    0.395    0.264    9.577
  316.500   82.115    0.397    0.250    9.905
  316.750   80.279    0.395    0.202   10.562
  317.000   73.545    0.256    0.181   11.464
  317.250   69.260    0.227    0.078   12.858
  317.500   66.199    0.313    0.019   13.760
  317.750   66.200    0.333    0.075   13.679
  318.000   73.547    0.315    0.251   13.434
  318.250   75.997    0.302    0.276   13.025
  318.500   76.610    0.353    0.287   11.960
  318.750   73.549    0.391    0.249   10.403
  319.000   74.775    0.412    0.232    9.994
  319.250   72.939    0.441    0.248    9.749
  319.500   81.511    0.465    0.252    9.503
  319.750   89.471    0.457    0.240    8.602
  320.000   93.145    0.461    0.208    7.947
  320.250  102.942    0.468    0.197    6.882
  320.500  105.391    0.456    0.101    6.391
  320.750  107.229    0.431    0.049    5.818
  321.000  104.168    0.412    0.080    5.573
  321.250  113.353    0.419    0.142    5.082
  321.500  122.537    0.409    0.189    4.836
  321.750  126.823    0.406    0.134    4.755
  322.000  120.701    0.412    0.155    5.002
  322.250  115.804    0.429    0.195    5.412
  322.500  116.417    0.408    0.212    5.986
  322.750  120.704    0.390    0.237    6.971
  323.000  119.480    0.385    0.205    7.545
  323.250  119.480    0.372    0.183    8.202
  323.500  119.481    0.365    0.189    8.694
  323.750  112.747    0.364    0.243    9.104
  324.000  106.626    0.378    0.254    9.433
  324.250  103.565    0.392    0.268    9.680
  324.500   98.055    0.387    0.272    9.680
  324.750   93.158    0.402    0.280    9.599
  325.000   87.036    0.418    0.275    9.354
  325.250   84.588    0.431    0.261    9.108
  325.500   94.997    0.426    0.253    8.781
  325.750  103.569    0.412    0.263    8.454
  326.000  110.304    0.387    0.236    8.291
  326.250  105.407    0.366    0.216    8.209
  326.500   95.000    0.345    0.256    8.292
  326.750   86.429    0.351    0.280    8.702
  327.000   81.531    0.365    0.276    9.113
  327.250   87.043    0.366    0.264    9.524
  327.500   87.656    0.372    0.249    9.770
  327.750   91.330    0.378    0.232    9.935
  328.000   99.290    0.372    0.222    9.935
  328.250  103.576    0.381    0.213    9.854
  328.500  104.801    0.386    0.208    9.773
  328.750  103.577    0.383    0.201    9.609
  329.000  102.966    0.369    0.189    9.364
  329.250  104.803    0.369    0.180    9.119
  329.500  107.253    0.378    0.196    8.955
  329.750  110.927    0.371    0.207    8.874
  330.000  113.377    0.366    0.204    8.875
  330.250  113.990    0.361    0.199    8.876
  330.500  110.317    0.380    0.197    8.958
  330.750  104.195    0.424    0.205    8.877
  331.000  101.135    0.435    0.223    7.894
  331.250  104.197    0.442    0.237    6.665
  331.500  104.809    0.436    0.229    5.682
  331.750   99.912    0.437    0.210    5.273
  332.000   94.403    0.419    0.189    5.027
  332.250   90.118    0.412    0.196    5.766
  332.500   87.669    0.423    0.190    6.996
  332.750   85.833    0.410    0.180    7.570
  333.000   93.181    0.393    0.204    8.063
  333.250   96.855    0.381    0.237    7.818
