~VERSION INFORMATION
 VERS.                 2.0:   CWLS LOG ASCII STANDARD -VERSION 2.0
 WRAP.                  NO:   ONE LINE PER DEPTH STEP
~WELL INFORMATION BLOCK
#MNEM.UNIT           DATA                    DESCRIPTION OF MNEMONIC
#---------    -------------------            -------------------------------
# Generated from Intellog Unique Number	CS_69_70/WELL/134
WELL.         AFC MEDLEY 6-7-69 2 W4M        : Well_name    - WELL
LOC .         00/06-07-069-02W4/0            : Location     - LOCATION
UWI .         00/06-07-069-02W4/0            : Uwi          - UNIQUE WELL ID
ENTR.         ANDERSEN                       : Entered      - ENTERED BY
SRVC.         SCHLUMBERGER                   : Scn          - SERVICE COMPANY
STRT.M        375                            : top_depth    - START DEPTH
STOP.M        625                            : bot_depth    - STOP DEPTH
STEP.M        0.25                           : increment    - STEP LENGTH
 NULL. -999.2500:NULL Value
~CURVE INFORMATION BLOCK
#MNEM UNIT       ERCB CURVE CODE    CURVE DESCRIPTION
#-----------   ------------------   ----------------------------------
DEPT.M        00 001 00 00         : DEPTH        - DEPTH
ILD .OHMM     00 120 00 00         : RESD         - DEEP RESISTIVITY (DIL)
DPHI.V/V      00 890 00 00         : PHID         - DENSITY POROSITY (SANDSTONE)
NPHI.V/V      00 330 00 00         : PHIN         - NEUTRON POROSITY (SANDSTONE)
CALI.MM       00 280 01 00         : CAL          - CALIPER
GR  .API      00 310 00 00         : GR           - GAMMA RAY
~PARAMETER INFORMATION
#MNEM.UNIT           DATA             DESCRIPTION OF MNEMONIC
#---------         -----------     ------------------------------
GL  .M        717.8                : gl           - GROUND LEVEL ELEVATION
EREF.M        721.4                : kb           - ELEVATION OF DEPTH REFERENCE
DATM.M        721.4                : datum        - DATUM ELEVATION
TDD .M        626                  : tdd          - TOTAL DEPTH DRILLER
RUN .         ONE                  : Run          - RUN NUMBER
ENG .         BILL                 : Engineer     - RECORDING ENGINEER
WIT .         JIM                  : Witness      - WITNESSED BY
MUD .         GEL                  : Mud_type     - MUD TYPE
MATR.         SANDSTONE            : Logunit      - NEUTRON MATRIX
TMAX.C        27                   : BHT          - MAXIMUM RECORDED TEMPERATURE
BHTD.M        626                  : BHTDEP       - MAXIMUM RECORDED TEMPERATURE
MATR.         1                    : LOGUNIT      - NEUTRON MATRIX
RMT .C        19                   : MDTP         - TEMPERATURE OF MUD
NEUT.         1                    : NEUTRON      - NEUTRON TYPE
RESI.         0                    : RESIST       - RESISTIVITY TYPE
RMC .OHMM     3.3                  : RMC          - RESISTIVITY OF MUD CAKE
RMF .OHMM     6.9                  : RMF          - RESISTIVITY OF MUD FILTRATE
SUFT.C        15                   : SUFT         - SURFACE TEMPERATURE
~A  DEPTH     RESD     PHID     PHIN      CAL       GR
# ...
  484.500   11.900    0.356    0.435  143.789   46.974
  484.750   14.829    0.363    0.457  143.769   45.810
  485.000   16.561    0.350    0.434  144.708   46.950
  485.250   14.857    0.340    0.431  146.608   50.393
  485.500   12.387    0.343    0.450  147.538   52.684
  485.750   10.328    0.333    0.467  148.473   54.970
  486.000    9.096    0.315    0.480  148.458   54.385
  486.250    8.160    0.319    0.485  148.438   50.918
  486.500    7.731    0.324    0.471  148.423   46.869
  486.750    7.596    0.324    0.451  147.443   46.288
  487.000    7.602    0.328    0.445  147.418   45.700
  487.250    7.749    0.343    0.442  146.439   47.988
  487.500    7.898    0.349    0.440  145.454   49.704
  487.750    7.905    0.351    0.451  146.394   50.843
  488.000    7.915    0.348    0.466  147.339   50.828
  488.250    7.923    0.348    0.472  147.319   51.968
  488.500    7.927    0.347    0.469  145.379   55.414
  488.750    7.933    0.357    0.463  143.430   54.250
  489.000    7.796    0.366    0.458  142.450   55.390
  489.250    7.663    0.372    0.454  142.426   62.288
  489.500    7.531    0.363    0.448  142.416   68.034
  489.750    7.400    0.348    0.469  143.355   75.505
  490.000    7.405    0.340    0.484  143.331   78.372
  490.250    7.413    0.328    0.495  143.311   75.481
  490.500    7.286    0.300    0.481  143.291   76.621
  490.750    7.292    0.298    0.457  143.271   77.185
  491.000    7.165    0.297    0.450  143.251   70.263
  491.250    6.915    0.316    0.457  143.231   62.762
  491.500    6.550    0.333    0.469  143.211   65.629
  491.750    6.321    0.338    0.470  143.191   70.224
  492.000    6.211    0.337    0.463  144.131   74.819
  492.250    5.995    0.322    0.454  146.020   78.261
  492.500    5.891    0.320    0.461  149.834   79.401
  492.750    6.116    0.317    0.493  149.824   77.662
  493.000    6.121    0.313    0.507  150.754   76.495
  493.250    5.800    0.316    0.505  150.739   76.483
  493.500    5.395    0.316    0.514  150.724   77.623
  493.750    4.666    0.312    0.510  150.704   79.914
  494.000    4.034    0.308    0.496  147.795   81.054
  494.250    3.554    0.310    0.480  145.861   83.345
  494.500    3.187    0.315    0.479  145.836   89.667
  494.750    2.658    0.316    0.500  145.816   91.380
  495.000    2.709    0.310    0.525  145.791   90.216
  495.250    2.863    0.297    0.548  145.781   90.204
  495.500    2.974    0.290    0.551  144.802   91.917
  495.750    2.976    0.290    0.525  142.852   89.605
  496.000    2.820    0.292    0.525  142.838   90.165
  496.250    2.672    0.300    0.554  142.818   86.702
  496.500    2.485    0.309    0.540  142.798   80.356
  496.750    2.354    0.327    0.501  142.773   64.218
  497.000    2.190    0.353    0.478  142.753   57.296
  497.250    2.233    0.377    0.398  142.733   59.584
  497.500    2.235    0.381    0.333  142.708   60.151
  497.750    2.237    0.356    0.367  143.648   58.412
  498.000    2.322    0.340    0.502  145.547   57.821
  498.250    2.593    0.345    0.497  146.487   58.961
  498.500    3.115    0.355    0.474  147.427   62.404
  498.750    4.027    0.346    0.481  149.321   65.271
  499.000    5.111    0.326    0.488  149.311   65.259
  499.250    5.813    0.327    0.493  151.196   65.247
  499.500    6.374    0.331    0.495  151.186   65.808
  499.750    6.739    0.334    0.490  152.111   66.948
  500.000    6.869    0.337    0.480  152.101   70.388
  500.250    6.875    0.337    0.477  152.081   72.682
  500.500    6.759    0.332    0.484  149.182   72.670
  500.750    6.404    0.326    0.489  148.202   72.082
  501.000    6.179    0.321    0.487  148.177   70.918
  501.250    5.961    0.313    0.477  148.163   70.906
  501.500    5.648    0.310    0.474  147.178   68.013
  501.750    5.351    0.313    0.475  147.153   66.273
  502.000    5.070    0.312    0.478  146.178   65.109
  502.250    4.718    0.311    0.495  146.158   67.401
  502.500    4.470    0.307    0.500  145.174   68.540
  502.750    4.313    0.300    0.482  145.154   67.374
  503.000    4.239    0.299    0.489  145.134   65.062
  503.250    4.320    0.303    0.480  144.159   63.322
  503.500    4.486    0.307    0.451  144.135   63.307
  503.750    4.572    0.313    0.459  143.155   64.447
  504.000    4.661    0.313    0.475  143.130   63.283
  504.250    4.750    0.315    0.474  142.150   61.544
  504.500    4.841    0.316    0.466  141.171   62.105
  504.750    4.934    0.316    0.461  141.156   64.399
  505.000    5.032    0.311    0.471  141.136   64.387
  505.250    5.128    0.308    0.474  142.066   60.917
  505.500    5.133    0.310    0.472  142.051   59.178
  505.750    5.136    0.308    0.454  142.036   58.590
  506.000    5.236    0.307    0.453  142.971   62.030
  506.250    5.240    0.303    0.461  142.941   62.597
  506.500    5.245    0.307    0.470  142.926   61.431
  506.750    5.252    0.315    0.473  142.906   61.419
  507.000    5.254    0.315    0.471  142.891   63.134
  507.250    5.258    0.320    0.471  142.866   65.425
  507.500    5.361    0.322    0.473  143.801   68.865
  507.750    5.465    0.323    0.488  143.786   68.853
  508.000    5.468    0.320    0.495  143.766   68.841
  508.250    5.472    0.313    0.497  143.746   68.826
  508.500    5.477    0.306    0.497  143.726   69.966
  508.750    5.483    0.299    0.491  144.666   72.260
  509.000    5.487    0.295    0.471  144.646   75.704
  509.250    5.492    0.294    0.469  145.576   75.116
  509.500    5.497    0.301    0.487  145.556   71.073
  509.750    5.305    0.308    0.499  145.531   71.637
  510.000    5.214    0.312    0.497  145.516   69.322
  510.250    5.122    0.300    0.490  145.501   62.397
  510.500    4.853    0.307    0.487  144.517   58.927
  510.750    4.434    0.318    0.492  143.537   58.342
  511.000    4.201    0.330    0.496  142.562   60.634
  511.250    3.838    0.333    0.496  141.578   58.894
  511.500    3.704    0.337    0.493  141.553   55.424
  511.750    3.916    0.338    0.485  141.533   52.533
  512.000    4.215    0.338    0.463  141.508   53.094
  512.250    4.707    0.338    0.459  141.498   53.658
  512.500    5.258    0.338    0.456  141.478   54.222
  512.750    5.559    0.338    0.452  141.458   54.783
  513.000    5.770    0.338    0.449  141.433   55.350
  513.250    5.775    0.336    0.449  142.368   55.913
  513.500    5.675    0.333    0.453  142.353   57.053
  513.750    5.577    0.329    0.456  142.333   58.769
  514.000    5.382    0.322    0.462  142.308   63.360
  514.250    5.099    0.315    0.473  142.288   69.107
  514.500    4.920    0.311    0.492  142.264   70.246
  514.750    4.662    0.308    0.511  142.239   76.571
  515.000    4.417    0.298    0.514  143.188   83.469
  515.250    4.110    0.285    0.499  143.164   82.306
  515.500    3.687    0.290    0.484  143.149   81.718
  515.750    3.018    0.297    0.474  143.129   82.279
  516.000    2.296    0.307    0.471  144.063   81.691
  516.250    1.915    0.324    0.479  145.003   79.951
  516.500    1.687    0.336    0.498  144.978   78.788
  516.750    1.569    0.340    0.521  144.958   79.349
  517.000    1.487    0.341    0.545  144.944   79.337
  517.250    1.435    0.341    0.556  144.924   79.328
  517.500    1.410    0.341    0.562  144.899   77.585
  517.750    1.411    0.342    0.569  144.874   76.995
  518.000    1.438    0.347    0.573  144.849   76.983
  518.250    1.466    0.348    0.567  143.874   76.971
  518.500    1.494    0.348    0.561  143.859   76.959
  518.750    1.551    0.348    0.548  143.839   75.795
  519.000    1.610    0.348    0.536  143.820   72.901
  519.250    1.766    0.346    0.547  144.754   72.889
  519.500    1.800    0.344    0.555  144.739   75.181
  519.750    1.868    0.340    0.542  145.669   77.469
  520.000    1.904    0.333    0.549  145.649   77.460
  520.250    1.977    0.328    0.567  146.594   79.751
  520.500    2.129    0.321    0.551  146.574   82.046
  520.750    2.377    0.318    0.521  146.554   83.761
