~VERSION INFORMATION
 VERS.                 2.0:   CWLS LOG ASCII STANDARD -VERSION 2.0
 WRAP.                  NO:   ONE LINE PER DEPTH STEP
~WELL INFORMATION BLOCK
#MNEM.UNIT           DATA                    DESCRIPTION OF MNEMONIC
#---------    -------------------            -------------------------------
# Generated from Intellog Unique Number	CX_WELLS/WELL/3115
WELL.         CDNOXY NEWBY                   : Well_name    - WELL
LOC .         00/07-06-083-03W4/0            : Location     - LOCATION
UWI .         00/07-06-083-03W400            : Uwi          - UNIQUE WELL ID
ENTR.         TIM                            : Entered      - ENTERED BY
SRVC.         SCHLUMBERGER                   : Scn          - SERVICE COMPANY
STRT.M        100                            : top_depth    - START DEPTH
STOP.M        300                            : bot_depth    - STOP DEPTH
STEP.M        0.25                           : increment    - STEP LENGTH
 NULL. -999.2500:NULL Value
~CURVE INFORMATION BLOCK
#MNEM UNIT       ERCB CURVE CODE    CURVE DESCRIPTION
#-----------   ------------------   ----------------------------------
DEPT.M        00 001 00 00         : DEPTH        - DEPTH
GR  .API      00 310 00 00         : GR           - GAMMA RAY
NPHI.V/V      00 330 00 00         : PHIN         - NEUTRON POROSITY (SANDSTONE)
DPHI.V/V      00 890 00 00         : PHID         - DENSITY POROSITY (SANDSTONE)
ILD .OHMM     00 120 00 00         : RESD         - DEEP RESISTIVITY (OTHER)
~PARAMETER INFORMATION
#MNEM.UNIT           DATA             DESCRIPTION OF MNEMONIC
#---------         -----------     ------------------------------
GL  .M        502.3                : gl           - GROUND LEVEL ELEVATION
EREF.M        507.1                : kb           - ELEVATION OF DEPTH REFERENCE
DATM.M        507.1                : datum        - DATUM ELEVATION
TDD .M        311                  : tdd          - TOTAL DEPTH DRILLER
RUN .         ONE                  : Run          - RUN NUMBER
ENG .         BILL                 : Engineer     - RECORDING ENGINEER
WIT .         JIM                  : Witness      - WITNESSED BY
MUD .         GEL                  : Mud_type     - MUD TYPE
MATR.         SANDSTONE            : Logunit      - NEUTRON MATRIX
TMAX.C        17                   : BHT          - MAXIMUM RECORDED TEMPERATURE
BHTD.M        311                  : BHTDEP       - MAXIMUM RECORDED TEMPERATURE
MATR.         1                    : LOGUNIT      - NEUTRON MATRIX
RMT .C        17                   : MDTP         - TEMPERATURE OF MUD
NEUT.         1                    : NEUTRON      - NEUTRON TYPE
RESI.         4                    : RESIST       - RESISTIVITY TYPE
RMC .OHMM     7.7                  : RMC          - RESISTIVITY OF MUD CAKE
RMF .OHMM     8.4                  : RMF          - RESISTIVITY OF MUD FILTRATE
SUFT.C        4                    : SUFT         - SURFACE TEMPERATURE
~A  DEPTH       GR     PHIN     PHID     RESD
# ...
  230.500   80.853    0.337    0.247    4.133
  230.750   87.070    0.339    0.244    3.834
  231.000   89.548    0.340    0.247    3.692
  231.250   72.695    0.346    0.272    3.762
  231.500   60.213    0.351    0.280    4.055
  231.750   56.465    0.352    0.273    4.290
  232.000   50.840    0.352    0.262    4.454
  232.250   46.461    0.353    0.261    4.371
  232.500   42.082    0.352    0.285    4.210
  232.750   38.322    0.347    0.292    3.979
  233.000   36.437    0.346    0.302    3.691
  233.250   35.802    0.346    0.305    3.622
  233.500   35.163    0.350    0.305    3.554
  233.750   37.009    0.353    0.306    3.488
  234.000   38.240    0.357    0.308    3.423
  234.250   37.601    0.363    0.308    3.359
  234.500   37.589    0.370    0.308    3.296
  234.750   36.946    0.368    0.310    3.235
  235.000   36.303    0.357    0.311    3.235
  235.250   36.291    0.349    0.312    3.174
  235.500   36.272    0.349    0.313    3.115
  235.750   36.264    0.349    0.313    3.000
  236.000   37.495    0.349    0.312    2.944
  236.250   37.479    0.349    0.307    2.836
  236.500   36.840    0.349    0.299    2.835
  236.750   35.578    0.349    0.290    2.835
  237.000   36.185    0.349    0.288    2.835
  237.250   37.416    0.349    0.290    2.835
  237.500   36.150    0.351    0.294    2.782
  237.750   34.260    0.348    0.297    2.730
  238.000   33.629    0.350    0.298    2.679
  238.250   32.990    0.346    0.300    2.629
  238.500   34.844    0.342    0.300    2.580
  238.750   40.438    0.340    0.289    2.532
  239.000   48.526    0.350    0.281    2.485
  239.250   49.756    0.354    0.286    2.485
  239.500   50.364    0.355    0.292    2.532
  239.750   50.348    0.359    0.299    2.628
  240.000   49.086    0.367    0.305    2.729
  240.250   47.820    0.366    0.310    2.729
  240.500   45.930    0.366    0.311    2.729
  240.750   43.425    0.366    0.310    2.728
  241.000   40.297    0.367    0.309    2.628
  241.250   37.157    0.369    0.308    2.628
  241.500   38.387    0.367    0.305    2.530
  241.750   41.488    0.365    0.298    2.483
  242.000   44.593    0.367    0.276    2.483
  242.250   53.304    0.380    0.263    2.437
  242.500   58.902    0.377    0.288    2.391
  242.750   52.645    0.375    0.296    2.391
  243.000   48.893    0.372    0.297    2.347
  243.250   62.590    0.385    0.260    2.347
  243.500   87.511    0.427    0.241    2.391
  243.750   83.755    0.445    0.282    2.482
  244.000   73.763    0.471    0.313    2.676
  244.250   56.294    0.435    0.325    2.778
  244.500   51.292    0.404    0.329    2.778
  244.750   45.043    0.369    0.324    2.726
  245.000   46.270    0.366    0.320    2.675
  245.250   48.744    0.363    0.312    2.576
  245.500   51.225    0.353    0.308    2.435
  245.750   53.083    0.348    0.307    2.302
  246.000   54.314    0.356    0.307    2.259
  246.250   54.299    0.358    0.308    2.259
  246.500   53.036    0.354    0.315    2.301
  246.750   50.527    0.348    0.319    2.345
  247.000   46.768    0.345    0.313    2.389
  247.250   45.505    0.350    0.307    2.389
  247.500   44.866    0.353    0.312    2.434
  247.750   44.227    0.355    0.317    2.389
  248.000   42.965    0.355    0.319    2.389
  248.250   42.953    0.357    0.321    2.300
  248.500   42.306    0.362    0.317    2.216
  248.750   42.291    0.363    0.311    2.174
  249.000   42.894    0.366    0.307    2.174
  249.250   43.510    0.366    0.304    2.174
  249.500   43.490    0.364    0.293    2.257
  249.750   43.474    0.363    0.284    2.343
  250.000   43.459    0.363    0.280    2.433
  250.250   42.823    0.362    0.298    2.433
  250.500   42.184    0.362    0.315    2.479
  250.750   40.918    0.362    0.320    2.387
  251.000   39.652    0.363    0.326    2.256
  251.250   39.644    0.365    0.333    2.133
  251.500   39.001    0.363    0.334    2.016
  251.750   38.985    0.365    0.333    1.941
  252.000   40.216    0.363    0.293    1.905
  252.250   43.321    0.349    0.256    2.015
  252.500   49.538    0.337    0.238    2.173
  252.750   57.002    0.339    0.235    2.432
  253.000   65.090    0.342    0.235    2.671
  253.250   67.567    0.343    0.237    2.826
  253.500   63.184    0.347    0.248    3.046
  253.750   61.303    0.357    0.275    3.283
  254.000   57.547    0.376    0.293    3.409
  254.250   54.411    0.378    0.302    3.283
  254.500   53.148    0.372    0.310    2.988
  254.750   50.643    0.361    0.315    2.878
  255.000   46.264    0.361    0.316    2.571
  255.250   42.509    0.366    0.319    2.385
  255.500   43.740    0.373    0.322    2.297
  255.750   48.711    0.384    0.324    2.131
  256.000   50.565    0.388    0.325    2.052
  256.250   43.689    0.382    0.325    2.014
  256.500   40.556    0.378    0.326    1.903
  256.750   41.164    0.370    0.327    1.903
  257.000   41.768    0.364    0.327    1.868
  257.250   41.129    0.358    0.327    1.868
  257.500   40.489    0.353    0.327    1.765
  257.750   40.470    0.365    0.326    1.700
  258.000   39.839    0.377    0.324    1.700
  258.250   39.819    0.371    0.316    1.637
  258.500   40.431    0.368    0.318    1.607
  258.750   42.285    0.365    0.323    1.577
  259.000   44.135    0.365    0.325    1.547
  259.250   45.989    0.364    0.328    1.547
  259.500   47.843    0.364    0.321    1.547
  259.750   50.948    0.363    0.311    1.547
  260.000   54.672    0.363    0.290    1.547
  260.250   59.639    0.365    0.289    1.547
  260.500   62.117    0.367    0.295    1.576
  260.750   59.612    0.368    0.305    1.699
  261.000   54.609    0.370    0.329    1.797
  261.250   50.854    0.374    0.330    1.797
  261.500   47.098    0.380    0.333    1.764
  261.750   43.339    0.390    0.337    1.731
  262.000   40.830    0.398    0.341    1.667
  262.250   41.437    0.392    0.345    1.605
  262.500   43.919    0.379    0.346    1.575
  262.750   49.513    0.374    0.335    1.636
  263.000   56.353    0.386    0.321    1.667
  263.250   51.975    0.392    0.313    1.666
  263.500   44.475    0.390    0.318    1.635
  263.750   39.473    0.388    0.321    1.635
  264.000   35.094    0.391    0.324    1.635
  264.250   31.335    0.396    0.329    1.635
  264.500   33.193    0.400    0.336    1.635
  264.750   35.047    0.411    0.346    1.635
  265.000   36.901    0.423    0.355    1.604
  265.250   36.885    0.416    0.354    1.575
  265.500   37.493    0.405    0.345    1.545
  265.750   38.101    0.393    0.335    1.516
  266.000   38.085    0.379    0.332    1.516
  266.250   38.692    0.367    0.328    1.516
  266.500   38.673    0.368    0.326    1.516
  266.750   38.653    0.372    0.325    1.516
  267.000   38.645    0.378    0.320    1.545
  267.250   38.626    0.382    0.317    1.545
  267.500   37.987    0.387    0.326    1.516
  267.750   37.347    0.389    0.337    1.487
  268.000   37.332    0.385    0.332    1.487
  268.250   39.186    0.375    0.325    1.460
  268.500   41.040    0.371    0.327    1.406
  268.750   41.025    0.367    0.333    1.406
  269.000   40.389    0.372    0.337    1.379
  269.250   40.374    0.379    0.339    1.354
  269.500   40.981    0.388    0.342    1.354
  269.750   40.962    0.389    0.343    1.354
  270.000   39.072    0.382    0.342    1.354
  270.250   37.190    0.370    0.335    1.353
  270.500   35.305    0.372    0.335    1.353
  270.750   34.662    0.375    0.339    1.353
  271.000   34.023    0.374    0.346    1.353
  271.250   33.380    0.370    0.346    1.353
  271.500   33.372    0.367    0.346    1.353
  271.750   32.725    0.364    0.347    1.328
  272.000   32.717    0.352    0.346    1.328
  272.250   32.078    0.347    0.358    1.328
  272.500   31.431    0.349    0.361    1.328
  272.750   30.800    0.362    0.364    1.328
  273.000   30.784    0.375    0.385    1.327
  273.250   30.768    0.388    0.396    1.327
  273.500   30.753    0.398    0.387    1.353
  273.750   32.607    0.399    0.340    1.404
