~VERSION INFORMATION
 VERS.                 2.0:   CWLS LOG ASCII STANDARD -VERSION 2.0
 WRAP.                  NO:   ONE LINE PER DEPTH STEP
~WELL INFORMATION BLOCK
#MNEM.UNIT           DATA                    DESCRIPTION OF MNEMONIC
#---------    -------------------            -------------------------------
# Generated from Intellog Unique Number	CS_77_79/WELL/879
WELL.         HB THORNBURY EV                : Well_name    - WELL
LOC .         00/06-20-078-11W4/0            : Location     - LOCATION
UWI .         00/06-20-078-11W4/0            : Uwi          - UNIQUE WELL ID
ENTR.         JHS                            : Entered      - ENTERED BY
SRVC.         SCHLUMBERGER                   : Scn          - SERVICE COMPANY
STRT.M        259.080                        : top_depth    - START DEPTH
STOP.M        493.580                        : bot_depth    - STOP DEPTH
STEP.M        0.25                           : increment    - STEP LENGTH
 NULL. -999.2500:NULL Value
~CURVE INFORMATION BLOCK
#MNEM UNIT       ERCB CURVE CODE    CURVE DESCRIPTION
#-----------   ------------------   ----------------------------------
DEPT.M        00 001 00 00         : DEPTH        - DEPTH
RHOB.KG/M3    00 350 00 00         : DENS         - BULK DENSITY
GR  .API      00 310 00 00         : GR           - GAMMA RAY
DPHI.V/V      00 890 00 00         : PHID         - DENSITY POROSITY (SANDSTONE)
NPHI.V/V      00 330 00 00         : PHIN         - NEUTRON POROSITY (SANDSTONE)
ILD .OHMM     00 120 00 00         : RESD         - DEEP RESISTIVITY (DIL)
~PARAMETER INFORMATION
#MNEM.UNIT           DATA             DESCRIPTION OF MNEMONIC
#---------         -----------     ------------------------------
GL  .M        704.088              : gl           - GROUND LEVEL ELEVATION
EREF.M        721.462              : kb           - ELEVATION OF DEPTH REFERENCE
DATM.M        721.462              : datum        - DATUM ELEVATION
TDD .M        498.348              : tdd          - TOTAL DEPTH DRILLER
RUN .         ONE                  : Run          - RUN NUMBER
ENG .         BILL                 : Engineer     - RECORDING ENGINEER
WIT .         JIM                  : Witness      - WITNESSED BY
MUD .         GEL                  : Mud_type     - MUD TYPE
MATR.         SANDSTONE            : Logunit      - NEUTRON MATRIX
TMAX.C        60                   : BHT          - MAXIMUM RECORDED TEMPERATURE
BHTD.M        498.348              : BHTDEP       - MAXIMUM RECORDED TEMPERATURE
MATR.         1                    : LOGUNIT      - NEUTRON MATRIX
RMT .C        25                   : MDTP         - TEMPERATURE OF MUD
NEUT.         1                    : NEUTRON      - NEUTRON TYPE
RESI.         0                    : RESIST       - RESISTIVITY TYPE
RMC .OHMM     0.25                 : RMC          - RESISTIVITY OF MUD CAKE
RMF .OHMM     0.25                 : RMF          - RESISTIVITY OF MUD FILTRATE
SUFT.C        15                   : SUFT         - SURFACE TEMPERATURE
~A  DEPTH     DENS       GR     PHID     PHIN     RESD
# ...
  405.080    0.000   69.725    0.368    0.465    6.086
  405.330    0.000   69.421    0.352    0.479    6.080
  405.580    0.000   68.533    0.357    0.488    6.237
  405.830   -0.000   68.003    0.355    0.490    6.521
  406.080   -0.000   68.070    0.346    0.466    7.207
  406.330   -0.000   66.525    0.330    0.453    8.231
  406.580    0.000   64.607    0.311    0.438   10.006
  406.830    0.000   61.370    0.278    0.405   12.765
  407.080    0.000   59.522    0.116    0.242   17.145
  407.330   -0.000   59.309    0.079    0.209   21.743
  407.580   -0.000   61.150    0.059    0.191   23.098
  407.830   -0.000   64.433    0.044    0.188   19.837
  408.080    0.000   66.218    0.090    0.234   13.182
  408.330    0.000   69.520    0.166    0.291    9.940
  408.580   -0.000   70.937    0.246    0.381    7.994
  408.830   -0.000   73.633    0.360    0.485    6.860
  409.080   -0.000   76.141    0.341    0.497    6.290
  409.330    0.000   82.340    0.348    0.490    5.933
  409.580    0.000   90.739    0.352    0.470    5.932
  409.830    0.000   96.074    0.342    0.460    5.934
  410.080   -0.000   97.972    0.352    0.478    6.020
  410.330   -0.000   91.212    0.359    0.478    6.173
  410.580   -0.000   80.789    0.357    0.474    6.166
  410.830    0.000   75.853    0.364    0.479    6.066
  411.080    0.000   70.143    0.353    0.472    5.950
  411.330   -0.000   69.858    0.350    0.463    5.850
  411.580   -0.000   67.104    0.345    0.466    5.852
  411.830   -0.000   66.523    0.361    0.487    5.833
  412.080    0.000   67.990    0.365    0.518    5.751
  412.330    0.000   69.323    0.354    0.529    5.699
  412.580    0.000   70.546    0.361    0.532    5.662
  412.830   -0.000   69.603    0.367    0.513    5.570
  413.080   -0.000   67.377    0.364    0.482    5.562
  413.330   -0.000   67.581    0.371    0.491    5.563
  413.580    0.000   69.586    0.359    0.504    5.566
  413.830    0.000   72.435    0.358    0.507    5.561
  414.080    0.000   75.373    0.349    0.495    5.678
  414.330   -0.000   78.380    0.343    0.498    5.667
  414.580   -0.000   80.391    0.330    0.514    5.801
  414.830    0.000   80.744    0.314    0.512    5.794
  415.080    0.000   80.671    0.346    0.528    5.863
  415.330    0.000   81.294    0.366    0.515    5.906
  415.580   -0.000   80.728    0.362    0.508    5.912
  415.830   -0.000   80.434    0.351    0.515    5.914
  416.080   -0.000   80.104    0.357    0.506    5.906
  416.330    0.000   79.598    0.359    0.497    5.822
  416.580    0.000   78.895    0.355    0.498    5.711
  416.830    0.000   78.951    0.360    0.507    5.610
  417.080   -0.000   78.403    0.353    0.513    5.542
  417.330   -0.000   77.567    0.338    0.504    5.520
  417.580    0.000   76.605    0.329    0.496    5.521
  417.830    0.000   75.537    0.332    0.497    5.591
  418.080    0.000   76.316    0.340    0.514    5.627
  418.330   -0.000   78.785    0.330    0.521    5.635
  418.580   -0.000   82.425    0.320    0.512    5.700
  418.830   -0.000   84.658    0.315    0.509    5.761
  419.080    0.000   85.561    0.323    0.505    5.862
  419.330    0.000   85.654    0.327    0.494    5.913
  419.580    0.000   85.746    0.315    0.483    5.973
  419.830   -0.005   87.242    0.312    0.476    5.892
  420.080   -0.068   89.863    0.308    0.465    5.883
  420.330   -0.079   91.086    0.302    0.471    5.765
  420.580    4.361   91.674    0.292    0.470    5.777
  420.830   40.099   91.400    0.287    0.462    5.806
  421.080  -50.081   89.313    0.311    0.472    5.889
  421.330 2336.380   86.358    0.326    0.492    5.959
  421.580 2152.790   82.133    0.335    0.506    6.001
  421.830 2143.140   75.357    0.331    0.517    6.001
  422.080 2138.120   72.561    0.334    0.514    6.137
  422.330 2144.380   70.797    0.331    0.497    6.142
  422.580 2186.970   71.843    0.306    0.485    6.238
  422.830 2201.270   74.430    0.298    0.499    6.378
  423.080 2184.830   74.909    0.307    0.517    6.370
  423.330 2130.110   74.959    0.339    0.531    6.285
  423.580 2197.400   75.308    0.300    0.530    6.261
  423.830 2234.780   77.935    0.278    0.533    6.264
  424.080 2213.410   86.564    0.290    0.534    6.139
  424.330 2193.010   96.120    0.302    0.517    6.343
  424.580 2233.940  100.585    0.278    0.510    6.509
  424.830 2277.540   95.029    0.253    0.499    6.682
  425.080 2338.040   71.536    0.218    0.455    7.196
  425.330 2484.680   69.078    0.132    0.414    7.407
  425.580 2559.470   79.074    0.088    0.335    7.438
  425.830 2553.520   86.911    0.092    0.287    7.293
  426.080 2401.580   91.268    0.180    0.408    7.016
  426.330 2277.350   92.961    0.253    0.455    6.402
  426.580 2311.080   94.917    0.233    0.472    5.852
  426.830 2282.640   99.351    0.250    0.500    5.762
  427.080 2262.530  101.213    0.262    0.494    5.735
  427.330 2286.120  101.784    0.248    0.487    5.735
  427.580 2300.350  101.172    0.240    0.498    5.807
  427.830 2270.250  100.401    0.257    0.496    5.864
  428.080 2282.180  100.001    0.250    0.483    6.050
  428.330 2264.750  100.337    0.260    0.481    6.376
  428.580 2295.520  100.689    0.242    0.476    6.578
  428.830 2339.680  103.267    0.217    0.464    6.796
  429.080 2337.280  105.411    0.218    0.464    6.846
  429.330 2313.510  109.027    0.232    0.479    6.916
  429.580 2274.350  108.893    0.255    0.480    6.922
  429.830 2330.900  108.869    0.222    0.456    6.933
  430.080 2317.840  109.526    0.229    0.436    6.800
  430.330 2286.910  108.222    0.247    0.438    6.615
  430.580 2299.770  105.443    0.240    0.452    6.285
  430.830 2273.700  101.953    0.255    0.462    6.007
  431.080 2265.430   98.342    0.260    0.459    5.424
  431.330 2254.770   95.422    0.266    0.476    5.015
  431.580 2277.890   93.024    0.253    0.500    4.507
  431.830 2239.440   91.307    0.275    0.514    4.007
  432.080 2244.180   90.327    0.272    0.537    3.562
  432.330 2186.000   88.822    0.306    0.562    3.160
  432.580 2125.540   86.721    0.342    0.585    2.834
  432.830 2053.480   85.112    0.384    0.614    2.476
  433.080 2089.330   85.138    0.363    0.613    2.107
  433.330 2117.760   85.298    0.346    0.577    1.982
  433.580 2135.420   85.720    0.336    0.571    1.963
  433.830 2137.830   86.396    0.335    0.588    1.988
  434.080 2136.920   88.530    0.335    0.607    2.005
  434.330 2168.530   90.953    0.317    0.618    2.110
  434.580 2187.100   92.354    0.306    0.623    2.186
  434.830 2186.600   92.266    0.306    0.624    2.428
  435.080 2228.780   92.274    0.281    0.605    2.652
  435.330 2262.330   92.531    0.262    0.510    3.023
  435.580 2289.750   92.849    0.246    0.484    3.445
  435.830 2317.760   92.858    0.229    0.481    3.824
  436.080 2332.870   92.841    0.221    0.507    4.389
  436.330 2368.180   93.478    0.200    0.480    5.044
  436.580 2409.130   96.367    0.176    0.436    5.534
  436.830 2400.850   99.993    0.181    0.413    5.735
  437.080 2369.350  102.901    0.199    0.420    5.742
  437.330 2325.660  103.777    0.225    0.461    5.424
  437.580 2268.310  101.585    0.258    0.492    4.855
  437.830 2247.280   99.644    0.271    0.503    4.246
  438.080 2270.360   97.337    0.257    0.511    3.820
  438.330 2287.520   95.078    0.247    0.524    3.699
  438.580 2282.690   93.113    0.250    0.535    3.933
  438.830 2306.080   91.170    0.236    0.536    4.315
  439.080 2350.700   89.225    0.210    0.470    4.730
  439.330 2368.430   88.605    0.200    0.432    5.376
  439.580 2364.780   90.744    0.202    0.422    5.872
  439.830 2359.730   96.383    0.205    0.446    5.771
  440.080 2327.700  100.632    0.224    0.451    5.222
  440.330 2297.470  102.619    0.241    0.468    4.629
  440.580 2258.600  102.949    0.264    0.505    4.029
  440.830 2214.770  103.509    0.290    0.572    3.710
  441.080 2261.070  104.893    0.263    0.560    3.502
  441.330 2309.670  103.877    0.234    0.528    3.451
