~VERSION INFORMATION
 VERS.                 2.0:   CWLS LOG ASCII STANDARD -VERSION 2.0
 WRAP.                  NO:   ONE LINE PER DEPTH STEP
~WELL INFORMATION BLOCK
#MNEM.UNIT           DATA                    DESCRIPTION OF MNEMONIC
#---------    -------------------            -------------------------------
# Generated from Intellog Unique Number	CW_73_75/WELL/2727
WELL.         CAVALIER ET AL CALL 06-13      : Well_name    - WELL
LOC .         00/06-13-073-22W4/0            : Location     - LOCATION
UWI .         00/06-13-073-22W4/0            : Uwi          - UNIQUE WELL ID
ENTR.         JAYE                           : Entered      - ENTERED BY
SRVC.         SCHLUMBERGER                   : Scn          - SERVICE COMPANY
DATE.         25 JAN 75                      : Date         - LOG DATE
STRT.M        335.28                         : top_depth    - START DEPTH
STOP.M        533.28                         : bot_depth    - STOP DEPTH
STEP.M        0.25                           : increment    - STEP LENGTH
 NULL. -999.2500:NULL Value
~CURVE INFORMATION BLOCK
#MNEM UNIT       ERCB CURVE CODE    CURVE DESCRIPTION
#-----------   ------------------   ----------------------------------
DEPT.M        00 001 00 00         : DEPTH        - DEPTH
ILD .OHMM     00 120 00 00         : RESD         - DEEP RESISTIVITY (DIL)
NPHI.V/V      00 330 00 00         : PHIN         - NEUTRON POROSITY (SANDSTONE)
DPHI.V/V      00 890 00 00         : PHID         - DENSITY POROSITY (SANDSTONE)
GR  .API      00 310 00 00         : GR           - GAMMA RAY
CALI.MM       00 280 01 00         : CAL          - CALIPER
~PARAMETER INFORMATION
#MNEM.UNIT           DATA             DESCRIPTION OF MNEMONIC
#---------         -----------     ------------------------------
GL  .M        634.136              : gl           - GROUND LEVEL ELEVATION
EREF.M        637.184              : kb           - ELEVATION OF DEPTH REFERENCE
DATM.M        634.136              : datum        - DATUM ELEVATION
TDD .M        562.356              : tdd          - TOTAL DEPTH DRILLER
RUN .         ONE                  : Run          - RUN NUMBER
ENG .         EARLEY               : Engineer     - RECORDING ENGINEER
WIT .         CONNELLY             : Witness      - WITNESSED BY
BASE.         EDM                  : Branch       - HOME BASE OF LOGGING UNIT
MUD .         GEL CHEM & LCM DIESL : Mud_type     - MUD TYPE
MATR.         SANDSTONE            : Logunit      - NEUTRON MATRIX
TMAX.C        27.7778              : BHT          - MAXIMUM RECORDED TEMPERATURE
BHTD.M        541.325              : BHTDEP       - MAXIMUM RECORDED TEMPERATURE
RMT .C        13.3333              : MDTP         - TEMPERATURE OF MUD
MUDD.KG/M     960                  : MWT          - MUD DENSITY
NEUT.         1                    : NEUTRON      - NEUTRON TYPE
RESI.         0                    : RESIST       - RESISTIVITY TYPE
RM  .OHMM     2.5                  : RM           - RESISTIVITY OF MUD
RMC .OHMM     1.25                 : RMC          - RESISTIVITY OF MUD CAKE
RMF .OHMM     2.7                  : RMF          - RESISTIVITY OF MUD FILTRATE
SUFT.C        -17.7778             : SUFT         - SURFACE TEMPERATURE
~A  DEPTH     RESD     PHIN     PHID       GR      CAL
# ...
  408.280    6.053    0.495    0.344   56.205  430.963
  408.530    6.215    0.500    0.340   55.378  430.384
  408.780    6.338    0.492    0.349   54.911  429.804
  409.030    6.501    0.494    0.338   54.327  429.334
  409.280    6.543    0.502    0.340   55.452  429.074
  409.530    6.586    0.504    0.338   57.801  429.114
  409.780    6.589    0.486    0.327   57.707  429.153
  410.030    6.432    0.474    0.323   55.777  425.993
  410.280    6.315    0.465    0.332   53.851  421.897
  410.530    6.159    0.465    0.335   53.205  425.156
  410.780    6.082    0.495    0.340   52.928  428.306
  411.030    6.045    0.489    0.344   52.709  428.659
  411.280    5.968    0.473    0.345   52.428  427.150
  411.530    5.931    0.463    0.342   51.537  425.745
  411.780    5.894    0.477    0.329   50.281  425.168
  412.030    5.897    0.501    0.327   48.842  427.594
  412.280    5.902    0.510    0.328   48.379  429.193
  412.530    5.902    0.506    0.326   47.861  429.550
  412.780    5.906    0.496    0.327   47.636  427.934
  413.030    5.948    0.480    0.310   47.786  423.324
  413.280    6.111    0.492    0.328   48.121  428.648
  413.530    6.313    0.497    0.322   47.845  431.999
  413.780    6.554    0.490    0.327   47.559  428.424
  414.030    6.876    0.477    0.337   47.283  421.024
  414.280    7.118    0.489    0.338   47.068  424.687
  414.530    7.240    0.501    0.337   47.031  428.976
  414.780    7.243    0.504    0.307   47.056  427.777
  415.030    7.087    0.490    0.337   47.325  424.719
  415.280    6.890    0.471    0.329   48.269  416.689
  415.530    6.654    0.453    0.316   49.400  416.841
  415.780    6.418    0.444    0.302   49.667  419.473
  416.030    6.182    0.461    0.314   47.922  424.069
  416.280    6.025    0.483    0.310   47.642  426.182
  416.530    5.869    0.504    0.298   48.039  424.678
  416.780    5.752    0.520    0.320   48.673  420.792
  417.030    5.715    0.510    0.332   49.493  407.278
  417.280    5.598    0.491    0.319   50.622  419.741
  417.530    5.561    0.462    0.322   51.077  424.650
  417.780    5.524    0.485    0.304   51.284  425.728
  418.030    5.524    0.483    0.295   51.985  424.118
  418.280    5.531    0.470    0.285   52.682  424.578
  418.530    5.533    0.492    0.324   53.322  426.380
  418.780    5.533    0.493    0.332   53.835  426.325
  419.030    5.538    0.471    0.320   55.387  427.815
  419.280    5.502    0.468    0.331   57.983  428.587
  419.530    5.504    0.478    0.341   59.050  426.566
  419.780    5.468    0.485    0.347   58.645  424.950
  420.030    5.470    0.467    0.349   58.243  425.412
  420.280    5.473    0.464    0.348   60.288  425.455
  420.530    5.476    0.481    0.343   61.783  424.987
  420.780    5.479    0.477    0.335   61.995  423.997
  421.030    5.522    0.470    0.339   61.772  422.379
  421.280    5.522    0.470    0.324   61.249  420.458
  421.530    5.568    0.475    0.320   61.096  419.371
  421.780    5.609    0.502    0.304   60.997  418.697
  422.030    5.653    0.513    0.308   61.452  418.422
  422.280    5.695    0.501    0.325   61.966  418.468
  422.530    5.738    0.479    0.336   62.119  418.511
  422.780    5.741    0.505    0.329   62.147  418.866
  423.030    5.744    0.510    0.326   62.474  419.324
  423.280    5.786    0.503    0.314   63.052  420.101
  423.530    5.789    0.492    0.328   63.692  420.242
  423.780    5.832    0.482    0.317   64.140  420.701
  424.030    5.835    0.469    0.322   64.655  421.575
  424.280    5.835    0.464    0.322   64.682  422.248
  424.530    5.841    0.470    0.313   64.222  423.115
  424.780    5.843    0.451    0.318   63.822  422.953
  425.030    5.846    0.442    0.344   63.845  421.965
  425.280    5.849    0.461    0.332   64.547  421.181
  425.530    5.852    0.473    0.316   65.189  420.501
  425.780    5.855    0.484    0.317   65.576  420.033
  426.030    5.857    0.474    0.328   65.849  419.454
  426.280    5.861    0.462    0.333   66.178  418.984
  426.530    5.864    0.460    0.322   67.182  419.023
  426.780    5.907    0.476    0.307   69.470  419.585
  427.030    5.949    0.503    0.314   72.307  422.527
  427.280    5.991    0.512    0.291   75.939  428.061
  427.530    6.073    0.526    0.286   82.075  428.823
  427.780    6.197    0.507    0.294   88.090  425.257
  428.030    6.279    0.487    0.280   84.087  423.648
  428.280    6.321    0.469    0.270   80.260  423.585
  428.530    6.364    0.459    0.259   75.216  423.631
  428.780    6.367    0.455    0.246   73.042  423.260
  429.030    6.370    0.466    0.256   76.246  423.404
  429.280    6.413    0.460    0.271   76.457  422.933
  429.530    6.416    0.459    0.263   74.893  421.320
  429.780    6.416    0.473    0.245   77.977  418.677
  430.030    6.422    0.477    0.260   82.157  419.141
  430.280    6.344    0.475    0.281   86.462  421.562
  430.530    6.228    0.480    0.308   88.320  424.915
  430.780    6.151    0.482    0.286   88.714  428.789
  431.030    6.114    0.475    0.279   87.641  431.213
  431.280    6.077    0.470    0.273   88.401  431.880
  431.530    6.080    0.482    0.259   92.584  429.647
  431.780    6.082    0.491    0.255   97.741  426.901
  432.030    6.126    0.500    0.269  101.922  429.221
  432.280    6.247    0.528    0.265  103.294  430.827
  432.530    6.689    0.505    0.213  104.786  430.757
  432.780    7.449    0.481    0.181  100.842  429.150
  433.030    7.811    0.467    0.191   97.323  428.883
  433.280    7.813    0.452    0.174   92.890  428.307
  433.530    7.577    0.430    0.150   90.412  424.832
  433.780    7.221    0.413    0.145   95.266  418.257
  434.030    6.945    0.422    0.188   97.491  422.131
  434.280    6.789    0.443    0.175  100.329  426.934
  434.530    6.791    0.472    0.158  103.043  431.326
  434.780    6.795    0.459    0.210  105.209  428.785
  435.030    6.757    0.449    0.198  106.459  420.552
  435.280    6.441    0.458    0.201  105.322  424.117
  435.530    6.046    0.444    0.202  104.314  426.644
  435.780    5.650    0.451    0.181  103.603  427.927
  436.030    5.294    0.468    0.166  101.003  427.975
  436.280    4.939    0.480    0.180  101.580  427.610
  436.530    4.662    0.486    0.189  108.510  427.654
  436.780    4.387    0.508    0.206  111.347  430.281
  437.030    4.190    0.530    0.192  110.336  433.327
  437.280    3.954    0.562    0.221  106.883  437.820
  437.530    3.757    0.591    0.309  104.278  445.521
  437.780    3.601    0.611    0.405  102.108  467.708
  438.030    3.484    0.610    0.348  103.115  490.929
  438.280    3.527    0.576    0.316  104.543  485.491
  438.530    3.649    0.521    0.330  105.790  473.843
  438.780    3.652    0.522    0.345  105.940  484.858
  439.030    3.655    0.537    0.295  106.519  497.007
  439.280    3.698    0.541    0.289  107.030  487.948
  439.530    3.980    0.517    0.282  107.425  469.057
  439.780    4.182    0.505    0.258  107.576  453.478
  440.030    4.384    0.495    0.225  107.111  440.902
  440.280    4.586    0.511    0.277  105.733  443.843
  440.530    4.748    0.542    0.298  101.970  446.473
  440.780    4.870    0.547    0.335   96.741  441.452
  441.030    4.834    0.480    0.317   93.956  423.078
  441.280    4.756    0.471    0.271   98.321  429.535
  441.530    4.600    0.495    0.295   99.632  440.345
  441.780    4.524    0.514    0.320   96.419  461.912
  442.030    4.446    0.542    0.308   93.210  458.129
  442.280    4.410    0.580    0.302   90.916  440.063
  442.530    4.375    0.503    0.314   89.350  423.138
  442.780    4.336    0.523    0.291   87.543  417.291
  443.030    4.299    0.535    0.288   86.041  419.095
  443.280    4.262    0.527    0.282   84.358  420.795
  443.530    4.264    0.513    0.288   83.042  422.601
  443.780    4.267    0.528    0.295   82.212  423.788
  444.030    4.271    0.534    0.302   81.017  424.548
  444.280    4.273    0.518    0.310   79.452  425.318
  444.530    4.236    0.503    0.313   77.038  425.360
