~VERSION INFORMATION
 VERS.                 2.0:   CWLS LOG ASCII STANDARD -VERSION 2.0
 WRAP.                  NO:   ONE LINE PER DEPTH STEP
~WELL INFORMATION BLOCK
#MNEM.UNIT           DATA                    DESCRIPTION OF MNEMONIC
#---------    -------------------            -------------------------------
# Generated from Intellog Unique Number	CX_WELLS/WELL/3000
WELL.         BRENDA ET AL DIVIDE            : Well_name    - WELL
LOC .         00/03-18-082-12W4/0            : Location     - LOCATION
UWI .         00/03-18-082-12W400            : Uwi          - UNIQUE WELL ID
ENTR.         T                              : Entered      - ENTERED BY
SRVC.         SCHLUMBERGER                   : Scn          - SERVICE COMPANY
STRT.M        225                            : top_depth    - START DEPTH
STOP.M        465                            : bot_depth    - STOP DEPTH
STEP.M        0.25                           : increment    - STEP LENGTH
 NULL. -999.2500:NULL Value
~CURVE INFORMATION BLOCK
#MNEM UNIT       ERCB CURVE CODE    CURVE DESCRIPTION
#-----------   ------------------   ----------------------------------
DEPT.M        00 001 00 00         : DEPTH        - DEPTH
GR  .API      00 310 00 00         : GR           - GAMMA RAY
NPHI.V/V      00 330 00 00         : PHIN         - NEUTRON POROSITY (SANDSTONE)
DPHI.V/V      00 890 00 00         : PHID         - DENSITY POROSITY (SANDSTONE)
ILD .OHMM     00 120 00 00         : RESD         - DEEP RESISTIVITY (OTHER)
~PARAMETER INFORMATION
#MNEM.UNIT           DATA             DESCRIPTION OF MNEMONIC
#---------         -----------     ------------------------------
GL  .M        677.8                : gl           - GROUND LEVEL ELEVATION
EREF.M        681.2                : kb           - ELEVATION OF DEPTH REFERENCE
DATM.M        681.2                : datum        - DATUM ELEVATION
TDD .M        474                  : tdd          - TOTAL DEPTH DRILLER
RUN .         ONE                  : Run          - RUN NUMBER
ENG .         BILL                 : Engineer     - RECORDING ENGINEER
WIT .         JIM                  : Witness      - WITNESSED BY
MUD .         GEL                  : Mud_type     - MUD TYPE
MATR.         SANDSTONE            : Logunit      - NEUTRON MATRIX
TMAX.C        21.1111              : BHT          - MAXIMUM RECORDED TEMPERATURE
BHTD.M        474                  : BHTDEP       - MAXIMUM RECORDED TEMPERATURE
MATR.         1                    : LOGUNIT      - NEUTRON MATRIX
RMT .C        22                   : MDTP         - TEMPERATURE OF MUD
NEUT.         1                    : NEUTRON      - NEUTRON TYPE
RESI.         3.8                  : RESIST       - RESISTIVITY TYPE
RMC .OHMM     4.68                 : RMC          - RESISTIVITY OF MUD CAKE
RMF .OHMM     4.68                 : RMF          - RESISTIVITY OF MUD FILTRATE
SUFT.C        4                    : SUFT         - SURFACE TEMPERATURE
~A  DEPTH       GR     PHIN     PHID     RESD
# ...
  355.500   69.368    0.288    0.160    9.775
  355.750   73.518    0.309    0.143    9.075
  356.000   80.632    0.385    0.177    8.425
  356.250   86.561    0.413    0.221    7.821
  356.500   90.712    0.441    0.231    7.127
  356.750   94.269    0.465    0.235    6.495
  357.000   94.862    0.467    0.240    6.142
  357.250   96.047    0.473    0.244    5.702
  357.500   96.640    0.478    0.250    5.394
  357.750   94.269    0.483    0.225    5.102
  358.000   91.304    0.479    0.242    4.650
  358.250   94.269    0.485    0.246    4.652
  358.500   97.233    0.490    0.247    4.833
  358.750   99.605    0.486    0.250    5.310
  359.000   99.012    0.488    0.256    5.619
  359.250   97.826    0.492    0.280    6.291
  359.500   96.047    0.488    0.289    7.176
  359.750   94.269    0.460    0.286    7.593
  360.000   92.490    0.455    0.280    8.189
  360.250   91.897    0.444    0.270    8.507
  360.500   89.526    0.436    0.270    8.357
  360.750   86.561    0.432    0.272    8.203
  361.000   85.968    0.432    0.272    8.055
  361.250   86.561    0.435    0.268    7.910
  361.500   89.526    0.437    0.265    7.914
  361.750   90.712    0.442    0.257    7.774
  362.000   92.490    0.447    0.251    7.633
  362.250   93.083    0.443    0.247    7.636
  362.500   90.119    0.439    0.243    7.641
  362.750   88.340    0.435    0.248    7.645
  363.000   87.747    0.429    0.250    7.943
  363.250   89.526    0.419    0.251    7.946
  363.500   91.897    0.420    0.254    7.952
  363.750   92.490    0.432    0.259    7.955
  364.000   92.490    0.431    0.263    7.667
  364.250   91.304    0.421    0.263    7.389
  364.500   89.526    0.413    0.271    6.990
  364.750   90.119    0.419    0.278    6.612
  365.000   91.304    0.428    0.288    6.254
  365.250   93.083    0.450    0.263    5.916
  365.500   93.676    0.460    0.257    5.493
  365.750   94.269    0.471    0.253    5.100
  366.000   94.862    0.471    0.250    5.104
  366.250   94.862    0.475    0.256    5.300
  366.500   94.862    0.485    0.260    6.046
  366.750   93.676    0.459    0.257    6.642
  367.000   91.304    0.438    0.261    7.720
  367.250   91.304    0.431    0.263    8.018
  367.500   91.897    0.428    0.268    7.584
  367.750   93.676    0.432    0.271    6.911
  368.000   95.454    0.431    0.271    6.537
  368.250   97.233    0.433    0.266    6.069
  368.500   98.419    0.456    0.262    5.428
  368.750   99.605    0.461    0.255    5.232
  369.000   97.826    0.439    0.239    5.234
  369.250   97.233    0.445    0.242    5.540
  369.500   96.640    0.454    0.239    5.863
  369.750   96.640    0.448    0.234    6.205
  370.000   97.233    0.440    0.240    6.691
  370.250   98.419    0.428    0.245    7.216
  370.500   99.012    0.418    0.252    7.782
  370.750   99.605    0.407    0.240    8.550
  371.000   99.605    0.407    0.220    9.048
  371.250   99.012    0.401    0.156   10.321
  371.500   83.004    0.349    0.116   11.339
  371.750   80.632    0.290    0.115   12.227
  372.000   85.376    0.322    0.197   12.466
  372.250   91.304    0.366    0.215   11.794
  372.500   95.454    0.380    0.221   11.367
  372.750   97.233    0.368    0.225   10.751
  373.000   99.012    0.378    0.225    9.797
  373.250   99.012    0.393    0.225    9.441
  373.500   96.047    0.411    0.225    8.765
  373.750   95.454    0.429    0.225    8.447
  374.000   96.047    0.438    0.226    8.774
  374.250   99.012    0.438    0.228   10.008
  374.500  100.791    0.437    0.230   12.305
  374.750  102.569    0.437    0.227   14.037
  375.000  102.569    0.435    0.225   14.854
  375.250  101.976    0.433    0.220   15.720
  375.500   97.826    0.399    0.227   16.334
  375.750   94.269    0.369    0.254   16.037
  376.000   91.304    0.319    0.282   14.891
  376.250   90.712    0.339    0.315   14.083
  376.500   93.083    0.369    0.296   12.832
  376.750   95.454    0.399    0.266   11.913
  377.000   94.862    0.408    0.250   10.858
  377.250   94.269    0.415    0.242   10.463
  377.500   94.269    0.421    0.240   10.083
  377.750   94.862    0.417    0.238    9.538
  378.000   93.083    0.417    0.238    9.022
  378.250   91.304    0.428    0.240    8.534
  378.500   90.119    0.427    0.248    8.381
  378.750   82.411    0.411    0.257    8.386
  379.000   84.190    0.390    0.272    8.391
  379.250   87.154    0.386    0.240    8.556
  379.500   88.340    0.397    0.228    8.886
  379.750   90.119    0.404    0.229    9.059
  380.000   90.119    0.405    0.231    9.064
  380.250   90.119    0.405    0.237    9.240
  380.500   90.119    0.405    0.240    9.073
  380.750   90.119    0.406    0.244    9.079
  381.000   90.712    0.406    0.251    9.083
  381.250   90.712    0.406    0.255    9.090
  381.500   91.304    0.409    0.249    9.093
  381.750   91.897    0.411    0.245    9.099
  382.000   93.083    0.414    0.251    9.105
  382.250   93.676    0.416    0.253    9.109
  382.500   94.269    0.420    0.255    9.115
  382.750   91.304    0.422    0.244    9.119
  383.000   82.411    0.414    0.229    9.126
  383.250   78.261    0.388    0.206    9.129
  383.500   77.075    0.369    0.204    8.966
  383.750   78.261    0.382    0.229    8.643
  384.000   80.040    0.403    0.255    8.645
  384.250   80.632    0.418    0.263    8.333
  384.500   80.632    0.423    0.264    8.033
  384.750   81.225    0.429    0.265    7.742
  385.000   82.411    0.434    0.265    7.461
  385.250   83.004    0.463    0.268    6.928
  385.500   84.783    0.456    0.273    6.675
  385.750   85.968    0.430    0.273    6.314
  386.000   87.154    0.423    0.269    5.754
  386.250   88.340    0.429    0.247    5.443
  386.500   91.304    0.439    0.245    5.149
  386.750   93.083    0.462    0.249    5.055
  387.000   96.640    0.476    0.255    5.154
  387.250  100.791    0.486    0.261    5.559
  387.500  100.791    0.480    0.261    5.773
  387.750  100.198    0.468    0.258    6.110
  388.000   98.419    0.453    0.252    6.713
  388.250   96.640    0.439    0.241    7.802
  388.500   93.676    0.436    0.234    8.105
  388.750   89.526    0.435    0.234    8.261
  389.000   85.968    0.432    0.248    8.268
  389.250   80.040    0.424    0.277    8.273
  389.500   73.518    0.418    0.277    8.435
  389.750   71.739    0.414    0.250    8.599
  390.000   72.332    0.410    0.230    8.601
  390.250   74.704    0.416    0.254    8.769
  390.500   80.632    0.417    0.265    8.775
  390.750   88.933    0.417    0.261    8.778
  391.000   93.676    0.421    0.250    8.783
  391.250   93.676    0.436    0.233    8.627
  391.500   86.561    0.440    0.229    8.631
  391.750   87.747    0.439    0.223    8.321
  392.000   89.526    0.444    0.214    8.324
  392.250   91.304    0.450    0.209    8.173
  392.500   92.490    0.456    0.209    8.026
  392.750   94.269    0.464    0.215    7.883
  393.000   95.454    0.464    0.223    7.740
  393.250   95.454    0.454    0.213    7.744
  393.500   94.862    0.444    0.203    7.606
  393.750   95.454    0.429    0.195    7.469
  394.000   96.047    0.406    0.194    7.201
  394.250   96.640    0.400    0.199    7.071
  394.500   99.012    0.411    0.204    6.941
  394.750   99.605    0.417    0.203    6.326
  395.000   99.605    0.419    0.199    5.764
  395.250   97.233    0.423    0.199    4.117
  395.500   85.376    0.451    0.209    3.894
  395.750   83.004    0.474    0.239    3.293
  396.000   77.668    0.494    0.271    3.114
  396.250   73.518    0.523    0.289    3.486
  396.500   70.553    0.433    0.284    4.886
  396.750   68.775    0.416    0.262    5.573
  397.000   69.368    0.399    0.258    6.600
  397.250   74.111    0.390    0.251    7.253
  397.500   78.261    0.396    0.250    7.121
  397.750   80.040    0.409    0.250    6.738
  398.000   78.261    0.412    0.251    6.741
  398.250   79.447    0.406    0.254    6.619
  398.500   83.597    0.404    0.258    6.500
  398.750   89.526    0.395    0.257    4.073
