~VERSION INFORMATION
 VERS.                 2.0:   CWLS LOG ASCII STANDARD -VERSION 2.0
 WRAP.                  NO:   ONE LINE PER DEPTH STEP
~WELL INFORMATION BLOCK
#MNEM.UNIT           DATA                    DESCRIPTION OF MNEMONIC
#---------    -------------------            -------------------------------
# Generated from Intellog Unique Number	CS_69_70/WELL/854
WELL.         HUSKY OIL OPERATIONS           : Well_name    - WELL
LOC .         00/08-32-069-06W4/0            : Location     - LOCATION
UWI .         00/08-32-069-06W4/0            : Uwi          - UNIQUE WELL ID
ENTR.         SP                             : Entered      - ENTERED BY
SRVC.         SCHLUMBERGER                   : Scn          - SERVICE COMPANY
STRT.M        330                            : top_depth    - START DEPTH
STOP.M        570                            : bot_depth    - STOP DEPTH
STEP.M        0.25                           : increment    - STEP LENGTH
 NULL. -999.2500:NULL Value
~CURVE INFORMATION BLOCK
#MNEM UNIT       ERCB CURVE CODE    CURVE DESCRIPTION
#-----------   ------------------   ----------------------------------
DEPT.M        00 001 00 00         : DEPTH        - DEPTH
ILD .OHMM     00 120 00 00         : RESD         - DEEP RESISTIVITY (DIL)
DPHI.V/V      00 890 00 00         : PHID         - DENSITY POROSITY (LIMESTONE)
NPHI.V/V      00 330 00 00         : PHIN         - NEUTRON POROSITY (LIMESTONE)
GR  .API      00 310 00 00         : GR           - GAMMA RAY
~PARAMETER INFORMATION
#MNEM.UNIT           DATA             DESCRIPTION OF MNEMONIC
#---------         -----------     ------------------------------
GL  .M        685.1                : gl           - GROUND LEVEL ELEVATION
EREF.M        688.8                : kb           - ELEVATION OF DEPTH REFERENCE
DATM.M        685.1                : datum        - DATUM ELEVATION
TDD .M        575                  : tdd          - TOTAL DEPTH DRILLER
RUN .         ONE                  : Run          - RUN NUMBER
ENG .         BILL                 : Engineer     - RECORDING ENGINEER
WIT .         JIM                  : Witness      - WITNESSED BY
MUD .         GEL                  : Mud_type     - MUD TYPE
MATR.         LIMESTONE            : Logunit      - NEUTRON MATRIX
TMAX.C        25                   : BHT          - MAXIMUM RECORDED TEMPERATURE
BHTD.M        575                  : BHTDEP       - MAXIMUM RECORDED TEMPERATURE
MATR.         1                    : LOGUNIT      - NEUTRON MATRIX
RMT .C        25                   : MDTP         - TEMPERATURE OF MUD
NEUT.         1                    : NEUTRON      - NEUTRON TYPE
RESI.         0                    : RESIST       - RESISTIVITY TYPE
RMC .OHMM     0.25                 : RMC          - RESISTIVITY OF MUD CAKE
RMF .OHMM     0.25                 : RMF          - RESISTIVITY OF MUD FILTRATE
SUFT.C        15                   : SUFT         - SURFACE TEMPERATURE
~A  DEPTH     RESD     PHID     PHIN       GR
# ...
  547.500    3.644    0.346    0.384   46.983
  547.750    3.748    0.333    0.387   47.038
  548.000    3.848    0.336    0.375   47.884
  548.250    3.929    0.341    0.369   45.082
  548.500    4.034    0.343    0.360   53.038
  548.750    4.118    0.309    0.337   60.934
  549.000    4.196    0.277    0.318   68.464
  549.250    4.260    0.246    0.355   76.846
  549.500    4.309    0.255    0.379   77.082
  549.750    4.341    0.263    0.372   74.768
  550.000    4.741    0.307    0.483   64.338
  550.250    4.467    0.321    0.489   53.007
  550.500    4.192    0.344    0.497   42.651
  550.750    3.994    0.300    0.491   66.414
  551.000    4.155    0.282    0.485   75.798
  551.250    4.453    0.279    0.481   73.180
  551.500    4.641    0.303    0.483   61.057
  551.750    4.712    0.325    0.491   51.432
  552.000    4.652    0.345    0.495   43.574
  552.250    4.341    0.360    0.497   38.884
  552.500    4.037    0.371    0.498   44.978
  552.750    3.810    0.322    0.496   58.810
  553.000    3.775    0.299    0.489   66.854
  553.250    4.016    0.283    0.482   71.547
  553.500    4.233    0.270    0.481   68.076
  553.750    4.346    0.291    0.491   66.310
  554.000    4.437    0.308    0.494   69.114
  554.250    4.539    0.305    0.487   71.614
  554.500    4.599    0.293    0.482   73.078
  554.750    4.574    0.285    0.480   72.531
  555.000    4.533    0.299    0.486   66.501
  555.250    4.351    0.312    0.494   55.414
  555.500    4.215    0.326    0.499   47.616
  555.750    4.169    0.344    0.496   58.280
  556.000    4.186    0.314    0.491   64.618
  556.250    4.241    0.296    0.487   68.823
  556.500    4.314    0.292    0.487   68.459
  556.750    4.356    0.307    0.487   68.765
  557.000    4.447    0.308    0.484   72.240
  557.250    4.473    0.296    0.481   74.922
  557.500    4.507    0.284    0.481   71.877
  557.750    4.559    0.276    0.486   63.714
  558.000    4.646    0.281    0.491   57.319
  558.250    4.682    0.300    0.493   51.776
  558.500    4.622    0.309    0.494   45.197
  558.750    4.411    0.318    0.494   40.081
  559.000    4.163    0.330    0.493   49.222
  559.250    4.064    0.320    0.492   54.828
  559.500    4.142    0.304    0.490   60.618
  559.750    4.260    0.297    0.487   66.346
  560.000    4.473    0.289    0.485   69.942
  560.250    4.636    0.283    0.483   72.990
  560.500    4.733    0.274    0.481   74.515
  560.750    4.842    0.268    0.480   76.100
  561.000    4.870    0.270    0.479   76.163
  561.250    4.710    0.284    0.480   63.736
  561.500    4.371    0.302    0.483   48.932
  561.750    4.095    0.322    0.488   41.501
  562.000    3.938    0.341    0.492   40.771
  562.250    4.058    0.366    0.493   42.235
  562.500    4.309    0.367    0.491   44.856
  562.750    4.867    0.371    0.488   47.051
  563.000    5.426    0.403    0.488   48.271
  563.250    6.015    0.429    0.489   48.516
  563.500    6.152    0.398    0.487   39.866
  563.750    5.731    0.359    0.488   31.582
  564.000    5.299    0.210    0.470   27.014
  564.250    6.379    0.118    0.342   22.933
  564.500    8.638    0.067    0.335   17.939
  564.750   10.997    0.075    0.347   14.650
  565.000   14.265    0.091    0.344   14.652
  565.250   20.857    0.058    0.336   16.664
  565.500   28.510    0.040    0.333   17.275
  565.750   36.434    0.025    0.331   15.936
  566.000   41.850    0.020    0.333   15.389
  566.250   46.394    0.023    0.336   15.451
  566.500   48.989    0.027    0.339   15.697
  566.750   50.770    0.029    0.342   16.003
  567.000   47.209    0.032    0.345   16.248
  567.250   44.307    0.039    0.354   15.092
  567.500   40.661    0.046    0.365   13.204
  567.750   37.737    0.053    0.374   12.414
  568.000   35.551    0.049    0.378   13.634
  568.250   33.743    0.045    0.375   14.428
  568.500   32.147    0.044    0.369   14.063
  568.750   31.263    0.051    0.364   12.664
  569.000   30.576    0.055    0.359   11.873
  569.250   30.409    0.058    0.356   10.961
  569.500   30.759    0.063    0.354   10.414
  569.750   32.181    0.057    0.355   10.233
  570.000   32.668    0.054    0.357   10.295
