~VERSION INFORMATION
 VERS.                 2.0:   CWLS LOG ASCII STANDARD -VERSION 2.0
 WRAP.                  NO:   ONE LINE PER DEPTH STEP
~WELL INFORMATION BLOCK
#MNEM.UNIT           DATA                    DESCRIPTION OF MNEMONIC
#---------    -------------------            -------------------------------
# Generated from Intellog Unique Number	CS_77_79/WELL/922
WELL.         CANADIAN WORLDWIDE ENERGY      : Well_name    - WELL
LOC .         00/09-06-077-04W4/0            : Location     - LOCATION
UWI .         00/09-06-077-04W4/0            : Uwi          - UNIQUE WELL ID
ENTR.         SP                             : Entered      - ENTERED BY
SRVC.         SCHLUMBERGER                   : Scn          - SERVICE COMPANY
STRT.M        150                            : top_depth    - START DEPTH
STOP.M        392                            : bot_depth    - STOP DEPTH
STEP.M        0.25                           : increment    - STEP LENGTH
 NULL. -999.2500:NULL Value
~CURVE INFORMATION BLOCK
#MNEM UNIT       ERCB CURVE CODE    CURVE DESCRIPTION
#-----------   ------------------   ----------------------------------
DEPT.M        00 001 00 00         : DEPTH        - DEPTH
ILD .OHMM     00 120 00 00         : RESD         - DEEP RESISTIVITY (DIL)
DPHI.V/V      00 890 00 00         : PHID         - DENSITY POROSITY (LIMESTONE)
NPHI.V/V      00 330 00 00         : PHIN         - NEUTRON POROSITY (LIMESTONE)
GR  .API      00 310 00 00         : GR           - GAMMA RAY
~PARAMETER INFORMATION
#MNEM.UNIT           DATA             DESCRIPTION OF MNEMONIC
#---------         -----------     ------------------------------
GL  .M        576.6                : gl           - GROUND LEVEL ELEVATION
EREF.M        579.8                : kb           - ELEVATION OF DEPTH REFERENCE
DATM.M        576.6                : datum        - DATUM ELEVATION
TDD .M        397                  : tdd          - TOTAL DEPTH DRILLER
RUN .         ONE                  : Run          - RUN NUMBER
ENG .         BILL                 : Engineer     - RECORDING ENGINEER
WIT .         JIM                  : Witness      - WITNESSED BY
MUD .         GEL                  : Mud_type     - MUD TYPE
MATR.         LIMESTONE            : Logunit      - NEUTRON MATRIX
TMAX.C        19                   : BHT          - MAXIMUM RECORDED TEMPERATURE
BHTD.M        397                  : BHTDEP       - MAXIMUM RECORDED TEMPERATURE
MATR.         1                    : LOGUNIT      - NEUTRON MATRIX
RMT .C        25                   : MDTP         - TEMPERATURE OF MUD
NEUT.         1                    : NEUTRON      - NEUTRON TYPE
RESI.         0                    : RESIST       - RESISTIVITY TYPE
RMC .OHMM     0.25                 : RMC          - RESISTIVITY OF MUD CAKE
RMF .OHMM     0.25                 : RMF          - RESISTIVITY OF MUD FILTRATE
SUFT.C        15                   : SUFT         - SURFACE TEMPERATURE
~A  DEPTH     RESD     PHID     PHIN       GR
# ...
  280.500    4.190    0.245    0.458   92.102
  280.750    3.343    0.234    0.452   93.947
  281.000    2.987    0.232    0.452   96.411
  281.250    2.669    0.237    0.524  100.711
  281.500    2.671    0.243    0.548  103.780
  281.750    2.673    0.241    0.548  106.855
  282.000    2.778    0.230    0.551  108.092
  282.250    2.887    0.233    0.564  107.492
  282.500    2.944    0.231    0.579  107.502
  282.750    2.891    0.220    0.558  108.742
  283.000    2.839    0.207    0.527  109.980
  283.250    2.841    0.222    0.502  110.601
  283.500    2.951    0.235    0.502  110.006
  283.750    3.185    0.246    0.507  109.402
  284.000    3.639    0.254    0.512  104.517
  284.250    4.001    0.255    0.502  101.466
  284.500    4.399    0.238    0.483   96.584
  284.750    5.120    0.225    0.465   94.148
  285.000    5.524    0.216    0.447   92.931
  285.250    6.075    0.227    0.429   91.109
  285.500    6.557    0.237    0.452   91.119
  285.750    6.945    0.236    0.465   92.355
  286.000    7.081    0.250    0.475   92.371
  286.250    7.220    0.274    0.475   94.216
  286.500    7.649    0.263    0.469  102.191
  286.750    7.947    0.248    0.469  101.591
  287.000    8.102    0.247    0.469   91.808
  287.250    8.747    0.259    0.454   83.245
  287.500    8.918    0.263    0.443   76.523
  287.750    9.266    0.248    0.451   72.249
  288.000    9.450    0.219    0.439   70.426
  288.250    9.821    0.237    0.432   71.054
  288.500    9.824    0.255    0.416   74.129
  288.750   10.020    0.267    0.414   75.360
  289.000   10.027    0.269    0.404   71.089
  289.250    9.665    0.217    0.388   71.713
  289.500    9.488    0.186    0.355   76.623
  289.750    9.494    0.225    0.376   80.306
  290.000    9.499    0.250    0.424   82.770
  290.250    9.689    0.251    0.423   80.332
  290.500   10.066    0.257    0.414   76.058
  290.750   11.072    0.273    0.408   73.009
  291.000   12.406    0.288    0.401   74.245
  291.250   15.283    0.291    0.442   75.485
  291.500   17.782    0.262    0.455   71.211
  291.750   23.175    0.097    0.244   66.935
  292.000   26.971    0.010    0.171   59.601
  292.250   25.995    0.000    0.137   60.229
  292.500   23.667    0.000    0.147   62.074
  292.750   17.509    0.015    0.176   65.148
  293.000   12.242    0.119    0.188   68.221
  293.250   10.336    0.178    0.242   71.906
  293.500    9.063    0.203    0.371   76.819
  293.750    8.098    0.250    0.429   81.115
  294.000    7.804    0.266    0.458   84.803
  294.250    7.809    0.271    0.439   86.652
  294.500    7.816    0.247    0.421   88.498
  294.750    7.969    0.220    0.422   90.347
  295.000    8.283    0.222    0.432   94.034
  295.250    8.286    0.229    0.436   96.494
  295.500    8.612    0.233    0.431   97.121
  295.750    9.121    0.233    0.425   95.295
  296.000    9.477    0.240    0.421   91.638
  296.250    9.665    0.237    0.420   90.422
  296.500    9.670    0.233    0.414   89.823
  296.750    9.862    0.237    0.401   88.612
  297.000    9.868    0.238    0.398   88.624
  297.250    9.512    0.239    0.400   88.023
  297.500    9.338    0.244    0.411   88.035
  297.750    8.832    0.255    0.431   88.660
  298.000    8.671    0.264    0.439   86.833
  298.250    8.048    0.275    0.431   86.235
  298.500    7.753    0.278    0.422   88.085
  298.750    7.331    0.262    0.420   89.318
  299.000    6.804    0.269    0.421   86.270
  299.250    6.807    0.292    0.428   83.221
  299.500    6.560    0.310    0.469   81.396
  299.750    6.204    0.319    0.505   83.862
  300.000    5.545    0.259    0.494   85.706
  300.250    5.343    0.233    0.458   90.006
  300.500    5.147    0.223    0.440   93.079
  300.750    5.054    0.223    0.444   94.315
  301.000    5.058    0.224    0.444   94.327
  301.250    4.967    0.218    0.451   93.115
  301.500    4.786    0.225    0.459   94.353
  301.750    4.525    0.235    0.455   97.426
  302.000    4.279    0.233    0.454  101.110
  302.250    3.824    0.239    0.482  106.022
  302.500    3.684    0.251    0.503  108.481
  302.750    3.757    0.257    0.519  107.272
  303.000    4.054    0.266    0.534  107.895
  303.250    4.544    0.269    0.534  108.519
  303.500    4.998    0.259    0.508   94.450
  303.750    5.192    0.262    0.465   89.562
  304.000    5.396    0.267    0.438   94.475
  304.250    5.401    0.262    0.423   96.935
  304.500    5.506    0.252    0.433   96.335
  304.750    5.722    0.241    0.447   91.450
  305.000    5.946    0.245    0.465   87.787
  305.250    6.539    0.266    0.479   85.352
  305.500    7.058    0.272    0.492   85.365
  305.750    7.617    0.287    0.482   85.377
  306.000    7.913    0.302    0.463   81.716
  306.250    8.382    0.309    0.447   77.443
  306.500    8.231    0.315    0.447   75.617
  306.750    7.785    0.315    0.453   75.628
  307.000    7.360    0.303    0.450   78.091
  307.250    7.091    0.278    0.447   82.387
  307.500    6.581    0.258    0.446   85.463
  307.750    6.340    0.230    0.448   87.314
  308.000    6.345    0.219    0.431   89.776
  308.250    6.721    0.206    0.425   91.009
  308.500    6.852    0.214    0.417   91.632
  308.750    6.989    0.205    0.427   93.481
  309.000    6.992    0.199    0.438   90.436
  309.250    6.996    0.204    0.435   88.608
  309.500    7.136    0.217    0.426   88.619
  309.750    7.140    0.227    0.437   90.471
  310.000    7.145    0.227    0.449   92.320
  310.250    7.285    0.231    0.433   92.333
  310.500    7.428    0.233    0.420   90.507
  310.750    7.577    0.227    0.437   87.457
  311.000    7.581    0.230    0.417   84.408
  311.250    7.306    0.254    0.395   84.421
  311.500    6.908    0.249    0.388   86.270
  311.750    6.411    0.232    0.405   91.182
  312.000    6.295    0.215    0.394   94.254
  312.250    6.183    0.208    0.399   96.101
  312.500    5.956    0.213    0.411   96.727
  312.750    5.223    0.239    0.427   93.066
  313.000    4.410    0.233    0.423   91.243
  313.250    3.866    0.218    0.434   90.029
  313.500    3.144    0.208    0.423   88.816
  313.750    2.508    0.224    0.417   91.890
  314.000    2.284    0.260    0.445   94.352
  314.250    2.243    0.280    0.497   93.138
  314.500    2.288    0.271    0.503   88.867
  314.750    2.289    0.258    0.518   87.652
  315.000    2.291    0.251    0.529   88.277
  315.250    2.292    0.275    0.540   87.677
  315.500    2.294    0.296    0.491   84.018
  315.750    2.295    0.293    0.481   86.478
  316.000    2.385    0.278    0.499   90.775
  316.250    2.526    0.270    0.518   96.297
  316.500    2.624    0.266    0.501  101.821
  316.750    2.832    0.257    0.499  103.056
  317.000    3.359    0.248    0.504   98.783
  317.250    3.910    0.234    0.478   93.897
  317.500    4.218    0.219    0.435   91.460
  317.750    4.728    0.214    0.410   91.475
  318.000    5.102    0.209    0.398   91.485
  318.250    5.403    0.214    0.400   92.724
  318.500    5.721    0.214    0.410   91.515
  318.750    6.059    0.214    0.424   90.297
  319.000    6.178    0.219    0.387   83.577
  319.250    6.067    0.207    0.389   84.814
  319.500    5.320    0.193    0.397   88.498
  319.750    4.754    0.219    0.400   92.800
  320.000    4.329    0.230    0.406   93.419
  320.250    4.250    0.244    0.415   96.492
  320.500    4.096    0.241    0.452  105.689
  320.750    4.100    0.230    0.473  103.252
  321.000    4.025    0.224    0.460   96.529
  321.250    3.952    0.217    0.427   97.158
  321.500    3.881    0.219    0.411  100.839
  321.750    3.739    0.215    0.410  102.689
  322.000    3.605    0.204    0.415  100.255
  322.250    3.473    0.195    0.422  100.879
  322.500    3.410    0.207    0.458  107.010
  322.750    3.286    0.212    0.435  100.902
  323.000    3.414    0.216    0.451  101.527
  323.250    3.826    0.212    0.459  103.987
  323.500    4.289    0.207    0.463   97.879
  323.750    4.899    0.210    0.469   96.052
