~VERSION INFORMATION
 VERS.                 2.0:   CWLS LOG ASCII STANDARD -VERSION 2.0
 WRAP.                  NO:   ONE LINE PER DEPTH STEP
~WELL INFORMATION BLOCK
#MNEM.UNIT           DATA                    DESCRIPTION OF MNEMONIC
#---------    -------------------            -------------------------------
# Generated from Intellog Unique Number	CW_82_90/WELL/3425
WELL.         SHERRIT LIEGE                  : Well_name    - WELL
LOC .         00/06-36-089-21W4/0            : Location     - LOCATION
UWI .         00/06-36-089-21W4/0            : Uwi          - UNIQUE WELL ID
ENTR.         MAX                            : Entered      - ENTERED BY
SRVC.         SCHLUMBERGER                   : Scn          - SERVICE COMPANY
STRT.M        100                            : top_depth    - START DEPTH
STOP.M        242                            : bot_depth    - STOP DEPTH
STEP.M        0.25                           : increment    - STEP LENGTH
 NULL. -999.2500:NULL Value
~CURVE INFORMATION BLOCK
#MNEM UNIT       ERCB CURVE CODE    CURVE DESCRIPTION
#-----------   ------------------   ----------------------------------
DEPT.M        00 001 00 00         : DEPTH        - DEPTH
ILD .OHMM     00 120 00 00         : RESD         - DEEP RESISTIVITY (DIL)
NPHI.V/V      00 330 00 00         : PHIN         - NEUTRON POROSITY (SANDSTONE)
DPHI.V/V      00 890 00 00         : PHID         - DENSITY POROSITY (SANDSTONE)
CALI.MM       00 280 01 00         : CAL          - CALIPER
GR  .API      00 310 00 00         : GR           - GAMMA RAY
~PARAMETER INFORMATION
#MNEM.UNIT           DATA             DESCRIPTION OF MNEMONIC
#---------         -----------     ------------------------------
GL  .M        513                  : gl           - GROUND LEVEL ELEVATION
EREF.M        516.3                : kb           - ELEVATION OF DEPTH REFERENCE
DATM.M        513                  : datum        - DATUM ELEVATION
TDD .M        243.4                : tdd          - TOTAL DEPTH DRILLER
RUN .         ONE                  : Run          - RUN NUMBER
ENG .         BILL                 : Engineer     - RECORDING ENGINEER
WIT .         JIM                  : Witness      - WITNESSED BY
MUD .         GEL                  : Mud_type     - MUD TYPE
MATR.         SANDSTONE            : Logunit      - NEUTRON MATRIX
TMAX.C        24                   : BHT          - MAXIMUM RECORDED TEMPERATURE
BHTD.M        243.4                : BHTDEP       - MAXIMUM RECORDED TEMPERATURE
MATR.         1                    : LOGUNIT      - NEUTRON MATRIX
RMT .C        19.4                 : MDTP         - TEMPERATURE OF MUD
NEUT.         1                    : NEUTRON      - NEUTRON TYPE
RESI.         0                    : RESIST       - RESISTIVITY TYPE
RMC .OHMM     2.674                : RMC          - RESISTIVITY OF MUD CAKE
RMF .OHMM     2.97                 : RMF          - RESISTIVITY OF MUD FILTRATE
SUFT.C        -12                  : SUFT         - SURFACE TEMPERATURE
~A  DEPTH     RESD     PHIN     PHID      CAL       GR
# ...
  173.000   16.141    0.385    0.176  159.691   79.663
  173.250   17.197    0.393    0.188  160.106   78.135
  173.500   18.489    0.397    0.210  160.031   75.701
  173.750   19.336    0.418    0.230  156.027   73.572
  174.000   19.855    0.425    0.254  154.473   70.550
  174.250   20.012    0.436    0.201  153.436   68.111
  174.500   19.261    0.394    0.162  156.782   69.854
  174.750   17.699    0.304    0.083  157.677   75.166
  175.000   14.428    0.352    0.068  157.602   84.939
  175.250   12.316    0.402    0.152  157.046   92.030
  175.500   11.111    0.424    0.197  156.472   96.735
  175.750   10.117    0.420    0.245  156.406   97.282
  176.000    8.637    0.420    0.264  156.322   96.931
  176.250    8.390    0.424    0.244  156.737   96.598
  176.500    8.774    0.427    0.224  157.161   96.551
  176.750    9.433    0.428    0.224  157.566   95.313
  177.000    9.596    0.422    0.225  157.981   91.988
  177.250   10.035    0.415    0.233  158.396   88.371
  177.500   10.889    0.410    0.240  158.312   85.938
  177.750   12.146    0.427    0.248  158.745   81.138
  178.000   13.063    0.482    0.253  159.160   69.782
  178.250   14.436    0.453    0.206  166.434   63.780
  178.500   15.812    0.268    0.047  159.990   62.828
  178.750   16.845    0.258    0.051  155.986   63.679
  179.000   16.514    0.314    0.164  152.971   65.422
  179.250   14.491    0.382    0.214  154.356   69.835
  179.500   12.366    0.417    0.289  155.760   76.040
  179.750   11.906    0.397    0.287  153.725   81.048
  180.000   11.144    0.398    0.268  150.692   83.677
  180.250   11.338    0.438    0.268  149.166   83.927
  180.500   13.492    0.439    0.286  148.101   78.526
  180.750   17.611    0.423    0.294  148.516   71.328
  181.000   22.562    0.406    0.239  149.412   70.091
  181.250   27.102    0.379    0.206  150.326   66.778
  181.500   29.681    0.327    0.183  151.231   63.452
  181.750   28.827    0.168    0.156  151.156   64.588
  182.000   25.071    0.185    0.008  152.541   68.110
  182.250   19.876    0.314    0.015  154.435   74.915
  182.500   15.615    0.378    0.126  157.300   90.637
  182.750   13.080    0.407    0.187  158.685   98.917
  183.000   12.710    0.433    0.204  159.090   98.870
  183.250   12.690    0.433    0.211  160.014   95.253
  183.500   12.671    0.398    0.225  160.420   93.421
  183.750   12.658    0.391    0.234  160.844   96.936
  184.000   12.641    0.419    0.231  164.189   93.920
  184.250   12.393    0.434    0.226  164.114   92.380
  184.500   12.038    0.424    0.190  161.090   95.895
  184.750   11.802    0.398    0.155  160.044   97.049
  185.000   11.784    0.395    0.198  160.459   94.908
  185.250   11.877    0.421    0.188  163.804   94.271
  185.500   11.644    0.426    0.171  164.700   96.894
  185.750   11.626    0.415    0.165  164.624  101.909
  186.000   11.936    0.408    0.187  165.049  107.816
  186.250   12.483    0.415    0.210  166.943  112.230
  186.500   13.056    0.439    0.225  168.818  107.417
  186.750   13.654    0.458    0.229  168.752  101.718
  187.000   14.282    0.457    0.233  164.748   96.615
  187.250   15.214    0.420    0.244  160.254   91.505
  187.500   15.908    0.391    0.258  156.768   89.078
  187.750   16.182    0.409    0.259  151.276   89.922
  188.000   16.160    0.392    0.207  149.740   89.875
  188.250   16.138    0.352    0.141  149.674   90.416
  188.500   15.676    0.372    0.176  150.570   92.159
  188.750   14.952    0.381    0.229  152.944   94.788
  189.000   14.125    0.384    0.247  155.328   97.120
  189.250   13.467    0.378    0.250  155.235   99.446
  189.500   13.084    0.377    0.245  153.708  100.290
  189.750   12.707    0.381    0.246  153.615  100.540
  190.000   12.576    0.376    0.248  153.068  103.473
  190.250   12.557    0.374    0.230  152.494  104.020
  190.500   12.654    0.399    0.225  153.879  102.485
  190.750   12.756    0.410    0.232  151.835   97.381
  191.000   12.741    0.422    0.248  149.319   97.334
  191.250   12.717    0.428    0.258  148.764   95.793
  191.500   12.585    0.421    0.259  148.689   96.043
  191.750   12.342    0.407    0.242  149.104   98.363
  192.000   11.660    0.396    0.230  149.019  100.706
  192.250   11.752    0.389    0.238  149.434  103.633
  192.500   12.402    0.425    0.223  149.349  101.795
  192.750   12.735    0.441    0.200  149.293   98.779
  193.000   12.258    0.444    0.155  149.699   94.270
  193.250   12.242    0.421    0.129  149.624   88.862
  193.500   12.223    0.323    0.177  152.978   88.809
  193.750   11.985    0.446    0.212  159.772   86.090
  194.000   10.910    0.457    0.210  161.157   80.088
  194.250   10.029    0.431    0.179  155.693   77.364
  194.500    8.405    0.334    0.121  146.789   81.778
  194.750    6.663    0.397    0.158  145.253   93.038
  195.000    5.283    0.493    0.243  147.619  100.426
  195.250    4.991    0.531    0.251  147.534  104.543
  195.500    5.518    0.544    0.245  146.489   99.439
  195.750    6.627    0.522    0.244  146.413   97.601
  196.000    9.055    0.508    0.247  147.318   96.066
  196.250    9.648    0.473    0.254  148.214   92.449
  196.500   10.765    0.457    0.236  150.098   89.725
  196.750   11.467    0.437    0.192  154.932   93.543
  197.000   11.239    0.398    0.113  158.767   96.773
  197.250   11.022    0.387    0.152  159.672   96.714
  197.500   10.706    0.427    0.211  160.087   94.281
  197.750   10.590    0.428    0.197  160.511   93.353
  198.000   10.482    0.431    0.178  159.946   96.280
  198.250   10.468    0.455    0.174  158.891  100.693
  198.500   10.845    0.478    0.199  160.767  103.923
  198.750   11.343    0.471    0.210  162.642  105.958
  199.000   11.973    0.474    0.208  162.586  104.709
  199.250   12.987    0.478    0.204  161.521  100.800
  199.500   13.965    0.462    0.195  159.486   96.589
  199.750   14.874    0.427    0.178  154.512   93.257
  200.000   15.555    0.378    0.174  150.498   92.026
  200.250   15.826    0.376    0.192  149.462   91.080
  200.500   15.802    0.393    0.233  148.897   88.064
  200.750   16.229    0.411    0.251  148.313   84.442
  201.000   17.770    0.400    0.272  148.257   81.420
  201.250   18.933    0.380    0.289  148.172   77.505
  201.500   19.984    0.378    0.303  148.578   74.484
  201.750   21.292    0.366    0.269  149.982   72.943
  202.000   23.104    0.340    0.186  152.347   70.807
  202.250   25.070    0.349    0.196  153.271   67.494
  202.500   27.706    0.360    0.192  154.666   66.251
  202.750   30.629    0.340    0.176  156.060   64.412
  203.000   34.805    0.320    0.106  157.455   62.586
  203.250   39.187    0.338    0.141  157.361   61.051
  203.500   38.419    0.351    0.194  157.296   62.788
  203.750   35.303    0.342    0.178  157.220   69.885
  204.000   30.703    0.297    0.120  157.145   79.944
  204.250   26.453    0.324    0.174  157.061   83.471
  204.500   23.641    0.351    0.223  156.995   88.177
  204.750   23.608    0.382    0.248  157.401   86.053
  205.000   24.914    0.395    0.268  158.315   80.354
  205.250   26.554    0.400    0.263  158.711   71.669
  205.500   30.174    0.399    0.244  159.145   68.058
  205.750   34.594    0.393    0.210  159.060   65.923
  206.000   36.520    0.368    0.160  157.016   66.173
  206.250   38.192    0.290    0.091  154.001   67.612
  206.500   39.948    0.279    0.174  149.526   67.862
  206.750   38.441    0.324    0.220  144.052   67.214
  207.000   36.322    0.340    0.222  141.527   67.761
  207.250   27.249    0.325    0.081  140.962   70.694
  207.500   23.262    0.265    0.054  144.326   74.810
  207.750   19.672    0.306    0.111  150.130   82.501
  208.000   18.247    0.371    0.131  155.435   93.756
  208.250   17.238    0.415    0.191  159.289   89.842
  208.500   16.591    0.427    0.204  162.154   88.604
  208.750   16.568    0.423    0.196  163.539   91.823
  209.000   16.246    0.401    0.176  164.434   94.458
  209.250   15.490    0.376    0.128  164.378   95.296
