~VERSION INFORMATION
 VERS.                 2.0:   CWLS LOG ASCII STANDARD -VERSION 2.0
 WRAP.                  NO:   ONE LINE PER DEPTH STEP
~WELL INFORMATION BLOCK
#MNEM.UNIT           DATA                    DESCRIPTION OF MNEMONIC
#---------    -------------------            -------------------------------
# Generated from Intellog Unique Number	CS_69_70/WELL/618
WELL.         HUSKY AEC FISHER               : Well_name    - WELL
LOC .         00/05-12-069-06W4/0            : Location     - LOCATION
UWI .         00/05-12-069-06W4/0            : Uwi          - UNIQUE WELL ID
ENTR.         T                              : Entered      - ENTERED BY
SRVC.         SCHLUMBERGER                   : Scn          - SERVICE COMPANY
STRT.M        365                            : top_depth    - START DEPTH
STOP.M        570                            : bot_depth    - STOP DEPTH
STEP.M        0.25                           : increment    - STEP LENGTH
 NULL. -999.2500:NULL Value
~CURVE INFORMATION BLOCK
#MNEM UNIT       ERCB CURVE CODE    CURVE DESCRIPTION
#-----------   ------------------   ----------------------------------
DEPT.M        00 001 00 00         : DEPTH        - DEPTH
GR  .API      00 310 00 00         : GR           - GAMMA RAY
NPHI.V/V      00 330 00 00         : PHIN         - NEUTRON POROSITY (SANDSTONE)
DPHI.V/V      00 890 00 00         : PHID         - DENSITY POROSITY (SANDSTONE)
ILD .OHMM     00 120 00 00         : RESD         - DEEP RESISTIVITY (DIL)
~PARAMETER INFORMATION
#MNEM.UNIT           DATA             DESCRIPTION OF MNEMONIC
#---------         -----------     ------------------------------
GL  .M        716                  : gl           - GROUND LEVEL ELEVATION
EREF.M        719.6                : kb           - ELEVATION OF DEPTH REFERENCE
DATM.M        719.6                : datum        - DATUM ELEVATION
TDD .M        581                  : tdd          - TOTAL DEPTH DRILLER
RUN .         ONE                  : Run          - RUN NUMBER
ENG .         TIM                  : Engineer     - RECORDING ENGINEER
WIT .         JIM                  : Witness      - WITNESSED BY
MUD .         GEL                  : Mud_type     - MUD TYPE
MATR.         SANDSTONE            : Logunit      - NEUTRON MATRIX
TMAX.C        24                   : BHT          - MAXIMUM RECORDED TEMPERATURE
BHTD.M        581                  : BHTDEP       - MAXIMUM RECORDED TEMPERATURE
MATR.         1                    : LOGUNIT      - NEUTRON MATRIX
RMT .C        20                   : MDTP         - TEMPERATURE OF MUD
NEUT.         1                    : NEUTRON      - NEUTRON TYPE
RESI.         9.3                  : RESIST       - RESISTIVITY TYPE
RMC .OHMM     8.5                  : RMC          - RESISTIVITY OF MUD CAKE
RMF .OHMM     9.2                  : RMF          - RESISTIVITY OF MUD FILTRATE
SUFT.C        15                   : SUFT         - SURFACE TEMPERATURE
~A  DEPTH       GR     PHIN     PHID     RESD
  365.000   95.752    0.587    0.490    2.900
  365.250   99.444    0.569    0.484    3.015
  365.500  100.690    0.553    0.471    3.256
  365.750   95.832    0.548    0.444    3.322
  366.000   87.328    0.536    0.411    3.455
  366.250   86.128    0.522    0.399    3.522
  366.500   98.960    0.520    0.404    3.662
  366.750  102.653    0.510    0.416    3.598
  367.000   99.624    0.499    0.444    3.535
  367.250   88.064    0.502    0.454    3.541
  367.500   80.163    0.514    0.480    3.544
  367.750   77.148    0.528    0.501    3.549
  368.000   81.443    0.555    0.507    3.422
  368.250   82.073    0.587    0.516    3.178
  368.500   82.099    0.605    0.521    3.064
  368.750   79.084    0.603    0.488    3.067
  369.000   76.664    0.490    0.366    3.249
  369.250   76.081    0.448    0.305    5.017
  369.500   75.498    0.413    0.297    7.049
  369.750   71.873    0.401    0.302    7.902
  370.000   68.234    0.398    0.311    8.533
  370.250   64.608    0.404    0.320    8.706
  370.500   71.336    0.408    0.324    9.051
  370.750   78.680    0.400    0.328    9.406
  371.000   84.195    0.394    0.305    9.971
  371.250   80.563    0.393    0.286   10.563
  371.500   75.711    0.359    0.277   12.291
  371.750   67.201    0.340    0.283   16.017
  372.000   58.080    0.318    0.294   20.484
  372.250   50.180    0.297    0.314   23.842
  372.500   44.115    0.278    0.332   28.287
  372.750   49.013    0.271    0.328   32.310
  373.000   61.243    0.275    0.332   38.334
  373.250   59.447    0.280    0.332   39.110
  373.500   58.240    0.290    0.321   36.306
  373.750   56.438    0.301    0.304   30.684
  374.000   57.690    0.299    0.170   25.933
  374.250   61.369    0.304    0.160   21.108
  374.500   68.104    0.331    0.247   17.501
  374.750   69.350    0.385    0.300   14.516
  375.000   82.799    0.403    0.314   11.815
  375.250   90.143    0.408    0.311    9.985
  375.500   91.999    0.411    0.294    8.127
  375.750   87.757    0.411    0.265    6.999
  376.000   82.296    0.408    0.260    6.380
  376.250   77.444    0.409    0.272    6.152
  376.500   74.415    0.419    0.283    5.932
  376.750   73.222    0.417    0.296    5.939
  377.000   78.743    0.414    0.299    5.946
  377.250   82.442    0.409    0.299    5.953
  377.500   83.065    0.407    0.301    5.959
  377.750   84.318    0.404    0.303    5.966
  378.000   84.961    0.398    0.307    6.087
  378.250   86.804    0.393    0.309    6.212
  378.500   92.325    0.394    0.308    6.337
  378.750   92.969    0.399    0.303    6.466
  379.000   90.543    0.407    0.291    6.474
  379.250   86.910    0.423    0.276    6.481
  379.500   82.065    0.432    0.252    6.611
  379.750   80.263    0.412    0.245    6.744
  380.000   82.722    0.406    0.244    7.012
  380.250   86.407    0.412    0.241    7.020
  380.500   88.873    0.419    0.239    7.162
  380.750   92.558    0.430    0.235    7.312
  381.000   96.244    0.433    0.240    7.323
  381.250  100.539    0.431    0.253    7.329
  381.500  104.225    0.432    0.275    7.203
  381.750  106.081    0.432    0.295    7.073
  382.000  106.724    0.437    0.298    6.695
  382.250  109.196    0.449    0.275    6.335
  382.500  110.429    0.468    0.265    6.108
  382.750  109.256    0.496    0.294    5.672
  383.000  108.660    0.526    0.325    5.367
  383.250  107.467    0.551    0.337    5.272
  383.500  106.267    0.561    0.272    5.280
  383.750  106.910    0.552    0.263    5.091
  384.000  108.766    0.534    0.262    4.816
  384.250  110.013    0.545    0.268    4.390
  384.500  109.429    0.565    0.279    4.230
  384.750  107.017    0.569    0.291    4.003
  385.000  103.378    0.550    0.307    3.933
  385.250   93.648    0.540    0.319    3.939
  385.500   85.747    0.484    0.326    4.018
  385.750   81.505    0.458    0.291    4.504
  386.000   82.751    0.418    0.280    5.243
  386.250   87.047    0.424    0.266    7.369
  386.500   94.391    0.426    0.247    7.663
  386.750   99.906    0.420    0.243    8.116
  387.000   98.103    0.425    0.251    7.825
  387.250   89.593    0.432    0.270    7.686
  387.500   74.381    0.449    0.307    7.411
  387.750   68.303    0.476    0.346    7.146
  388.000   43.938    0.502    0.365    6.892
  388.250   37.860    0.455    0.372    7.030
  388.500   40.332    0.389    0.357    6.778
  388.750   44.017    0.398    0.363    6.294
  389.000   47.093    0.404    0.371    5.737
  389.250   53.828    0.406    0.366    5.328
  389.500   57.513    0.406    0.359    5.137
  389.750   61.808    0.406    0.354    5.241
  390.000   69.159    0.406    0.350    5.448
  390.250   72.228    0.407    0.349    5.664
  390.500   73.481    0.412    0.345    6.115
  390.750   71.069    0.418    0.338    6.601
  391.000   68.656    0.424    0.334    6.486
  391.250   66.237    0.421    0.327    6.254
  391.500   63.831    0.407    0.320    6.144
  391.750   68.119    0.410    0.315    6.037
  392.000   74.244    0.419    0.315    6.159
  392.250   73.661    0.429    0.315    6.403
  392.500   71.248    0.422    0.307    6.784
  392.750   66.403    0.416    0.299    6.419
  393.000   67.033    0.406    0.301    6.076
  393.250   75.597    0.395    0.302    6.081
  393.500   78.679    0.394    0.299    6.690
  393.750   75.047    0.401    0.286    6.955
  394.000   71.415    0.407    0.263    6.963
  394.250   68.996    0.410    0.273    6.841
  394.500   68.412    0.407    0.291    6.980
  394.750   69.672    0.410    0.310    6.988
  395.000   70.295    0.417    0.308    6.997
  395.250   72.151    0.420    0.305    7.141
  395.500   76.453    0.430    0.299    7.147
  395.750   78.309    0.430    0.293    7.156
  396.000   76.506    0.419    0.291    7.301
  396.250   74.100    0.404    0.286    7.594
  396.500   74.737    0.413    0.281    7.748
  396.750   76.586    0.424    0.275    7.757
  397.000   80.272    0.431    0.269    7.622
  397.250   91.275    0.422    0.265    7.487
  397.500   94.960    0.408    0.268    7.221
  397.750   88.889    0.392    0.271    7.093
  398.000   77.329    0.405    0.276    7.101
  398.250   72.478    0.431    0.288    6.979
  398.500   76.163    0.443    0.305    6.988
  398.750   81.075    0.442    0.325    6.994
  399.000   82.321    0.444    0.329    7.271
  399.250   82.957    0.444    0.321    7.280
  399.500   82.984    0.435    0.313    7.153
  399.750   83.621    0.434    0.303    7.030
  400.000   85.477    0.437    0.324    7.039
  400.250   86.113    0.448    0.359    7.047
  400.500   86.756    0.482    0.364    7.056
  400.750   87.379    0.476    0.334    7.335
  401.000   88.626    0.452    0.292    7.624
  401.250   88.042    0.461    0.284    7.926
  401.500   88.076    0.473    0.275    7.935
  401.750   91.145    0.483    0.263    7.945
  402.000   94.220    0.483    0.253    7.955
  402.250   96.686    0.483    0.242    7.964
  402.500   99.152    0.471    0.233    7.974
  402.750   99.179    0.446    0.228    7.837
  403.000   91.888    0.423    0.236    7.698
  403.250   85.207    0.454    0.249    7.422
  403.500   82.794    0.498    0.279    7.157
  403.750   80.991    0.515    0.312    7.034
  404.000   80.415    0.529    0.335    6.782
  404.250   86.533    0.525    0.364    6.539
  404.500   95.097    0.511    0.388    6.423
  404.750  100.015    0.517    0.410    6.311
  405.000   97.589    0.512    0.393    6.201
  405.250   88.469    0.477    0.308    7.085
  405.500   78.739    0.447    0.277    7.506
  405.750   78.155    0.422    0.289    7.658
  406.000   83.670    0.391    0.301    7.669
  406.250   88.575    0.413    0.298    7.535
  406.500   89.828    0.432    0.286    7.402
  406.750   89.238    0.402    0.277    7.139
  407.000   87.436    0.389    0.276    7.148
  407.250   87.462    0.406    0.276    7.431
  407.500   88.709    0.424    0.282    7.440
  407.750   88.735    0.448    0.288    7.449
  408.000   86.932    0.462    0.312    7.458
  408.250   83.917    0.473    0.312    7.191
