~VERSION INFORMATION
 VERS.                 2.0:   CWLS LOG ASCII STANDARD -VERSION 2.0
 WRAP.                  NO:   ONE LINE PER DEPTH STEP
~WELL INFORMATION BLOCK
#MNEM.UNIT           DATA                    DESCRIPTION OF MNEMONIC
#---------    -------------------            -------------------------------
# Generated from Intellog Unique Number	CS_71_72/WELL/776
WELL.         SULPETRO BRENDA IPIATIK        : Well_name    - WELL
LOC .         00/06-24-072-10W4/0            : Location     - LOCATION
UWI .         00/06-24-072-10W4/0            : Uwi          - UNIQUE WELL ID
ENTR.         SP                             : Entered      - ENTERED BY
SRVC.         SCHLUMBERGER                   : Scn          - SERVICE COMPANY
STRT.M        315                            : top_depth    - START DEPTH
STOP.M        505                            : bot_depth    - STOP DEPTH
STEP.M        0.25                           : increment    - STEP LENGTH
 NULL. -999.2500:NULL Value
~CURVE INFORMATION BLOCK
#MNEM UNIT       ERCB CURVE CODE    CURVE DESCRIPTION
#-----------   ------------------   ----------------------------------
DEPT.M        00 001 00 00         : DEPTH        - DEPTH
ILD .OHMM     00 120 00 00         : RESD         - DEEP RESISTIVITY (DIL)
DPHI.V/V      00 890 00 00         : PHID         - DENSITY POROSITY (LIMESTONE)
NPHI.V/V      00 330 00 00         : PHIN         - NEUTRON POROSITY (LIMESTONE)
GR  .API      00 310 00 00         : GR           - GAMMA RAY
~PARAMETER INFORMATION
#MNEM.UNIT           DATA             DESCRIPTION OF MNEMONIC
#---------         -----------     ------------------------------
GL  .M        666.96               : gl           - GROUND LEVEL ELEVATION
EREF.M        666.93               : kb           - ELEVATION OF DEPTH REFERENCE
DATM.M        666.96               : datum        - DATUM ELEVATION
TDD .M        520                  : tdd          - TOTAL DEPTH DRILLER
RUN .         ONE                  : Run          - RUN NUMBER
ENG .         BILL                 : Engineer     - RECORDING ENGINEER
WIT .         JIM                  : Witness      - WITNESSED BY
MUD .         GEL                  : Mud_type     - MUD TYPE
MATR.         LIMESTONE            : Logunit      - NEUTRON MATRIX
TMAX.C        20                   : BHT          - MAXIMUM RECORDED TEMPERATURE
BHTD.M        520                  : BHTDEP       - MAXIMUM RECORDED TEMPERATURE
MATR.         1                    : LOGUNIT      - NEUTRON MATRIX
RMT .C        25                   : MDTP         - TEMPERATURE OF MUD
NEUT.         1                    : NEUTRON      - NEUTRON TYPE
RESI.         0                    : RESIST       - RESISTIVITY TYPE
RMC .OHMM     0.25                 : RMC          - RESISTIVITY OF MUD CAKE
RMF .OHMM     0.25                 : RMF          - RESISTIVITY OF MUD FILTRATE
SUFT.C        15                   : SUFT         - SURFACE TEMPERATURE
~A  DEPTH     RESD     PHID     PHIN       GR
  315.000    2.748    0.130    0.467   69.800
  315.250    2.854    0.098    0.460   63.683
  315.500    2.854    0.064    0.438   66.139
  315.750    2.908    0.184    0.434   74.717
  316.000    2.909    0.202    0.475   84.519
  316.250    2.855    0.197    0.513   86.975
  316.500    2.803    0.194    0.513   80.860
  316.750    2.701    0.195    0.501   76.579
  317.000    2.701    0.204    0.494   75.973
  317.250    2.651    0.207    0.486   80.267
  317.500    2.603    0.200    0.489   83.947
  317.750    2.555    0.200    0.497   86.401
  318.000    2.555    0.205    0.507   87.632
  318.250    2.556    0.208    0.505   87.638
  318.500    2.556    0.208    0.513   88.869
  318.750    2.605    0.195    0.518   94.385
  319.000    2.654    0.190    0.534   96.229
  319.250    2.705    0.197    0.556   83.379
  319.500    2.809    0.206    0.548   81.549
  319.750    2.916    0.200    0.515   85.229
  320.000    3.086    0.192    0.454   92.581
  320.250    3.204    0.191    0.435   99.323
  320.500    3.390    0.195    0.424   98.716
  320.750    3.519    0.111    0.416   90.153
  321.000    3.586    0.083    0.424   86.485
  321.250    3.655    0.169    0.440   84.655
  321.500    3.656    0.181    0.476   83.436
  321.750    3.588    0.178    0.528   86.503
  322.000    3.457    0.178    0.563   82.227
  322.250    3.269    0.184    0.579   81.007
  322.500    3.149    0.186    0.558   85.300
  322.750    3.034    0.187    0.508   85.917
  323.000    2.978    0.189    0.482   84.699
  323.250    2.979    0.190    0.476   91.442
  323.500    2.979    0.187    0.478   96.347
  323.750    3.094    0.182    0.481   92.066
  324.000    3.094    0.176    0.478   87.787
  324.250    3.212    0.175    0.472   86.568
  324.500    3.213    0.176    0.460   91.472
  324.750    3.154    0.182    0.447   89.644
  325.000    3.096    0.185    0.452   81.692
  325.250    3.097    0.182    0.474   78.024
  325.500    3.097    0.185    0.499   76.803
  325.750    3.216    0.192    0.518   82.934
  326.000    3.339    0.190    0.525   84.777
  326.250    3.467    0.195    0.477   82.947
  326.500    3.533    0.201    0.444   81.728
  326.750    3.669    0.180    0.412   81.124
  327.000    3.739    0.171    0.401   79.293
  327.250    3.882    0.256    0.428   78.686
  327.500    4.031    0.282    0.456   75.019
  327.750    4.031    0.289    0.482   72.577
  328.000    4.108    0.280    0.479   75.645
  328.250    4.109    0.269    0.469   81.774
  328.500    4.110    0.247    0.464   89.742
  328.750    4.110    0.231    0.461   93.420
  329.000    4.111    0.220    0.475   98.323
  329.250    4.112    0.226    0.470  104.454
  329.500    4.112    0.225    0.461  101.397
  329.750    4.191    0.221    0.454   94.057
  330.000    4.192    0.220    0.456   86.716
  330.250    4.115    0.225    0.463   84.885
  330.500    4.039    0.232    0.484   88.567
  330.750    4.040    0.231    0.508   88.572
  331.000    4.117    0.227    0.516   94.091
  331.250    4.355    0.227    0.507   95.932
  331.500    4.695    0.227    0.490   99.001
  331.750    4.875    0.224    0.487  100.231
  332.000    4.968    0.221    0.481   98.401
  332.250    5.062    0.223    0.479   95.345
  332.500    5.064    0.232    0.490   99.638
  332.750    4.970    0.247    0.501   96.585
  333.000    4.789    0.254    0.491   95.977
  333.250    4.613    0.246    0.494   92.924
  333.500    4.362    0.207    0.502   86.807
  333.750    4.363    0.194    0.501   94.772
  334.000    4.364    0.195    0.507   95.391
  334.250    4.283    0.203    0.533   91.724
  334.500    4.284    0.206    0.484   95.405
  334.750    4.285    0.200    0.481   99.083
  335.000    4.367    0.187    0.495  101.538
  335.250    4.286    0.179    0.480   98.485
  335.500    4.287    0.184    0.522   96.655
  335.750    4.369    0.189    0.541   94.823
  336.000    4.370    0.189    0.528   97.279
  336.250    4.453    0.199    0.501  104.021
  336.500    4.624    0.204    0.484  103.414
  336.750    4.892    0.210    0.465   94.237
  337.000    5.176    0.199    0.458   88.733
  337.250    5.274    0.176    0.449   96.086
  337.500    5.476    0.168    0.431  102.217
  337.750    5.903    0.166    0.415  100.386
  338.000    6.129    0.161    0.401   99.167
  338.250    6.246    0.152    0.400   98.563
  338.500    6.247    0.150    0.421   95.506
  338.750    6.019    0.152    0.438   92.452
  339.000    5.908    0.156    0.452   94.907
  339.250    5.909    0.154    0.447   95.527
  339.500    6.022    0.152    0.437   95.532
  339.750    6.253    0.153    0.426   93.701
  340.000    6.253    0.158    0.426   93.710
  340.250    6.373    0.161    0.443   96.163
  340.500    6.374    0.160    0.449   98.620
  340.750    6.257    0.160    0.447  100.462
  341.000    6.197    0.163    0.437   98.020
  341.250    6.143    0.167    0.432   97.413
  341.500    6.030    0.173    0.424   91.298
  341.750    6.031    0.178    0.419   91.305
  342.000    6.032    0.182    0.437   96.820
  342.250    6.381    0.179    0.445  106.012
  342.500    6.503    0.166    0.453  106.629
  342.750    6.627    0.157    0.455  106.025
  343.000    6.505    0.153    0.443  101.746
  343.250    6.386    0.155    0.456   98.690
  343.500    6.152    0.163    0.453   96.859
  343.750    5.927    0.169    0.428  102.379
  344.000    5.928    0.161    0.413  104.219
  344.250    5.929    0.151    0.402  100.552
  344.500    5.930    0.162    0.387   91.376
  344.750    5.931    0.175    0.386   87.095
  345.000    5.932    0.177    0.406   87.104
  345.250    5.933    0.162    0.429   90.169
  345.500    6.046    0.164    0.436   93.239
  345.750    6.162    0.183    0.432   86.510
  346.000    6.398    0.196    0.433   81.618
  346.250    6.897    0.211    0.438   79.787
  346.500    7.718    0.229    0.438   83.467
  346.750    8.800    0.228    0.427   81.024
  347.000   10.034    0.159    0.412   67.561
  347.250   10.816    0.111    0.404   59.608
  347.500   11.659    0.140    0.397   61.452
  347.750   12.106    0.181    0.390   68.806
  348.000   12.336    0.217    0.406   71.260
  348.250   12.338    0.248    0.412   72.490
  348.500   11.666    0.255    0.420   76.785
  348.750   11.031    0.248    0.418   82.303
  349.000    9.862    0.233    0.391   84.755
  349.250    9.325    0.214    0.371   87.824
  349.500    9.153    0.206    0.360   88.443
  349.750    8.818    0.202    0.361   87.226
  350.000    8.495    0.212    0.387   86.006
  350.250    8.821    0.234    0.413   78.666
  350.500    9.159    0.247    0.424   74.998
  350.750    9.873    0.256    0.417   78.066
  351.000   10.251    0.250    0.408   77.459
  351.250   10.645    0.235    0.397   68.282
  351.500   10.449    0.224    0.385   67.065
  351.750   10.257    0.218    0.382   72.582
  352.000    9.699    0.209    0.401   74.425
  352.250    9.001    0.220    0.398   73.208
  352.500    8.835    0.239    0.418   72.600
  352.750    8.673    0.247    0.440   72.611
  353.000    8.674    0.245    0.450   72.615
  353.250    8.675    0.239    0.463   72.620
  353.500    8.677    0.250    0.473   74.463
  353.750    8.679    0.256    0.481   76.306
  354.000    8.680    0.257    0.467   77.537
  354.250    8.681    0.257    0.450   75.095
  354.500    8.364    0.255    0.435   72.039
  354.750    8.210    0.247    0.429   78.170
  355.000    8.059    0.241    0.437   80.624
  355.250    8.368    0.240    0.459   81.855
  355.500    8.528    0.240    0.486   80.637
  355.750    8.690    0.253    0.492   76.359
  356.000    8.856    0.262    0.468   73.303
  356.250    8.858    0.252    0.448   76.982
  356.500    8.859    0.247    0.438   84.337
  356.750    8.697    0.235    0.435   89.241
  357.000    8.537    0.229    0.438   89.859
  357.250    8.538    0.234    0.447   84.968
  357.500    8.226    0.234    0.436   81.912
  357.750    8.227    0.224    0.432   78.246
  358.000    8.228    0.215    0.448   74.579
  358.250    8.544    0.221    0.453   73.361
