~VERSION INFORMATION
 VERS.                 2.0:   CWLS LOG ASCII STANDARD -VERSION 2.0
 WRAP.                  NO:   ONE LINE PER DEPTH STEP
~WELL INFORMATION BLOCK
#MNEM.UNIT           DATA                    DESCRIPTION OF MNEMONIC
#---------    -------------------            -------------------------------
# Generated from Intellog Unique Number	CS_73_76/WELL/2181
WELL.         DOME PETROLEUM LIMITED         : Well_name    - WELL
LOC .         00/09-34-074-10W4/0            : Location     - LOCATION
UWI .         00/09-34-074-10W4/0            : Uwi          - UNIQUE WELL ID
ENTR.         SP                             : Entered      - ENTERED BY
SRVC.         SCHLUMBERGER                   : Scn          - SERVICE COMPANY
STRT.M        295                            : top_depth    - START DEPTH
STOP.M        495                            : bot_depth    - STOP DEPTH
STEP.M        0.25                           : increment    - STEP LENGTH
 NULL. -999.2500:NULL Value
~CURVE INFORMATION BLOCK
#MNEM UNIT       ERCB CURVE CODE    CURVE DESCRIPTION
#-----------   ------------------   ----------------------------------
DEPT.M        00 001 00 00         : DEPTH        - DEPTH
ILD .OHMM     00 120 00 00         : RESD         - DEEP RESISTIVITY (DIL)
DPHI.V/V      00 890 00 00         : PHID         - DENSITY POROSITY (LIMESTONE)
NPHI.V/V      00 330 00 00         : PHIN         - NEUTRON POROSITY (LIMESTONE)
GR  .API      00 310 00 00         : GR           - GAMMA RAY
~PARAMETER INFORMATION
#MNEM.UNIT           DATA             DESCRIPTION OF MNEMONIC
#---------         -----------     ------------------------------
GL  .M        675.02               : gl           - GROUND LEVEL ELEVATION
EREF.M        679                  : kb           - ELEVATION OF DEPTH REFERENCE
DATM.M        675.02               : datum        - DATUM ELEVATION
TDD .M        501                  : tdd          - TOTAL DEPTH DRILLER
RUN .         ONE                  : Run          - RUN NUMBER
ENG .         BILL                 : Engineer     - RECORDING ENGINEER
WIT .         JIM                  : Witness      - WITNESSED BY
MUD .         GEL                  : Mud_type     - MUD TYPE
MATR.         LIMESTONE            : Logunit      - NEUTRON MATRIX
TMAX.C        17                   : BHT          - MAXIMUM RECORDED TEMPERATURE
BHTD.M        501                  : BHTDEP       - MAXIMUM RECORDED TEMPERATURE
MATR.         1                    : LOGUNIT      - NEUTRON MATRIX
RMT .C        25                   : MDTP         - TEMPERATURE OF MUD
NEUT.         1                    : NEUTRON      - NEUTRON TYPE
RESI.         0                    : RESIST       - RESISTIVITY TYPE
RMC .OHMM     0.25                 : RMC          - RESISTIVITY OF MUD CAKE
RMF .OHMM     0.25                 : RMF          - RESISTIVITY OF MUD FILTRATE
SUFT.C        15                   : SUFT         - SURFACE TEMPERATURE
~A  DEPTH     RESD     PHID     PHIN       GR
  295.000    3.243    0.256    0.541   91.705
  295.250    3.244    0.253    0.532   91.727
  295.500    3.244    0.254    0.519   92.347
  295.750    3.370    0.254    0.513   96.012
  296.000    3.435    0.253    0.506   98.462
  296.250    3.501    0.258    0.504  100.907
  296.500    3.777    0.253    0.511  102.141
  296.750    3.924    0.231    0.521   99.123
  297.000    4.076    0.232    0.505   95.497
  297.250    4.154    0.237    0.487   91.269
  297.500    4.316    0.217    0.448   91.285
  297.750    4.316    0.205    0.463   96.772
  298.000    4.078    0.201    0.472   99.220
  298.250    4.001    0.207    0.480   98.024
  298.500    3.853    0.217    0.488   95.013
  298.750    3.709    0.228    0.480   95.025
  299.000    3.572    0.234    0.483   98.691
  299.250    3.505    0.232    0.497  101.139
  299.500    3.505    0.222    0.506  101.763
  299.750    3.641    0.221    0.512   99.959
  300.000    3.782    0.223    0.523   95.729
  300.250    3.783    0.223    0.534   93.318
  300.500    3.783    0.222    0.541   92.122
  300.750    3.783    0.218    0.492   95.183
  301.000    3.784    0.207    0.476   97.021
  301.250    3.643    0.208    0.475   98.256
  301.500    3.644    0.218    0.492   99.486
  301.750    3.644    0.226    0.515   98.286
  302.000    3.714    0.231    0.524   97.097
  302.250    3.858    0.247    0.530   97.109
  302.500    4.008    0.244    0.517   98.346
  302.750    4.163    0.236    0.514   99.579
  303.000    4.243    0.232    0.508   99.605
  303.250    4.325    0.228    0.475   99.011
  303.500    4.244    0.223    0.452   95.991
  303.750    4.086    0.209    0.434   96.010
  304.000    4.245    0.194    0.451   98.459
  304.250    4.410    0.193    0.471   99.696
  304.500    4.942    0.204    0.479   99.103
  304.750    6.696    0.215    0.468   97.303
  305.000    9.246    0.219    0.414   95.500
  305.250   11.611    0.237    0.398   93.086
  305.500   14.039    0.251    0.382   86.430
  305.750   15.148    0.268    0.362   79.163
  306.000   16.344    0.294    0.339   74.927
  306.250   16.659    0.313    0.333   70.693
  306.500   16.348    0.312    0.333   67.068
  306.750   16.350    0.287    0.338   65.871
  307.000   16.664    0.268    0.346   65.290
  307.250   18.675    0.275    0.349   61.055
  307.500   23.012    0.280    0.340   56.213
  307.750   29.454    0.288    0.302   50.159
  308.000   36.295    0.269    0.277   42.896
  308.250   43.059    0.226    0.235   38.052
  308.500   33.016    0.222    0.237   36.857
  308.750   24.839    0.254    0.259   38.696
  309.000   18.336    0.278    0.283   48.437
  309.250   16.056    0.277    0.303   57.561
  309.500   14.885    0.280    0.329   69.120
  309.750   15.171    0.266    0.348   79.462
  310.000   15.464    0.249    0.386   85.554
  310.250   16.063    0.244    0.399   88.006
  310.500   16.372    0.255    0.396   89.236
  310.750   17.007    0.257    0.395   86.226
  311.000   18.006    0.251    0.389   84.416
  311.250   18.352    0.274    0.386   78.359
  311.500   18.706    0.290    0.400   73.522
  311.750   19.066    0.304    0.417   68.077
  312.000   19.067    0.314    0.422   63.841
  312.250   18.711    0.322    0.416   60.217
  312.500   18.361    0.315    0.420   61.453
  312.750   18.017    0.305    0.425   65.725
  313.000   17.680    0.300    0.422   68.778
  313.250   17.349    0.299    0.406   71.223
  313.500   17.351    0.289    0.397   76.709
  313.750   18.024    0.280    0.397   82.194
  314.000   19.082    0.278    0.417   87.685
  314.250   19.822    0.271    0.434   90.130
  314.500   20.590    0.284    0.447   87.719
  314.750   21.799    0.296    0.457   79.849
  315.000   22.644    0.298    0.419   76.216
  315.250   23.973    0.319    0.410   67.732
  315.500   24.903    0.329    0.419   59.252
  315.750   24.905    0.335    0.424   53.801
  316.000   24.908    0.327    0.399   48.358
  316.250   24.443    0.324    0.394   47.158
  316.500   23.984    0.331    0.395   49.619
  316.750   22.233    0.345    0.394   50.847
  317.000   19.103    0.347    0.384   52.681
  317.250   15.803    0.337    0.384   59.993
  317.500   12.585    0.316    0.399   66.695
  317.750   11.232    0.294    0.393   74.001
  318.000   10.815    0.254    0.384   80.696
  318.250   11.235    0.227    0.395   89.820
  318.500   11.236    0.214    0.401   98.951
  318.750   11.236    0.223    0.399   96.543
  319.000   11.238    0.240    0.401   90.500
  319.250   10.029    0.250    0.396   87.477
  319.500    9.122    0.240    0.395   83.846
  319.750    7.691    0.245    0.396   82.040
  320.000    6.864    0.226    0.416   88.136
  320.250    6.362    0.188    0.435   93.016
  320.500    5.787    0.162    0.455   99.718
  320.750    5.165    0.133    0.471  102.160
  321.000    4.523    0.123    0.492  105.828
  321.250    4.192    0.138    0.499  107.052
  321.500    3.886    0.141    0.524  106.464
  321.750    4.193    0.173    0.547   98.597
  322.000    4.699    0.219    0.543   88.897
  322.250    6.247    0.246    0.515   77.978
  322.500    8.465    0.295    0.444   56.136
  322.750   11.912    0.312    0.410   44.009
  323.000   17.747    0.327    0.401   42.209
  323.250   24.506    0.326    0.412   43.450
  323.500   26.948    0.334    0.419   43.460
  323.750   27.993    0.343    0.418   45.905
  324.000   26.448    0.348    0.408   49.570
  324.250   25.466    0.349    0.399   51.412
  324.500   24.518    0.345    0.403   52.039
  324.750   23.165    0.343    0.414   53.276
  325.000   22.304    0.344    0.424   54.502
  325.250   21.885    0.331    0.431   58.783
  325.500   21.072    0.320    0.421   60.625
  325.750   20.290    0.313    0.401   62.461
  326.000   19.536    0.317    0.401   64.908
  326.250   19.171    0.318    0.407   66.137
  326.500   19.173    0.310    0.407   69.194
  326.750   19.175    0.307    0.409   70.430
  327.000   19.177    0.303    0.414   69.838
  327.250   19.177    0.310    0.420   70.464
  327.500   18.465    0.300    0.415   73.522
  327.750   17.117    0.299    0.411   74.755
  328.000   14.707    0.309    0.411   74.773
  328.250   12.879    0.322    0.411   79.043
  328.500   11.066    0.322    0.395   84.526
  328.750    8.813    0.304    0.389   91.832
  329.000    7.717    0.294    0.387  100.358
  329.250    6.887    0.267    0.398  104.622
  329.500    5.918    0.250    0.444  111.937
  329.750    5.591    0.219    0.460  116.204
  330.000    5.383    0.208    0.473  119.256
  330.250    5.384    0.204    0.484  119.885
  330.500    5.920    0.181    0.479  119.899
  330.750    6.892    0.173    0.468  119.318
  331.000    8.333    0.176    0.465  118.122
  331.250    9.886    0.185    0.451  114.494
  331.500   11.079    0.200    0.435  107.835
  331.750   12.182    0.225    0.435  104.813
  332.000   14.453    0.242    0.435  104.833
  332.250   15.893    0.258    0.428  104.245
  332.500   17.148    0.270    0.424  101.226
  332.750   16.201    0.297    0.420   97.000
  333.000   15.017    0.309    0.414   93.377
  333.250   13.151    0.285    0.406   92.173
  333.500   11.962    0.266    0.406   94.013
  333.750   11.300    0.248    0.411   97.073
  334.000   10.676    0.233    0.419   99.527
  334.250   10.677    0.245    0.436  100.144
  334.500   12.195    0.258    0.437  100.772
  334.750   13.410    0.245    0.425   98.967
  335.000   15.029    0.245    0.420   94.126
  335.250   17.494    0.230    0.428   86.859
  335.500   20.365    0.248    0.427   65.016
  335.750   23.706    0.287    0.411   51.068
  336.000   24.625    0.315    0.400   48.058
  336.250   26.569    0.306    0.401   47.467
  336.500   28.129    0.311    0.405   47.481
  336.750   28.131    0.329    0.408   47.508
  337.000   28.134    0.337    0.419   47.520
  337.250   27.609    0.344    0.405   47.537
  337.500   27.093    0.343    0.412   48.773
  337.750   26.585    0.320    0.419   50.003
  338.000   26.088    0.315    0.412   53.061
  338.250   25.600    0.311    0.400   53.081
