~VERSION INFORMATION
 VERS.                 2.0:   CWLS LOG ASCII STANDARD -VERSION 2.0
 WRAP.                  NO:   ONE LINE PER DEPTH STEP
~WELL INFORMATION BLOCK
#MNEM.UNIT           DATA                    DESCRIPTION OF MNEMONIC
#---------    -------------------            -------------------------------
# Generated from Intellog Unique Number	CW_73_75/WELL/3520
WELL.         MANNVILLE OIL                  : Well_name    - WELL
LOC .         00/07-08-073-03W5/0            : Location     - LOCATION
UWI .         00/07-08-073-03W5/0            : Uwi          - UNIQUE WELL ID
ENTR.         TIM                            : Entered      - ENTERED BY
SRVC.         SCHLUMBERGER                   : Scn          - SERVICE COMPANY
DATE.         05\15\92                       : Date         - LOG DATE
STRT.M        350                            : top_depth    - START DEPTH
STOP.M        620                            : bot_depth    - STOP DEPTH
STEP.M        0.25                           : increment    - STEP LENGTH
 NULL. -999.2500:NULL Value
~CURVE INFORMATION BLOCK
#MNEM UNIT       ERCB CURVE CODE    CURVE DESCRIPTION
#-----------   ------------------   ----------------------------------
DEPT.M        00 001 00 00         : DEPTH        - DEPTH
GR  .API      00 310 00 00         : GR           - GAMMA RAY
NPHI.V/V      00 330 00 00         : PHIN         - NEUTRON POROSITY (SANDSTONE)
DPHI.V/V      00 890 00 00         : PHID         - DENSITY POROSITY (SANDSTONE)
ILD .OHMM     00 120 00 00         : RESD         - DEEP RESISTIVITY (DIL)
~PARAMETER INFORMATION
#MNEM.UNIT           DATA             DESCRIPTION OF MNEMONIC
#---------         -----------     ------------------------------
GL  .M        590                  : gl           - GROUND LEVEL ELEVATION
EREF.M        593.5                : kb           - ELEVATION OF DEPTH REFERENCE
DATM.M        593.5                : datum        - DATUM ELEVATION
TDD .M        621                  : tdd          - TOTAL DEPTH DRILLER
RUN .         ONE                  : Run          - RUN NUMBER
ENG .         JO                   : Engineer     - RECORDING ENGINEER
WIT .         TIM                  : Witness      - WITNESSED BY
MUD .         GEL                  : Mud_type     - MUD TYPE
MATR.         SANDSTONE            : Logunit      - NEUTRON MATRIX
TMAX.C        28                   : BHT          - MAXIMUM RECORDED TEMPERATURE
BHTD.M        620                  : BHTDEP       - MAXIMUM RECORDED TEMPERATURE
RMT .C        15                   : MDTP         - TEMPERATURE OF MUD
MUDD.KG/M     1080                 : MWT          - MUD DENSITY
NEUT.         1                    : NEUTRON      - NEUTRON TYPE
RESI.         0                    : RESIST       - RESISTIVITY TYPE
RM  .OHMM     2.53                 : RM           - RESISTIVITY OF MUD
RMC .OHMM     2.78                 : RMC          - RESISTIVITY OF MUD CAKE
RMF .OHMM     2.33                 : RMF          - RESISTIVITY OF MUD FILTRATE
SUFT.C        4                    : SUFT         - SURFACE TEMPERATURE
~A  DEPTH       GR     PHIN     PHID     RESD
  350.000  102.453    0.388    0.219    2.857
  350.250  103.583    0.417    0.226    2.956
  350.500  108.228    0.437    0.233    3.006
  350.750  111.681    0.420    0.241    3.055
  351.000  112.207    0.363    0.242    3.104
  351.250  110.967    0.362    0.240    3.153
  351.500  109.139    0.383    0.230    3.265
  351.750  106.722    0.398    0.228    3.320
  352.000  103.732    0.403    0.227    3.370
  352.250   97.768    0.403    0.270    3.302
  352.500   90.643    0.395    0.283    3.178
  352.750   75.263    0.352    0.294    2.893
  353.000   69.315    0.347    0.305    2.585
  353.250   40.971    0.350    0.320    2.311
  353.500   35.023    0.346    0.323    2.104
  353.750   30.840    0.339    0.326    1.913
  354.000   29.012    0.335    0.326    1.876
  354.250   28.329    0.331    0.326    1.872
  354.500   28.282    0.331    0.325    1.867
  354.750   28.808    0.339    0.322    1.864
  355.000   29.923    0.342    0.312    1.859
  355.250   30.433    0.345    0.299    1.888
  355.500   30.959    0.348    0.297    1.884
  355.750   32.661    0.351    0.300    1.916
  356.000   33.776    0.352    0.307    1.946
  356.250   35.463    0.345    0.312    1.941
  356.500   36.609    0.336    0.313    1.973
  356.750   38.900    0.332    0.303    2.006
  357.000   40.014    0.340    0.300    2.002
  357.250   41.717    0.345    0.302    2.034
  357.500   45.186    0.338    0.302    2.106
  357.750   66.915    0.339    0.286    2.177
  358.000   79.227    0.350    0.243    2.255
  358.250   79.164    0.360    0.223    2.293
  358.500   74.362    0.367    0.234    2.459
  358.750   70.784    0.363    0.240    2.548
  359.000   67.778    0.362    0.237    2.684
  359.250   65.934    0.360    0.241    2.728
  359.500   67.049    0.361    0.243    2.772
  359.750   67.575    0.362    0.246    2.818
  360.000   65.731    0.363    0.242    2.863
  360.250   65.095    0.361    0.239    2.910
  360.500   63.251    0.358    0.238    2.904
  360.750   64.381    0.360    0.235    2.897
  361.000   71.969    0.366    0.234    2.944
  361.250   76.599    0.370    0.232    2.938
  361.500   77.713    0.366    0.230    2.931
  361.750   75.885    0.360    0.224    2.922
  362.000   74.661    0.357    0.223    2.917
  362.250   72.833    0.363    0.229    2.859
  362.500   82.187    0.368    0.238    2.747
  362.750   88.009    0.378    0.239    2.694
  363.000   90.905    0.422    0.238    2.590
  363.250   95.535    0.445    0.234    2.492
  363.500   97.842    0.433    0.226    2.395
  363.750  100.722    0.434    0.224    2.348
  364.000  106.513    0.472    0.226    2.298
  364.250  102.362    0.481    0.229    2.336
  364.500   94.028    0.477    0.229    2.376
  364.750   91.039    0.459    0.226    2.503
  365.000   88.018    0.427    0.222    2.686
  365.250   87.351    0.427    0.221    2.731
  365.500   87.892    0.429    0.221    2.727
  365.750   89.611    0.428    0.221    2.721
  366.000   92.491    0.422    0.220    2.666
  366.250   93.590    0.417    0.221    2.611
  366.500   94.115    0.412    0.223    2.512
  366.750   94.053    0.412    0.224    2.415
  367.000   93.386    0.438    0.227    2.364
  367.250   91.557    0.472    0.228    2.318
  367.500   90.318    0.484    0.236    2.269
  367.750   88.489    0.488    0.243    2.266
  368.000   89.015    0.476    0.253    2.218
  368.250   94.853    0.480    0.254    2.173
  368.500   94.775    0.484    0.246    2.053
  368.750   94.697    0.491    0.248    2.011
  369.000   94.665    0.499    0.253    1.970
  369.250   93.426    0.507    0.260    1.895
  369.500   93.363    0.489    0.273    1.823
  369.750   95.066    0.470    0.285    1.753
  370.000   96.180    0.524    0.279    1.718
  370.250   96.102    0.536    0.273    1.683
  370.500   94.846    0.542    0.277    1.679
  370.750   94.211    0.543    0.283    1.645
  371.000   92.971    0.539    0.289    1.609
  371.250   96.439    0.534    0.295    1.606
  371.500   97.538    0.523    0.299    1.574
  371.750   96.903    0.496    0.298    1.570
  372.000   95.074    0.499    0.292    1.567
  372.250   95.584    0.506    0.282    1.593
  372.500   98.464    0.511    0.273    1.617
  372.750  100.167    0.515    0.274    1.644
  373.000  100.693    0.526    0.279    1.641
  373.250   98.865    0.528    0.283    1.638
  373.500   95.875    0.526    0.286    1.634
  373.750   89.307    0.512    0.289    1.631
  374.000   83.963    0.488    0.287    1.626
  374.250   75.057    0.470    0.200    1.652
  374.500   75.582    0.476    0.151    1.679
  374.750   93.764    0.498    0.139    1.707
  375.000   93.702    0.524    0.260    1.766
  375.250   91.269    0.534    0.276    1.828
  375.500   90.061    0.540    0.269    1.891
  375.750   90.587    0.535    0.216    1.889
  376.000   93.467    0.504    0.178    1.918
  376.250   88.091    0.503    0.141    1.950
  376.500   84.498    0.506    0.159    1.950
  376.750   92.086    0.510    0.238    1.869
  377.000   97.304    0.500    0.249    1.938
  377.250   99.007    0.491    0.239    1.969
  377.500  100.710    0.483    0.241    2.001
  377.750  103.001    0.472    0.244    2.034
  378.000  105.309    0.478    0.245    2.028
  378.250  107.027    0.493    0.248    2.025
  378.500  104.579    0.506    0.246    2.018
  378.750  102.162    0.521    0.242    2.015
  379.000  101.511    0.522    0.242    2.011
  379.250  103.214    0.491    0.244    2.080
  379.500  104.917    0.483    0.251    2.153
  379.750  100.734    0.486    0.253    2.310
  380.000   97.729    0.489    0.253    2.437
  380.250   97.093    0.482    0.249    2.569
  380.500  101.739    0.475    0.245    2.661
  380.750   98.718    0.478    0.250    2.754
  381.000   92.770    0.485    0.256    2.955
  381.250   86.822    0.487    0.266    3.060
  381.500   78.504    0.443    0.266    3.347
  381.750   73.733    0.395    0.205    3.588
  382.000   70.712    0.362    0.211    3.652
  382.250   73.607    0.369    0.233    3.711
  382.500   75.899    0.379    0.233    3.703
  382.750   77.602    0.365    0.230    3.693
  383.000   81.054    0.374    0.241    3.486
  383.250   83.950    0.408    0.263    3.355
  383.500   90.361    0.467    0.279    3.229
  383.750   79.689    0.486    0.286    2.992
  384.000   72.564    0.492    0.306    2.878
  384.250   63.673    0.459    0.317    2.818
  384.500   54.767    0.430    0.317    2.814
  384.750   57.647    0.435    0.305    2.807
  385.000   67.605    0.433    0.276    2.801
  385.250   74.016    0.418    0.266    2.845
  385.500   69.245    0.413    0.246    2.839
  385.750   64.458    0.419    0.237    2.781
  386.000   67.927    0.425    0.210    2.726
  386.250   73.765    0.436    0.205    2.671
  386.500   78.999    0.441    0.190    2.614
  386.750   78.921    0.436    0.255    2.561
  387.000   76.504    0.433    0.257    2.509
  387.250   75.264    0.433    0.260    2.505
  387.500   72.243    0.436    0.257    2.454
  387.750   71.019    0.434    0.252    2.494
  388.000   76.237    0.437    0.241    2.534
  388.250   74.998    0.440    0.242    2.529
  388.500   76.716    0.471    0.256    2.476
  388.750   81.346    0.485    0.298    2.469
  389.000   82.460    0.496    0.322    2.466
  389.250   80.059    0.501    0.321    2.600
  389.500   69.387    0.456    0.315    2.894
  389.750   61.674    0.453    0.305    3.108
  390.000   55.137    0.462    0.284    3.339
  390.250   53.850    0.466    0.277    3.647
  390.500   57.350    0.432    0.272    3.710
  390.750   59.657    0.413    0.277    3.840
  391.000   61.949    0.392    0.276    3.830
  391.250   66.594    0.392    0.264    3.824
  391.500   70.031    0.390    0.238    3.815
  391.750   67.042    0.387    0.241    4.020
  392.000   63.432    0.385    0.247    4.396
  392.250   65.723    0.400    0.249    4.637
  392.500   68.031    0.423    0.249    5.071
  392.750   73.265    0.436    0.240    5.444
  393.000   68.494    0.378    0.209    5.846
  393.250   60.191    0.289    0.158    6.051
