~VERSION INFORMATION
 VERS.                 2.0:   CWLS LOG ASCII STANDARD -VERSION 2.0
 WRAP.                  NO:   ONE LINE PER DEPTH STEP
~WELL INFORMATION BLOCK
#MNEM.UNIT           DATA                    DESCRIPTION OF MNEMONIC
#---------    -------------------            -------------------------------
# Generated from Intellog Unique Number	CX_WELLS/WELL/3171
WELL.         ULSTER ET AL HANGST            : Well_name    - WELL
LOC .         00/02-02-083-11W4/0            : Location     - LOCATION
UWI .         00/02-02-083-11W400            : Uwi          - UNIQUE WELL ID
ENTR.         T                              : Entered      - ENTERED BY
SRVC.         SCHLUMBERGER                   : Scn          - SERVICE COMPANY
STRT.M        285                            : top_depth    - START DEPTH
STOP.M        510                            : bot_depth    - STOP DEPTH
STEP.M        0.25                           : increment    - STEP LENGTH
 NULL. -999.2500:NULL Value
~CURVE INFORMATION BLOCK
#MNEM UNIT       ERCB CURVE CODE    CURVE DESCRIPTION
#-----------   ------------------   ----------------------------------
DEPT.M        00 001 00 00         : DEPTH        - DEPTH
GR  .API      00 310 00 00         : GR           - GAMMA RAY
NPHI.V/V      00 330 00 00         : PHIN         - NEUTRON POROSITY (SANDSTONE)
DPHI.V/V      00 890 00 00         : PHID         - DENSITY POROSITY (SANDSTONE)
ILD .OHMM     00 120 00 00         : RESD         - DEEP RESISTIVITY (DIL)
~PARAMETER INFORMATION
#MNEM.UNIT           DATA             DESCRIPTION OF MNEMONIC
#---------         -----------     ------------------------------
GL  .M        733                  : gl           - GROUND LEVEL ELEVATION
EREF.M        736.9                : kb           - ELEVATION OF DEPTH REFERENCE
DATM.M        736.9                : datum        - DATUM ELEVATION
TDD .M        508                  : tdd          - TOTAL DEPTH DRILLER
RUN .         ONE                  : Run          - RUN NUMBER
ENG .         BILL                 : Engineer     - RECORDING ENGINEER
WIT .         JIM                  : Witness      - WITNESSED BY
MUD .         GEL                  : Mud_type     - MUD TYPE
MATR.         SANDSTONE            : Logunit      - NEUTRON MATRIX
TMAX.C        23                   : BHT          - MAXIMUM RECORDED TEMPERATURE
BHTD.M        508                  : BHTDEP       - MAXIMUM RECORDED TEMPERATURE
MATR.         1                    : LOGUNIT      - NEUTRON MATRIX
RMT .C        20                   : MDTP         - TEMPERATURE OF MUD
NEUT.         1                    : NEUTRON      - NEUTRON TYPE
RESI.         4.2                  : RESIST       - RESISTIVITY TYPE
RMC .OHMM     4.2                  : RMC          - RESISTIVITY OF MUD CAKE
RMF .OHMM     3.75                 : RMF          - RESISTIVITY OF MUD FILTRATE
SUFT.C        15                   : SUFT         - SURFACE TEMPERATURE
~A  DEPTH       GR     PHIN     PHID     RESD
# ...
  328.500  108.809    0.432    0.220    5.315
  328.750  116.274    0.432    0.219    5.322
  329.000  119.756    0.435    0.220    5.727
  329.250  119.811    0.441    0.224    6.165
  329.500  118.727    0.452    0.230    6.883
  329.750  118.199    0.457    0.231    7.407
  330.000  117.142    0.453    0.233    8.122
  330.250  116.600    0.467    0.235    8.592
  330.500  113.267    0.496    0.240    8.758
  330.750  110.463    0.495    0.244    8.773
  331.000  107.103    0.493    0.253    8.782
  331.250  104.299    0.486    0.264    9.117
  331.500   99.245    0.457    0.271    9.469
  331.750   97.592    0.451    0.267    9.825
  332.000   95.940    0.443    0.240   10.390
  332.250   95.411    0.435    0.236   10.791
  332.500   92.661    0.437    0.232   10.799
  332.750   92.119    0.439    0.239   10.821
  333.000   91.605    0.437    0.263   10.451
  333.250   92.797    0.439    0.269   10.274
  333.500   94.572    0.445    0.277    9.926
  333.750   95.195    0.446    0.286    9.936
  334.000   95.236    0.443    0.293   10.899
  334.250   93.597    0.442    0.299   11.518
  334.500   92.500    0.442    0.308   12.395
  334.750   90.278    0.445    0.315   13.103
  335.000   86.349    0.451    0.325   14.630
  335.250   74.467    0.450    0.336   15.749
  335.500   68.817    0.441    0.343   16.649
  335.750   60.905    0.435    0.349   17.923
  336.000   54.700    0.435    0.355   18.948
  336.250   52.478    0.436    0.361   20.404
  336.500   50.825    0.438    0.364   21.191
  336.750   52.587    0.440    0.368   21.600
  337.000   53.224    0.439    0.370   21.622
  337.250   51.585    0.431    0.370   21.652
  337.500   50.474    0.420    0.371   21.689
  337.750   47.710    0.412    0.369   21.726
  338.000   47.168    0.410    0.366   21.740
  338.250   47.236    0.409    0.363   21.785
  338.500   47.277    0.413    0.362   21.807
  338.750   47.345    0.441    0.361   22.243
  339.000   47.968    0.446    0.361   22.266
  339.250   48.036    0.440    0.362   22.703
  339.500   48.077    0.435    0.363   22.742
  339.750   47.562    0.428    0.363   22.773
  340.000   47.061    0.425    0.365   22.395
  340.250   46.533    0.430    0.366   22.024
  340.500   46.601    0.445    0.367   22.047
  340.750   47.211    0.465    0.367   21.681
  341.000   48.417    0.468    0.367   21.329
  341.250   49.040    0.482    0.361   21.351
  341.500   46.818    0.475    0.349   21.778
  341.750   46.317    0.464    0.337   22.205
  342.000   46.358    0.450    0.327   22.236
  342.250   48.716    0.439    0.307   22.258
  342.500   49.325    0.426    0.185   22.296
  342.750   49.935    0.413    0.178   22.327
  343.000   48.865    0.416    0.197   22.357
  343.250   47.212    0.439    0.214   23.212
  343.500   46.129    0.447    0.239   24.100
  343.750   45.045    0.455    0.259   24.573
  344.000   44.530    0.460    0.269   24.615
  344.250   44.598    0.455    0.321   24.207
  344.500   45.221    0.450    0.354   23.798
  344.750   46.400    0.446    0.359   23.411
  345.000   48.744    0.450    0.362   23.435
  345.250   49.395    0.453    0.361   23.047
  345.500   49.422    0.454    0.362   22.665
  345.750   47.810    0.452    0.362   22.304
  346.000   47.837    0.450    0.362   21.919
  346.250   47.309    0.444    0.364   21.556
  346.500   46.794    0.437    0.366   21.213
  346.750   46.293    0.434    0.368   21.228
  347.000   44.654    0.432    0.369   21.264
  347.250   44.126    0.439    0.369   21.286
  347.500   44.166    0.443    0.368   21.329
  347.750   44.234    0.452    0.368   21.351
  348.000   44.289    0.459    0.369   21.380
  348.250   44.343    0.468    0.369   21.410
  348.500   44.397    0.470    0.369   21.439
  348.750   45.034    0.469    0.369   21.475
  349.000   45.644    0.468    0.369   21.512
  349.250   46.864    0.468    0.369   21.527
  349.500   46.335    0.468    0.369   21.556
  349.750   44.696    0.467    0.363   21.586
  350.000   44.168    0.467    0.362   21.615
  350.250   43.667    0.467    0.363   21.645
  350.500   43.708    0.467    0.364   21.674
  350.750   44.358    0.466    0.367   21.711
  351.000   44.954    0.465    0.369   21.733
  351.250   45.578    0.463    0.373   21.778
  351.500   44.494    0.463    0.374   21.410
  351.750   41.703    0.462    0.373   21.432
  352.000   41.188    0.461    0.371   21.468
  352.250   43.560    0.457    0.371   21.119
  352.500   44.156    0.455    0.369   21.148
  352.750   44.224    0.455    0.367   21.170
  353.000   44.265    0.454    0.368   21.213
  353.250   44.888    0.453    0.370   20.855
  353.500   45.511    0.443    0.372   20.876
  353.750   45.566    0.439    0.369   20.904
  354.000   45.647    0.440    0.369   20.940
  354.250   45.119    0.440    0.368   20.969
  354.500   45.756    0.440    0.366   20.997
  354.750   47.531    0.442    0.366   20.649
  355.000   48.141    0.443    0.365   20.671
  355.250   48.751    0.442    0.363   20.699
  355.500   50.526    0.441    0.360   20.363
  355.750   51.718    0.443    0.358   20.383
  356.000   53.493    0.446    0.357   20.411
  356.250   54.103    0.449    0.355   20.080
  356.500   55.322    0.451    0.355   20.107
  356.750   55.932    0.454    0.354   19.774
  357.000   56.542    0.457    0.355   19.808
  357.250   57.748    0.459    0.355   19.828
  357.500   58.968    0.459    0.357   19.869
  357.750   59.022    0.459    0.358   19.889
  358.000   57.911    0.458    0.358   19.909
  358.250   56.827    0.458    0.359   19.943
  358.500   56.340    0.459    0.359   20.328
  358.750   56.367    0.459    0.358   20.356
  359.000   58.129    0.460    0.353   20.762
  359.250   61.624    0.458    0.247   20.784
  359.500   61.692    0.446    0.109   20.826
  359.750   58.888    0.394    0.101   21.221
  360.000   55.514    0.347    0.121   21.638
  360.250   52.154    0.352    0.156   22.062
  360.500   55.068    0.442    0.205   22.496
  360.750   59.092    0.456    0.302   22.953
  361.000   62.560    0.458    0.341   22.977
  361.250   63.211    0.460    0.347   21.808
  361.500   64.403    0.461    0.350   21.055
  361.750   65.026    0.461    0.349   20.699
  362.000   65.650    0.460    0.346   19.640
  362.250   67.411    0.458    0.340   18.628
  362.500   69.742    0.456    0.334   17.041
  362.750   70.365    0.453    0.325   15.584
  363.000   70.989    0.451    0.318   13.499
  363.250   69.905    0.451    0.310   10.498
  363.500   67.128    0.446    0.305    9.610
  363.750   66.626    0.447    0.308    9.441
  364.000   67.792    0.461    0.320    9.118
  364.250   71.288    0.469    0.330    8.967
  364.500   72.466    0.479    0.324    8.982
  364.750   74.228    0.480    0.317    8.991
  365.000   73.144    0.473    0.322    9.686
  365.250   72.060    0.460    0.331   10.613
  365.500   70.990    0.445    0.334   12.281
  365.750   69.906    0.438    0.338   13.717
  366.000   67.685    0.441    0.334   13.977
  366.250   66.601    0.446    0.328   14.256
  366.500   67.224    0.455    0.321   14.271
  366.750   68.403    0.464    0.315   14.039
  367.000   71.899    0.471    0.313   12.838
  367.250   73.647    0.478    0.314   10.929
  367.500   72.563    0.466    0.318   10.180
  367.750   70.341    0.451    0.320   10.198
  368.000   70.396    0.445    0.324   10.208
  368.250   73.309    0.440    0.326   10.409
  368.500   75.639    0.435    0.321   10.232
  368.750   77.970    0.436    0.298    9.889
  369.000   81.466    0.443    0.288    9.377
  369.250   82.631    0.447    0.282    8.894
  369.500   82.130    0.453    0.275    8.433
  369.750   81.032    0.459    0.273    7.855
  370.000   79.379    0.462    0.270    7.586
  370.250   81.737    0.464    0.269    7.198
  370.500   81.209    0.467    0.270    7.079
  370.750   78.418    0.474    0.278    6.959
  371.000   76.765    0.484    0.291    6.723
  371.250   75.126    0.489    0.297    6.265
  371.500   75.180    0.490    0.264    5.940
  371.750   78.080    0.490    0.252    5.432
