~VERSION INFORMATION
 VERS.                 2.0:   CWLS LOG ASCII STANDARD -VERSION 2.0
 WRAP.                  NO:   ONE LINE PER DEPTH STEP
~WELL INFORMATION BLOCK
#MNEM.UNIT           DATA                    DESCRIPTION OF MNEMONIC
#---------    -------------------            -------------------------------
# Generated from Intellog Unique Number	CS_69_70/WELL/820
WELL.         GENERAL AMERICAN OILS          : Well_name    - WELL
LOC .         00/07-15-069-14W4/0            : Location     - LOCATION
UWI .         00/07-15-069-14W4/0            : Uwi          - UNIQUE WELL ID
ENTR.         SP                             : Entered      - ENTERED BY
SRVC.         SCHLUMBERGER                   : Scn          - SERVICE COMPANY
STRT.M        265.176                        : top_depth    - START DEPTH
STOP.M        453.926                        : bot_depth    - STOP DEPTH
STEP.M        0.25                           : increment    - STEP LENGTH
 NULL. -999.2500:NULL Value
~CURVE INFORMATION BLOCK
#MNEM UNIT       ERCB CURVE CODE    CURVE DESCRIPTION
#-----------   ------------------   ----------------------------------
DEPT.M        00 001 00 00         : DEPTH        - DEPTH
GR  .API      00 310 00 00         : GR           - GAMMA RAY
DPHI.V/V      00 890 00 00         : PHID         - DENSITY POROSITY (SANDSTONE)
NPHI.V/V      00 330 00 00         : PHIN         - NEUTRON POROSITY (SANDSTONE)
ILD .OHMM     00 120 00 00         : RESD         - DEEP RESISTIVITY (DIL)
~PARAMETER INFORMATION
#MNEM.UNIT           DATA             DESCRIPTION OF MNEMONIC
#---------         -----------     ------------------------------
GL  .M        561.899              : gl           - GROUND LEVEL ELEVATION
EREF.M        565.191              : kb           - ELEVATION OF DEPTH REFERENCE
DATM.M        561.899              : datum        - DATUM ELEVATION
TDD .M        457.2                : tdd          - TOTAL DEPTH DRILLER
RUN .         ONE                  : Run          - RUN NUMBER
ENG .         BILL                 : Engineer     - RECORDING ENGINEER
WIT .         JIM                  : Witness      - WITNESSED BY
MUD .         GEL                  : Mud_type     - MUD TYPE
MATR.         SANDSTONE            : Logunit      - NEUTRON MATRIX
TMAX.C        12.2222              : BHT          - MAXIMUM RECORDED TEMPERATURE
BHTD.M        457.2                : BHTDEP       - MAXIMUM RECORDED TEMPERATURE
MATR.         1                    : LOGUNIT      - NEUTRON MATRIX
RMT .C        25                   : MDTP         - TEMPERATURE OF MUD
NEUT.         1                    : NEUTRON      - NEUTRON TYPE
RESI.         0                    : RESIST       - RESISTIVITY TYPE
RMC .OHMM     0.25                 : RMC          - RESISTIVITY OF MUD CAKE
RMF .OHMM     0.25                 : RMF          - RESISTIVITY OF MUD FILTRATE
SUFT.C        15                   : SUFT         - SURFACE TEMPERATURE
~A  DEPTH       GR     PHID     PHIN     RESD
# ...
  352.176   74.462    0.333    0.525    2.625
  352.426   75.242    0.335    0.534    2.518
  352.676   75.948    0.333    0.546    2.486
  352.926   77.628    0.321    0.528    2.489
  353.176   79.453    0.316    0.519    2.505
  353.426   80.808    0.325    0.516    2.539
  353.676   81.064    0.331    0.528    2.630
  353.926   80.511    0.334    0.539    2.718
  354.176   79.633    0.323    0.533    2.840
  354.426   79.736    0.313    0.531    2.911
  354.676   81.860    0.313    0.525    3.028
  354.926   84.612    0.304    0.507    3.147
  355.176   87.702    0.299    0.491    3.264
  355.426   89.810    0.297    0.484    3.337
  355.676   90.536    0.295    0.479    3.386
  355.926   88.637    0.288    0.475    3.373
  356.176   81.379    0.277    0.472    3.351
  356.426   75.827    0.267    0.471    3.363
  356.676   67.602    0.261    0.478    3.402
  356.926   62.113    0.258    0.456    3.492
  357.176   60.002    0.259    0.439    3.570
  357.426   59.120    0.279    0.431    3.652
  357.676   60.009    0.280    0.439    3.568
  357.926   61.234    0.275    0.446    3.413
  358.176   62.257    0.287    0.450    3.195
  358.426   62.944    0.294    0.453    3.036
  358.676   62.427    0.307    0.458    2.887
  358.926   60.773    0.314    0.460    2.747
  359.176   59.773    0.320    0.453    2.680
  359.426   59.728    0.315    0.461    2.612
  359.676   60.119    0.308    0.467    2.561
  359.926   61.056    0.300    0.471    2.549
  360.176   61.961    0.295    0.472    2.595
  360.426   61.979    0.294    0.466    2.634
  360.676   61.222    0.294    0.461    2.662
  360.926   60.647    0.307    0.456    2.700
  361.176   59.824    0.316    0.450    2.741
  361.426   58.925    0.327    0.447    2.758
  361.676   60.441    0.318    0.444    2.774
  361.926   61.880    0.312    0.442    2.755
  362.176   63.653    0.310    0.441    2.708
  362.426   64.797    0.312    0.441    2.667
  362.676   66.105    0.306    0.442    2.602
  362.926   65.458    0.301    0.444    2.574
  363.176   64.396    0.299    0.445    2.541
  363.426   63.112    0.295    0.450    2.514
  363.676   63.751    0.292    0.457    2.487
  363.926   66.502    0.302    0.462    2.478
  364.176   65.682    0.308    0.464    2.501
  364.426   65.240    0.308    0.469    2.524
  364.676   66.986    0.318    0.476    2.555
  364.926   69.036    0.328    0.485    2.594
  365.176   70.597    0.334    0.492    2.680
  365.426   72.652    0.317    0.495    2.788
  365.676   73.612    0.297    0.479    2.966
  365.926   75.529    0.282    0.469    3.058
  366.176   80.419    0.266    0.462    3.215
  366.426   84.088    0.249    0.457    3.358
  366.676   87.255    0.229    0.452    3.562
  366.926   88.561    0.217    0.444    3.762
  367.176   89.045    0.219    0.438    3.946
  367.426   88.374    0.232    0.434    4.094
  367.676   87.862    0.240    0.431    4.193
  367.926   92.086    0.245    0.429    4.241
  368.176   95.738    0.239    0.437    4.238
  368.426   98.868    0.230    0.448    4.243
  368.676  100.635    0.225    0.464    4.270
  368.926   99.236    0.220    0.473    4.311
  369.176   94.659    0.213    0.471    4.418
  369.426   91.796    0.207    0.471    4.505
  369.676   89.892    0.200    0.482    4.598
  369.926   90.544    0.205    0.494    4.699
  370.176   93.349    0.216    0.497    4.750
  370.426   95.736    0.206    0.490    4.774
  370.676   93.519    0.205    0.483    4.756
  370.926   90.723    0.204    0.479    4.698
  371.176   90.222    0.201    0.475    4.631
  371.426   92.120    0.199    0.472    4.587
  371.676   93.886    0.202    0.476    4.580
  371.926   94.612    0.215    0.476    4.581
  372.176   94.976    0.223    0.464    4.616
  372.426   95.385    0.232    0.456    4.731
  372.676   94.944    0.226    0.454    4.890
  372.926   93.071    0.210    0.462    5.120
  373.176   89.425    0.195    0.474    5.270
  373.426   84.773    0.176    0.461    5.510
  373.676   80.619    0.149    0.437    5.685
  373.926   76.756    0.108    0.421    5.800
  374.176   75.224    0.100    0.400    5.823
  374.426   80.832    0.141    0.362    5.292
  374.676   88.084    0.177    0.401    4.836
  374.926   92.352    0.194    0.437    4.413
  375.176   93.584    0.206    0.457    4.141
  375.426   92.888    0.208    0.471    4.058
  375.676   93.044    0.206    0.468    4.186
  375.926   93.762    0.208    0.466    4.368
  376.176   93.864    0.216    0.465    4.473
  376.426   92.548    0.218    0.466    4.537
  376.676   93.901    0.210    0.467    4.628
  376.926   95.646    0.205    0.470    4.474
  377.176   96.728    0.200    0.479    4.163
  377.426   96.294    0.212    0.488    3.599
  377.676   96.510    0.231    0.488    3.047
  377.926   97.375    0.246    0.497    2.644
  378.176   99.272    0.261    0.514    2.322
  378.426  100.909    0.273    0.531    2.044
  378.676  100.757    0.287    0.560    1.989
  378.926   99.493    0.302    0.602    2.049
  379.176   98.560    0.297    0.586    2.199
  379.426   98.188    0.290    0.555    2.364
  379.676   97.904    0.285    0.531    2.593
  379.926   97.661    0.280    0.513    2.851
  380.176   97.924    0.275    0.519    3.153
  380.426   98.278    0.266    0.523    3.378
  380.676   94.549    0.260    0.504    3.615
  380.926   93.028    0.271    0.484    3.819
  381.176   94.603    0.277    0.465    3.985
  381.426   96.259    0.260    0.460    4.074
  381.676   96.278    0.251    0.464    4.112
  381.926   95.322    0.243    0.467    3.971
  382.176   93.512    0.232    0.470    3.697
  382.426   91.722    0.223    0.474    3.415
  382.676   88.965    0.218    0.481    3.245
  382.926   86.791    0.230    0.479    3.076
  383.176   85.283    0.248    0.475    2.928
  383.426   85.871    0.268    0.471    2.866
  383.676   86.713    0.268    0.468    2.884
  383.926   86.389    0.257    0.466    3.071
  384.176   84.214    0.251    0.466    3.430
  384.426   79.582    0.248    0.467    3.855
  384.676   75.200    0.259    0.455    4.780
  384.926   69.755    0.259    0.434    5.437
  385.176   63.666    0.234    0.392    6.473
  385.426   55.677    0.189    0.250    8.271
  385.676   51.176    0.125    0.219   10.180
  385.926   52.477    0.088    0.182   12.461
  386.176   54.368    0.066    0.171    9.460
  386.426   55.090    0.056    0.169    6.928
  386.676   55.300    0.105    0.197    4.961
  386.926   54.591    0.166    0.380    3.829
  387.176   53.914    0.250    0.407    3.092
  387.426   55.462    0.281    0.417    2.648
  387.676   57.148    0.305    0.421    2.427
  387.926   58.242    0.320    0.418    2.358
  388.176   59.322    0.320    0.422    2.349
  388.426   59.348    0.312    0.433    2.387
  388.676   60.160    0.304    0.443    2.435
  388.926   62.072    0.299    0.447    2.468
  389.176   63.528    0.297    0.452    2.489
  389.426   63.532    0.289    0.459    2.481
  389.676   62.067    0.281    0.464    2.429
  389.926   62.171    0.288    0.462    2.373
  390.176   61.963    0.296    0.457    2.305
  390.426   61.544    0.298    0.454    2.233
  390.676   61.616    0.301    0.453    2.189
  390.926   63.457    0.304    0.452    2.136
  391.176   65.224    0.314    0.448    2.120
  391.426   66.682    0.315    0.444    2.119
  391.676   67.781    0.307    0.441    2.133
  391.926   69.062    0.298    0.440    2.164
  392.176   70.848    0.288    0.444    2.210
  392.426   72.999    0.285    0.456    2.249
  392.676   73.675    0.294    0.465    2.339
  392.926   73.195    0.300    0.474    2.552
  393.176   73.303    0.301    0.466    2.893
  393.426   72.220    0.298    0.444    3.653
  393.676   69.728    0.293    0.425    4.375
  393.926   65.962    0.259    0.411    5.095
  394.176   63.195    0.209    0.389    5.296
  394.426   61.011    0.168    0.356    4.757
  394.676   62.978    0.147    0.307    4.069
  394.926   65.606    0.140    0.274    3.355
  395.176   67.954    0.173    0.304    2.915
  395.426   70.238    0.232    0.351    2.630
