~VERSION INFORMATION
 VERS.                 2.0:   CWLS LOG ASCII STANDARD -VERSION 2.0
 WRAP.                  NO:   ONE LINE PER DEPTH STEP
~WELL INFORMATION BLOCK
#MNEM.UNIT           DATA                    DESCRIPTION OF MNEMONIC
#---------    -------------------            -------------------------------
# Generated from Intellog Unique Number	CW_79_81/WELL/554
WELL.         07-21-079-22W4                 : Well_name    - WELL
LOC .         00/07-21-079-22W4/0            : Location     - LOCATION
UWI .         00/07-21-079-22W4/0            : Uwi          - UNIQUE WELL ID
ENTR.         MAX                            : Entered      - ENTERED BY
SRVC.         SCHLUMBERGER                   : Scn          - SERVICE COMPANY
STRT.M        210.312                        : top_depth    - START DEPTH
STOP.M        435.812                        : bot_depth    - STOP DEPTH
STEP.M        0.25                           : increment    - STEP LENGTH
 NULL. -999.2500:NULL Value
~CURVE INFORMATION BLOCK
#MNEM UNIT       ERCB CURVE CODE    CURVE DESCRIPTION
#-----------   ------------------   ----------------------------------
DEPT.M        00 001 00 00         : DEPTH        - DEPTH
ILD .OHMM     00 120 00 00         : RESD         - DEEP RESISTIVITY (DIL)
NPHI.V/V      00 330 00 00         : PHIN         - NEUTRON POROSITY (SANDSTONE)
DPHI.V/V      00 890 00 00         : PHID         - DENSITY POROSITY (SANDSTONE)
CALI.MM       00 280 01 00         : CAL          - CALIPER
GR  .API      00 310 00 00         : GR           - GAMMA RAY
~PARAMETER INFORMATION
#MNEM.UNIT           DATA             DESCRIPTION OF MNEMONIC
#---------         -----------     ------------------------------
GL  .M        560.222              : gl           - GROUND LEVEL ELEVATION
EREF.M        562.966              : kb           - ELEVATION OF DEPTH REFERENCE
DATM.M        560.222              : datum        - DATUM ELEVATION
TDD .M        439.826              : tdd          - TOTAL DEPTH DRILLER
RUN .         ONE                  : Run          - RUN NUMBER
ENG .         BILL                 : Engineer     - RECORDING ENGINEER
WIT .         JIM                  : Witness      - WITNESSED BY
MUD .         GEL                  : Mud_type     - MUD TYPE
MATR.         SANDSTONE            : Logunit      - NEUTRON MATRIX
TMAX.C        22.2222              : BHT          - MAXIMUM RECORDED TEMPERATURE
BHTD.M        492081               : BHTDEP       - MAXIMUM RECORDED TEMPERATURE
RMT .C        18.3333              : MDTP         - TEMPERATURE OF MUD
MUDD.KG/M     9300                 : MWT          - MUD DENSITY
NEUT.         1                    : NEUTRON      - NEUTRON TYPE
RESI.         0                    : RESIST       - RESISTIVITY TYPE
RM  .OHMM     6.1                  : RM           - RESISTIVITY OF MUD
RMC .OHMM     0.25                 : RMC          - RESISTIVITY OF MUD CAKE
RMF .OHMM     6.02                 : RMF          - RESISTIVITY OF MUD FILTRATE
SUFT.C        -12.2222             : SUFT         - SURFACE TEMPERATURE
~A  DEPTH     RESD     PHIN     PHID      CAL       GR
# ...
  283.312   38.111    0.171    0.134  199.656   52.159
  283.562   35.424    0.198    0.171  197.621   49.764
  283.812   28.152    0.316    0.204  196.091   49.756
  284.062   24.987    0.388    0.275  195.071   51.240
  284.312   20.603    0.428    0.313  194.553   51.830
  284.562   20.428    0.457    0.358  194.036   53.315
  284.812   20.629    0.467    0.369  194.529   54.501
  285.062   20.629    0.462    0.374  195.524   54.196
  285.312   21.041    0.464    0.369  195.524   52.100
  285.562   21.640    0.458    0.365  196.003   49.705
  285.812   22.058    0.454    0.357  198.017   48.205
  286.062   22.058    0.450    0.357  199.519   47.900
  286.312   22.092    0.455    0.360  199.497   50.279
  286.562   22.092    0.465    0.363  199.999   51.465
  286.812   21.713    0.461    0.367  199.984   52.054
  287.062   21.321    0.458    0.372  199.973   52.046
  287.312   20.754    0.452    0.372  200.465   51.145
  287.562   20.585    0.455    0.371  200.961   48.452
  287.812   20.028    0.456    0.364  200.961   48.147
  288.062   19.136    0.467    0.352  200.935   49.632
  288.312   18.455    0.461    0.353  202.438   52.309
  288.562   18.130    0.460    0.359  202.415   53.198
  288.812   18.140    0.472    0.374  203.421   53.786
  289.062   18.140    0.475    0.375  204.420   54.376
  289.312   18.166    0.481    0.372  204.916   55.561
  289.562   18.512    0.484    0.365  204.902   55.854
  289.812   18.523    0.482    0.361  204.902   55.249
  290.062   18.703    0.460    0.354  204.874   54.943
  290.312   18.715    0.441    0.339  204.361   52.847
  290.562   18.553    0.458    0.317  204.361   48.960
  290.812   17.247    0.441    0.281  204.335   49.250
  291.062   15.449    0.414    0.206  204.335   50.438
  291.312   13.217    0.405    0.192  203.799   54.310
  291.562   10.999    0.421    0.207  203.791   63.254
  291.812    9.238    0.432    0.256  203.769   70.707
  292.062    8.509    0.456    0.240  204.269   81.743
  292.312    8.363    0.453    0.217  204.269   92.478
  292.562    8.210    0.455    0.228  204.242   95.754
  292.812    7.846    0.461    0.233  204.738   94.254
  293.062    7.778    0.475    0.222  204.738   92.457
  293.312    7.855    0.478    0.212  205.216   94.240
  293.562    8.006    0.479    0.182  205.208  100.201
  293.812    8.311    0.486    0.179  205.195  100.492
  294.062    8.871    0.483    0.165  205.173   98.694
  294.312    9.294    0.464    0.173  205.168   94.210
  294.562    9.561    0.465    0.185  205.156   94.799
  294.812    9.745    0.459    0.190  205.156   96.583
  295.062    9.931    0.451    0.192  205.134   98.068
  295.312   10.030    0.450    0.198  204.617   95.673
  295.562    9.945    0.453    0.200  204.617   92.681
  295.812    9.678    0.457    0.202  204.586   91.182
  296.062    9.249    0.449    0.205  204.578   92.368
  296.312    9.001    0.456    0.207  204.563   94.449
  296.562    8.601    0.466    0.208  205.056   92.951
  296.812    8.296    0.472    0.217  205.045   89.658
  297.062    8.227    0.476    0.223  205.023   89.653
  297.312    8.078    0.473    0.217  205.526   90.540
  297.562    8.158    0.466    0.219  205.513   91.727
  297.812    8.392    0.479    0.233  205.490   92.912
  298.062    8.633    0.511    0.237  205.486   91.712
  298.312    8.718    0.510    0.234  205.982   90.810
  298.562    8.644    0.504    0.229  205.960   89.906
  298.812    8.334    0.501    0.219  205.957   89.898
  299.062    8.334    0.496    0.216  206.449   89.892
  299.312    8.045    0.496    0.208  206.942   91.077
  299.562    7.900    0.516    0.211  207.436   90.472
  299.812    8.128    0.525    0.216  206.918   87.483
  300.062    8.515    0.520    0.217  206.399   84.191
  300.312    9.430    0.516    0.219  203.352   83.887
  300.562   11.451    0.516    0.228  201.827   84.775
  300.812   11.997    0.507    0.243  201.827   85.364
  301.062   12.804    0.496    0.249  200.285   84.760
  301.312   12.695    0.491    0.263  197.746   82.364
  301.562   12.356    0.492    0.278  197.226   79.075
  301.812   11.698    0.492    0.266  197.226   78.171
  302.062   10.874    0.494    0.246  197.200   79.657
  302.312   10.389    0.498    0.232  198.202   80.544
  302.562    9.394    0.509    0.209  200.714   80.240
  302.812    8.813    0.512    0.230  203.230   79.933
  303.062    8.421    0.508    0.244  206.248   82.612
  303.312    8.122    0.494    0.239  207.753   88.275
  303.562    7.977    0.482    0.229  207.753   95.428
  303.812    7.764    0.474    0.230  208.733   96.913
  304.062    7.627    0.472    0.230  209.231   95.115
  304.312    7.627    0.482    0.233  208.712   93.915
  304.562    7.568    0.500    0.242  208.712   93.311
  304.812    7.784    0.505    0.263  208.185   90.021
  305.062    8.081    0.499    0.281  205.136   84.045
  305.312    8.546    0.494    0.293  204.116   82.247
  305.562    9.037    0.491    0.301  204.116   81.941
  305.812    9.380    0.487    0.315  202.569   81.934
  306.062    9.828    0.483    0.274  201.551   81.031
  306.312    9.828    0.493    0.279  201.551   77.144
  306.562   10.214    0.504    0.279  201.525   75.941
  306.812   10.408    0.496    0.267  201.515   76.532
  307.062   10.317    0.489    0.267  201.491   77.122
  307.312   10.135    0.482    0.282  201.485   75.621
  307.562   10.234    0.477    0.283  201.485   75.317
  307.812   10.432    0.474    0.279  201.465   75.609
  308.062   10.534    0.477    0.281  201.452   76.495
  308.312   10.638    0.483    0.281  201.945   77.084
  308.562   10.547    0.467    0.281  202.942   77.972
  308.812   10.266    0.462    0.280  204.950   79.757
  309.062    9.454    0.444    0.273  207.464   84.822
  309.312    8.628    0.452    0.252  209.476   88.993
  309.562    7.945    0.463    0.254  212.492   90.774
  309.812    7.251    0.464    0.251  213.482   93.753
  310.062    6.865    0.468    0.225  214.491   96.431
  310.312    6.559    0.486    0.224  214.491   96.723
  310.562    6.559    0.517    0.222  216.983   94.924
  310.812    6.332    0.524    0.221  217.484   96.707
  311.062    6.161    0.511    0.222  217.976   98.191
  311.312    6.161    0.497    0.229  217.955   97.587
  311.562    6.169    0.483    0.230  217.447   95.789
  311.812    6.229    0.480    0.216  215.413   91.903
  312.062    6.587    0.472    0.211  210.852   85.033
  312.312    7.430    0.476    0.200  208.314   81.146
  312.562    9.447    0.461    0.110  208.314   73.379
  312.812   13.293    0.328    0.068  206.769   67.402
  313.062   16.746    0.320    0.091  205.749   67.694
  313.312   18.889    0.335    0.100  205.728   68.284
  313.562   20.164    0.312    0.093  205.721   64.992
  313.812   19.443    0.296    0.084  205.721   64.987
  314.062   18.072    0.305    0.112  205.700   66.770
  314.312   15.320    0.358    0.161  206.697   75.118
  314.562   14.371    0.398    0.199  206.697   82.572
  314.812   12.293    0.450    0.216  207.179   84.951
  315.062   11.322    0.467    0.226  208.682   86.138
  315.312   10.523    0.468    0.225  210.186   86.129
  315.562    9.783    0.460    0.227  211.690   86.421
  315.812    9.433    0.463    0.229  212.688   87.905
  316.062    9.097    0.461    0.228  214.189   90.883
  316.312    8.860    0.477    0.224  215.692   95.649
  316.562    8.700    0.483    0.212  216.187   93.850
  316.812    8.545    0.483    0.207  216.671   92.351
  317.062    8.395    0.468    0.205  216.668   91.450
  317.312    8.556    0.452    0.206  214.129   92.038
  317.562    8.639    0.459    0.211  210.074   91.135
  317.812    8.887    0.464    0.218  209.051   88.144
  318.062    9.226    0.469    0.231  209.541   84.257
  318.312    9.317    0.471    0.233  209.541   83.356
  318.562    9.153    0.468    0.224  210.528   84.541
  318.812    8.827    0.460    0.218  213.549   87.221
  319.062    8.827    0.464    0.209  213.030   91.391
  319.312    8.522    0.478    0.196  213.018   91.384
  319.562    8.367    0.481    0.182  213.005   87.795
