~VERSION INFORMATION
 VERS.                 2.0:   CWLS LOG ASCII STANDARD -VERSION 2.0
 WRAP.                  NO:   ONE LINE PER DEPTH STEP
~WELL INFORMATION BLOCK
#MNEM.UNIT           DATA                    DESCRIPTION OF MNEMONIC
#---------    -------------------            -------------------------------
# Generated from Intellog Unique Number	CW_79_81/WELL/591
NULL.         -999.25                        : NULL_VALUE
COMP .        INTERCITY GAS CORPORATION      :  COMPANY
WELL.         HOMESTEAD ET AL WEAVER         : Well_name    - WELL              
LOC .         07-21-080-01W5                 : Location     - LOCATION          
UWI .         00/07-21-080-01W5/0            : Uwi          - UNIQUE WELL ID    
ENTR.         MAX                            : Entered      - ENTERED BY        
SRVC.         SCHLUMBERGER                   : Scn          - SERVICE COMPANY   
DATE.         24 NOV 77                      : Date         - LOG DATE
STRT.M        225                            : top_depth    - START DEPTH       
STOP.M        490                            : bot_depth    - STOP DEPTH        
STEP.M        0.25                           : increment    - STEP LENGTH       
~CURVE INFORMATION BLOCK
#MNEM UNIT       ERCB CURVE CODE    CURVE DESCRIPTION
#-----------   ------------------   ----------------------------------
DEPT.M        00 001 00 00         : DEPTH        - DEPTH                       
ILD .OHMM     00 120 00 00         : RESD         - DEEP RESISTIVITY (DIL)      
NPHI.V/V      00 330 00 00         : PHIN         - NEUTRON POROSITY (SANDSTONE)
DPHI.V/V      00 890 00 00         : PHID         - DENSITY POROSITY (SANDSTONE)
CALI.MM       00 280 01 00         : CAL          - CALIPER                     
GR  .API      00 310 00 00         : GR           - GAMMA RAY                   
~PARAMETER INFORMATION       
#MNEM.UNIT           DATA             DESCRIPTION OF MNEMONIC
#---------         -----------     ------------------------------
GL  .M        570.6                : gl           - GROUND LEVEL ELEVATION      
EREF.M        574.3                : kb           - ELEVATION OF DEPTH REFERENCE
DATM.M        570.6                : datum        - DATUM ELEVATION             
TDD .M        512                  : tdd          - TOTAL DEPTH DRILLER         
RUN .         ONE                  : Run          - RUN NUMBER                  
ENG .         BILL                 : Engineer     - RECORDING ENGINEER          
WIT .         JIM                  : Witness      - WITNESSED BY                
MUD .         GEL                  : Mud_type     - MUD TYPE                    
MATR.         SANDSTONE            : Logunit      - NEUTRON MATRIX              
TMAX.C        36.3                 : BHT          - MAXIMUM RECORDED TEMPERATURE
BHTD.M        512                  : BHTDEP       - MAXIMUM RECORDED TEMPERATURE
RMT .C        17.5                 : MDTP         - TEMPERATURE OF MUD          
MUDD.KG/M     1120                 : MWT          - MUD DENSITY                 
NEUT.         1                    : NEUTRON      - NEUTRON TYPE                
RESI.         0                    : RESIST       - RESISTIVITY TYPE            
RM  .OHMM     16.4                 : RM           - RESISTIVITY OF MUD          
RMC .OHMM     0.25                 : RMC          - RESISTIVITY OF MUD CAKE     
RMF .OHMM     12.3                 : RMF          - RESISTIVITY OF MUD FILTRATE 
SUFT.C        4                    : SUFT         - SURFACE TEMPERATURE         
~A  DEPTH     RESD     PHIN     PHID      CAL       GR
# ...
  371.000    6.054    0.432    0.216  169.615   89.404
  371.250    6.052    0.436    0.209  169.112   87.616
  371.500    6.163    0.452    0.213  169.101   86.721
  371.750    6.218    0.453    0.209  168.598   86.418
  372.000    6.216    0.440    0.206  167.599   86.710
  372.250    6.214    0.438    0.193  167.094   85.516
  372.500    6.212    0.455    0.198  167.580   87.886
  372.750    6.327    0.460    0.213  168.064   89.662
  373.000    6.504    0.453    0.206  168.551   89.656
  373.250    6.686    0.455    0.207  169.036   89.947
  373.500    6.746    0.455    0.216  169.029   90.832
  373.750    6.682    0.464    0.209  169.512   91.716
  374.000    6.495    0.464    0.207  169.999   93.493
  374.250    6.373    0.459    0.219  170.485   94.377
  374.500    6.311    0.451    0.219  170.475   93.482
  374.750    6.368    0.440    0.201  169.475   93.476
  375.000    6.732    0.439    0.196  167.984   93.768
  375.250    7.526    0.434    0.216  164.016   92.277
  375.500    9.407    0.424    0.244  162.028   90.788
  375.750   11.869    0.414    0.257  161.030   87.518
  376.000   14.160    0.425    0.239  162.502   82.465
  376.250   14.288    0.434    0.224  163.484   76.820
  376.500   14.825    0.451    0.223  163.475   71.471
  376.750   16.116    0.450    0.216  162.972   68.794
  377.000   19.051    0.424    0.207  162.960   67.898
  377.250   22.104    0.408    0.198  163.447   67.892
  377.500   24.939    0.385    0.183  163.931   68.184
  377.750   26.611    0.362    0.168  164.913   64.912
  378.000   28.391    0.338    0.130  164.904   61.048
  378.250   29.735    0.303    0.016  164.895   57.778
  378.500   31.726    0.188    0.006  164.887   53.320
  378.750   33.851    0.188    0.009  164.877   53.611
  379.000   34.474    0.194    0.011  164.373   56.276
  379.250   34.464    0.190    0.006  163.374   56.865
  379.500   35.427    0.198   -0.001  162.375   57.452
  379.750   35.749    0.223    0.002  162.367   58.338
  380.000   33.482    0.240    0.035  161.862   59.519
  380.250   29.932    0.212    0.064  160.863   60.701
  380.500   26.264    0.256    0.091  160.854   62.180
  380.750   22.832    0.299    0.119  161.339   65.144
  381.000   17.586    0.327    0.143  163.805   69.887
  381.250   14.867    0.356    0.150  164.289   73.443
  381.500   13.291    0.377    0.158  162.796   73.438
  381.750   12.447    0.382    0.148  164.272   73.135
  382.000   12.213    0.374    0.146  170.693   74.021
  382.250   12.439    0.370    0.164  170.190   71.937
  382.500   12.434    0.362    0.158  170.674   71.931
  382.750   12.201    0.356    0.171  172.643   74.597
  383.000   11.322    0.385    0.179  173.626   77.858
  383.250   10.215    0.419    0.182  174.605   82.305
  383.500    9.839    0.437    0.185  174.596   86.456
  383.750    9.564    0.437    0.184  173.597   88.231
  384.000    9.560    0.424    0.188  170.123   87.631
  384.250    9.737    0.417    0.201  170.116   85.844
  384.500    9.825    0.413    0.223  169.613   85.542
  384.750    9.821    0.414    0.221  169.602   87.318
  385.000    9.547    0.433    0.176  170.088   87.609
  385.250    9.282    0.441    0.173  170.573   87.307
  385.500    8.940    0.431    0.173  171.059   85.520
  385.750    8.690    0.429    0.163  171.544   82.843
  386.000    8.687    0.431    0.158  171.534   82.244
  386.250    8.765    0.427    0.135  171.526   82.534
  386.500    9.010    0.419    0.139  171.517   82.233
  386.750    9.263    0.404    0.159  171.014   81.633
  387.000    9.611    0.408    0.160  171.004   82.222
  387.250    9.972    0.419    0.173  170.500   84.294
  387.500   10.156    0.413    0.173  169.501   87.258
  387.750    9.966    0.413    0.175  168.996   90.517
  388.000    9.421    0.421    0.195  168.988   91.996
  388.250    8.741    0.444    0.204  168.484   91.099
  388.500    8.340    0.462    0.207  168.475   89.609
  388.750    8.260    0.448    0.207  168.961   88.714
  389.000    8.258    0.428    0.204  169.445   88.709
  389.250    8.410    0.441    0.195  169.435   88.109
  389.500    8.407    0.452    0.185  169.427   87.213
  389.750    8.404    0.455    0.177  169.418   87.207
  390.000    8.402    0.452    0.171  169.410   88.092
  390.250    8.398    0.447    0.168  169.399   87.494
  390.500    8.395    0.444    0.190  167.906   86.598
  390.750    8.392    0.441    0.199  167.401   87.186
  391.000    8.390    0.436    0.197  168.382   88.070
  391.250    8.309    0.427    0.197  169.856   86.877
  391.500    8.230    0.427    0.192  169.848   88.059
  391.750    7.926    0.419    0.185  169.840   89.241
  392.000    7.705    0.423    0.183  170.323   88.642
  392.250    7.631    0.431    0.193  170.316   89.824
  392.500    8.067    0.443    0.209  169.811   89.817
  392.750    8.769    0.445    0.227  167.823   88.921
  393.000    9.712    0.449    0.237  166.331   87.433
  393.250   11.268    0.443    0.221  166.321   85.349
  393.500   12.363    0.429    0.211  167.795   81.782
  393.750   13.190    0.447    0.199  168.775   77.917
  394.000   14.338    0.454    0.216  168.271   77.317
  394.250   15.587    0.435    0.230  168.261   78.797
  394.500   17.103    0.422    0.231  168.255   80.868
  394.750   19.296    0.429    0.210  168.244   79.675
  395.000   20.782    0.429    0.193  168.234   76.108
  395.250   22.802    0.410    0.151  168.227   70.166
  395.500   24.558    0.384    0.095  167.719   66.301
  395.750   26.695    0.319    0.047  167.713   65.109
  396.000   27.700    0.257    0.077  167.704   66.290
  396.250   28.211    0.281    0.103  167.694   67.472
  396.500   27.939    0.353    0.157  167.686   68.357
  396.750   26.412    0.370    0.190  168.171   69.242
  397.000   23.611    0.387    0.192  168.162   71.315
  397.250   18.876    0.405    0.186  168.153   72.793
  397.500   14.139    0.409    0.174  168.638   73.382
  397.750   11.095    0.402    0.127  172.587   75.156
  398.000    8.869    0.407    0.154  174.062   79.307
  398.250    8.230    0.433    0.215  174.548   89.098
  398.500    8.781    0.462    0.230  170.579   92.358
  398.750   10.673    0.465    0.236  170.076   89.384
  399.000   11.178    0.468    0.240  170.066   84.925
  399.250   13.338    0.473    0.250  168.574   79.577
  399.500   16.672    0.458    0.250  167.080   76.602
  399.750   20.266    0.444    0.242  168.060   76.894
  400.000   23.297    0.437    0.225  169.039   76.888
  400.250   28.056    0.420    0.206  169.033   74.507
  400.500   31.653    0.378    0.187  169.022   72.425
  400.750   33.463    0.356    0.138  169.012   69.748
  401.000   36.376    0.334    0.129  169.004   67.960
  401.250   38.095    0.340    0.161  168.994   68.548
  401.500   38.081    0.379    0.186  168.986   68.543
  401.750   35.999    0.391    0.184  169.470   68.241
  402.000   33.404    0.393    0.168  169.462   67.939
  402.250   31.578    0.377    0.152  169.453   67.637
  402.500   29.575    0.371    0.148  169.938   68.818
  402.750   27.189    0.376    0.165  170.424   71.187
  403.000   24.307    0.389    0.182  174.372   74.744
  403.250   18.037    0.393    0.190  175.848   80.675
  403.500   14.967    0.410    0.188  174.850   88.982
  403.750   12.891    0.426    0.182  172.860   95.506
  404.000   11.311    0.436    0.181  172.356   96.687
  404.250   10.398    0.439    0.186  172.348   94.308
  404.500   10.299    0.436    0.189  172.339   91.630
  404.750   10.295    0.438    0.189  172.328   91.031
  405.000   10.582    0.431    0.191  172.319   89.541
  405.250   10.678    0.419    0.190  172.310   88.943
  405.500   10.774    0.411    0.197  172.301   88.937
  405.750   10.871    0.404    0.203  172.787   90.120
  406.000   10.969    0.422    0.203  173.766   91.301
  406.250   11.068    0.433    0.199  172.767   91.592
  406.500   11.064    0.433    0.199  170.779   92.180
  406.750   10.957    0.429    0.194  169.781   93.065
  407.000   10.853    0.427    0.205  169.772   93.356
  407.250   10.649    0.433    0.201  170.258   94.241
