~VERSION INFORMATION
 VERS.                 2.0:   CWLS LOG ASCII STANDARD -VERSION 2.0
 WRAP.                  NO:   ONE LINE PER DEPTH STEP
~WELL INFORMATION BLOCK
#MNEM.UNIT           DATA                    DESCRIPTION OF MNEMONIC
#---------    -------------------            -------------------------------
# Generated from Intellog Unique Number	CS_73_76/WELL/2392
WELL.         07-26-076-12W4                 : Well_name    - WELL
LOC .         00/07-26-076-12W4/0            : Location     - LOCATION
UWI .         00/07-26-076-12W4/0            : Uwi          - UNIQUE WELL ID
ENTR.         SP                             : Entered      - ENTERED BY
SRVC.         SCHLUMBERGER                   : Scn          - SERVICE COMPANY
STRT.M        283.464                        : top_depth    - START DEPTH
STOP.M        523.964                        : bot_depth    - STOP DEPTH
STEP.M        0.25                           : increment    - STEP LENGTH
 NULL. -999.2500:NULL Value
~CURVE INFORMATION BLOCK
#MNEM UNIT       ERCB CURVE CODE    CURVE DESCRIPTION
#-----------   ------------------   ----------------------------------
DEPT.M        00 001 00 00         : DEPTH        - DEPTH
GR  .API      00 310 00 00         : GR           - GAMMA RAY
DPHI.V/V      00 890 00 00         : PHID         - DENSITY POROSITY (SANDSTONE)
NPHI.V/V      00 330 00 00         : PHIN         - NEUTRON POROSITY (SANDSTONE)
ILD .OHMM     00 120 00 00         : RESD         - DEEP RESISTIVITY (DIL)
~PARAMETER INFORMATION
#MNEM.UNIT           DATA             DESCRIPTION OF MNEMONIC
#---------         -----------     ------------------------------
GL  .M        669.95               : gl           - GROUND LEVEL ELEVATION
EREF.M        672.998              : kb           - ELEVATION OF DEPTH REFERENCE
DATM.M        669.95               : datum        - DATUM ELEVATION
TDD .M        528.523              : tdd          - TOTAL DEPTH DRILLER
RUN .         ONE                  : Run          - RUN NUMBER
ENG .         BILL                 : Engineer     - RECORDING ENGINEER
WIT .         JIM                  : Witness      - WITNESSED BY
MUD .         GEL                  : Mud_type     - MUD TYPE
MATR.         SANDSTONE            : Logunit      - NEUTRON MATRIX
TMAX.C        35                   : BHT          - MAXIMUM RECORDED TEMPERATURE
BHTD.M        528.523              : BHTDEP       - MAXIMUM RECORDED TEMPERATURE
MATR.         1                    : LOGUNIT      - NEUTRON MATRIX
RMT .C        25                   : MDTP         - TEMPERATURE OF MUD
NEUT.         1                    : NEUTRON      - NEUTRON TYPE
RESI.         0                    : RESIST       - RESISTIVITY TYPE
RMC .OHMM     0.25                 : RMC          - RESISTIVITY OF MUD CAKE
RMF .OHMM     0.25                 : RMF          - RESISTIVITY OF MUD FILTRATE
SUFT.C        15                   : SUFT         - SURFACE TEMPERATURE
~A  DEPTH       GR     PHID     PHIN     RESD
  283.464  118.071    0.238    0.570    3.290
  283.714  119.708    0.245    0.567    3.246
  283.964  117.949    0.249    0.554    3.228
  284.214  114.465    0.240    0.554    3.225
  284.464  113.204    0.239    0.543    3.225
  284.714  111.296    0.225    0.533    3.233
  284.964  108.770    0.236    0.542    3.274
  285.214  105.864    0.235    0.548    3.443
  285.464  105.396    0.227    0.568    3.460
  285.714  103.917    0.223    0.554    3.466
  285.964  104.144    0.237    0.570    3.389
  286.214  107.201    0.254    0.577    3.394
  286.464  109.459    0.250    0.573    3.534
  286.714  108.359    0.234    0.557    3.857
  286.964  105.913    0.233    0.522    4.210
  287.214  103.667    0.243    0.506    4.734
  287.464   99.942    0.254    0.494    5.285
  287.714  100.269    0.272    0.771    6.448
  287.964  104.766    0.307    0.797    7.927
  288.214  112.800    0.430    0.748    8.852
  288.464  101.181    0.494    0.671    9.995
  288.714   75.267    0.486    0.626   11.174
  288.964   59.219    0.372    0.555   12.466
  289.214   54.768    0.307    0.515   13.137
  289.464   52.183    0.309    0.479   12.844
  289.714   57.598    0.314    0.448   12.366
  289.964   61.656    0.323    0.483   11.748
  290.214   65.925    0.326    0.515   11.704
  290.464   67.165    0.322    0.516   11.681
  290.714   67.769    0.302    0.501   11.898
  290.964   69.843    0.301    0.506   12.156
  291.214   71.251    0.322    0.486   12.723
  291.464   73.088    0.329    0.468   13.027
  291.714   76.529    0.325    0.460   12.989
  291.964   79.457    0.323    0.454   11.823
  292.214   83.375    0.294    0.447   10.917
  292.464   89.001    0.268    0.439   10.040
  292.714   95.267    0.224    0.449    9.863
  292.964   98.609    0.232    0.465    9.920
  293.214  105.474    0.257    0.474   10.035
  293.464  112.883    0.259    0.474   10.243
  293.714  113.101    0.251    0.466    9.917
  293.964  112.746    0.244    0.463    9.024
  294.214  112.723    0.227    0.477    8.558
  294.464  113.451    0.224    0.483    8.309
  294.714  110.049    0.227    0.483    8.143
  294.964  103.202    0.233    0.484    8.798
  295.214   99.591    0.223    0.489    9.529
  295.464   87.771    0.248    0.485   10.624
  295.714   79.610    0.281    0.470   11.319
  295.964   79.642    0.308    0.457   11.777
  296.214   84.879    0.326    0.459   12.235
  296.464   91.359    0.309    0.471   12.223
  296.714   95.183    0.323    0.490   11.782
  296.964   96.903    0.316    0.501   11.076
  297.214   98.531    0.311    0.477   10.701
  297.464  101.097    0.296    0.468   10.707
  297.714  103.441    0.285    0.484   10.684
  297.964  108.059    0.285    0.488   10.918
  298.214  106.030    0.296    0.484   11.431
  298.464  100.993    0.275    0.485   11.986
  298.714   92.872    0.256    0.469   12.627
  298.964   84.047    0.241    0.439   13.475
  299.214   83.343    0.241    0.421   14.146
  299.464   81.896    0.239    0.417   14.819
  299.714   81.113    0.236    0.410   15.456
  299.964   86.746    0.233    0.405   14.678
  300.214   95.912    0.224    0.411   13.566
  300.464  100.678    0.218    0.445   12.397
  300.714  107.391    0.222    0.476   11.082
  300.964  117.691    0.169    0.484    9.636
  301.214  120.070    0.131    0.467    8.547
  301.464  122.389    0.119    0.481    7.585
  301.714  123.718    0.145    0.501    6.928
  301.964  122.732    0.197    0.523    6.535
  302.214  126.977    0.201    0.541    6.345
  302.464  127.170    0.191    0.543    6.288
  302.714  126.103    0.177    0.530    5.963
  302.964  125.690    0.150    0.516    5.686
  303.214  127.357    0.158    0.534    5.522
  303.464  129.739    0.191    0.553    5.217
  303.714  133.837    0.191    0.564    4.663
  303.964  135.181    0.189    0.571    4.395
  304.214  133.385    0.186    0.567    4.055
  304.464  134.037    0.182    0.555    3.758
  304.714  131.781    0.200    0.567    3.421
  304.964  129.879    0.216    0.612    3.257
  305.214  131.798    0.211    0.611    3.329
  305.464  127.417    0.224    0.628    3.620
  305.714  122.607    0.241    0.545    3.984
  305.964  115.403    0.269    0.507    4.822
  306.214  111.764    0.280    0.487    6.261
  306.464  111.680    0.273    0.471    7.747
  306.714  112.946    0.268    0.458    9.224
  306.964  114.575    0.266    0.452   10.174
  307.214  111.491    0.265    0.461   10.454
  307.464  107.547    0.278    0.489   10.680
  307.714  103.645    0.285    0.505   10.898
  307.964  100.791    0.300    0.518   11.236
  308.214   99.122    0.298    0.502   11.260
  308.464  100.220    0.287    0.488   11.257
  308.714  103.294    0.293    0.492   10.628
  308.964  105.638    0.288    0.490   10.156
  309.214  109.669    0.259    0.482    8.883
  309.464  115.837    0.194    0.483    8.270
  309.714  122.387    0.143    0.487    7.728
  309.964  128.520    0.091    0.479    7.238
  310.214  132.554    0.098    0.510    7.669
  310.464  130.695    0.203    0.524    7.966
  310.714  122.451    0.238    0.506    8.756
  310.964  119.011    0.251    0.478    9.397
  311.214  117.442    0.263    0.468    9.872
  311.464  114.629    0.269    0.472   10.208
  311.714  110.584    0.273    0.490   10.365
  311.964  104.248    0.281    0.505   10.014
  312.214  101.888    0.272    0.486    9.594
  312.464  106.415    0.262    0.464    9.254
  312.714  111.732    0.277    0.486    8.969
  312.964  116.788    0.272    0.511    8.699
  313.214  120.626    0.268    0.525    8.430
  313.464  121.378    0.264    0.487    8.323
  313.714  121.632    0.257    0.475    8.215
  313.964  122.872    0.250    0.494    8.307
  314.214  122.108    0.243    0.505    8.699
  314.464  116.029    0.234    0.503    8.973
  314.714  105.679    0.255    0.491    9.436
  314.964   99.719    0.258    0.476    9.724
  315.214   97.137    0.281    0.469    9.722
  315.464  106.974    0.277    0.462    9.258
  315.714  110.683    0.259    0.466    8.491
  315.964  113.089    0.229    0.478    7.702
  316.214  115.892    0.201    0.551    6.935
  316.464  119.257    0.226    0.563    6.314
  316.714  114.621    0.231    0.566    6.062
  316.964  107.669    0.255    0.546    6.569
  317.214  100.279    0.293    0.513    6.817
  317.464   97.368    0.315    0.502    7.568
  317.714  100.049    0.311    0.504    8.162
  317.964  104.593    0.301    0.509    8.668
  318.214  108.815    0.283    0.508    9.021
  318.464  105.039    0.273    0.511    8.900
  318.714  103.051    0.259    0.502    8.830
  318.964  100.449    0.248    0.496    9.154
  319.214   98.509    0.236    0.495    9.556
  319.464   97.849    0.245    0.492    9.728
  319.714   99.434    0.263    0.516   10.213
  319.964   96.467    0.261    0.532   10.219
  320.214   97.430    0.262    0.528   10.228
  320.464   98.223    0.268    0.515   10.421
  320.714  100.745    0.274    0.518   10.182
  320.964  103.281    0.273    0.524   10.196
  321.214  101.864    0.270    0.515   10.076
  321.464  102.405    0.267    0.505    9.814
  321.714  100.254    0.278    0.515    9.640
  321.964   99.916    0.281    0.521    9.345
  322.214  100.925    0.264    0.523    9.038
  322.464  102.511    0.265    0.525    8.493
  322.714  104.001    0.282    0.519    7.985
  322.964  107.724    0.280    0.526    7.706
  323.214  111.739    0.262    0.537    7.711
  323.464  110.472    0.263    0.548    7.745
  323.714  107.766    0.280    0.518    8.154
  323.964  102.597    0.289    0.488    8.516
  324.214   95.823    0.286    0.476    8.849
  324.464   92.250    0.282    0.464    9.411
  324.714   86.001    0.276    0.441    9.583
  324.964   91.516    0.264    0.454    9.571
  325.214   97.000    0.262    0.480    9.565
  325.464   95.920    0.284    0.511    9.560
  325.714   96.158    0.314    0.529    9.559
  325.964   97.535    0.296    0.518    9.415
  326.214   99.105    0.258    0.503    8.908
  326.464   96.763    0.252    0.510    7.845
  326.714   93.834    0.249    0.516    6.951
