~VERSION INFORMATION
 VERS.                 2.0:   CWLS LOG ASCII STANDARD -VERSION 2.0
 WRAP.                  NO:   ONE LINE PER DEPTH STEP
~WELL INFORMATION BLOCK
#MNEM.UNIT           DATA                    DESCRIPTION OF MNEMONIC
#---------    -------------------            -------------------------------
# Generated from Intellog Unique Number	CS_73_76/WELL/2163
WELL.         DOME PETROLEUM LIMITED         : Well_name    - WELL
LOC .         00/06-09-074-05W4/0            : Location     - LOCATION
UWI .         00/06-09-074-05W4/0            : Uwi          - UNIQUE WELL ID
ENTR.         SP                             : Entered      - ENTERED BY
SRVC.         SCHLUMBERGER                   : Scn          - SERVICE COMPANY
STRT.M        225                            : top_depth    - START DEPTH
STOP.M        475                            : bot_depth    - STOP DEPTH
STEP.M        0.25                           : increment    - STEP LENGTH
 NULL. -999.2500:NULL Value
~CURVE INFORMATION BLOCK
#MNEM UNIT       ERCB CURVE CODE    CURVE DESCRIPTION
#-----------   ------------------   ----------------------------------
DEPT.M        00 001 00 00         : DEPTH        - DEPTH
ILD .OHMM     00 120 00 00         : RESD         - DEEP RESISTIVITY (DIL)
DPHI.V/V      00 890 00 00         : PHID         - DENSITY POROSITY (LIMESTONE)
NPHI.V/V      00 330 00 00         : PHIN         - NEUTRON POROSITY (LIMESTONE)
GR  .API      00 310 00 00         : GR           - GAMMA RAY
~PARAMETER INFORMATION
#MNEM.UNIT           DATA             DESCRIPTION OF MNEMONIC
#---------         -----------     ------------------------------
GL  .M        618.6                : gl           - GROUND LEVEL ELEVATION
EREF.M        623.1                : kb           - ELEVATION OF DEPTH REFERENCE
DATM.M        618.6                : datum        - DATUM ELEVATION
TDD .M        483                  : tdd          - TOTAL DEPTH DRILLER
RUN .         ONE                  : Run          - RUN NUMBER
ENG .         BILL                 : Engineer     - RECORDING ENGINEER
WIT .         JIM                  : Witness      - WITNESSED BY
MUD .         GEL                  : Mud_type     - MUD TYPE
MATR.         LIMESTONE            : Logunit      - NEUTRON MATRIX
TMAX.C        20                   : BHT          - MAXIMUM RECORDED TEMPERATURE
BHTD.M        483                  : BHTDEP       - MAXIMUM RECORDED TEMPERATURE
MATR.         1                    : LOGUNIT      - NEUTRON MATRIX
RMT .C        25                   : MDTP         - TEMPERATURE OF MUD
NEUT.         1                    : NEUTRON      - NEUTRON TYPE
RESI.         0                    : RESIST       - RESISTIVITY TYPE
RMC .OHMM     0.25                 : RMC          - RESISTIVITY OF MUD CAKE
RMF .OHMM     0.25                 : RMF          - RESISTIVITY OF MUD FILTRATE
SUFT.C        15                   : SUFT         - SURFACE TEMPERATURE
~A  DEPTH     RESD     PHID     PHIN       GR
# ...
  442.500    2.883    0.268    0.362   71.975
  442.750    2.828    0.254    0.362   83.580
  443.000    2.775    0.282    0.389   89.679
  443.250    2.722    0.253    0.399   87.821
  443.500    2.670    0.268    0.389   82.293
  443.750    2.619    0.242    0.390   84.105
  444.000    2.570    0.251    0.402   84.702
  444.250    2.473    0.286    0.409   68.764
  444.500    2.381    0.297    0.411   64.456
  444.750    2.335    0.308    0.421   61.372
  445.000    2.291    0.318    0.415   58.906
  445.250    2.247    0.325    0.413   58.268
  445.500    2.205    0.320    0.416   61.312
  445.750    2.204    0.326    0.419   61.288
  446.000    2.162    0.314    0.411   54.529
  446.250    2.162    0.298    0.410   51.450
  446.500    2.121    0.307    0.424   46.530
  446.750    2.080    0.296    0.427   42.834
  447.000    2.119    0.312    0.427   40.369
  447.250    2.159    0.333    0.405   37.901
  447.500    2.242    0.339    0.394   45.834
  447.750    2.241    0.344    0.393   67.852
  448.000    2.283    0.222    0.408   76.401
  448.250    2.283    0.230    0.428   75.155
  448.500    2.282    0.270    0.459   64.728
  448.750    2.281    0.301    0.433   53.687
  449.000    2.238    0.299    0.416   42.650
  449.250    2.237    0.288    0.423   54.256
  449.500    2.195    0.279    0.428   59.748
  449.750    2.153    0.293    0.427   56.053
  450.000    2.153    0.310    0.441   34.605
  450.250    2.111    0.318    0.413   30.296
  450.500    2.151    0.319    0.416   33.334
  450.750    2.151    0.305    0.418   40.657
  451.000    2.191    0.319    0.411   41.255
  451.250    2.233    0.305    0.408   39.395
  451.500    2.274    0.307    0.396   48.552
  451.750    2.317    0.315    0.402   54.045
  452.000    2.406    0.299    0.413   49.127
  452.250    2.451    0.266    0.421   42.986
  452.500    2.450    0.287    0.392   47.233
  452.750    2.450    0.302    0.397   49.047
  453.000    2.403    0.255    0.416   50.259
  453.250    2.402    0.283    0.429   47.796
  453.500    2.313    0.324    0.414   39.205
  453.750    2.269    0.312    0.407   36.119
  454.000    2.225    0.299    0.414   34.267
  454.250    2.183    0.310    0.407   32.400
  454.500    2.183    0.324    0.396   32.385
  454.750    2.182    0.334    0.398   32.366
  455.000    2.181    0.315    0.395   35.396
  455.250    2.140    0.292    0.389   36.604
  455.500    2.139    0.260    0.395   39.643
  455.750    2.098    0.275    0.402   35.954
  456.000    2.098    0.293    0.409   29.808
  456.250    2.058    0.329    0.395   29.790
  456.500    2.019    0.347    0.398   29.154
  456.750    1.980    0.341    0.408   28.518
  457.000    1.980    0.326    0.401   28.499
  457.250    1.942    0.311    0.409   27.863
  457.500    1.905    0.308    0.396   27.223
  457.750    1.905    0.318    0.389   27.209
  458.000    1.868    0.314    0.403   26.573
  458.250    1.833    0.318    0.403   26.554
  458.500    1.798    0.322    0.403   27.752
  458.750    1.797    0.335    0.404   28.959
  459.000    1.763    0.338    0.411   30.163
  459.250    1.763    0.346    0.411   30.137
  459.500    1.729    0.325    0.397   28.898
  459.750    1.729    0.319    0.396   26.430
  460.000    1.696    0.329    0.385   27.630
  460.250    1.695    0.320    0.379   30.057
  460.500    1.695    0.300    0.378   30.647
  460.750    1.663    0.292    0.380   30.632
  461.000    1.662    0.281    0.385   30.605
  461.250    1.662    0.289    0.387   28.752
  461.500    1.661    0.293    0.393   26.894
  461.750    1.630    0.306    0.402   26.252
  462.000    1.599    0.304    0.412   26.241
  462.250    1.568    0.313    0.415   26.216
  462.500    1.539    0.331    0.412   26.184
  462.750    1.509    0.313    0.402   26.165
  463.000    1.509    0.310    0.391   26.760
  463.250    1.480    0.316    0.395   26.745
  463.500    1.480    0.326    0.401   28.552
  463.750    1.451    0.297    0.384   29.762
  464.000    1.451    0.293    0.376   32.187
  464.250    1.451    0.297    0.377   31.557
  464.500    1.423    0.310    0.385   27.251
  464.750    1.423    0.320    0.393   26.007
  465.000    1.396    0.338    0.402   26.596
  465.250    1.395    0.301    0.408   28.407
  465.500    1.395    0.286    0.410   29.606
  465.750    1.368    0.298    0.392   29.595
  466.000    1.368    0.314    0.388   27.735
  466.250    1.368    0.301    0.382   27.100
  466.500    1.341    0.312    0.380   27.686
  466.750    1.341    0.321    0.380   27.054
  467.000    1.341    0.325    0.391   27.036
  467.250    1.340    0.327    0.401   28.242
  467.500    1.340    0.314    0.404   30.059
  467.750    1.340    0.327    0.403   28.813
  468.000    1.472    0.328    0.396   28.178
  468.250    1.779    0.308    0.383   29.378
  468.500    3.258    0.282    0.294   32.418
  468.750    7.633    0.252    0.240   35.456
  469.000   13.462    0.217    0.211   36.664
  469.250   19.281    0.192    0.183   35.419
  469.500   22.008    0.172    0.164   26.212
  469.750   23.286    0.167    0.169   24.353
  470.000   23.724    0.175    0.173   23.718
  470.250   24.634    0.044    0.164   23.086
  470.500   27.069    0.004    0.161   22.456
  470.750   28.108    0.000    0.158   22.437
  471.000   29.183    0.004    0.158   23.627
  471.250   29.733    0.011    0.157   24.226
  471.500   29.718    0.011    0.156   25.421
  471.750   30.277    0.007    0.157   26.636
  472.000   29.703    0.004    0.165   30.901
  472.250   29.697    0.009    0.173   36.999
  472.500   29.134    0.010    0.180   38.817
  472.750   28.045    0.007    0.189   40.011
  473.000   26.489    0.001    0.189   42.438
  473.250   25.019    0.000    0.185   44.870
  473.500   23.189    0.002    0.184   47.914
  473.750   21.492    0.005    0.185   51.563
  474.000   20.301    0.010    0.194   55.209
  474.250   19.540    0.013    0.212   57.034
  474.500   19.168    0.015    0.224   54.557
  474.750   19.528    0.010    0.214   51.481
  475.000   19.898    0.001    0.212   48.398
