~VERSION INFORMATION
 VERS.                 2.0:   CWLS LOG ASCII STANDARD -VERSION 2.0
 WRAP.                  NO:   ONE LINE PER DEPTH STEP
~WELL INFORMATION BLOCK
#MNEM.UNIT           DATA                    DESCRIPTION OF MNEMONIC
#---------    -------------------            -------------------------------
# Generated from Intellog Unique Number	CS_77_79/WELL/834
WELL.         CANOXY WINIFRED                : Well_name    - WELL
LOC .         00/01-28-078-02W4/0            : Location     - LOCATION
UWI .         00/01-28-078-02W4/0            : Uwi          - UNIQUE WELL ID
ENTR.         JHS                            : Entered      - ENTERED BY
SRVC.         SCHLUMBERGER                   : Scn          - SERVICE COMPANY
STRT.M        158.496                        : top_depth    - START DEPTH
STOP.M        426.496                        : bot_depth    - STOP DEPTH
STEP.M        0.25                           : increment    - STEP LENGTH
 NULL. -999.2500:NULL Value
~CURVE INFORMATION BLOCK
#MNEM UNIT       ERCB CURVE CODE    CURVE DESCRIPTION
#-----------   ------------------   ----------------------------------
DEPT.M        00 001 00 00         : DEPTH        - DEPTH
GR  .API      00 310 00 00         : GR           - GAMMA RAY
DPHI.V/V      00 890 00 00         : PHID         - DENSITY POROSITY (SANDSTONE)
NPHI.V/V      00 330 00 00         : PHIN         - NEUTRON POROSITY (SANDSTONE)
ILD .OHMM     00 120 00 00         : RESD         - DEEP RESISTIVITY (DIL)
~PARAMETER INFORMATION
#MNEM.UNIT           DATA             DESCRIPTION OF MNEMONIC
#---------         -----------     ------------------------------
GL  .M        570.89               : gl           - GROUND LEVEL ELEVATION
EREF.M        574.243              : kb           - ELEVATION OF DEPTH REFERENCE
DATM.M        574.243              : datum        - DATUM ELEVATION
TDD .M        434.34               : tdd          - TOTAL DEPTH DRILLER
RUN .         ONE                  : Run          - RUN NUMBER
ENG .         BILL                 : Engineer     - RECORDING ENGINEER
WIT .         JIM                  : Witness      - WITNESSED BY
MUD .         GEL                  : Mud_type     - MUD TYPE
MATR.         SANDSTONE            : Logunit      - NEUTRON MATRIX
TMAX.C        21.1111              : BHT          - MAXIMUM RECORDED TEMPERATURE
BHTD.M        434.34               : BHTDEP       - MAXIMUM RECORDED TEMPERATURE
MATR.         1                    : LOGUNIT      - NEUTRON MATRIX
RMT .C        25                   : MDTP         - TEMPERATURE OF MUD
NEUT.         1                    : NEUTRON      - NEUTRON TYPE
RESI.         0                    : RESIST       - RESISTIVITY TYPE
RMC .OHMM     0.25                 : RMC          - RESISTIVITY OF MUD CAKE
RMF .OHMM     0.25                 : RMF          - RESISTIVITY OF MUD FILTRATE
SUFT.C        15                   : SUFT         - SURFACE TEMPERATURE
~A  DEPTH       GR     PHID     PHIN     RESD
  158.496  117.115    0.292    0.576    3.124
  158.746  114.521    0.299    0.605    3.124
  158.996  113.530    0.300    0.569    3.226
  159.246  114.151    0.297    0.543    3.312
  159.496  116.414    0.290    0.532    3.385
  159.746  119.389    0.290    0.544    3.380
  159.996  122.931    0.290    0.590    3.443
  160.246  124.699    0.292    0.561    3.451
  160.496  121.639    0.284    0.546    3.453
  160.746  115.970    0.294    0.544    3.399
  160.996  115.411    0.300    0.561    3.409
  161.246  116.162    0.302    0.572    3.346
  161.496  112.663    0.299    0.564    3.306
  161.746  109.183    0.303    0.552    3.265
  161.996  107.984    0.304    0.551    3.122
  162.246  105.566    0.300    0.548    3.054
  162.496  104.913    0.302    0.557    3.010
  162.746  104.985    0.313    0.540    2.918
  162.996  104.702    0.324    0.531    2.863
  163.246  105.220    0.318    0.531    2.810
  163.496  107.011    0.327    0.546    2.778
  163.746  112.264    0.333    0.559    2.719
  163.996  112.953    0.320    0.547    2.671
  164.246  108.314    0.320    0.521    2.638
  164.496  104.375    0.317    0.522    2.615
  164.746  103.497    0.299    0.540    2.585
  164.996  101.788    0.279    0.520    2.590
  165.246   99.705    0.261    0.509    2.605
  165.496  100.436    0.243    0.523    2.641
  165.746  103.440    0.330    0.526    2.695
  165.996  105.060    0.311    0.538    2.751
  166.246  108.122    0.310    0.526    2.798
  166.496  110.017    0.307    0.538    2.805
  166.746  110.247    0.299    0.565    2.810
  166.996  109.288    0.309    0.565    2.814
  167.246  107.182    0.320    0.550    2.818
  167.496  105.575    0.316    0.545    2.822
  167.746  104.952    0.309    0.569    2.954
  167.996  105.847    0.306    0.584    3.064
  168.246  106.888    0.294    0.577    3.104
  168.496  104.596    0.286    0.553    3.113
  168.746  102.621    0.285    0.546    3.041
  168.996  104.306    0.291    0.543    2.952
  169.246  108.892    0.290    0.532    2.922
  169.496  112.589    0.280    0.531    2.896
  169.746  111.567    0.276    0.540    2.851
  169.996  109.799    0.297    0.547    2.874
  170.246  112.095    0.298    0.542    2.968
  170.496  114.870    0.288    0.528    3.008
  170.746  115.961    0.275    0.516    3.105
  170.996  114.348    0.280    0.503    3.206
  171.246  114.739    0.277    0.499    3.292
  171.496  116.495    0.281    0.508    3.342
  171.746  116.862    0.282    0.497    3.460
  171.996  115.374    0.276    0.487    3.464
  172.246  111.659    0.275    0.509    3.461
  172.496  109.316    0.272    0.528    3.360
  172.746  109.015    0.270    0.508    3.163
  172.996  111.851    0.276    0.504    3.117
  173.246  112.904    0.275    0.510    3.021
  173.496  113.339    0.281    0.540    3.041
  173.746  114.033    0.275    0.536    3.079
  173.996  112.118    0.275    0.525    3.236
  174.246  109.328    0.271    0.513    3.436
  174.496  107.020    0.263    0.497    3.842
  174.746  106.109    0.277    0.486    4.361
  174.996  102.353    0.281    0.470    4.560
  175.246   93.422    0.303    0.455    4.405
  175.496   85.741    0.316    0.448    4.229
  175.746   83.591    0.331    0.485    4.838
  175.996   78.675    0.351    0.543    5.522
  176.246   72.078    0.366    0.524    6.161
  176.496   69.508    0.375    0.496    6.388
  176.746   69.965    0.297    0.457    6.295
  176.996   77.208    0.242    0.426    6.257
  177.246   87.079    0.258    0.488    5.947
  177.496   90.197    0.327    0.482    5.857
  177.746   87.059    0.343    0.489    5.960
  177.996   87.034    0.364    0.554    6.761
  178.246   86.754    0.420    0.584    7.595
  178.496   77.844    0.529    0.607    8.863
  178.746   63.605    0.511    0.627   10.999
  178.996   67.306    0.400    0.566   13.307
  179.246   70.258    0.349    0.427   16.854
  179.496   74.402    0.329    0.424   20.559
  179.746   77.162    0.325    0.420   23.096
  179.996   78.394    0.320    0.421   23.494
  180.246   77.225    0.303    0.417   22.920
  180.496   73.162    0.256    0.399   22.017
  180.746   69.492    0.205    0.391   21.119
  180.996   71.946    0.149    0.401   20.188
  181.246   78.083    0.164    0.428   18.761
  181.496   80.845    0.315    0.447   17.106
  181.746   83.289    0.330    0.444   15.354
  181.996   88.894    0.328    0.431   13.495
  182.246   93.875    0.327    0.419   11.781
  182.496   94.437    0.317    0.430   10.591
  182.746   90.994    0.302    0.447   10.025
  182.996   90.037    0.298    0.458   10.174
  183.246   90.245    0.303    0.462   11.232
  183.496   87.629    0.309    0.472   12.841
  183.746   83.117    0.366    0.493   14.966
  183.996   75.612    0.442    0.526   16.809
  184.246   69.950    0.504    0.599   18.183
  184.496   69.012    0.515    0.613   18.404
  184.746   72.719    0.510    0.631   17.807
  184.996   73.018    0.508    0.646   14.944
  185.246   74.928    0.550    0.647   12.166
  185.496   81.501    0.549    0.602    8.790
  185.746   90.838    0.496    0.568    5.601
  185.996  104.345    0.376    0.536    3.881
  186.246  112.095    0.313    0.517    3.379
  186.496  113.015    0.307    0.524    3.322
  186.746  108.725    0.337    0.581    3.691
  186.996   99.479    0.373    0.625    4.743
  187.246   87.623    0.410    0.629    6.538
  187.496   81.333    0.416    0.526    8.309
  187.746   77.499    0.337    0.488   10.364
  187.996   76.260    0.331    0.480   12.543
  188.246   74.814    0.352    0.481   12.561
  188.496   77.256    0.364    0.489   10.938
  188.746   83.319    0.358    0.511    8.934
  188.996   92.644    0.357    0.551    7.474
  189.246   99.462    0.352    0.556    6.422
  189.496  104.401    0.342    0.535    5.766
  189.746  102.125    0.341    0.529    5.569
  189.996  102.263    0.331    0.551    5.581
  190.246  104.707    0.322    0.535    5.601
  190.496  102.344    0.335    0.529    5.904
  190.746   98.530    0.346    0.540    6.144
  190.996   94.016    0.368    0.538    6.498
  191.246   91.607    0.389    0.550    6.719
  191.496   96.719    0.370    0.508    7.008
  191.746  108.576    0.310    0.451    7.492
  191.996  108.367    0.255    0.441    8.346
  192.246  101.546    0.244    0.452    9.400
  192.496   97.528    0.213    0.446   10.608
  192.746   94.226    0.187    0.427   11.497
  192.996   89.651    0.173    0.416   11.498
  193.246   90.040    0.186    0.416   10.191
  193.496   92.148    0.204    0.433    9.314
  193.746   97.548    0.188    0.453    8.009
  193.996  111.079    0.213    0.475    6.879
  194.246  122.129    0.219    0.485    6.198
  194.496  127.389    0.239    0.486    5.868
  194.746  124.185    0.205    0.487    5.432
  194.996  122.315    0.187    0.489    5.158
  195.246  128.284    0.192    0.500    5.012
  195.496  134.381    0.240    0.520    4.791
  195.746  135.641    0.249    0.537    4.506
  195.996  133.374    0.259    0.543    4.119
  196.246  135.235    0.238    0.551    3.889
  196.496  141.412    0.233    0.557    3.701
  196.746  145.391    0.246    0.534    3.708
  196.996  142.851    0.250    0.520    4.042
  197.246  133.864    0.256    0.512    4.740
  197.496  122.193    0.219    0.483    5.426
  197.746  113.278    0.167    0.457    6.368
  197.996  111.423    0.139    0.437    7.846
  198.246  107.917    0.131    0.427    9.840
  198.496  102.431    0.226    0.415   12.508
  198.746   93.087    0.273    0.393   14.135
  198.996   85.312    0.271    0.391   15.656
  199.246   83.299    0.303    0.399   17.903
  199.496   81.167    0.315    0.402   18.955
  199.746   76.549    0.322    0.404   18.965
  199.996   76.242    0.314    0.411   19.019
  200.246   81.819    0.302    0.394   18.689
  200.496   82.734    0.307    0.387   18.626
  200.746   79.553    0.309    0.390   19.478
  200.996   76.219    0.306    0.403   19.760
  201.246   74.858    0.319    0.420   19.820
  201.496   78.242    0.330    0.429   19.861
  201.746   80.556    0.329    0.420   19.627
