~VERSION INFORMATION
 VERS.                 2.0:   CWLS LOG ASCII STANDARD -VERSION 2.0
 WRAP.                  NO:   ONE LINE PER DEPTH STEP
~WELL INFORMATION BLOCK
#MNEM.UNIT           DATA                    DESCRIPTION OF MNEMONIC
#---------    -------------------            -------------------------------
# Generated from Intellog Unique Number	CC_80_83/WELL/2307
NULL.         -999.25                        : NULL_VALUE
WELL.         ICGR CDN OXY NEWBY             : Well_name    - WELL
LOC .         07-34-081-05W4                 : Location     - LOCATION          
UWI .         00/07-34-081-05W4/0            : Uwi          - UNIQUE WELL ID    
ENTR.         DW                             : Entered      - ENTERED BY        
SRVC.         SCHLUMBERGER                   : Scn          - SERVICE COMPANY   
DATE.         29 JAN 86                      : Date         - LOG DATE
STRT.M        100                            : top_depth    - START DEPTH       
STOP.M        280.001                        : bot_depth    - STOP DEPTH        
STEP.M        0.3                            : increment    - STEP LENGTH       
~CURVE INFORMATION BLOCK
#MNEM UNIT       ERCB CURVE CODE    CURVE DESCRIPTION
#-----------   ------------------   ----------------------------------
DEPT.M        00 001 00 00         : DEPTH        - DEPTH                       
DPHI.V/V      00 890 00 00         : PHID         - DENSITY POROSITY (LIMESTONE)
NPHI.V/V      00 330 00 00         : PHIN         - NEUTRON POROSITY (LIMESTONE)
GR  .API      00 310 00 00         : GR           - GAMMA RAY                   
ILD .OHMM     00 120 00 00         : RESD         - DEEP RESISTIVITY (DIL)      
~PARAMETER INFORMATION       
#MNEM.UNIT           DATA             DESCRIPTION OF MNEMONIC
#---------         -----------     ------------------------------
GL  .M        469                  : gl           - GROUND LEVEL ELEVATION      
EREF.M        472                  : kb           - ELEVATION OF DEPTH REFERENCE
DATM.M        472                  : datum        - DATUM ELEVATION             
TDD .M        289                  : tdd          - TOTAL DEPTH DRILLER         
RUN .         ONE                  : Run          - RUN NUMBER                  
ENG .         BILL                 : Engineer     - RECORDING ENGINEER          
WIT .         JIM                  : Witness      - WITNESSED BY                
MUD .         GEL                  : Mud_type     - MUD TYPE                    
MATR.         LIMESTONE            : Logunit      - NEUTRON MATRIX              
TMAX.C        21                   : BHT          - MAXIMUM RECORDED TEMPERATURE
BHTD.M        288                  : BHTDEP       - MAXIMUM RECORDED TEMPERATURE
MATR.         1                    : LOGUNIT      - NEUTRON MATRIX              
RMT .C        25                   : MDTP         - TEMPERATURE OF MUD          
NEUT.         1                    : NEUTRON      - NEUTRON TYPE                
RESI.         0                    : RESIST       - RESISTIVITY TYPE            
RMC .OHMM     0.25                 : RMC          - RESISTIVITY OF MUD CAKE     
RMF .OHMM     0.25                 : RMF          - RESISTIVITY OF MUD FILTRATE 
SUFT.C        15                   : SUFT         - SURFACE TEMPERATURE         
~A  DEPTH     PHID     PHIN       GR     RESD
# ...
  152.201    0.350    0.475   62.974   10.394
  152.501    0.355    0.454   65.436   10.199
  152.801    0.354    0.421   69.133   10.199
  153.101    0.349    0.428   67.271   10.007
  153.401    0.346    0.470   65.406   10.007
  153.701    0.339    0.470   65.401    9.819
  154.001    0.347    0.460   63.540    9.635
  154.301    0.345    0.452   57.356    9.634
  154.601    0.344    0.445   59.197    9.634
  154.901    0.345    0.449   59.810    9.634
  155.201    0.349    0.434   60.419    9.633
  155.501    0.352    0.422   61.646    9.633
  155.801    0.354    0.461   57.314    9.817
  156.101    0.357    0.473   52.363    9.633
  156.401    0.350    0.462   55.442    9.816
  156.701    0.338    0.437   57.286    9.816
  157.001    0.326    0.428   57.276    9.631
  157.301    0.337    0.433   58.505    9.815
  157.601    0.348    0.449   64.670    9.815
  157.901    0.344    0.415   70.836    9.450
  158.201    0.299    0.415   76.386    9.099
  158.501    0.294    0.476   89.961    8.277
  158.801    0.296    0.522   99.211    3.213
  159.101    0.296    0.609  100.441    2.373
  159.401    0.293    0.633  102.283    2.040
  159.701    0.293    0.617  101.039    2.040
  160.001    0.298    0.614   98.558    2.040
  160.301    0.278    0.596   97.317    2.040
  160.601    0.263    0.573   98.542    2.159
  160.901    0.242    0.575  102.239    2.328
  161.201    0.243    0.569  106.551    2.418
  161.501    0.269    0.569  107.161    2.813
  161.801    0.263    0.575   98.507    3.152
  162.101    0.252    0.531   89.854    3.598
  162.401    0.242    0.492   87.377    4.031
  162.701    0.246    0.450   82.427    4.515
  163.001    0.253    0.461   83.651    4.963
  163.301    0.262    0.489   85.498    5.353
  163.601    0.272    0.495   89.194    5.997
  163.901    0.279    0.478   88.568    6.846
  164.201    0.280    0.476   84.236    7.525
  164.501    0.216    0.467   75.585    7.965
  164.801    0.139    0.306   57.669    8.922
  165.101    0.251    0.313   66.922    9.807
  165.401    0.293    0.397   82.964   11.850
  165.701    0.303    0.473   86.044   12.307
  166.001    0.294    0.473   87.268   10.986
  166.301    0.270    0.487   87.877   10.184
  166.601    0.260    0.505   89.103    8.920
  166.901    0.270    0.503   90.333    7.963
  167.201    0.267    0.486   91.558    7.667
  167.501    0.246    0.460   94.020    7.813
  167.801    0.229    0.447   95.863    8.269
  168.101    0.226    0.445   97.090    9.440
  168.401    0.228    0.447   96.463    9.620
  168.701    0.238    0.450   95.217    9.804
  169.001    0.243    0.452   92.120    9.619
  169.301    0.243    0.456   89.025    9.439
  169.601    0.239    0.456   85.932    9.262
  169.901    0.261    0.460   83.453    9.261
  170.201    0.264    0.462   92.704    8.425
  170.501    0.235    0.470   97.635    7.664
  170.801    0.224    0.482   98.243    7.664
  171.101    0.222    0.464   93.915    7.105
  171.401    0.230    0.445   89.584    6.342
  171.701    0.246    0.443   93.280    6.971
  172.001    0.264    0.461   92.034    7.240
  172.301    0.270    0.465   80.914    7.809
  172.601    0.269    0.461   78.434    7.958
  172.901    0.266    0.433   83.981    9.085
  173.201    0.265    0.422   88.295    9.435
  173.501    0.233    0.450   89.521    8.264
  173.801    0.233    0.523   97.540    6.340
  174.101    0.245    0.549  101.852    4.684
  174.401    0.254    0.559  103.696    3.950
  174.701    0.248    0.506   99.985    4.260
  175.001    0.243    0.496   91.947    4.509
  175.301    0.243    0.511   90.087    4.772
  175.601    0.248    0.544   95.018    4.772
  175.901    0.269    0.545  103.037    4.683
  176.201    0.286    0.537   95.618    4.683
  176.501    0.301    0.522   84.495    5.051
  176.801    0.312    0.510   82.015    5.448
  177.101    0.295    0.463   88.800    6.103
  177.401    0.273    0.452   96.818    5.988
  177.701    0.273    0.523   99.897    4.423
  178.001    0.273    0.555   99.269    3.592
  178.301    0.270    0.559   98.645    3.458
  178.601    0.247    0.531   99.252    3.802
  178.901    0.221    0.493  102.948    5.244
  179.201    0.225    0.448  102.321    7.513
  179.501    0.243    0.453   88.730    9.078
  179.801    0.122    0.401   69.579    9.979
  180.101    0.138    0.357   72.657    9.979
  180.401    0.205    0.393   81.908    9.979
  180.701    0.220    0.461   86.841    9.608
  181.001    0.230    0.478   91.156    7.371
  181.301    0.251    0.500   83.737    5.243
  181.601    0.291    0.490   73.231    5.243
  181.901    0.300    0.448   74.459    5.445
  182.201    0.283    0.467   84.946    6.335
  182.501    0.238    0.490   89.877    7.232
  182.801    0.229    0.462   89.250    7.800
  183.101    0.231    0.461   84.301    7.654
  183.401    0.238    0.482   84.910    6.963
  183.701    0.242    0.485   85.516    6.704
  184.001    0.242    0.472   86.128    6.703
  184.301    0.239    0.453   89.824    7.095
  184.601    0.236    0.450   94.138    7.368
  184.901    0.237    0.467   99.686    7.368
  185.201    0.242    0.453   99.056    7.230
  185.501    0.245    0.435   99.667    7.508
  185.801    0.236    0.418   97.190    7.798
  186.101    0.237    0.423   92.857    8.098
  186.401    0.223    0.442   92.232    7.946
  186.701    0.261    0.446   90.371    7.797
  187.001    0.277    0.475   85.421    7.366
  187.301    0.303    0.512   81.092    5.442
  187.601    0.305    0.591   81.084    3.084
  187.901    0.296    0.568   79.221    2.505
  188.201    0.284    0.545   77.362    2.322
  188.501    0.301    0.526   82.292    2.236
  188.801    0.301    0.538   90.309    2.194
  189.101    0.278    0.541   85.362    2.193
  189.401    0.241    0.531   77.942    2.322
  189.701    0.252    0.509   80.402    2.504
  190.001    0.249    0.473   81.630    2.913
  190.301    0.235    0.475   80.386    3.943
  190.601    0.245    0.446   78.525    4.335
  190.901    0.253    0.422   78.513    4.949
  191.201    0.234    0.408   80.359    6.094
  191.501    0.218    0.411   86.527    7.363
  191.801    0.222    0.433  102.572    7.942
  192.101    0.253    0.477  103.798    7.089
  192.401    0.253    0.550   94.526    6.698
  192.701    0.214    0.503   87.107    4.252
  193.001    0.227    0.503   85.247    3.519
  193.301    0.232    0.514   88.326    3.325
  193.601    0.232    0.493   96.343    3.325
  193.901    0.217    0.480   98.805    3.325
  194.201    0.209    0.518   97.561    3.388
  194.501    0.222    0.544   93.229    3.586
  194.801    0.235    0.492   91.986    4.017
  195.101    0.245    0.460   92.596    4.251
  195.401    0.231    0.503   88.264    4.332
  195.701    0.227    0.527   90.108    4.016
  196.001    0.249    0.506   96.889    3.795
  196.301    0.244    0.495   97.500    3.654
  196.601    0.202    0.539   95.637    3.654
  196.901    0.222    0.494   91.925    3.723
  197.201    0.238    0.475   83.271    3.653
  197.501    0.247    0.460   78.938    4.171
  197.801    0.258    0.449   78.316    4.761
  198.101    0.241    0.453   88.186    5.539
  198.401    0.232    0.488   94.967    5.863
  198.701    0.222    0.494   89.403    4.852
  199.001    0.165    0.479   81.368    4.671
  199.301    0.102    0.379   72.097    4.944
  199.601    0.205    0.352   83.821    5.435
  199.901    0.226    0.388   81.341    7.219
  200.201    0.243    0.367   74.540    7.497
  200.501    0.254    0.316   72.062    6.692
  200.801    0.270    0.346   65.260    6.820
  201.101    0.304    0.325   57.843    6.566
  201.401    0.306    0.304   53.510    6.443
  201.701    0.272    0.358   54.738    6.322
  202.001    0.282    0.440   67.078    5.973
  202.301    0.290    0.480   76.331    4.850
  202.601    0.285    0.446   79.409    3.938
  202.901    0.277    0.457   86.811    3.385
  203.201    0.274    0.535   94.210    3.021
  203.501    0.287    0.578   87.410    2.909
  203.801    0.309    0.418   81.228    2.801
  204.101    0.320    0.361   81.836    3.321
