~VERSION INFORMATION
 VERS.                 2.0:   CWLS LOG ASCII STANDARD -VERSION 2.0
 WRAP.                  NO:   ONE LINE PER DEPTH STEP
~WELL INFORMATION BLOCK
#MNEM.UNIT           DATA                    DESCRIPTION OF MNEMONIC
#---------    -------------------            -------------------------------
# Generated from Intellog Unique Number	CS_71_72/WELL/820
WELL.         MAYNARD ET AL BEHAN            : Well_name    - WELL
LOC .         00/07-28-072-11W4/0            : Location     - LOCATION
UWI .         00/07-28-072-11W4/0            : Uwi          - UNIQUE WELL ID
ENTR.         SP                             : Entered      - ENTERED BY
SRVC.         SCHLUMBERGER                   : Scn          - SERVICE COMPANY
STRT.M        305                            : top_depth    - START DEPTH
STOP.M        536.25                         : bot_depth    - STOP DEPTH
STEP.M        0.25                           : increment    - STEP LENGTH
 NULL. -999.2500:NULL Value
~CURVE INFORMATION BLOCK
#MNEM UNIT       ERCB CURVE CODE    CURVE DESCRIPTION
#-----------   ------------------   ----------------------------------
DEPT.M        00 001 00 00         : DEPTH        - DEPTH
ILD .OHMM     00 120 00 00         : RESD         - DEEP RESISTIVITY (DIL)
DPHI.V/V      00 890 00 00         : PHID         - DENSITY POROSITY (LIMESTONE)
NPHI.V/V      00 330 00 00         : PHIN         - NEUTRON POROSITY (LIMESTONE)
GR  .API      00 310 00 00         : GR           - GAMMA RAY
~PARAMETER INFORMATION
#MNEM.UNIT           DATA             DESCRIPTION OF MNEMONIC
#---------         -----------     ------------------------------
GL  .M        657.48               : gl           - GROUND LEVEL ELEVATION
EREF.M        660.68               : kb           - ELEVATION OF DEPTH REFERENCE
DATM.M        657.48               : datum        - DATUM ELEVATION
TDD .M        545                  : tdd          - TOTAL DEPTH DRILLER
RUN .         ONE                  : Run          - RUN NUMBER
ENG .         BILL                 : Engineer     - RECORDING ENGINEER
WIT .         JIM                  : Witness      - WITNESSED BY
MUD .         GEL                  : Mud_type     - MUD TYPE
MATR.         LIMESTONE            : Logunit      - NEUTRON MATRIX
TMAX.C        23                   : BHT          - MAXIMUM RECORDED TEMPERATURE
BHTD.M        545                  : BHTDEP       - MAXIMUM RECORDED TEMPERATURE
MATR.         1                    : LOGUNIT      - NEUTRON MATRIX
RMT .C        25                   : MDTP         - TEMPERATURE OF MUD
NEUT.         1                    : NEUTRON      - NEUTRON TYPE
RESI.         0                    : RESIST       - RESISTIVITY TYPE
RMC .OHMM     0.25                 : RMC          - RESISTIVITY OF MUD CAKE
RMF .OHMM     0.25                 : RMF          - RESISTIVITY OF MUD FILTRATE
SUFT.C        15                   : SUFT         - SURFACE TEMPERATURE
~A  DEPTH     RESD     PHID     PHIN       GR
# ...
  435.500    5.106    0.307    0.443   77.439
  435.750    4.945    0.305    0.443   75.007
  436.000    4.947    0.302    0.443   75.612
  436.250    4.950    0.306    0.441   77.431
  436.500    4.951    0.309    0.437   79.250
  436.750    5.034    0.310    0.430   79.247
  437.000    5.036    0.309    0.428   81.066
  437.250    5.037    0.306    0.434   84.707
  437.500    5.039    0.291    0.455   87.739
  437.750    4.960    0.275    0.465   88.344
  438.000    4.799    0.257    0.456   89.556
  438.250    4.638    0.261    0.454   90.766
  438.500    4.153    0.272    0.472   91.979
  438.750    4.073    0.280    0.486   94.405
  439.000    3.993    0.288    0.489   94.403
  439.250    3.995    0.296    0.481   88.934
  439.500    4.160    0.293    0.473   84.679
  439.750    4.324    0.287    0.466   82.856
  440.000    4.489    0.276    0.460   79.209
  440.250    4.653    0.273    0.454   74.348
  440.500    4.817    0.285    0.450   71.916
  440.750    4.982    0.290    0.455   73.128
  441.000    5.065    0.291    0.449   76.768
  441.250    5.229    0.295    0.442   77.980
  441.500    5.394    0.298    0.435   79.798
  441.750    5.476    0.293    0.426   81.010
  442.000    5.560    0.284    0.421   81.616
  442.250    5.562    0.277    0.421   77.361
  442.500    5.646    0.270    0.423   76.143
  442.750    5.647    0.264    0.424   76.748
  443.000    5.567    0.262    0.426   77.960
  443.250    5.570    0.279    0.427   77.957
  443.500    5.571    0.266    0.426   77.346
  443.750    5.654    0.265    0.416   77.344
  444.000    5.819    0.276    0.405   77.947
  444.250    5.902    0.275    0.413   78.553
  444.500    5.986    0.268    0.433   80.372
  444.750    6.069    0.267    0.426   81.584
  445.000    6.070    0.265    0.420   78.543
  445.250    6.153    0.267    0.416   76.719
  445.500    6.154    0.262    0.417   75.501
  445.750    6.075    0.258    0.423   75.499
  446.000    5.996    0.257    0.427   77.318
  446.250    5.917    0.251    0.417   78.529
  446.500    5.838    0.257    0.404   79.134
  446.750    5.677    0.242    0.399   80.346
  447.000    5.923    0.247    0.407   82.165
  447.250    5.192    0.253    0.427   84.591
  447.500    4.950    0.256    0.438   86.410
  447.750    4.546    0.253    0.429   86.407
  448.000    4.303    0.245    0.426   85.190
  448.250    3.818    0.240    0.420   88.830
  448.500    3.656    0.259    0.421   92.471
  448.750    3.414    0.270    0.444   94.897
  449.000    3.253    0.281    0.461   94.895
  449.250    3.418    0.284    0.480   92.462
  449.500    3.745    0.269    0.497   92.460
  449.750    4.235    0.261    0.466   91.242
  450.000    4.562    0.252    0.441   76.057
  450.250    4.970    0.232    0.422   74.233
  450.500    5.623    0.205    0.401   76.050
  450.750    5.868    0.187    0.406   77.871
  451.000    6.195    0.169    0.374   81.511
  451.250    6.441    0.161    0.339   84.544
  451.500    6.036    0.212    0.316   85.757
  451.750    5.469    0.229    0.374   86.966
  452.000    5.226    0.239    0.417   87.571
  452.250    4.579    0.251    0.444   88.177
  452.500    4.417    0.263    0.450   89.387
  452.750    4.338    0.272    0.436   89.993
  453.000    4.583    0.257    0.431   89.382
  453.250    4.993    0.251    0.439   88.165
  453.500    5.238    0.248    0.441   84.518
  453.750    5.891    0.246    0.431   82.694
  454.000    6.217    0.239    0.434   83.298
  454.250    6.544    0.229    0.442   83.903
  454.500    7.034    0.208    0.438   83.293
  454.750    7.198    0.185    0.414   76.610
  455.000    7.200    0.141    0.383   76.607
  455.250    6.876    0.179    0.382   79.641
  455.500    6.472    0.196    0.443   82.673
  455.750    5.905    0.213    0.446   83.278
  456.000    5.744    0.196    0.437   83.883
  456.250    5.502    0.201    0.432   85.702
  456.500    5.261    0.215    0.427   89.341
  456.750    5.181    0.207    0.427   91.161
  457.000    5.183    0.207    0.430   92.373
  457.250    5.103    0.214    0.435   89.334
  457.500    5.105    0.218    0.441   92.974
  457.750    5.107    0.222    0.438   94.186
  458.000    5.109    0.215    0.433   94.790
  458.250    5.111    0.208    0.432   93.573
  458.500    5.113    0.215    0.435   91.140
  458.750    5.195    0.224    0.431   89.316
  459.000    5.198    0.228    0.442   88.099
  459.250    5.117    0.233    0.452   89.311
  459.500    5.038    0.234    0.459   89.307
  459.750    5.040    0.239    0.447   88.090
  460.000    4.880    0.240    0.442   87.479
  460.250    4.881    0.245    0.449   87.477
  460.500    4.802    0.252    0.449   87.474
  460.750    4.641    0.263    0.443   88.079
  461.000    4.561    0.269    0.429   88.683
  461.250    4.563    0.274    0.422   88.072
  461.500    4.566    0.245    0.427   88.070
  461.750    4.648    0.215    0.432   85.638
  462.000    4.731    0.179    0.435   83.206
  462.250    4.733    0.137    0.408   84.417
  462.500    4.654    0.157    0.402   86.236
  462.750    4.250    0.186    0.440   86.841
  463.000    4.007    0.219    0.454   86.838
  463.250    3.765    0.229    0.470   86.227
  463.500    3.361    0.236    0.468   86.225
  463.750    3.119    0.250    0.456   85.008
  464.000    2.876    0.257    0.482   85.004
  464.250    2.715    0.271    0.516   85.002
  464.500    2.392    0.260    0.519   86.213
  464.750    2.231    0.260    0.503   88.033
  465.000    2.152    0.276    0.498   91.066
  465.250    2.072    0.246    0.529   93.492
  465.500    1.993    0.238    0.535   94.096
  465.750    2.075    0.240    0.522   92.879
  466.000    2.322    0.240    0.508   91.055
  466.250    2.486    0.238    0.502   92.266
  466.500    2.894    0.233    0.495   92.871
  466.750    3.303    0.229    0.483   87.402
  467.000    3.548    0.218    0.461   83.756
  467.250    3.876    0.225    0.441   82.538
  467.500    4.040    0.235    0.430   84.356
  467.750    4.368    0.241    0.432   84.962
  468.000    4.613    0.251    0.441   86.173
  468.250    4.777    0.257    0.435   87.385
  468.500    4.860    0.266    0.425   84.345
  468.750    4.943    0.230    0.413   81.307
  469.000    5.108    0.162    0.375   77.053
  469.250    5.028    0.156    0.369   80.693
  469.500    5.030    0.221    0.396   84.941
  469.750    4.951    0.230    0.410   86.760
  470.000    4.790    0.219    0.413   80.077
  470.250    4.710    0.206    0.408   73.394
  470.500    4.469    0.177    0.403   75.213
  470.750    4.389    0.207    0.405   79.461
  471.000    4.067    0.235    0.419   83.709
  471.250    3.906    0.240    0.423   86.743
  471.500    3.825    0.228    0.421   89.169
  471.750    3.502    0.222    0.418   90.988
  472.000    3.260    0.217    0.446   93.414
  472.250    3.099    0.217    0.462   96.447
  472.500    2.940    0.221    0.468   98.873
  472.750    2.860    0.222    0.477  100.086
  473.000    2.781    0.223    0.478  101.297
  473.250    2.701    0.223    0.489  102.509
  473.500    2.946    0.217    0.494  103.720
  473.750    3.030    0.201    0.496  100.074
  474.000    3.113    0.200    0.484  102.501
  474.250    3.114    0.213    0.496  103.105
  474.500    3.279    0.228    0.490   98.243
  474.750    3.280    0.229    0.475   95.811
  475.000    3.364    0.211    0.466   97.024
  475.250    3.365    0.202    0.473   96.413
  475.500    3.367    0.196    0.468   91.552
  475.750    3.288    0.193    0.455   90.334
  476.000    3.127    0.190    0.444   91.545
  476.250    2.966    0.207    0.439   92.757
  476.500    2.806    0.220    0.456   95.791
  476.750    2.726    0.221    0.467   98.217
  477.000    2.890    0.224    0.473  100.037
  477.250    3.461    0.229    0.466   95.175
  477.500    3.951    0.216    0.455   92.744
  477.750    4.521    0.204    0.439   89.704
  478.000    5.418    0.195    0.426   87.879
  478.250    5.907    0.205    0.401   86.054
  478.500    6.885    0.201    0.412   85.445
  478.750    7.862    0.174    0.408   81.798
