~VERSION INFORMATION
 VERS.                 2.0:   CWLS LOG ASCII STANDARD -VERSION 2.0
 WRAP.                  NO:   ONE LINE PER DEPTH STEP
~WELL INFORMATION BLOCK
#MNEM.UNIT           DATA                    DESCRIPTION OF MNEMONIC
#---------    -------------------            -------------------------------
# Generated from Intellog Unique Number	CW_76_78/WELL/2566
WELL.         NOVALTA PORTAGE                : Well_name    - WELL
LOC .         00/05-29-078-19W4/0            : Location     - LOCATION
UWI .         00/05-29-078-19W4/0            : Uwi          - UNIQUE WELL ID
ENTR.         MAX                            : Entered      - ENTERED BY
SRVC.         WESTERN ATLAS                  : Scn          - SERVICE COMPANY
STRT.M        190                            : top_depth    - START DEPTH
STOP.M        400                            : bot_depth    - STOP DEPTH
STEP.M        0.25                           : increment    - STEP LENGTH
 NULL. -999.2500:NULL Value
~CURVE INFORMATION BLOCK
#MNEM UNIT       ERCB CURVE CODE    CURVE DESCRIPTION
#-----------   ------------------   ----------------------------------
DEPT.M        00 001 00 00         : DEPTH        - DEPTH
ILD .OHMM     00 120 00 00         : RESD         - DEEP RESISTIVITY (DIL)
NPHI.V/V      00 330 00 00         : PHIN         - NEUTRON POROSITY (SANDSTONE)
DPHI.V/V      00 890 00 00         : PHID         - DENSITY POROSITY (SANDSTONE)
CALI.MM       00 280 01 00         : CAL          - CALIPER
GR  .API      00 310 00 00         : GR           - GAMMA RAY
~PARAMETER INFORMATION
#MNEM.UNIT           DATA             DESCRIPTION OF MNEMONIC
#---------         -----------     ------------------------------
GL  .M        559.38               : gl           - GROUND LEVEL ELEVATION
EREF.M        563.38               : kb           - ELEVATION OF DEPTH REFERENCE
DATM.M        559.38               : datum        - DATUM ELEVATION
TDD .M        433.8                : tdd          - TOTAL DEPTH DRILLER
RUN .         ONE                  : Run          - RUN NUMBER
ENG .         BILL                 : Engineer     - RECORDING ENGINEER
WIT .         JIM                  : Witness      - WITNESSED BY
MUD .         GEL                  : Mud_type     - MUD TYPE
MATR.         SANDSTONE            : Logunit      - NEUTRON MATRIX
TMAX.C        24                   : BHT          - MAXIMUM RECORDED TEMPERATURE
BHTD.M        433.8                : BHTDEP       - MAXIMUM RECORDED TEMPERATURE
RMT .C        17                   : MDTP         - TEMPERATURE OF MUD
MUDD.KG/M     1160                 : MWT          - MUD DENSITY
NEUT.         1                    : NEUTRON      - NEUTRON TYPE
RESI.         0                    : RESIST       - RESISTIVITY TYPE
RM  .OHMM     5                    : RM           - RESISTIVITY OF MUD
RMC .OHMM     0.25                 : RMC          - RESISTIVITY OF MUD CAKE
RMF .OHMM     0.25                 : RMF          - RESISTIVITY OF MUD FILTRATE
SUFT.C        -20                  : SUFT         - SURFACE TEMPERATURE
~A  DEPTH     RESD     PHIN     PHID      CAL       GR
# ...
  226.500   11.581    0.459    0.375  211.475   76.144
  226.750   12.463    0.463    0.366  214.963   74.941
  227.000   13.168    0.467    0.362  219.446   77.031
  227.250   13.659    0.468    0.369  217.439   80.320
  227.500   13.657    0.467    0.375  205.949   84.807
  227.750   13.657    0.469    0.373  204.445   85.399
  228.000   13.403    0.470    0.365  198.945   83.598
  228.250   12.682    0.469    0.354  187.455   85.089
  228.500   12.222    0.472    0.343  179.957   82.688
  228.750   12.108    0.474    0.363  181.947   77.592
  229.000   12.330    0.478    0.364  184.433   70.997
  229.250   12.557    0.478    0.350  182.925   68.295
  229.500   12.555    0.478    0.340  180.422   68.889
  229.750   12.324    0.472    0.363  177.416   70.979
  230.000   12.324    0.473    0.366  176.907   76.664
  230.250   12.207    0.472    0.358  176.898   83.246
  230.500   12.205    0.469    0.354  177.388   87.734
  230.750   12.895    0.466    0.355  177.380   86.231
  231.000   14.005    0.471    0.352  178.368   77.541
  231.250   14.662    0.481    0.343  181.851   72.145
  231.500   15.070    0.493    0.342  182.843   66.149
  231.750   15.068    0.500    0.347  182.832   62.549
  232.000   14.655    0.497    0.338  182.323   63.442
  232.250   14.123    0.473    0.316  182.315   67.030
  232.500   13.992    0.429    0.293  182.804   68.223
  232.750   14.919    0.306    0.285  183.793   68.218
  233.000   16.354    0.240    0.253  184.783   67.613
  233.250   18.598    0.197    0.229  185.771   66.111
  233.500   19.832    0.153    0.212  187.259   62.511
  233.750   20.761    0.171    0.216  187.748   59.212
  234.000   20.947    0.345    0.247  189.735   59.505
  234.250   20.755    0.435    0.290  192.719   54.708
  234.500   18.927    0.470    0.321  194.209   50.809
  234.750   17.103    0.487    0.337  194.697   48.407
  235.000   16.034    0.475    0.365  193.192   49.002
  235.250   15.452    0.452    0.378  189.689   51.690
  235.500   15.029    0.402    0.369  186.684   53.183
  235.750   15.446    0.367    0.349  184.677   53.775
  236.000   16.171    0.356    0.296  183.672   52.572
  236.250   16.930    0.360    0.294  182.665   50.170
  236.500   17.561    0.398    0.310  183.654   47.470
  236.750   17.561    0.446    0.336  188.134   45.367
  237.000   17.716    0.496    0.337  191.620   44.164
  237.250   17.551    0.509    0.334  194.107   43.859
  237.500   17.071    0.512    0.358  195.094   44.453
  237.750   16.451    0.508    0.372  194.587   44.447
  238.000   16.002    0.498    0.367  193.578   45.041
  238.250   15.706    0.496    0.356  193.569   46.233
  238.500   14.998    0.497    0.357  193.560   48.023
  238.750   14.588    0.498    0.355  194.548   49.816
  239.000   14.188    0.498    0.371  195.039   53.104
  239.250   13.800    0.496    0.382  195.029   52.798
  239.500   13.299    0.496    0.381  195.021   52.194
  239.750   12.935    0.498    0.366  194.511   51.289
  240.000   12.351    0.496    0.349  193.504   51.584
  240.250   11.473    0.497    0.374  192.498   52.178
  240.500   10.956    0.502    0.376  190.990   52.172
  240.750   10.461    0.501    0.367  190.483   52.466
  241.000   10.363    0.496    0.355  189.972   52.460
  241.250   10.267    0.489    0.359  189.963   54.551
  241.500   10.172    0.488    0.368  189.954   57.838
  241.750   10.264    0.492    0.373  190.442   57.834
  242.000   10.745    0.492    0.360  190.442   56.032
  242.250   11.044    0.493    0.346  190.926   53.630
  242.500   11.144    0.497    0.340  191.913   52.127
  242.750   11.245    0.497    0.333  192.901   50.623
  243.000   11.557    0.498    0.328  193.890   50.318
  243.250   12.324    0.499    0.347  194.380   49.715
  243.500   12.784    0.500    0.388  194.370   48.511
  243.750   12.782    0.502    0.394  193.863   46.707
  244.000   12.318    0.504    0.392  193.855   46.103
  244.250   11.654    0.507    0.373  193.344   46.398
  244.500   10.826    0.513    0.389  192.836   46.692
  244.750    9.783    0.514    0.400  192.328   46.686
  245.000    9.341    0.513    0.402  192.328   48.477
  245.250    9.339    0.508    0.402  192.308   51.166
  245.500    9.425    0.503    0.400  192.800   51.760
  245.750    9.776    0.487    0.361  193.288   50.556
  246.000   10.329    0.468    0.346  193.779   47.257
  246.250   10.327    0.463    0.344  193.771   46.952
  246.500   10.325    0.472    0.343  194.258   50.540
  246.750   10.323    0.482    0.338  194.249   56.224
  247.000   10.417    0.499    0.347  194.239   56.816
  247.250   10.707    0.503    0.394  193.234   56.513
  247.500   11.106    0.496    0.397  190.728   56.207
  247.750   12.174    0.479    0.382  189.223   57.399
  248.000   13.101    0.446    0.391  187.714   57.394
  248.250   13.716    0.441    0.388  186.705   56.191
  248.500   13.713    0.454    0.375  186.198   54.388
  248.750   13.338    0.467    0.362  185.690   54.681
  249.000   12.504    0.492    0.360  186.178   56.173
  249.250   11.509    0.495    0.366  186.670   57.664
  249.500    9.662    0.479    0.382  187.161   58.858
  249.750    8.186    0.479    0.384  188.150   63.044
  250.000    7.604    0.487    0.381  189.138   68.430
  250.250    7.396    0.495    0.370  189.626   71.419
  250.500    7.395    0.496    0.372  189.119   70.215
  250.750    7.600    0.486    0.379  188.610   67.514
  251.000    8.104    0.484    0.386  188.602   67.209
  251.250    8.484    0.483    0.389  188.591   68.701
  251.500    8.964    0.482    0.391  189.082   70.192
  251.750    9.559    0.483    0.393  190.070   71.086
  252.000   11.175    0.486    0.393  191.557   70.781
  252.250   12.362    0.487    0.384  193.047   66.283
  252.500   13.551    0.485    0.376  193.037   56.095
  252.750   14.450    0.486    0.371  192.030   49.502
  253.000   14.989    0.488    0.361  190.523   46.200
  253.250   15.124    0.491    0.358  190.013   46.196
  253.500   14.984    0.491    0.367  191.502   47.089
  253.750   14.708    0.490    0.376  193.487   48.281
  254.000   14.571    0.490    0.365  193.976   47.676
  254.250   14.435    0.492    0.372  194.967   46.771
  254.500   14.435    0.494    0.379  196.454   47.066
  254.750   14.298    0.497    0.373  196.445   48.258
  255.000   14.298    0.500    0.364  196.436   49.451
  255.250   14.291    0.501    0.365  197.426   50.344
  255.500   14.290    0.501    0.375  198.914   50.338
  255.750   14.290    0.500    0.372  199.903   50.332
  256.000   14.284    0.500    0.351  199.395   51.225
  256.250   14.284    0.501    0.370  194.894   51.519
  256.500   14.546    0.499    0.384  191.388   50.615
  256.750   14.814    0.490    0.360  189.882   48.513
  257.000   15.652    0.457    0.334  189.874   46.710
  257.250   16.844    0.408    0.311  189.863   44.907
  257.500   16.996    0.370    0.293  189.854   44.004
  257.750   16.530    0.353    0.273  189.345   42.800
  258.000   16.530    0.423    0.286  189.338   42.496
  258.250   16.075    0.451    0.301  189.326   43.688
  258.500   15.493    0.470    0.339  189.317   46.078
  258.750   14.658    0.487    0.389  189.309   50.266
  259.000   14.126    0.497    0.361  189.299   53.253
  259.250   13.994    0.500    0.346  189.789   52.648
  259.500   14.121    0.500    0.346  190.779   51.446
  259.750   14.121    0.498    0.351  190.767   49.943
  260.000   14.246    0.493    0.357  190.759   51.134
  260.250   14.376    0.488    0.377  190.251   52.328
  260.500   14.376    0.487    0.382  189.743   53.220
  260.750   14.371    0.487    0.374  188.734   53.214
  261.000   14.369    0.489    0.365  188.219   52.609
  261.250   14.365    0.491    0.364  187.718   52.605
  261.500   14.364    0.491    0.376  186.212   51.999
  261.750   14.364    0.491    0.377  184.705   51.995
  262.000   14.358    0.491    0.372  184.197   52.289
  262.250   14.489    0.489    0.367  183.189   52.882
  262.500   14.485    0.483    0.367  181.681   53.774
  262.750   14.484    0.478    0.366  179.677   54.966
