~VERSION INFORMATION
 VERS.                 2.0:   CWLS LOG ASCII STANDARD -VERSION 2.0
 WRAP.                  NO:   ONE LINE PER DEPTH STEP
~WELL INFORMATION BLOCK
#MNEM.UNIT           DATA                    DESCRIPTION OF MNEMONIC
#---------    -------------------            -------------------------------
# Generated from Intellog Unique Number	CS_73_76/WELL/619
WELL.         MATNARD EXPLORATION            : Well_name    - WELL
LOC .         00/06-07-073-11W4/0            : Location     - LOCATION
UWI .         00/06-07-073-11W4/0            : Uwi          - UNIQUE WELL ID
ENTR.         SP                             : Entered      - ENTERED BY
SRVC.         SCHLUMBERGER                   : Scn          - SERVICE COMPANY
STRT.M        295                            : top_depth    - START DEPTH
STOP.M        544                            : bot_depth    - STOP DEPTH
STEP.M        0.25                           : increment    - STEP LENGTH
 NULL. -999.2500:NULL Value
~CURVE INFORMATION BLOCK
#MNEM UNIT       ERCB CURVE CODE    CURVE DESCRIPTION
#-----------   ------------------   ----------------------------------
DEPT.M        00 001 00 00         : DEPTH        - DEPTH
ILD .OHMM     00 120 00 00         : RESD         - DEEP RESISTIVITY (DIL)
DPHI.V/V      00 890 00 00         : PHID         - DENSITY POROSITY (LIMESTONE)
NPHI.V/V      00 330 00 00         : PHIN         - NEUTRON POROSITY (LIMESTONE)
GR  .API      00 310 00 00         : GR           - GAMMA RAY
~PARAMETER INFORMATION
#MNEM.UNIT           DATA             DESCRIPTION OF MNEMONIC
#---------         -----------     ------------------------------
GL  .M        656.4                : gl           - GROUND LEVEL ELEVATION
EREF.M        659.2                : kb           - ELEVATION OF DEPTH REFERENCE
DATM.M        656.4                : datum        - DATUM ELEVATION
TDD .M        552.67               : tdd          - TOTAL DEPTH DRILLER
RUN .         ONE                  : Run          - RUN NUMBER
ENG .         BILL                 : Engineer     - RECORDING ENGINEER
WIT .         JIM                  : Witness      - WITNESSED BY
MUD .         GEL                  : Mud_type     - MUD TYPE
MATR.         LIMESTONE            : Logunit      - NEUTRON MATRIX
TMAX.C        19                   : BHT          - MAXIMUM RECORDED TEMPERATURE
BHTD.M        552.67               : BHTDEP       - MAXIMUM RECORDED TEMPERATURE
MATR.         1                    : LOGUNIT      - NEUTRON MATRIX
RMT .C        25                   : MDTP         - TEMPERATURE OF MUD
NEUT.         1                    : NEUTRON      - NEUTRON TYPE
RESI.         0                    : RESIST       - RESISTIVITY TYPE
RMC .OHMM     0.25                 : RMC          - RESISTIVITY OF MUD CAKE
RMF .OHMM     0.25                 : RMF          - RESISTIVITY OF MUD FILTRATE
SUFT.C        15                   : SUFT         - SURFACE TEMPERATURE
~A  DEPTH     RESD     PHID     PHIN       GR
# ...
  382.000   12.861    0.325    0.454   70.862
  382.250   12.623    0.324    0.440   72.654
  382.500   12.464    0.317    0.430   72.056
  382.750   12.384    0.315    0.434   72.055
  383.000   12.146    0.309    0.439   73.250
  383.250   12.066    0.309    0.450   74.444
  383.500   11.985    0.311    0.452   72.053
  383.750   11.985    0.311    0.456   70.260
  384.000   12.063    0.311    0.465   67.270
  384.250   12.141    0.311    0.472   66.075
  384.500   12.219    0.317    0.457   63.684
  384.750   12.218    0.321    0.454   64.281
  385.000   12.217    0.324    0.448   65.475
  385.250   12.216    0.323    0.454   64.279
  385.500   12.215    0.322    0.460   61.888
  385.750   12.214    0.333    0.457   62.484
  386.000   12.213    0.324    0.456   63.082
  386.250   12.133    0.317    0.463   62.483
  386.500   11.974    0.314    0.465   66.068
  386.750   11.894    0.309    0.454   68.458
  387.000   11.893    0.318    0.455   69.652
  387.250   11.813    0.311    0.463   64.273
  387.500   11.891    0.306    0.466   63.077
  387.750   11.890    0.302    0.453   65.467
  388.000   12.047    0.312    0.442   71.442
  388.250   12.125    0.318    0.443   72.039
  388.500   12.204    0.325    0.443   69.648
  388.750   12.123    0.327    0.448   70.245
  389.000   12.123    0.320    0.455   71.439
  389.250   12.200    0.318    0.455   72.634
  389.500   12.278    0.318    0.449   73.828
  389.750   12.278    0.322    0.454   73.827
  390.000   12.119    0.317    0.454   72.034
  390.250   11.722    0.310    0.452   70.838
  390.500   11.643    0.303    0.461   71.435
  390.750   11.325    0.301    0.460   72.630
  391.000   11.166    0.306    0.456   73.226
  391.250   10.927    0.310    0.458   73.226
  391.500   10.927    0.310    0.459   73.225
  391.750   11.005    0.309    0.467   74.419
  392.000   11.083    0.312    0.467   75.614
  392.250   11.161    0.317    0.448   76.211
  392.500   11.160    0.322    0.442   75.612
  392.750   11.080    0.315    0.434   75.612
  393.000   11.079    0.311    0.430   75.013
  393.250   11.315    0.308    0.438   73.220
  393.500   11.393    0.306    0.455   73.219
  393.750   11.393    0.311    0.446   73.816
  394.000   11.075    0.307    0.443   74.413
  394.250   10.837    0.310    0.446   76.205
  394.500   10.283    0.318    0.447   79.790
  394.750    9.729    0.320    0.449   84.570
  395.000    8.542    0.309    0.456   86.362
  395.250    6.802    0.301    0.465   88.752
  395.500    5.931    0.295    0.467   94.727
  395.750    5.061    0.291    0.478  101.300
  396.000    4.190    0.288    0.495  107.276
  396.250    3.399    0.285    0.504  107.275
  396.500    2.923    0.285    0.511  103.688
  396.750    3.001    0.292    0.501   99.504
  397.000    3.475    0.298    0.491   94.125
  397.250    4.027    0.295    0.481   91.136
  397.500    4.896    0.293    0.471   89.941
  397.750    5.764    0.291    0.467   88.147
  398.000    6.791    0.291    0.459   88.146
  398.250    7.185    0.290    0.453   88.743
  398.500    7.501    0.295    0.452   90.535
  398.750    7.341    0.292    0.459   92.327
  399.000    7.261    0.288    0.451   92.924
  399.250    7.102    0.283    0.448   89.338
  399.500    6.943    0.279    0.452   83.361
  399.750    6.784    0.279    0.451   79.177
  400.000    6.783    0.272    0.446   79.176
  400.250    7.098    0.252    0.447   80.371
  400.500    7.730    0.229    0.451   80.370
  400.750    8.361    0.202    0.432   77.381
  401.000    9.783    0.180    0.373   73.197
  401.250   16.502    0.173    0.295   67.220
  401.500   19.979    0.183    0.245   64.829
  401.750   20.689    0.207    0.194   65.426
  402.000   20.846    0.234    0.271   69.011
  402.250   20.292    0.246    0.318   73.194
  402.500   16.813    0.254    0.350   77.376
  402.750   13.966    0.266    0.373   82.754
  403.000   11.198    0.284    0.411   84.546
  403.250    9.379    0.295    0.444   86.338
  403.500    8.034    0.294    0.465   87.533
  403.750    7.085    0.290    0.463   88.727
  404.000    6.531    0.284    0.464   85.738
  404.250    6.134    0.282    0.472   84.542
  404.500    5.975    0.279    0.471   87.530
  404.750    5.895    0.278    0.464   91.115
  405.000    5.894    0.279    0.473   91.712
  405.250    6.051    0.286    0.479   90.516
  405.500    6.366    0.291    0.479   88.722
  405.750    6.524    0.294    0.484   86.928
  406.000    6.681    0.289    0.473   85.732
  406.250    6.759    0.282    0.463   84.536
  406.500    6.837    0.279    0.454   85.133
  406.750    6.756    0.271    0.468   89.316
  407.000    6.756    0.259    0.470   93.499
  407.250    6.597    0.250    0.468   97.681
  407.500    6.438    0.241    0.479   98.278
  407.750    6.357    0.235    0.472   96.484
  408.000    6.357    0.248    0.470   98.277
  408.250    6.356    0.254    0.463  100.666
  408.500    6.434    0.258    0.465   99.470
  408.750    6.433    0.260    0.470   97.677
  409.000    6.432    0.263    0.465   94.688
  409.250    6.351    0.266    0.470   91.101
  409.500    6.351    0.263    0.476   90.503
  409.750    6.192    0.265    0.477   91.698
  410.000    6.112    0.269    0.469   93.490
  410.250    5.953    0.263    0.474   95.282
  410.500    5.793    0.256    0.471   96.476
  410.750    5.793    0.250    0.485   97.073
  411.000    5.870    0.247    0.493   97.670
  411.250    6.027    0.243    0.476   98.267
  411.500    6.027    0.240    0.466   98.266
  411.750    6.184    0.244    0.469   98.265
  412.000    6.183    0.250    0.474   98.265
  412.250    6.182    0.253    0.476   97.069
  412.500    6.260    0.256    0.469   94.080
  412.750    6.180    0.259    0.465   93.482
  413.000    6.100    0.258    0.469   94.676
  413.250    6.099    0.249    0.473   96.468
  413.500    6.098    0.246    0.480   97.663
  413.750    6.097    0.247    0.478   98.857
  414.000    6.096    0.243    0.476   96.466
  414.250    6.095    0.237    0.479   95.270
  414.500    6.015    0.230    0.482   97.062
  414.750    6.014    0.238    0.475   99.452
  415.000    6.013    0.240    0.471  100.647
  415.250    6.012    0.233    0.466  100.048
  415.500    6.011    0.227    0.467  100.047
  415.750    6.010    0.214    0.470  100.047
  416.000    6.009    0.208    0.470  100.046
  416.250    6.008    0.220    0.464  100.045
  416.500    6.007    0.221    0.466  100.642
  416.750    6.006    0.222    0.469  100.641
  417.000    5.926    0.221    0.471  101.836
  417.250    5.925    0.226    0.472  103.628
  417.500    5.924    0.233    0.464  103.627
  417.750    5.923    0.235    0.454  103.029
  418.000    5.922    0.232    0.447  100.638
  418.250    5.842    0.241    0.470  100.637
  418.500    5.841    0.250    0.466  100.636
  418.750    5.840    0.243    0.482   98.843
  419.000    5.840    0.240    0.486   97.647
  419.250    5.838    0.244    0.497   95.853
  419.500    5.995    0.240    0.499   95.255
  419.750    5.995    0.238    0.490   97.047
  420.000    6.073    0.249    0.493  100.034
  420.250    6.072    0.239    0.503  100.631
  420.500    5.912    0.243    0.495  100.033
  420.750    5.596    0.251    0.489  102.422
  421.000    4.883    0.243    0.492  106.007
  421.250    4.012    0.234    0.504  108.397
  421.500    3.379    0.254    0.521  110.189
  421.750    2.588    0.269    0.544  113.177
  422.000    2.112    0.276    0.563  114.969
  422.250    1.874    0.269    0.595  115.566
  422.500    1.794    0.260    0.615  113.174
  422.750    1.793    0.246    0.606  111.381
  423.000    2.187    0.238    0.590  113.173
  423.250    2.582    0.231    0.568  113.172
  423.500    2.897    0.226    0.549  108.988
  423.750    3.370    0.232    0.525  104.804
  424.000    3.923    0.230    0.509  101.815
  424.250    4.396    0.221    0.502  101.217
  424.500    4.711    0.231    0.502  100.619
  424.750    4.868    0.251    0.508  100.618
  425.000    5.025    0.262    0.502  101.215
  425.250    5.103    0.265    0.487  102.410
