~VERSION INFORMATION
 VERS.                 2.0:   CWLS LOG ASCII STANDARD -VERSION 2.0
 WRAP.                  NO:   ONE LINE PER DEPTH STEP
~WELL INFORMATION BLOCK
#MNEM.UNIT           DATA                    DESCRIPTION OF MNEMONIC
#---------    -------------------            -------------------------------
# Generated from Intellog Unique Number	CW_70_72/WELL/2899
NULL.         -999.25                        : NULL_VALUE
WELL.         MESA SULPETRO CALLS            : Well_name    - WELL              
LOC .         06-13-070-22W4                 : Location     - LOCATION          
UWI .         00/06-13-070-22W4/0            : Uwi          - UNIQUE WELL ID    
ENTR.         MAX                            : Entered      - ENTERED BY        
SRVC.         DRESSER ATLAS                  : Scn          - SERVICE COMPANY   
DATE.         24 FEB 79                      : Date         - LOG DATE
STRT.M        430                            : top_depth    - START DEPTH       
STOP.M        605                            : bot_depth    - STOP DEPTH        
STEP.M        0.25                           : increment    - STEP LENGTH       
~CURVE INFORMATION BLOCK
#MNEM UNIT       ERCB CURVE CODE    CURVE DESCRIPTION
#-----------   ------------------   ----------------------------------
DEPT.M        00 001 00 00         : DEPTH        - DEPTH                       
ILD .OHMM     00 120 00 00         : RESD         - DEEP RESISTIVITY (DIL)      
NPHI.V/V      00 330 00 00         : PHIN         - NEUTRON POROSITY (SANDSTONE)
DPHI.V/V      00 890 00 00         : PHID         - DENSITY POROSITY (SANDSTONE)
CALI.MM       00 280 01 00         : CAL          - CALIPER                     
GR  .API      00 310 00 00         : GR           - GAMMA RAY                   
~PARAMETER INFORMATION       
#MNEM.UNIT           DATA             DESCRIPTION OF MNEMONIC
#---------         -----------     ------------------------------
GL  .M        672.3                : gl           - GROUND LEVEL ELEVATION      
EREF.M        676.4                : kb           - ELEVATION OF DEPTH REFERENCE
DATM.M        672.3                : datum        - DATUM ELEVATION             
TDD .M        641                  : tdd          - TOTAL DEPTH DRILLER         
RUN .         ONE                  : Run          - RUN NUMBER                  
ENG .         BILL                 : Engineer     - RECORDING ENGINEER          
WIT .         JIM                  : Witness      - WITNESSED BY                
MUD .         GEL                  : Mud_type     - MUD TYPE                    
MATR.         SANDSTONE            : Logunit      - NEUTRON MATRIX              
TMAX.C        19                   : BHT          - MAXIMUM RECORDED TEMPERATURE
BHTD.M        641                  : BHTDEP       - MAXIMUM RECORDED TEMPERATURE
RMT .C        20                   : MDTP         - TEMPERATURE OF MUD          
MUDD.KG/M     1080                 : MWT          - MUD DENSITY                 
NEUT.         1                    : NEUTRON      - NEUTRON TYPE                
RESI.         0                    : RESIST       - RESISTIVITY TYPE            
RM  .OHMM     3                    : RM           - RESISTIVITY OF MUD          
RMC .OHMM     3.5                  : RMC          - RESISTIVITY OF MUD CAKE     
RMF .OHMM     1.8                  : RMF          - RESISTIVITY OF MUD FILTRATE 
SUFT.C        -20                  : SUFT         - SURFACE TEMPERATURE         
~A  DEPTH     RESD     PHIN     PHID      CAL       GR
# ...
  503.000    2.579    0.378    0.259  159.850   59.520
  503.250    2.580    0.373    0.261  159.832   59.799
  503.500    2.581    0.372    0.278  159.799   58.000
  503.750    2.630    0.370    0.263  159.774   57.090
  504.000    2.679    0.368    0.250  159.744   56.775
  504.250    2.705    0.367    0.247  159.715   56.159
  504.500    2.730    0.366    0.244  160.177   55.847
  504.750    2.756    0.366    0.264  160.643   58.801
  505.000    2.834    0.364    0.276  161.599   63.534
  505.250    2.888    0.365    0.276  162.065   66.187
  505.500    2.915    0.371    0.260  162.534   67.656
  505.750    2.970    0.377    0.259  163.491   67.339
  506.000    3.054    0.381    0.244  164.947   64.058
  506.250    3.083    0.380    0.218  165.412   56.318
  506.500    3.056    0.377    0.223  164.393   52.143
  506.750    2.974    0.374    0.267  162.876   50.045
  507.000    2.868    0.364    0.263  162.850   51.512
  507.250    2.791    0.368    0.255  162.817   54.165
  507.500    2.691    0.372    0.258  162.788   54.745
  507.750    2.571    0.372    0.268  163.257   54.726
  508.000    2.502    0.367    0.283  164.705   54.706
  508.250    2.480    0.364    0.290  164.683   54.391
  508.500    2.458    0.361    0.301  163.661   54.970
  508.750    2.437    0.366    0.300  163.129   55.843
  509.000    2.438    0.376    0.305  162.609   54.339
  509.250    2.438    0.380    0.310  162.579   53.428
  509.500    2.439    0.379    0.317  164.035   53.114
  509.750    2.462    0.385    0.316  165.494   53.690
  510.000    2.509    0.398    0.310  166.945   54.563
  510.250    2.580    0.403    0.301  167.910   55.439
  510.500    2.881    0.402    0.289  167.382   57.792
  510.750    3.130    0.393    0.288  166.363   60.451
  511.000    3.278    0.393    0.288  163.852   64.591
  511.250    3.496    0.391    0.287  161.847   64.866
  511.500    3.764    0.393    0.281  159.838   64.553
  511.750    3.870    0.393    0.275  159.809   64.835
  512.000    3.872    0.391    0.275  159.779   65.114
  512.250    3.873    0.386    0.278  159.255   64.796
  512.500    3.769    0.385    0.282  158.727   64.780
  512.750    3.667    0.392    0.291  158.698   66.839
  513.000    3.504    0.380    0.292  158.672   68.603
  513.250    3.379    0.370    0.292  158.640   68.286
  513.500    3.319    0.366    0.286  159.109   66.788
  513.750    3.606    0.356    0.250  159.574   63.208
  514.000    3.776    0.346    0.078  160.528   59.029
  514.250    3.847    0.336    0.063  160.997   59.900
  514.500    3.992    0.315    0.089  161.957   62.262
  514.750    4.105    0.305    0.130  162.918   70.856
  515.000    4.339    0.350    0.200  163.875   77.667
  515.250    4.380    0.372    0.183  164.340   82.401
  515.500    4.342    0.372    0.177  164.315   85.053
  515.750    4.225    0.375    0.182  163.787   85.629
  516.000    4.188    0.375    0.194  163.758   84.721
  516.250    4.189    0.374    0.202  164.223   85.001
  516.500    4.190    0.382    0.197  164.682   85.282
  516.750    4.230    0.380    0.201  164.656   84.668
  517.000    4.310    0.379    0.201  164.630   80.789
  517.250    4.310    0.376    0.193  165.591   80.179
  517.500    4.353    0.379    0.176  166.551   82.537
  517.750    4.476    0.387    0.161  168.007   86.079
  518.000    4.644    0.401    0.159  168.964   86.657
  518.250    4.775    0.401    0.161  169.429   86.345
  518.500    4.865    0.406    0.155  169.887   84.838
  518.750    4.957    0.417    0.146  170.353   82.447
  519.000    5.097    0.426    0.137  170.826   79.460
  519.250    5.241    0.419    0.142  170.826   77.067
  519.500    5.340    0.410    0.143  170.760   75.565
  519.750    5.441    0.413    0.137  170.735   75.251
  520.000    5.443    0.413    0.124  170.203   75.233
  520.250    5.395    0.399    0.118  169.188   74.615
  520.500    5.396    0.396    0.127  168.664   74.305
  520.750    5.349    0.392    0.150  168.139   74.881
  521.000    5.302    0.383    0.159  167.124   75.458
  521.250    5.303    0.379    0.160  166.101   76.032
  521.500    5.161    0.376    0.156  165.574   76.016
  521.750    4.976    0.374    0.173  165.548   74.514
  522.000    4.711    0.374    0.182  165.020   70.931
  522.250    4.380    0.369    0.208  164.500   67.942
  522.500    4.108    0.363    0.233  163.972   65.848
  522.750    3.784    0.363    0.254  163.448   62.861
  523.000    3.615    0.362    0.258  162.924   59.281
  523.250    3.617    0.360    0.248  162.898   57.776
  523.500    3.719    0.358    0.247  162.367   58.350
  523.750    4.078    0.353    0.250  161.842   59.226
  524.000    4.349    0.343    0.256  162.308   59.206
  524.250    4.769    0.325    0.266  163.265   57.409
  524.500    5.326    0.310    0.282  163.738   54.713
  524.750    5.629    0.287    0.302  164.698   54.700
  525.000    6.228    0.253    0.282  165.655   53.791
  525.250    7.150    0.208    0.098  166.124   51.394
  525.500    8.436    0.190    0.084  167.081   49.302
  525.750   11.423    0.187    0.017  167.547   45.123
  526.000   16.046    0.174    0.001  168.009   44.514
  526.250   14.779    0.169    0.052  167.983   45.979
  526.500    9.430    0.189    0.153  167.954   49.824
  526.750    7.500    0.276    0.174  166.935   57.231
  527.000    6.419    0.337    0.177  166.407   63.746
  527.250    5.699    0.358    0.163  165.883   73.528
  527.500    5.201    0.361    0.156  165.359   77.962
  527.750    4.924    0.358    0.144  165.326   76.459
  528.000    4.748    0.357    0.125  165.791   76.143
  528.250    4.706    0.368    0.110  167.742   78.501
  528.500    4.795    0.381    0.111  170.191   77.889
  528.750    4.623    0.382    0.146  172.632   74.608
  529.000    4.143    0.375    0.197  170.627   69.542
  529.250    3.712    0.368    0.226  166.635   63.881
  529.500    3.451    0.364    0.236  164.124   59.407
  529.750    3.178    0.368    0.241  163.105   57.014
  530.000    2.874    0.369    0.252  163.083   55.811
  530.250    2.696    0.368    0.274  163.050   55.497
  530.500    2.600    0.368    0.282  163.017   53.693
  530.750    2.600    0.362    0.278  162.995   52.787
  531.000    2.554    0.361    0.287  162.962   54.547
  531.250    2.508    0.363    0.291  163.424   56.313
  531.500    2.486    0.368    0.284  163.391   56.297
  531.750    2.487    0.369    0.282  163.369   55.983
  532.000    2.534    0.361    0.290  163.369   56.854
  532.250    2.582    0.345    0.297  163.307   59.207
  532.500    2.655    0.345    0.294  163.773   60.978
  532.750    2.884    0.348    0.289  163.743   63.925
  533.000    3.105    0.349    0.299  164.202   64.796
  533.250    3.342    0.344    0.308  164.671   64.484
  533.500    3.699    0.340    0.310  164.642   63.870
  533.750    4.018    0.331    0.302  165.111   63.855
  534.000    4.406    0.317    0.279  166.068   63.840
  534.250    5.151    0.307    0.116  166.039   64.119
  534.500    5.753    0.288    0.085  167.003   65.582
  534.750    5.598    0.292    0.101  168.454   66.756
  535.000    5.549    0.344    0.152  169.408   69.409
  535.250    5.018    0.358    0.180  169.378   70.579
  535.500    4.255    0.368    0.219  168.862   70.559
  535.750    3.709    0.370    0.247  167.348   69.350
  536.000    3.610    0.373    0.244  164.840   68.446
  536.250    3.611    0.377    0.242  164.320   68.430
  536.500    3.679    0.377    0.242  164.280   69.007
  536.750    3.888    0.370    0.236  165.244   69.873
  537.000    4.072    0.372    0.222  165.709   71.340
  537.250    4.304    0.378    0.214  165.680   73.997
  537.500    4.385    0.378    0.204  166.149   76.355
  537.750    4.468    0.378    0.193  166.615   78.119
  538.000    4.636    0.373    0.194  167.572   78.401
  538.250    4.900    0.368    0.216  167.543   77.193
  538.500    4.857    0.368    0.219  167.513   76.584
  538.750    4.727    0.374    0.206  167.484   76.267
  539.000    4.642    0.390    0.200  167.455   76.839
  539.250    4.644    0.406    0.205  167.422   77.121
