~VERSION INFORMATION
 VERS.                 2.0:   CWLS LOG ASCII STANDARD -VERSION 2.0
 WRAP.                  NO:   ONE LINE PER DEPTH STEP
~WELL INFORMATION BLOCK
#MNEM.UNIT           DATA                    DESCRIPTION OF MNEMONIC
#---------    -------------------            -------------------------------
# Generated from Intellog Unique Number	CS_77_79/WELL/2918
WELL.         CAN WORLDWIDE ENR              : Well_name    - WELL
LOC .         00/07-06-079-03W4/0            : Location     - LOCATION
UWI .         00/07-06-079-03W4/0            : Uwi          - UNIQUE WELL ID
ENTR.         TIM                            : Entered      - ENTERED BY
SRVC.         SCHLUMBERGER                   : Scn          - SERVICE COMPANY
STRT.M        135                            : top_depth    - START DEPTH
STOP.M        405                            : bot_depth    - STOP DEPTH
STEP.M        0.25                           : increment    - STEP LENGTH
 NULL. -999.2500:NULL Value
~CURVE INFORMATION BLOCK
#MNEM UNIT       ERCB CURVE CODE    CURVE DESCRIPTION
#-----------   ------------------   ----------------------------------
DEPT.M        00 001 00 00         : DEPTH        - DEPTH
GR  .API      00 310 00 00         : GR           - GAMMA RAY
NPHI.V/V      00 330 00 00         : PHIN         - NEUTRON POROSITY (SANDSTONE)
DPHI.V/V      00 890 00 00         : PHID         - DENSITY POROSITY (SANDSTONE)
ILD .OHMM     00 120 00 00         : RESD         - DEEP RESISTIVITY (DIL)
~PARAMETER INFORMATION
#MNEM.UNIT           DATA             DESCRIPTION OF MNEMONIC
#---------         -----------     ------------------------------
GL  .M        552.02               : gl           - GROUND LEVEL ELEVATION
EREF.M        556.38               : kb           - ELEVATION OF DEPTH REFERENCE
DATM.M        556.38               : datum        - DATUM ELEVATION
TDD .M        410                  : tdd          - TOTAL DEPTH DRILLER
RUN .         ONE                  : Run          - RUN NUMBER
ENG .         BILL                 : Engineer     - RECORDING ENGINEER
WIT .         JIM                  : Witness      - WITNESSED BY
MUD .         GEL                  : Mud_type     - MUD TYPE
MATR.         SANDSTONE            : Logunit      - NEUTRON MATRIX
TMAX.C        20                   : BHT          - MAXIMUM RECORDED TEMPERATURE
BHTD.M        410                  : BHTDEP       - MAXIMUM RECORDED TEMPERATURE
MATR.         1                    : LOGUNIT      - NEUTRON MATRIX
RMT .C        15                   : MDTP         - TEMPERATURE OF MUD
NEUT.         1                    : NEUTRON      - NEUTRON TYPE
RESI.         4.4                  : RESIST       - RESISTIVITY TYPE
RMC .OHMM     4.5                  : RMC          - RESISTIVITY OF MUD CAKE
RMF .OHMM     4                    : RMF          - RESISTIVITY OF MUD FILTRATE
SUFT.C        15                   : SUFT         - SURFACE TEMPERATURE
~A  DEPTH       GR     PHIN     PHID     RESD
# ...
  178.500  102.351    0.411    0.189   13.548
  178.750  102.349    0.425    0.208   13.299
  179.000  100.517    0.435    0.223   13.553
  179.250   99.298    0.427    0.225   14.611
  179.500   96.250    0.424    0.228   15.460
  179.750   93.202    0.429    0.232   16.984
  180.000   87.718    0.431    0.242   17.636
  180.250   82.844    0.429    0.251   17.973
  180.500   76.752    0.424    0.267   18.663
  180.750   71.877    0.415    0.280   19.020
  181.000   67.612    0.407    0.286   19.751
  181.250   66.391    0.396    0.244   20.129
  181.500   65.778    0.387    0.244   20.515
  181.750   60.904    0.390    0.268   20.517
  182.000   59.073    0.395    0.298   20.140
  182.250   74.902    0.401    0.317   18.000
  182.500   78.553    0.407    0.262   15.207
  182.750   87.075    0.404    0.216   12.849
  183.000  108.384    0.378    0.192   11.701
  183.250  121.777    0.382    0.183   11.272
  183.500  107.160    0.391    0.191   12.153
  183.750   92.543    0.396    0.200   13.350
  184.000   82.797    0.402    0.212   14.393
  184.250   79.140    0.395    0.223   16.415
  184.500   76.091    0.381    0.236   18.033
  184.750   74.262    0.376    0.245   19.079
  185.000   68.169    0.376    0.250   20.188
  185.250   63.904    0.381    0.252   21.360
  185.500   59.029    0.386    0.261   22.182
  185.750   54.763    0.396    0.289   23.033
  186.000   48.062    0.407    0.333   23.473
  186.250   47.449    0.394    0.340   23.477
  186.500   49.273    0.374    0.339   23.927
  186.750   48.053    0.371    0.344   24.387
  187.000   43.787    0.369    0.352   24.389
  187.250   38.913    0.371    0.349   24.395
  187.500   38.300    0.377    0.339   24.398
  187.750   38.905    0.378    0.336   24.403
  188.000   39.511    0.379    0.339   24.409
  188.250   42.552    0.378    0.344   23.959
  188.500   45.594    0.375    0.345   22.655
  188.750   49.853    0.367    0.340   22.236
  189.000   54.113    0.357    0.335   21.421
  189.250   59.590    0.357    0.332   19.878
  189.500   68.720    0.361    0.323   18.445
  189.750   77.243    0.366    0.301   17.768
  190.000   88.200    0.397    0.267   16.800
  190.250   97.331    0.411    0.250   15.886
  190.500  108.898    0.424    0.237   15.888
  190.750  115.592    0.434    0.229   15.890
  191.000  119.243    0.447    0.225   15.894
  191.250  122.893    0.457    0.222   16.197
  191.500  121.671    0.450    0.222   17.139
  191.750  110.099    0.437    0.230   17.796
  192.000   97.917    0.420    0.241   19.188
  192.250   92.434    0.421    0.251   20.302
  192.500   83.297    0.440    0.270   20.306
  192.750   78.422    0.445    0.283   19.562
  193.000   85.117    0.429    0.297   19.202
  193.250   88.159    0.411    0.294   18.498
  193.500   86.938    0.393    0.288   17.820
  193.750   88.761    0.393    0.277   17.493
  194.000   93.020    0.398    0.259   17.828
  194.250   98.497    0.404    0.269   19.220
  194.500  105.801    0.406    0.295   20.721
  194.750  104.579    0.411    0.309   21.118
  195.000   94.225    0.437    0.325   21.118
  195.250   91.786    0.444    0.326   18.879
  195.500   88.738    0.437    0.326   18.530
  195.750   86.299    0.428    0.324   18.534
  196.000   83.860    0.421    0.319   18.194
  196.250   83.858    0.420    0.308   17.527
  196.500   88.117    0.419    0.291   17.205
  196.750   87.504    0.416    0.294   16.268
  197.000   86.284    0.410    0.296   15.967
  197.250   85.672    0.408    0.282   15.673
  197.500   86.277    0.414    0.273   15.100
  197.750   89.927    0.424    0.262   14.822
  198.000   89.925    0.433    0.252   15.106
  198.250   89.921    0.442    0.246   15.395
  198.500   89.918    0.439    0.245   15.688
  198.750   89.915    0.442    0.241   15.988
  199.000   88.693    0.448    0.238   15.695
  199.250   86.864    0.438    0.234   15.119
  199.500   83.817    0.424    0.231   14.030
  199.750   78.942    0.419    0.240   14.033
  200.000   75.285    0.413    0.264   15.415
  200.250   70.411    0.413    0.267   17.256
  200.500   70.407    0.412    0.274   17.258
  200.750   75.275    0.409    0.284   16.013
  201.000   81.970    0.413    0.291   14.047
  201.250   89.274    0.423    0.252   12.554
  201.500   98.405    0.407    0.240   11.433
  201.750  100.837    0.420    0.218   10.412
  202.000   95.963    0.432    0.218   10.030
  202.250   91.697    0.421    0.233    9.846
  202.500   88.040    0.420    0.241   10.034
  202.750   85.601    0.427    0.245   10.419
  203.000   84.379    0.435    0.240   11.025
  203.250   84.378    0.436    0.238   11.027
  203.500   83.765    0.443    0.234   10.824
  203.750   82.542    0.452    0.233   10.428
  204.000   81.931    0.463    0.233   10.236
  204.250   81.320    0.454    0.238   10.238
  204.500   79.489    0.447    0.249   10.240
  204.750   78.269    0.446    0.258   10.436
  205.000   75.220    0.446    0.275   10.636
  205.250   73.390    0.446    0.294   10.838
  205.500   71.561    0.446    0.302   11.907
  205.750   69.123    0.442    0.297   12.364
  206.000   68.510    0.434    0.291   12.839
  206.250   67.898    0.437    0.290   12.841
  206.500   67.895    0.437    0.291   13.087
  206.750   67.891    0.434    0.294   13.089
  207.000   67.278    0.442    0.294   13.340
  207.250   67.275    0.456    0.296   13.596
  207.500   66.664    0.458    0.297   13.598
  207.750   66.052    0.456    0.296   13.858
  208.000   65.439    0.451    0.294   13.861
  208.250   64.218    0.442    0.296   14.126
  208.500   64.215    0.431    0.304   14.396
  208.750   63.603    0.424    0.311   14.671
  209.000   63.600    0.418    0.312   14.953
  209.250   63.597    0.414    0.312   15.238
  209.500   63.594    0.412    0.315   15.240
  209.750   63.590    0.413    0.317   15.245
  210.000   62.978    0.419    0.321   15.247
  210.250   62.974    0.424    0.326   15.249
  210.500   62.971    0.434    0.328   14.970
  210.750   62.968    0.443    0.328   14.693
  211.000   63.575    0.452    0.327   14.424
  211.250   64.788    0.457    0.323   14.158
  211.500   65.395    0.460    0.318   13.897
  211.750   66.000    0.452    0.312   13.141
  212.000   65.388    0.448    0.309   12.898
  212.250   64.776    0.441    0.305   12.661
  212.500   64.773    0.435    0.303   12.664
  212.750   65.988    0.432    0.304   12.906
  213.000   65.376    0.431    0.306   13.403
  213.250   62.937    0.427    0.306   13.404
  213.500   62.933    0.424    0.306   13.409
  213.750   65.366    0.423    0.306   13.410
  214.000   67.798    0.451    0.306   13.412
  214.250   68.404    0.459    0.305   13.415
  214.500   67.793    0.468    0.305   13.417
  214.750   67.180    0.471    0.313   13.420
  215.000   66.569    0.459    0.315   13.676
  215.250   66.565    0.448    0.317   13.938
  215.500   67.170    0.437    0.320   13.941
  215.750   67.776    0.443    0.316   13.944
  216.000   69.598    0.454    0.310   13.948
  216.250   70.206    0.466    0.307   13.690
  216.500   70.202    0.465    0.300   13.439
  216.750   69.589    0.454    0.298   13.441
  217.000   68.978    0.448    0.300   13.443
  217.250   68.366    0.445    0.309   13.446
  217.500   68.363    0.442    0.319   13.703
  217.750   67.141    0.439    0.322   14.499
  218.000   66.529    0.439    0.324   15.341
  218.250   65.308    0.445    0.320   16.232
  218.500   64.088    0.454    0.322   16.857
  218.750   62.867    0.459    0.325   17.177
  219.000   61.645    0.449    0.332   17.506
  219.250   59.207    0.441    0.337   17.510
  219.500   56.767    0.446    0.341   17.513
  219.750   55.547    0.435    0.343   17.517
  220.000   53.108    0.418    0.351   17.194
  220.250   51.887    0.396    0.351   16.565
  220.500   51.274    0.420    0.349   15.086
  220.750   51.272    0.425    0.341   13.483
  221.000   50.660    0.430    0.336   12.989
  221.250   50.657    0.415    0.334   12.514
  221.500   50.654    0.397    0.334   12.283
  221.750   50.650    0.384    0.335   12.057
