~VERSION INFORMATION
 VERS.                 2.0:   CWLS LOG ASCII STANDARD -VERSION 2.0
 WRAP.                  NO:   ONE LINE PER DEPTH STEP
~WELL INFORMATION BLOCK
#MNEM.UNIT           DATA                    DESCRIPTION OF MNEMONIC
#---------    -------------------            -------------------------------
# Generated from Intellog Unique Number	CS_77_79/WELL/852
WELL.         CWWE LEISMER                   : Well_name    - WELL
LOC .         00/05-04-078-05W4/0            : Location     - LOCATION
UWI .         00/05-04-078-05W4/0            : Uwi          - UNIQUE WELL ID
ENTR.         JHS                            : Entered      - ENTERED BY
SRVC.         SCHLUMBERGER                   : Scn          - SERVICE COMPANY
STRT.M        165                            : top_depth    - START DEPTH
STOP.M        420                            : bot_depth    - STOP DEPTH
STEP.M        0.25                           : increment    - STEP LENGTH
 NULL. -999.2500:NULL Value
~CURVE INFORMATION BLOCK
#MNEM UNIT       ERCB CURVE CODE    CURVE DESCRIPTION
#-----------   ------------------   ----------------------------------
DEPT.M        00 001 00 00         : DEPTH        - DEPTH
DPHI.V/V      00 890 00 00         : PHID         - DENSITY POROSITY (LIMESTONE)
NPHI.V/V      00 330 00 00         : PHIN         - NEUTRON POROSITY (LIMESTONE)
GR  .API      00 310 00 00         : GR           - GAMMA RAY
ILD .OHMM     00 120 00 00         : RESD         - DEEP RESISTIVITY (DIL)
RHOB.KG/M3    00 350 00 00         : DENS         - BULK DENSITY
~PARAMETER INFORMATION
#MNEM.UNIT           DATA             DESCRIPTION OF MNEMONIC
#---------         -----------     ------------------------------
GL  .M        585.9                : gl           - GROUND LEVEL ELEVATION
EREF.M        589.8                : kb           - ELEVATION OF DEPTH REFERENCE
DATM.M        589.8                : datum        - DATUM ELEVATION
TDD .M        430                  : tdd          - TOTAL DEPTH DRILLER
RUN .         ONE                  : Run          - RUN NUMBER
ENG .         BILL                 : Engineer     - RECORDING ENGINEER
WIT .         JIM                  : Witness      - WITNESSED BY
MUD .         GEL                  : Mud_type     - MUD TYPE
MATR.         LIMESTONE            : Logunit      - NEUTRON MATRIX
TMAX.C        19                   : BHT          - MAXIMUM RECORDED TEMPERATURE
BHTD.M        430                  : BHTDEP       - MAXIMUM RECORDED TEMPERATURE
MATR.         1                    : LOGUNIT      - NEUTRON MATRIX
RMT .C        25                   : MDTP         - TEMPERATURE OF MUD
NEUT.         1                    : NEUTRON      - NEUTRON TYPE
RESI.         0                    : RESIST       - RESISTIVITY TYPE
RMC .OHMM     0.25                 : RMC          - RESISTIVITY OF MUD CAKE
RMF .OHMM     0.25                 : RMF          - RESISTIVITY OF MUD FILTRATE
SUFT.C        15                   : SUFT         - SURFACE TEMPERATURE
~A  DEPTH     PHID     PHIN       GR     RESD     DENS
# ...
  274.500    0.366    0.485   60.866   11.135    0.000
  274.750    0.363    0.501   63.965   11.135    0.000
  275.000    0.359    0.470   64.599   11.135    0.000
  275.250    0.354    0.449   61.551   11.135    0.000
  275.500    0.361    0.468   56.657   11.135    0.000
  275.750    0.364    0.486   56.682   11.135    0.000
  276.000    0.362    0.481   62.242   11.135    0.000
  276.250    0.357    0.470   65.338   11.135    0.000
  276.500    0.355    0.451   63.520   11.135    0.000
  276.750    0.354    0.460   61.695   11.349    0.000
  277.000    0.360    0.486   61.719   11.566    0.000
  277.250    0.368    0.498   59.281   11.788    0.000
  277.500    0.362    0.493   58.087   12.014    0.000
  277.750    0.356    0.482   60.567   12.014    0.000
  278.000    0.352    0.483   62.430   12.244    0.000
  278.250    0.363    0.499   64.295   12.014    0.000
  278.500    0.364    0.497   65.553   12.014    0.000
  278.750    0.361    0.488   65.577   12.014    0.000
  279.000    0.362    0.477   64.366   11.788    0.000
  279.250    0.358    0.492   60.093   11.566    0.000
  279.500    0.352    0.520   60.113   11.135    0.000
  279.750    0.350    0.513   63.210   11.135    0.000
  280.000    0.350    0.495   67.536   11.135    0.000
  280.250    0.352    0.469   67.564   11.349    0.000
  280.500    0.353    0.446   64.510   11.349    0.000
  280.750    0.355    0.431   62.693   11.349    0.000
  281.000    0.358    0.427   64.557   11.349    0.000
  281.250    0.356    0.433   66.429   11.349    0.000
  281.500    0.355    0.459   63.992   11.349    0.000
  281.750    0.350    0.495   62.169   11.349    0.000
  282.000    0.341    0.495   65.272   11.135    0.000
  282.250    0.328    0.472   65.911   10.926    0.000
  282.500    0.339    0.459   63.474   10.926    0.000
  282.750    0.355    0.456   60.423   10.926    0.000
  283.000    0.359    0.476   61.060   10.926    0.000
  283.250    0.344    0.491   67.233   10.926    0.000
  283.500    0.332    0.493   67.876   10.926    0.000
  283.750    0.332    0.489   66.059   10.926    0.000
  284.000    0.336    0.491   64.855   10.926    0.000
  284.250    0.342    0.494   64.252   10.926    0.000
  284.500    0.343    0.486   63.051   10.926    0.000
  284.750    0.342    0.465   63.079   10.721    0.000
  285.000    0.336    0.452   65.555   10.519    0.000
  285.250    0.326    0.453   68.653   10.519    0.000
  285.500    0.328    0.474   67.445   10.519    0.000
  285.750    0.337    0.499   65.637   10.321    0.000
  286.000    0.344    0.508   66.264   10.127    0.000
  286.250    0.343    0.496   69.362   10.127    0.000
  286.500    0.318    0.491   73.692    9.750    0.000
  286.750    0.316    0.498   72.483    9.567    0.000
  287.000    0.329    0.501   66.365    9.750    0.000
  287.250    0.338    0.485   64.541    9.937    0.000
  287.500    0.325    0.480   69.487    9.937    0.000
  287.750    0.329    0.479   68.284   10.127    0.000
  288.000    0.318    0.480   67.684    9.937    0.000
  288.250    0.299    0.481   75.706    9.211    0.000
  288.500    0.275    0.468   78.193    8.377    0.000
  288.750    0.257    0.456   80.054    7.475    0.000
  289.000    0.241    0.454   87.453    7.197    0.000
  289.250    0.230    0.477   97.314    6.671    0.000
  289.500    0.227    0.491   98.569    6.422    0.000
  289.750    0.230    0.490   94.289    6.183    0.000
  290.000    0.225    0.473   92.472    5.953    0.000
  290.250    0.226    0.465   96.186    5.841    0.000
  290.500    0.228    0.467  101.123    5.623    0.000
  290.750    0.231    0.491   99.922    5.414    0.000
  291.000    0.229    0.498   95.644    5.212    0.000
  291.250    0.221    0.498   99.966    5.018    0.000
  291.500    0.213    0.508  101.214    4.740    0.000
  291.750    0.217    0.499  100.012    4.230    0.000
  292.000    0.232    0.495   98.806    3.566    0.000
  292.250    0.247    0.517  100.066    3.064    0.000
  292.500    0.264    0.564  100.699    2.840    0.000
  292.750    0.255    0.554  105.642    2.583    0.000
  293.000    0.249    0.547  109.352    2.487    0.000
  293.250    0.249    0.568  108.153    2.440    0.000
  293.500    0.243    0.584  104.480    2.440    0.000
  293.750    0.234    0.575   99.593    2.534    0.000
  294.000    0.228    0.557  102.691    2.632    0.000
  294.250    0.237    0.542  106.404    2.894    0.000
  294.500    0.258    0.532  107.034    3.006    0.000
  294.750    0.268    0.514  105.217    3.182    0.000
  295.000    0.253    0.495  102.164    3.499    0.000
  295.250    0.241    0.485   99.114    3.996    0.000
  295.500    0.234    0.472   96.068    4.740    0.000
  295.750    0.247    0.461   92.407    5.414    0.000
  296.000    0.273    0.497   87.514    6.067    0.000
  296.250    0.292    0.509   83.842    6.671    0.000
  296.500    0.300    0.493   78.949    6.929    0.000
  296.750    0.304    0.494   75.284    7.197    0.000
  297.000    0.295    0.513   71.002    7.618    0.000
  297.250    0.294    0.503   73.487    7.764    0.000
  297.500    0.300    0.485   79.041    8.065    0.000
  297.750    0.301    0.487   80.298    8.701    0.000
  298.000    0.284    0.477   76.630    9.211    0.000
  298.250    0.219    0.404   68.665   10.321    0.000
  298.500    0.128    0.298   62.541   11.566    0.000
  298.750    0.066    0.271   59.493   13.209    0.000
  299.000    0.042    0.248   59.513   14.524    0.000
  299.250    0.051    0.255   66.299   14.802    0.000
  299.500    0.264    0.318   73.088   14.524    0.000
  299.750    0.259    0.358   73.113   13.983    0.000
  300.000    0.092    0.229   55.914   13.975    0.000
  300.250    0.148    0.258   52.184   14.538    0.000
  300.500    0.230    0.299   60.129   14.838    0.000
  300.750    0.259    0.334   69.312   14.310    0.000
  301.000    0.283    0.424   76.027   13.796    0.000
  301.250    0.297    0.458   79.678   12.566    0.000
  301.500    0.299    0.464   76.565   11.021    0.000
  301.750    0.298    0.458   69.760   10.039    0.000
  302.000    0.298    0.447   74.022    9.497    0.000
  302.250    0.286    0.438   79.512    8.990    0.000
  302.500    0.274    0.440   81.313    9.005    0.000
  302.750    0.263    0.451   75.127    9.017    0.000
  303.000    0.253    0.465   76.932    9.031    0.000
  303.250    0.262    0.446   80.572    9.044    0.000
  303.500    0.276    0.446   78.688    9.058    0.000
  303.750    0.286    0.461   77.419    9.072    0.000
  304.000    0.288    0.471   79.229    9.086    0.000
  304.250    0.285    0.465   79.802    9.102    0.000
  304.500    0.269    0.464   82.210    9.117    0.000
  304.750    0.247    0.460   88.322    9.129    0.000
  305.000    0.232    0.447   90.742    8.970    0.000
  305.250    0.221    0.442   91.309    8.814    0.000
  305.500    0.221    0.443   90.656    8.184    0.000
  305.750    0.228    0.442   90.613    7.889    0.000
  306.000    0.233    0.435   94.255    7.327    0.000
  306.250    0.238    0.430   92.992    7.066    0.000
  306.500    0.248    0.426   88.039    7.077    0.000
  306.750    0.258    0.431   84.922    7.219    0.000
  307.000    0.270    0.445   83.656    7.512    0.000
  307.250    0.283    0.475   82.379    7.815    0.000
  307.500    0.295    0.482   83.571    8.129    0.000
  307.750    0.305    0.464   82.919    8.142    0.000
  308.000    0.304    0.466   82.258    7.999    0.000
  308.250    0.287    0.484   81.610    7.574    0.000
  308.500    0.274    0.490   82.794    7.438    0.000
  308.750    0.278    0.498   84.601    6.908    0.000
  309.000    0.277    0.508   88.858    6.660    0.000
  309.250    0.259    0.505   91.269    6.299    0.000
  309.500    0.239    0.490   91.222    6.075    0.000
  309.750    0.235    0.497   92.418    5.859    0.000
  310.000    0.236    0.509   94.219    5.758    0.000
  310.250    0.233    0.484   94.799    5.552    0.000
  310.500    0.227    0.463   94.753    5.353    0.000
  310.750    0.226    0.470   94.721    5.063    0.000
