~VERSION INFORMATION
 VERS.                 2.0:   CWLS LOG ASCII STANDARD -VERSION 2.0
 WRAP.                  NO:   ONE LINE PER DEPTH STEP
~WELL INFORMATION BLOCK
#MNEM.UNIT           DATA                    DESCRIPTION OF MNEMONIC
#---------    -------------------            -------------------------------
# Generated from Intellog Unique Number	CS_67_68/WELL/2173
WELL.         06-34-067-02W4                 : Well_name    - WELL
LOC .         00/06-34-067-02W4/0            : Location     - LOCATION
UWI .         00/06-34-067-02W4/0            : Uwi          - UNIQUE WELL ID
ENTR.         SP                             : Entered      - ENTERED BY
SRVC.         SCHLUMBERGER                   : Scn          - SERVICE COMPANY
STRT.M        360                            : top_depth    - START DEPTH
STOP.M        615                            : bot_depth    - STOP DEPTH
STEP.M        0.25                           : increment    - STEP LENGTH
 NULL. -999.2500:NULL Value
~CURVE INFORMATION BLOCK
#MNEM UNIT       ERCB CURVE CODE    CURVE DESCRIPTION
#-----------   ------------------   ----------------------------------
DEPT.M        00 001 00 00         : DEPTH        - DEPTH
ILD .OHMM     00 120 00 00         : RESD         - DEEP RESISTIVITY (DIL)
DPHI.V/V      00 890 00 00         : PHID         - DENSITY POROSITY (LIMESTONE)
NPHI.V/V      00 330 00 00         : PHIN         - NEUTRON POROSITY (LIMESTONE)
GR  .API      00 310 00 00         : GR           - GAMMA RAY
CALI.MM       00 280 01 00         : CAL          - CALIPER
~PARAMETER INFORMATION
#MNEM.UNIT           DATA             DESCRIPTION OF MNEMONIC
#---------         -----------     ------------------------------
GL  .M        686.22               : gl           - GROUND LEVEL ELEVATION
EREF.M        689.57               : kb           - ELEVATION OF DEPTH REFERENCE
DATM.M        689.57               : datum        - DATUM ELEVATION
TDD .M        628                  : tdd          - TOTAL DEPTH DRILLER
RUN .         ONE                  : Run          - RUN NUMBER
ENG .         BILL                 : Engineer     - RECORDING ENGINEER
WIT .         JIM                  : Witness      - WITNESSED BY
MUD .         GEL                  : Mud_type     - MUD TYPE
MATR.         LIMESTONE            : Logunit      - NEUTRON MATRIX
TMAX.C        25                   : BHT          - MAXIMUM RECORDED TEMPERATURE
BHTD.M        627.2                : BHTDEP       - MAXIMUM RECORDED TEMPERATURE
MATR.         1                    : LOGUNIT      - NEUTRON MATRIX
RMT .C        25                   : MDTP         - TEMPERATURE OF MUD
NEUT.         1                    : NEUTRON      - NEUTRON TYPE
RESI.         0                    : RESIST       - RESISTIVITY TYPE
RMC .OHMM     0.25                 : RMC          - RESISTIVITY OF MUD CAKE
RMF .OHMM     0.25                 : RMF          - RESISTIVITY OF MUD FILTRATE
SUFT.C        15                   : SUFT         - SURFACE TEMPERATURE
~A  DEPTH     RESD     PHID     PHIN       GR      CAL
# ...
  542.500    7.389    0.274    0.331   58.430  154.613
  542.750    7.553    0.294    0.323   54.182  154.592
  543.000    7.635    0.298    0.318   53.188  155.087
  543.250    7.576    0.292    0.321   55.634  155.374
  543.500    7.378    0.287    0.330   58.019  155.358
  543.750    7.145    0.283    0.338   61.078  154.828
  544.000    7.050    0.293    0.336   57.505  154.295
  544.250    6.982    0.303    0.331   53.195  154.688
  544.500    6.902    0.312    0.338   52.939  155.489
  544.750    6.809    0.315    0.341   55.567  156.598
  545.000    6.743    0.307    0.342   57.462  158.832
  545.250    6.716    0.296    0.336   57.021  159.941
  545.500    6.652    0.283    0.328   52.834  159.202
  545.750    6.550    0.305    0.323   46.188  158.674
  546.000    6.499    0.303    0.329   42.308  158.145
  546.250    6.413    0.298    0.335   44.508  157.922
  546.500    6.434    0.304    0.333   47.078  157.595
  546.750    6.420    0.314    0.322   41.660  157.578
  547.000    6.430    0.304    0.313   42.940  157.050
  547.250    6.427    0.296    0.309   50.485  156.623
  547.500    6.413    0.304    0.317   57.660  155.780
  547.750    6.387    0.307    0.329   56.604  155.664
  548.000    6.408    0.298    0.340   59.419  155.749
  548.250    6.466    0.288    0.341   62.479  154.908
  548.500    6.499    0.291    0.335   59.766  154.173
  548.750    6.413    0.300    0.332   53.121  153.541
  549.000    6.363    0.293    0.332   49.732  153.628
  549.250    6.254    0.296    0.334   50.580  153.815
  549.500    6.206    0.303    0.331   48.359  154.102
  549.750    6.157    0.307    0.332   44.232  154.186
  550.000    6.109    0.308    0.335   45.819  154.680
  550.250    6.062    0.313    0.335   49.062  155.277
  550.500    5.981    0.320    0.328   42.910  156.589
  550.750    5.957    0.326    0.324   37.187  157.699
  551.000    5.966    0.332    0.326   36.746  157.781
  551.250    5.941    0.320    0.323   40.605  157.660
  551.500    6.084    0.275    0.342   49.193  156.927
  551.750    6.219    0.238    0.374   60.116  156.294
  552.000    6.477    0.223    0.401  108.078  156.992
  552.250    6.783    0.217    0.410  104.441  158.101
  552.500    7.000    0.214    0.410  102.467  159.720
  552.750    7.195    0.223    0.408  102.885  160.009
  553.000    7.274    0.230    0.400  106.376  158.763
  553.250    7.380    0.236    0.386  105.750  156.796
  553.500    7.488    0.238    0.374  103.774  156.679
  553.750    7.598    0.234    0.377  103.149  157.583
  554.000    7.723    0.231    0.384  103.200  160.737
  554.250    7.807    0.229    0.380  102.821  164.302
  554.500    7.848    0.220    0.397  102.687  167.253
  554.750    7.845    0.221    0.412  102.552  170.101
  555.000    7.798    0.222    0.410  103.157  171.924
  555.250    7.723    0.222    0.403  104.373  172.828
  555.500    7.677    0.214    0.399  104.793  173.221
  555.750    7.618    0.213    0.396  106.991  172.688
  556.000    7.586    0.218    0.405  109.071  171.543
  556.250    7.569    0.222    0.420  104.453  170.095
  556.500    7.552    0.227    0.432  103.643  168.131
  556.750    7.536    0.235    0.423  103.694  166.884
  557.000    7.476    0.243    0.401  101.902  168.607
  557.250    7.391    0.237    0.383  100.293  168.178
  557.500    7.306    0.238    0.405   99.730  165.191
  557.750    7.262    0.231    0.420  102.666  161.182
  558.000    7.206    0.222    0.429  107.509  158.092
  558.250    7.203    0.218    0.408  111.430  156.844
  558.500    7.227    0.223    0.390  107.241  156.417
  558.750    7.320    0.224    0.380  102.501  155.990
  559.000    7.524    0.219    0.374  100.402  154.944
  559.250    7.706    0.213    0.385   99.715  154.521
  559.500    7.804    0.212    0.394  101.485  153.476
  559.750    7.801    0.220    0.400  103.563  153.356
  560.000    7.669    0.223    0.404  103.920  153.747
  560.250    7.510    0.226    0.388  102.128  154.241
  560.500    7.369    0.225    0.372   98.800  154.838
  560.750    7.150    0.220    0.369   98.974  155.025
  561.000    7.002    0.211    0.391  100.929  155.006
  561.250    6.870    0.218    0.397  100.979  154.989
  561.500    6.778    0.221    0.388   96.115  154.663
  561.750    6.688    0.232    0.391   91.129  154.441
  562.000    6.624    0.252    0.395   85.159  154.217
  562.250    6.535    0.281    0.378   77.901  153.891
  562.500    6.460    0.297    0.377   70.519  153.771
  562.750    6.386    0.262    0.386   90.164  153.342
  563.000    6.372    0.227    0.390   97.893  153.016
  563.250    6.405    0.221    0.393  102.980  153.100
  563.500    6.450    0.225    0.394  102.109  153.596
  563.750    6.508    0.236    0.395   98.720  155.216
  564.000    6.616    0.233    0.395   96.866  156.733
  564.250    6.700    0.228    0.394  100.541  157.329
  564.500    6.698    0.224    0.393  104.277  157.414
  564.750    6.695    0.224    0.393  101.500  156.781
  565.000    6.656    0.234    0.396   97.499  156.457
  565.250    6.616    0.217    0.397   93.493  156.642
  565.500    6.589    0.198    0.397   97.169  156.418
  565.750    6.598    0.206    0.416  101.826  156.812
  566.000    6.619    0.230    0.431   89.837  156.691
  566.250    6.618    0.273    0.404   75.392  154.726
  566.500    6.579    0.302    0.377   57.322  153.686
  566.750    6.419    0.329    0.359   45.641  153.565
  567.000    6.252    0.349    0.351   38.688  154.362
  567.250    6.077    0.347    0.360   41.809  154.757
  567.500    6.120    0.297    0.380   60.227  154.636
  567.750    6.027    0.273    0.390   73.484  154.617
  568.000    6.003    0.261    0.403   78.264  154.189
  568.250    6.034    0.253    0.400   79.850  153.863
  568.500    6.077    0.274    0.388   75.663  153.027
  568.750    6.270    0.298    0.386   70.430  152.189
  569.000    6.327    0.321    0.398   67.287  151.659
  569.250    6.324    0.326    0.387   64.388  151.846
  569.500    6.170    0.316    0.365   60.815  152.032
  569.750    6.009    0.293    0.368   62.401  152.936
  570.000    5.974    0.274    0.375   68.471  153.431
  570.250    6.027    0.264    0.379   73.682  153.720
  570.500    6.138    0.261    0.376   70.661  153.701
  570.750    6.322    0.276    0.364   68.255  153.989
  571.000    6.462    0.284    0.352   65.909  154.071
  571.250    6.569    0.272    0.366   66.943  154.261
  571.500    6.481    0.286    0.380   74.856  154.652
  571.750    6.359    0.319    0.379   46.159  155.249
  572.000    6.193    0.338    0.356   35.030  156.152
  572.250    6.032    0.344    0.340   29.613  155.929
  572.500    5.874    0.348    0.325   27.207  154.990
  572.750    5.689    0.355    0.318   26.029  156.507
  573.000    5.571    0.357    0.329   25.462  158.228
  573.250    5.435    0.356    0.336   25.393  160.360
  573.500    5.303    0.359    0.339   25.198  161.569
  573.750    5.262    0.360    0.335   25.248  161.348
  574.000    5.173    0.352    0.336   26.405  160.303
  574.250    5.123    0.345    0.337   29.526  158.547
  574.500    5.093    0.340    0.338   32.710  156.685
  574.750    5.053    0.342    0.331   31.532  154.927
  575.000    5.366    0.346    0.330   29.512  153.577
  575.250    5.367    0.344    0.334   31.890  154.896
  575.500    5.439    0.343    0.335   33.658  156.416
  575.750    5.553    0.344    0.331   30.854  158.445
  576.000    5.596    0.348    0.333   27.805  160.677
  576.250    5.607    0.349    0.334   26.951  161.485
  576.500    5.608    0.344    0.330   25.732  161.378
  576.750    5.620    0.340    0.333   23.963  160.863
  577.000    5.663    0.341    0.337   24.024  160.552
  577.250    5.664    0.346    0.333   25.610  159.733
  577.500    5.644    0.351    0.336   27.439  159.117
  577.750    5.613    0.350    0.340   26.951  158.807
  578.000    5.552    0.346    0.339   26.098  158.495
  578.250    5.501    0.348    0.331   27.012  158.388
  578.500    5.461    0.350    0.327   28.780  158.688
  578.750    5.391    0.352    0.337   30.061  158.681
