~VERSION INFORMATION
 VERS.                 2.0:   CWLS LOG ASCII STANDARD -VERSION 2.0
 WRAP.                  NO:   ONE LINE PER DEPTH STEP
~WELL INFORMATION BLOCK
#MNEM.UNIT           DATA                    DESCRIPTION OF MNEMONIC
#---------    -------------------            -------------------------------
# Generated from Intellog Unique Number	CW_76_78/WELL/288
WELL.         PRECAM ET AL MARTEN HILLS 05-2 : Well_name    - WELL
LOC .         00/05-23-076-01W5/0            : Location     - LOCATION
UWI .         00/05-23-076-01W5/0            : Uwi          - UNIQUE WELL ID
ENTR.         JAYE                           : Entered      - ENTERED BY
SRVC.         SCHLUMBERGER                   : Scn          - SERVICE COMPANY
DATE.         11 FEB 84                      : Date         - LOG DATE
STRT.M        575                            : top_depth    - START DEPTH
STOP.M        775                            : bot_depth    - STOP DEPTH
STEP.M        0.25                           : increment    - STEP LENGTH
 NULL. -999.2500:NULL Value
~CURVE INFORMATION BLOCK
#MNEM UNIT       ERCB CURVE CODE    CURVE DESCRIPTION
#-----------   ------------------   ----------------------------------
DEPT.M        00 001 00 00         : DEPTH        - DEPTH
ILD .OHMM     00 120 00 00         : RESD         - DEEP RESISTIVITY (DIL)
NPHI.V/V      00 330 00 00         : PHIN         - NEUTRON POROSITY (SANDSTONE)
DPHI.V/V      00 890 00 00         : PHID         - DENSITY POROSITY (SANDSTONE)
GR  .API      00 310 00 00         : GR           - GAMMA RAY
CALI.MM       00 280 01 00         : CAL          - CALIPER
~PARAMETER INFORMATION
#MNEM.UNIT           DATA             DESCRIPTION OF MNEMONIC
#---------         -----------     ------------------------------
GL  .M        862.83               : gl           - GROUND LEVEL ELEVATION
EREF.M        866.33               : kb           - ELEVATION OF DEPTH REFERENCE
DATM.M        862.83               : datum        - DATUM ELEVATION
TDD .M        776                  : tdd          - TOTAL DEPTH DRILLER
RUN .         ONE                  : Run          - RUN NUMBER
ENG .         ACKERMAN             : Engineer     - RECORDING ENGINEER
WIT .         KOCSIS               : Witness      - WITNESSED BY
BASE.         EDM                  : Branch       - HOME BASE OF LOGGING UNIT
MUD .         GEL CHEM             : Mud_type     - MUD TYPE
MATR.         SANDSTONE            : Logunit      - NEUTRON MATRIX
TMAX.C        32.2                 : BHT          - MAXIMUM RECORDED TEMPERATURE
BHTD.M        773                  : BHTDEP       - MAXIMUM RECORDED TEMPERATURE
RMT .C        22                   : MDTP         - TEMPERATURE OF MUD
MUDD.KG/M     9.5                  : MWT          - MUD DENSITY
NEUT.         1                    : NEUTRON      - NEUTRON TYPE
RESI.         0                    : RESIST       - RESISTIVITY TYPE
RM  .OHMM     4.377                : RM           - RESISTIVITY OF MUD
RMC .OHMM     0                    : RMC          - RESISTIVITY OF MUD CAKE
RMF .OHMM     5.828                : RMF          - RESISTIVITY OF MUD FILTRATE
SUFT.C        0                    : SUFT         - SURFACE TEMPERATURE
~A  DEPTH     RESD     PHIN     PHID       GR      CAL
# ...
  684.500    7.192    0.381    0.189   88.372  234.835
  684.750    6.803    0.385    0.187   90.766  234.979
  685.000    6.568    0.385    0.182   89.798  235.239
  685.250    6.461    0.391    0.173   90.824  235.495
  685.500    6.428    0.419    0.171   92.161  235.758
  685.750    6.564    0.399    0.162   82.045  236.115
  686.000    6.855    0.392    0.157   82.945  236.369
  686.250    7.132    0.412    0.173   83.286  236.526
  686.500    7.703    0.398    0.179   78.835  236.684
  686.750    8.637    0.388    0.171   73.263  236.622
  687.000    9.003    0.385    0.166   72.733  236.155
  687.250    8.791    0.330    0.170   76.556  235.470
  687.500    8.145    0.348    0.176   82.123  234.901
  687.750    7.365    0.389    0.179   90.431  234.539
  688.000    6.333    0.433    0.180   96.621  234.069
  688.250    5.642    0.420    0.199  101.692  233.381
  688.500    5.356    0.426    0.216   99.978  233.022
  688.750    5.615    0.446    0.176   85.880  232.349
  689.000    7.149    0.365    0.038   74.768  231.985
  689.250   10.610    0.285    0.016   66.212  232.344
  689.500   19.200    0.207    0.048   55.162  232.806
  689.750   25.568    0.185    0.119   47.912  233.685
  690.000   29.871    0.198    0.178   49.684  234.865
  690.250   27.216    0.234    0.186   57.305  236.169
  690.500   20.568    0.291    0.168   63.620  237.459
  690.750   16.076    0.331    0.126   68.441  238.856
  691.000   13.771    0.354    0.092   70.524  239.947
  691.250   13.296    0.375    0.088   70.615  239.681
  691.500   15.856    0.333    0.161   68.027  239.926
  691.750   20.151    0.293    0.192   65.072  241.117
  692.000   23.632    0.265    0.203   62.364  241.487
  692.250   24.680    0.270    0.199   63.077  241.539
  692.500   24.050    0.345    0.201   69.827  241.686
  692.750   20.641    0.356    0.207   70.979  242.153
  693.000   17.914    0.332    0.216   71.317  243.029
  693.250   15.930    0.327    0.219   74.459  243.702
  693.500   14.486    0.354    0.206   79.841  244.889
  693.750   13.002    0.366    0.179   84.849  245.876
  694.000   11.715    0.367    0.166   81.766  247.276
  694.250   11.874    0.361    0.156   75.259  249.910
  694.500   13.338    0.357    0.158   70.373  251.935
  694.750   14.569    0.351    0.169   65.362  251.986
  695.000   15.102    0.337    0.182   62.466  251.204
  695.250   15.107    0.319    0.186   66.478  248.038
  695.500   14.945    0.379    0.173   71.111  243.208
  695.750   14.701    0.386    0.166   74.378  239.834
  696.000   13.931    0.368    0.183   75.155  238.331
  696.250   12.645    0.333    0.182   77.735  237.860
  696.500   11.203    0.383    0.173   81.062  238.209
  696.750   10.130    0.391    0.163   85.574  238.372
  697.000    9.196    0.392    0.155   79.814  238.422
  697.250    8.585    0.398    0.170   75.111  238.261
  697.500    8.211    0.398    0.172   75.203  237.988
  697.750    7.943    0.386    0.168   79.219  237.835
  698.000    7.784    0.385    0.172   82.794  237.472
  698.250    7.657    0.386    0.179   84.504  237.418
  698.500    7.588    0.382    0.178   87.210  237.147
  698.750    7.592    0.363    0.105   81.699  236.271
  699.000    7.709    0.370    0.077   79.489  234.451
  699.250    8.173    0.365    0.064   83.002  231.806
  699.500    9.027    0.385    0.049   74.879  229.156
  699.750   11.092    0.385    0.029   67.128  227.437
  700.000   18.144    0.321    0.026   56.455  226.341
  700.250   20.192    0.295    0.054   51.939  225.884
  700.500   19.351    0.281    0.082   53.652  226.138
  700.750   17.564    0.255    0.123   67.745  226.703
  701.000   15.619    0.283    0.115   80.160  227.271
  701.250   13.429    0.384    0.078   87.097  228.667
  701.500   11.919    0.357    0.134   80.652  229.550
  701.750   10.719    0.309    0.159   75.454  230.111
  702.000   10.006    0.318    0.178   79.466  230.266
  702.250    9.376    0.373    0.181   83.978  230.523
  702.500    8.688    0.395    0.178   83.133  230.980
  702.750    8.186    0.411    0.165   80.364  231.758
  703.000    7.830    0.427    0.142   84.003  232.637
  703.250    7.503    0.431    0.148   88.761  233.102
  703.500    7.150    0.411    0.165   90.905  232.833
  703.750    6.929    0.384    0.177   88.695  232.478
  704.000    6.829    0.384    0.160   86.919  232.309
  704.250    6.935    0.395    0.128   89.623  232.260
  704.500    7.055    0.407    0.090   92.145  232.305
  704.750    7.396    0.418    0.166   89.434  232.259
  705.000    7.724    0.417    0.176   83.179  231.890
  705.250    7.843    0.371    0.157   80.094  231.418
  705.500    7.846    0.358    0.138   84.169  230.534
  705.750    7.776    0.390    0.117   88.868  229.652
  706.000    7.635    0.406    0.154   88.400  229.387
  706.250    7.525    0.410    0.161   84.192  229.747
  706.500    7.457    0.376    0.172   82.732  230.837
  706.750    7.475    0.357    0.167   87.740  231.508
  707.000    7.436    0.384    0.150   93.122  232.595
  707.250    7.397    0.403    0.159   95.017  233.667
  707.500    7.400    0.385    0.146   95.543  234.344
  707.750    7.458    0.369    0.116   95.388  235.330
  708.000    7.716    0.387    0.124   91.683  235.902
  708.250    8.257    0.418    0.130   85.238  235.632
  708.500    9.002    0.391    0.138   81.224  233.923
  708.750    9.759    0.344    0.143   83.868  229.200
  709.000   10.211    0.336    0.136   86.013  225.719
  709.250   10.565    0.367    0.098   86.228  224.831
  709.500   11.095    0.394    0.065   85.946  224.992
  709.750   11.718    0.410    0.119   84.481  226.906
  710.000   12.515    0.315    0.154   82.334  229.544
  710.250   11.553    0.275    0.173   79.312  231.877
  710.500    9.587    0.305    0.178   85.876  233.687
  710.750    8.120    0.365    0.177   98.291  236.020
  711.000    6.917    0.388    0.177  101.681  237.622
  711.250    6.060    0.420    0.177  104.322  237.156
  711.500    5.774    0.415    0.176  107.153  235.650
  711.750    5.875    0.412    0.166  104.133  233.106
  712.000    6.146    0.416    0.129   97.686  230.871
  712.250    6.577    0.398    0.056   91.930  229.470
  712.500    7.024    0.394    0.077   85.427  228.167
  712.750    7.788    0.376    0.131   80.663  227.597
  713.000    8.103    0.351    0.160   83.867  227.542
  713.250    7.522    0.372    0.150   88.624  227.375
  713.500    7.128    0.374    0.086   90.644  227.321
  713.750    7.389    0.382    0.154   90.178  227.367
  714.000    8.316    0.383    0.195   85.850  227.111
  714.250   10.047    0.357    0.188   78.164  226.850
  714.500   11.717    0.344    0.121   77.631  226.793
  714.750   12.726    0.365    0.076   79.338  226.635
  715.000   13.118    0.390    0.111   78.810  226.060
  715.250   13.123    0.388    0.154   73.115  225.899
  715.500   12.296    0.338    0.172   66.671  225.639
  715.750   10.772    0.329    0.172   85.868  225.481
  716.000    8.989    0.373    0.164   91.997  225.117
  716.250    7.758    0.402    0.148   96.256  224.643
  716.500    6.977    0.420    0.145   93.674  224.276
  716.750    6.685    0.430    0.161   88.971  224.325
  717.000    6.688    0.414    0.161   85.204  224.682
  717.250    6.998    0.370    0.155   83.928  225.051
  717.500    7.253    0.382    0.145   90.927  225.410
  717.750    7.704    0.408    0.131   92.947  225.660
  718.000    8.259    0.405    0.116   84.888  226.019
  718.250    9.260    0.351    0.123   71.288  225.142
  718.500   10.461    0.298    0.147   66.214  223.115
  718.750   11.883    0.313    0.163   67.363  222.229
  719.000   12.480    0.326    0.185   74.736  221.657
  719.250   11.286    0.340    0.188   83.416  221.085
  719.500    9.795    0.371    0.163   91.969  220.608
  719.750    9.127    0.395    0.080   92.185  220.341
  720.000    8.681    0.401    0.063   88.483  220.294
  720.250    8.652    0.412    0.077   84.525  220.239
  720.500    8.704    0.398    0.105   83.252  220.284
  720.750    8.856    0.374    0.145   89.628  220.541
