~VERSION INFORMATION
 VERS.                 2.0:   CWLS LOG ASCII STANDARD -VERSION 2.0
 WRAP.                  NO:   ONE LINE PER DEPTH STEP
~WELL INFORMATION BLOCK
#MNEM.UNIT           DATA                    DESCRIPTION OF MNEMONIC
#---------    -------------------            -------------------------------
# Generated from Intellog Unique Number	CS_77_79/WELL/926
WELL.         NOVALTA PORTAGE                : Well_name    - WELL
LOC .         00/09-25-078-16W4/0            : Location     - LOCATION
UWI .         00/09-25-078-16W4/0            : Uwi          - UNIQUE WELL ID
ENTR.         JHS                            : Entered      - ENTERED BY
SRVC.         SCHLUMBERGER                   : Scn          - SERVICE COMPANY
STRT.M        220                            : top_depth    - START DEPTH
STOP.M        435                            : bot_depth    - STOP DEPTH
STEP.M        0.25                           : increment    - STEP LENGTH
 NULL. -999.2500:NULL Value
~CURVE INFORMATION BLOCK
#MNEM UNIT       ERCB CURVE CODE    CURVE DESCRIPTION
#-----------   ------------------   ----------------------------------
DEPT.M        00 001 00 00         : DEPTH        - DEPTH
DPHI.V/V      00 890 00 00         : PHID         - DENSITY POROSITY (LIMESTONE)
NPHI.V/V      00 330 00 00         : PHIN         - NEUTRON POROSITY (LIMESTONE)
GR  .API      00 310 00 00         : GR           - GAMMA RAY
ILD .OHMM     00 120 00 00         : RESD         - DEEP RESISTIVITY (DIL)
~PARAMETER INFORMATION
#MNEM.UNIT           DATA             DESCRIPTION OF MNEMONIC
#---------         -----------     ------------------------------
GL  .M        624.14               : gl           - GROUND LEVEL ELEVATION
EREF.M        627.6                : kb           - ELEVATION OF DEPTH REFERENCE
DATM.M        627.6                : datum        - DATUM ELEVATION
TDD .M        442                  : tdd          - TOTAL DEPTH DRILLER
RUN .         ONE                  : Run          - RUN NUMBER
ENG .         BILL                 : Engineer     - RECORDING ENGINEER
WIT .         JIM                  : Witness      - WITNESSED BY
MUD .         GEL                  : Mud_type     - MUD TYPE
MATR.         LIMESTONE            : Logunit      - NEUTRON MATRIX
TMAX.C        26                   : BHT          - MAXIMUM RECORDED TEMPERATURE
BHTD.M        442                  : BHTDEP       - MAXIMUM RECORDED TEMPERATURE
MATR.         1                    : LOGUNIT      - NEUTRON MATRIX
RMT .C        25                   : MDTP         - TEMPERATURE OF MUD
NEUT.         1                    : NEUTRON      - NEUTRON TYPE
RESI.         0                    : RESIST       - RESISTIVITY TYPE
RMC .OHMM     0.25                 : RMC          - RESISTIVITY OF MUD CAKE
RMF .OHMM     0.25                 : RMF          - RESISTIVITY OF MUD FILTRATE
SUFT.C        15                   : SUFT         - SURFACE TEMPERATURE
~A  DEPTH     PHID     PHIN       GR     RESD
# ...
  350.500    0.296    0.389   78.646    7.761
  350.750    0.297    0.405   79.895    7.613
  351.000    0.295    0.394   83.005    7.189
  351.250    0.292    0.377   86.733    6.789
  351.500    0.283    0.373   92.321    6.534
  351.750    0.271    0.386   94.190    6.171
  352.000    0.269    0.398   96.680    5.718
  352.250    0.269    0.402   98.548    5.400
  352.500    0.264    0.404   99.800    5.100
  352.750    0.256    0.408   99.805    4.816
  353.000    0.250    0.419   99.195    4.723
  353.250    0.248    0.430   98.586    4.633
  353.500    0.245    0.414   98.596    4.544
  353.750    0.244    0.411   99.842    4.542
  354.000    0.244    0.409  101.095    4.626
  354.250    0.243    0.400  101.101    4.713
  354.500    0.239    0.387   99.254    4.801
  354.750    0.239    0.387   99.261    4.890
  355.000    0.244    0.406  102.370    4.887
  355.250    0.250    0.417  103.618    4.886
  355.500    0.257    0.426  104.250    4.702
  355.750    0.263    0.433  105.496    4.612
  356.000    0.268    0.441  106.125    4.523
  356.250    0.272    0.416  103.655    4.521
  356.500    0.267    0.403  100.565    4.783
  356.750    0.257    0.389   98.717    5.255
  357.000    0.250    0.371   96.868    5.883
  357.250    0.245    0.351   96.255    6.344
  357.500    0.232    0.347   95.645    6.839
  357.750    0.216    0.340   93.795    7.235
  358.000    0.214    0.338   91.324    7.370
  358.250    0.230    0.352   90.093    7.368
  358.500    0.264    0.368   90.103    7.091
  358.750    0.268    0.383   88.254    6.696
  359.000    0.258    0.390   84.543    6.323
  359.250    0.282    0.378   80.833    6.321
  359.500    0.307    0.372   84.564    6.438
  359.750    0.311    0.381   85.809    6.682
  360.000    0.306    0.372   74.042    6.681
  360.250    0.304    0.365   68.472    6.309
  360.500    0.311    0.379   64.762    5.630
  360.750    0.318    0.403   70.971    5.417
  361.000    0.323    0.412   72.840    5.732
  361.250    0.316    0.391   69.750    6.298
  361.500    0.318    0.382   67.902    6.918
  361.750    0.323    0.381   67.911    6.915
  362.000    0.325    0.373   67.921    7.044
  362.250    0.323    0.369   66.692    7.176
  362.500    0.318    0.377   66.078    7.310
  362.750    0.312    0.381   67.953    7.446
  363.000    0.310    0.371   67.956    7.443
  363.250    0.304    0.363   69.208    7.439
  363.500    0.294    0.352   68.593    7.436
  363.750    0.279    0.322   67.363    7.574
  364.000    0.259    0.302   62.414    7.863
  364.250    0.228    0.292   55.605    8.318
  364.500    0.233    0.337   55.614    8.800
  364.750    0.287    0.355   62.442    8.797
  365.000    0.303    0.365   64.312    8.308
  365.250    0.317    0.375   64.940    7.554
  365.500    0.323    0.399   68.051    7.000
  365.750    0.326    0.414   71.158    6.737
  366.000    0.322    0.407   72.407    6.483
  366.250    0.300    0.402   68.696    6.239
  366.500    0.269    0.356   66.227    6.237
  366.750    0.235    0.268   56.938    6.475
  367.000    0.211    0.255   51.989    7.388
  367.250    0.250    0.301   52.617    8.430
  367.500    0.281    0.336   56.347    9.440
  367.750    0.314    0.360   63.174    9.616
  368.000    0.327    0.377   66.904    9.082
  368.250    0.331    0.380   68.772    8.102
  368.500    0.331    0.383   69.401    7.229
  368.750    0.328    0.388   70.032    6.699
  369.000    0.324    0.388   68.180    6.447
  369.250    0.317    0.381   69.428    6.204
  369.500    0.313    0.400   70.677    6.086
  369.750    0.305    0.410   69.447    6.083
  370.000    0.296    0.399   70.076    6.196
  370.250    0.278    0.384   72.567    6.312
  370.500    0.223    0.345   70.718    6.310
  370.750    0.181    0.308   67.005    6.675
  371.000    0.140    0.283   58.336    7.196
  371.250    0.156    0.283   48.428    7.613
  371.500    0.201    0.302   54.017    7.903
  371.750    0.230    0.358   61.465    7.752
  372.000    0.288    0.395   65.812    7.603
  372.250    0.276    0.358   65.823    7.457
  372.500    0.249    0.329   64.592    7.453
  372.750    0.252    0.320   63.982    7.593
  373.000    0.277    0.335   63.990    7.733
  373.250    0.305    0.358   66.480    7.729
  373.500    0.327    0.379   69.588    7.582
  373.750    0.334    0.393   70.219    7.160
  374.000    0.334    0.403   69.608    6.891
  374.250    0.331    0.407   67.758    6.386
  374.500    0.324    0.401   67.148    6.030
  374.750    0.321    0.380   67.777    6.027
  375.000    0.322    0.369   69.023    5.912
  375.250    0.322    0.389   70.274    5.909
  375.500    0.321    0.411   70.285    5.906
  375.750    0.317    0.400   69.672    6.016
  376.000    0.311    0.402   69.685    6.014
  376.250    0.303    0.421   70.310    6.126
  376.500    0.299    0.394   72.801    6.240
  376.750    0.299    0.375   73.430    6.237
  377.000    0.295    0.368   74.058    6.234
  377.250    0.285    0.351   72.207    6.350
  377.500    0.282    0.305   69.119    6.718
  377.750    0.294    0.295   69.747    6.974
  378.000    0.316    0.305   74.097    7.104
  378.250    0.321    0.391   75.344    6.968
  378.500    0.318    0.396   74.736    6.706
  378.750    0.313    0.394   74.126    6.333
  379.000    0.312    0.389   73.513    5.980
  379.250    0.315    0.407   71.043    5.866
  379.500    0.317    0.417   72.293    5.646
  379.750    0.316    0.408   74.161    5.537
  380.000    0.312    0.397   76.031    5.534
  380.250    0.308    0.390   75.419    5.532
  380.500    0.305    0.392   73.570    5.634
  380.750    0.301    0.401   74.818    5.633
  381.000    0.298    0.404   77.928    5.737
  381.250    0.296    0.381   79.175    5.735
  381.500    0.296    0.361   73.607    5.732
  381.750    0.298    0.356   69.898    5.729
  382.000    0.300    0.374   71.147    5.620
  382.250    0.300    0.391   73.014    5.617
  382.500    0.298    0.385   76.745    5.614
  382.750    0.295    0.397   79.851    5.506
  383.000    0.291    0.407   80.481    5.503
  383.250    0.284    0.406   79.251    5.501
  383.500    0.279    0.408   79.260    5.498
  383.750    0.279    0.415   79.269    5.495
  384.000    0.277    0.425   78.659    5.494
  384.250    0.271    0.446   81.149    5.389
  384.500    0.269    0.424   83.016    5.285
  384.750    0.269    0.405   87.985    5.183
  385.000    0.269    0.403   91.094    5.084
  385.250    0.267    0.414   94.205    4.801
  385.500    0.262    0.420   97.312    4.534
  385.750    0.256    0.414  101.040    4.363
  386.000    0.249    0.398  103.529    4.121
  386.250    0.245    0.388  104.777    3.891
  386.500    0.245    0.378  105.407    4.040
  386.750    0.243    0.386   99.217    4.524
  387.000    0.241    0.393   89.930    5.261
  387.250    0.250    0.382   82.502    6.353
  387.500    0.256    0.385   79.409    7.114
  387.750    0.239    0.400   78.183    7.816
  388.000    0.225    0.403   80.669    7.963
  388.250    0.224    0.357   89.976    7.809
  388.500    0.228    0.355   91.844    7.660
  388.750    0.222    0.371   91.235    7.372
  389.000    0.220    0.380   90.625    7.094
  389.250    0.220    0.376   91.873    6.958
  389.500    0.219    0.364   94.360    7.088
  389.750    0.219    0.364   94.373    7.358
  390.000    0.217    0.364   95.001    7.932
  390.250    0.213    0.361   95.629    8.080
  390.500    0.213    0.368   96.877    8.230
  390.750    0.216    0.366   95.650    8.228
  391.000    0.223    0.373   93.797    8.223
  391.250    0.226    0.393   90.092    8.219
  391.500    0.218    0.370   89.477    8.372
  391.750    0.215    0.346   93.207    8.370
  392.000    0.213    0.342   96.314    8.525
  392.250    0.209    0.349   95.085    8.683
  392.500    0.205    0.359   95.714    8.846
  392.750    0.199    0.359   96.964    8.842
  393.000    0.197    0.352   95.112    9.007
  393.250    0.199    0.358   93.884    9.002
  393.500    0.204    0.380   95.130    8.997
  393.750    0.215    0.370  101.960    8.995
