~VERSION INFORMATION
 VERS.                 2.0:   CWLS LOG ASCII STANDARD -VERSION 2.0
 WRAP.                  NO:   ONE LINE PER DEPTH STEP
~WELL INFORMATION BLOCK
#MNEM.UNIT           DATA                    DESCRIPTION OF MNEMONIC
#---------    -------------------            -------------------------------
# Generated from Intellog Unique Number	CS_69_70/WELL/804
WELL.         HUSKEY OIL OPERATIONS          : Well_name    - WELL
LOC .         00/06-22-069-05W4/0            : Location     - LOCATION
UWI .         00/06-22-069-05W4/0            : Uwi          - UNIQUE WELL ID
ENTR.         SP                             : Entered      - ENTERED BY
SRVC.         SCHLUMBERGER                   : Scn          - SERVICE COMPANY
STRT.M        300                            : top_depth    - START DEPTH
STOP.M        580                            : bot_depth    - STOP DEPTH
STEP.M        0.25                           : increment    - STEP LENGTH
 NULL. -999.2500:NULL Value
~CURVE INFORMATION BLOCK
#MNEM UNIT       ERCB CURVE CODE    CURVE DESCRIPTION
#-----------   ------------------   ----------------------------------
DEPT.M        00 001 00 00         : DEPTH        - DEPTH
ILD .OHMM     00 120 00 00         : RESD         - DEEP RESISTIVITY (DIL)
DPHI.V/V      00 890 00 00         : PHID         - DENSITY POROSITY (LIMESTONE)
NPHI.V/V      00 330 00 00         : PHIN         - NEUTRON POROSITY (LIMESTONE)
GR  .API      00 310 00 00         : GR           - GAMMA RAY
~PARAMETER INFORMATION
#MNEM.UNIT           DATA             DESCRIPTION OF MNEMONIC
#---------         -----------     ------------------------------
GL  .M        670.1                : gl           - GROUND LEVEL ELEVATION
EREF.M        673.8                : kb           - ELEVATION OF DEPTH REFERENCE
DATM.M        670.1                : datum        - DATUM ELEVATION
TDD .M        585                  : tdd          - TOTAL DEPTH DRILLER
RUN .         ONE                  : Run          - RUN NUMBER
ENG .         BILL                 : Engineer     - RECORDING ENGINEER
WIT .         JIM                  : Witness      - WITNESSED BY
MUD .         GEL                  : Mud_type     - MUD TYPE
MATR.         LIMESTONE            : Logunit      - NEUTRON MATRIX
TMAX.C        21                   : BHT          - MAXIMUM RECORDED TEMPERATURE
BHTD.M        585                  : BHTDEP       - MAXIMUM RECORDED TEMPERATURE
MATR.         1                    : LOGUNIT      - NEUTRON MATRIX
RMT .C        25                   : MDTP         - TEMPERATURE OF MUD
NEUT.         1                    : NEUTRON      - NEUTRON TYPE
RESI.         0                    : RESIST       - RESISTIVITY TYPE
RMC .OHMM     0.25                 : RMC          - RESISTIVITY OF MUD CAKE
RMF .OHMM     0.25                 : RMF          - RESISTIVITY OF MUD FILTRATE
SUFT.C        15                   : SUFT         - SURFACE TEMPERATURE
~A  DEPTH     RESD     PHID     PHIN       GR
  300.000    2.854    0.258    0.524   94.416
  300.250    2.709    0.268    0.531   94.299
  300.500    2.654    0.272    0.523   93.213
  300.750    2.605    0.255    0.530   90.737
  301.000    2.591    0.266    0.543   89.228
  301.250    2.567    0.272    0.551   87.537
  301.500    2.558    0.270    0.558   86.875
  301.750    2.558    0.278    0.560   86.697
  302.000    2.573    0.273    0.539   86.519
  302.250    2.613    0.263    0.538   89.062
  302.500    2.628    0.267    0.541   90.880
  302.750    2.594    0.277    0.542   91.125
  303.000    2.490    0.273    0.532   88.648
  303.250    2.457    0.279    0.530   87.139
  303.500    2.381    0.289    0.550   88.232
  303.750    2.324    0.295    0.565   90.352
  304.000    2.342    0.279    0.565   89.327
  304.250    2.382    0.270    0.519   88.362
  304.500    2.419    0.265    0.496   88.123
  304.750    2.446    0.266    0.511   88.792
  305.000    2.442    0.266    0.527   87.646
  305.250    2.388    0.271    0.525   87.831
  305.500    2.358    0.282    0.489   89.527
  305.750    2.336    0.290    0.516   91.527
  306.000    2.332    0.288    0.540   91.288
  306.250    2.341    0.279    0.546   93.529
  306.500    2.350    0.274    0.537   93.230
  306.750    2.342    0.268    0.547   90.753
  307.000    2.308    0.267    0.558   90.817
  307.250    2.240    0.275    0.566   94.933
  307.500    2.178    0.282    0.565   94.755
  307.750    2.138    0.281    0.558   93.247
  308.000    2.142    0.298    0.552   92.221
  308.250    2.208    0.314    0.549   90.591
  308.500    2.310    0.309    0.555   91.865
  308.750    2.463    0.290    0.558   95.437
  309.000    2.505    0.274    0.530   96.468
  309.250    2.582    0.262    0.518   97.015
  309.500    2.626    0.260    0.512   95.083
  309.750    2.652    0.265    0.524   92.183
  310.000    2.728    0.263    0.543   89.948
  310.250    2.859    0.272    0.554   88.681
  310.500    2.986    0.279    0.547   87.234
  310.750    3.077    0.246    0.541   85.785
  311.000    3.148    0.254    0.526   84.639
  311.250    3.184    0.249    0.485   86.154
  311.500    3.143    0.226    0.495   88.637
  311.750    3.085    0.213    0.508   92.451
  312.000    3.023    0.239    0.499   93.724
  312.250    2.912    0.253    0.486   95.482
  312.500    2.875    0.258    0.509   96.573
  312.750    2.832    0.258    0.520   95.911
  313.000    2.822    0.252    0.529   94.584
  313.250    2.839    0.230    0.517   93.438
  313.500    2.893    0.219    0.494   92.957
  313.750    2.970    0.214    0.488   93.928
  314.000    3.022    0.210    0.507   95.988
  314.250    3.057    0.227    0.512   99.378
  314.500    3.080    0.246    0.507   98.535
  314.750    3.080    0.252    0.513   95.513
  315.000    3.075    0.234    0.502   93.097
  315.250    3.082    0.235    0.486   90.500
  315.500    3.117    0.236    0.474   89.656
  315.750    3.171    0.235    0.464   95.950
  316.000    3.118    0.235    0.476   93.292
  316.250    2.987    0.244    0.483   92.327
  316.500    2.856    0.256    0.489   92.936
  316.750    2.788    0.249    0.505   93.120
  317.000    2.742    0.235    0.520   92.216
  317.250    2.778    0.225    0.537   89.981
  317.500    2.901    0.231    0.531   85.085
  317.750    3.689    0.241    0.512   78.859
  318.000    5.124    0.244    0.451   74.023
  318.250    6.443    0.265    0.409   72.514
  318.500    7.616    0.291    0.408   71.671
  318.750    9.103    0.323    0.353   68.226
  319.000   10.209    0.345    0.311   64.056
  319.250   11.110    0.347    0.299   62.789
  319.500   12.343    0.355    0.293   62.369
  319.750   14.025    0.392    0.263   57.533
  320.000   15.465    0.415    0.239   54.694
  320.250   16.180    0.411    0.235   54.455
  320.500   16.152    0.360    0.275   57.543
  320.750   14.822    0.323    0.309   59.603
  321.000   14.330    0.307    0.328   60.332
  321.250   12.735    0.292    0.345   60.637
  321.500   11.684    0.280    0.357   62.214
  321.750   10.761    0.277    0.371   64.576
  322.000   10.078    0.284    0.385   67.543
  322.250    9.229    0.288    0.396   66.215
  322.500    8.405    0.281    0.405   63.980
  322.750    8.081    0.270    0.403   68.036
  323.000    7.698    0.257    0.396   73.422
  323.250    7.183    0.245    0.412   75.482
  323.500    6.703    0.242    0.415   78.993
  323.750    6.266    0.242    0.419   84.016
  324.000    5.913    0.241    0.431   87.165
  324.250    5.622    0.243    0.446   88.317
  324.500    5.447    0.244    0.442   81.365
  324.750    5.387    0.234    0.423   80.340
  325.000    5.388    0.234    0.412   79.799
  325.250    5.429    0.249    0.438   77.927
  325.500    5.543    0.258    0.454   76.478
  325.750    5.756    0.240    0.429   77.692
  326.000    6.371    0.228    0.436   77.029
  326.250    7.199    0.263    0.431   71.226
  326.500    8.784    0.334    0.402   63.911
  326.750   11.129    0.384    0.237   54.539
  327.000   13.579    0.401    0.211   47.042
  327.250   15.143    0.375    0.201   42.449
  327.500   15.203    0.342    0.239   42.754
  327.750   13.870    0.312    0.279   46.144
  328.000   13.015    0.278    0.327   45.119
  328.250   11.120    0.318    0.375   42.461
  328.500    9.572    0.337    0.348   58.916
  328.750    7.716    0.320    0.362   70.290
  329.000    6.934    0.283    0.412   83.721
  329.250    6.105    0.249    0.432   89.350
  329.500    5.487    0.229    0.452   89.897
  329.750    5.276    0.224    0.475   88.570
  330.000    5.277    0.225    0.481   88.331
  330.250    5.348    0.221    0.447   86.520
  330.500    5.450    0.210    0.420   84.466
  330.750    5.565    0.201    0.420   90.700
  331.000    5.757    0.224    0.440   95.299
  331.250    5.922    0.238    0.456   94.758
  331.500    5.879    0.235    0.454   92.886
  331.750    5.727    0.236    0.463   93.132
  332.000    5.497    0.248    0.479   93.074
  332.250    5.325    0.239    0.481   91.142
  332.500    5.267    0.221    0.457   87.456
  332.750    5.377    0.209    0.447   86.249
  333.000    5.573    0.226    0.438   90.063
  333.250    5.701    0.238    0.431   92.607
  333.500    5.833    0.242    0.427   89.828
  333.750    5.922    0.228    0.441   83.843
  334.000    6.069    0.221    0.451   76.709
  334.250    6.267    0.219    0.417   72.599
  334.500    6.719    0.220    0.392   70.123
  334.750    6.796    0.221    0.392   69.581
  335.000    6.991    0.225    0.393   73.395
  335.250    7.138    0.231    0.402   76.726
  335.500    7.086    0.235    0.418   80.176
  335.750    6.878    0.236    0.431   84.292
  336.000    6.124    0.223    0.442   89.436
  336.250    5.822    0.218    0.448   92.827
  336.500    5.801    0.213    0.445   85.028
  336.750    5.979    0.236    0.433   72.510
  337.000    6.232    0.247    0.427   60.417
  337.250    6.582    0.287    0.423   52.073
  337.500    6.809    0.314    0.412   45.363
  337.750    7.071    0.332    0.405   39.680
  338.000    7.260    0.338    0.403   37.748
  338.250    7.427    0.335    0.401   39.264
  338.500    7.527    0.337    0.391   41.081
  338.750    7.500    0.309    0.386   45.500
  339.000    7.459    0.269    0.385   51.975
  339.250    7.488    0.253    0.378   60.022
  339.500    7.504    0.252    0.374   65.227
  339.750    7.421    0.283    0.376   67.106
  340.000    7.326    0.313    0.389   64.266
  340.250    7.124    0.332    0.402   59.430
  340.500    6.901    0.337    0.411   57.438
  340.750    6.877    0.333    0.422   58.651
  341.000    6.904    0.331    0.417   60.953
  341.250    6.983    0.330    0.428   61.984
  341.500    7.131    0.324    0.425   63.621
  341.750    7.145    0.318    0.418   64.410
  342.000    7.200    0.315    0.408   65.501
  342.250    7.310    0.297    0.408   69.678
  342.500    7.408    0.276    0.391   74.702
  342.750    7.494    0.255    0.370   80.693
  343.000    7.480    0.233    0.357   85.353
  343.250    7.343    0.224    0.371   88.623
