~VERSION INFORMATION
 VERS.                 2.0:   CWLS LOG ASCII STANDARD -VERSION 2.0
 WRAP.                  NO:   ONE LINE PER DEPTH STEP
~WELL INFORMATION BLOCK
#MNEM.UNIT           DATA                    DESCRIPTION OF MNEMONIC
#---------    -------------------            -------------------------------
# Generated from Intellog Unique Number	CS_77_79/WELL/872
WELL.         CHRISTINA                      : Well_name    - WELL
LOC .         00/06-11-079-09W4/0            : Location     - LOCATION
UWI .         00/06-11-079-09W4/0            : Uwi          - UNIQUE WELL ID
ENTR.         JHS                            : Entered      - ENTERED BY
SRVC.         SCHLUMBERGER                   : Scn          - SERVICE COMPANY
STRT.M        198.12                         : top_depth    - START DEPTH
STOP.M        420.37                         : bot_depth    - STOP DEPTH
STEP.M        0.25                           : increment    - STEP LENGTH
 NULL. -999.2500:NULL Value
~CURVE INFORMATION BLOCK
#MNEM UNIT       ERCB CURVE CODE    CURVE DESCRIPTION
#-----------   ------------------   ----------------------------------
DEPT.M        00 001 00 00         : DEPTH        - DEPTH
RHOB.KG/M3    00 350 00 00         : DENS         - BULK DENSITY
GR  .API      00 310 00 00         : GR           - GAMMA RAY
DPHI.V/V      00 890 00 00         : PHID         - DENSITY POROSITY (SANDSTONE)
NPHI.V/V      00 330 00 00         : PHIN         - NEUTRON POROSITY (SANDSTONE)
ILD .OHMM     00 120 00 00         : RESD         - DEEP RESISTIVITY (DIL)
~PARAMETER INFORMATION
#MNEM.UNIT           DATA             DESCRIPTION OF MNEMONIC
#---------         -----------     ------------------------------
GL  .M        637.733              : gl           - GROUND LEVEL ELEVATION
EREF.M        640.385              : kb           - ELEVATION OF DEPTH REFERENCE
DATM.M        640.385              : datum        - DATUM ELEVATION
TDD .M        431.292              : tdd          - TOTAL DEPTH DRILLER
RUN .         ONE                  : Run          - RUN NUMBER
ENG .         BILL                 : Engineer     - RECORDING ENGINEER
WIT .         JIM                  : Witness      - WITNESSED BY
MUD .         GEL                  : Mud_type     - MUD TYPE
MATR.         SANDSTONE            : Logunit      - NEUTRON MATRIX
TMAX.C        23.8889              : BHT          - MAXIMUM RECORDED TEMPERATURE
BHTD.M        431.292              : BHTDEP       - MAXIMUM RECORDED TEMPERATURE
MATR.         1                    : LOGUNIT      - NEUTRON MATRIX
RMT .C        25                   : MDTP         - TEMPERATURE OF MUD
NEUT.         1                    : NEUTRON      - NEUTRON TYPE
RESI.         0                    : RESIST       - RESISTIVITY TYPE
RMC .OHMM     0.25                 : RMC          - RESISTIVITY OF MUD CAKE
RMF .OHMM     0.25                 : RMF          - RESISTIVITY OF MUD FILTRATE
SUFT.C        15                   : SUFT         - SURFACE TEMPERATURE
~A  DEPTH     DENS       GR     PHID     PHIN     RESD
# ...
  307.620   -0.000   69.748    0.294    0.581    7.114
  307.870   -0.000   67.172    0.304    0.575    7.596
  308.120    0.000   70.679    0.313    0.562    7.468
  308.370    0.000   75.499    0.301    0.539    7.049
  308.620    0.000   78.748    0.292    0.538    6.174
  308.870   -0.000   75.843    0.274    0.537    5.335
  309.120   -0.000   73.933    0.259    0.502    4.899
  309.370    0.000   79.804    0.247    0.500    4.797
  309.620    0.000   81.301    0.242    0.518    4.845
  309.870    0.000   76.709    0.249    0.539    5.006
  310.120   -0.000   72.866    0.247    0.554    5.498
  310.370   -0.000   71.232    0.259    0.539    6.353
  310.620   -0.000   73.482    0.257    0.544    7.006
  310.870    0.000   74.927    0.266    0.554    7.688
  311.120    0.000   74.912    0.252    0.554    8.232
  311.370    0.000   73.198    0.276    0.566    8.640
  311.620   -0.000   72.453    0.269    0.549    8.806
  311.870   -0.000   73.161    0.271    0.521    8.527
  312.120   -0.000   72.745    0.271    0.505    7.865
  312.370    0.000   72.113    0.261    0.491    7.106
  312.620    0.000   72.273    0.275    0.491    6.858
  312.870   -0.000   73.331    0.276    0.503    6.438
  313.120   -0.000   74.650    0.272    0.492    6.179
  313.370   -0.000   75.790    0.263    0.491    5.950
  313.620    0.000   76.697    0.243    0.500    5.769
  313.870    0.000   80.104    0.246    0.552    5.597
  314.120    0.000   81.055    0.257    0.553    5.429
  314.370   -0.000   77.335    0.262    0.532    5.338
  314.620   -0.000   76.945    0.258    0.524    5.307
  314.870   -0.000   80.783    0.250    0.510    5.250
  315.120    0.000   83.465    0.249    0.524    5.340
  315.370    0.000   79.315    0.258    0.571    5.476
  315.620   -0.000   80.018    0.260    0.608    5.643
  315.870   -0.000   83.192    0.270    0.604    5.652
  316.120   -0.000   82.869    0.252    0.579    5.520
  316.370    0.000   82.446    0.237    0.597    5.180
  316.620    0.000   84.818    0.253    0.614    4.729
  316.870    0.000   84.661    0.244    0.621    4.309
  317.120   -0.000   83.668    0.242    0.620    3.867
  317.370   -0.000   85.170    0.268    0.621    3.636
  317.620   -0.000   86.073    0.276    0.625    3.421
  317.870    0.000   85.700    0.269    0.622    3.264
  318.120    0.000   89.717    0.273    0.625    3.184
  318.370    0.000   88.517    0.287    0.629    3.189
  318.620   -0.000   86.459    0.278    0.629    3.224
  318.870   -0.000   87.086    0.278    0.633    3.323
  319.120    0.000   87.437    0.279    0.630    3.486
  319.370    0.000   86.510    0.273    0.627    3.845
  319.620    0.000   84.796    0.271    0.621    4.313
  319.870   -0.000   80.731    0.263    0.622    5.143
  320.120   -0.000   73.273    0.273    0.619    5.861
  320.370   -0.000   65.868    0.288    0.612    6.963
  320.620    0.000   63.836    0.324    0.590    8.320
  320.870    0.000   63.719    0.314    0.522   10.390
  321.120    0.000   61.990    0.301    0.494   12.965
  321.370   -0.000   57.095    0.230    0.424   14.977
  321.620   -0.000   50.695    0.050    0.335   15.703
  321.870    0.000   48.238    0.030    0.253   13.868
  322.120    0.000   57.177    0.026    0.237   11.617
  322.370    0.000   71.486    0.045    0.296    9.667
  322.620   -0.000   77.647    0.121    0.341    7.904
  322.870   -0.000   78.381    0.193    0.555    7.123
  323.120   -0.000   74.688    0.291    0.573    6.748
  323.370    0.000   74.760    0.286    0.601    6.653
  323.620    0.000   78.036    0.279    0.617    6.581
  323.870    0.000   82.321    0.285    0.628    6.507
  324.120   -0.000   83.572    0.290    0.644    6.390
  324.370   -0.000   81.433    0.277    0.629    6.425
  324.620   -0.000   82.108    0.279    0.638    6.633
  324.870    0.000   81.135    0.268    0.604    6.803
  325.120    0.000   79.554    0.270    0.586    6.879
  325.370   -0.000   80.774    0.255    0.596    6.761
  325.620   -0.000   83.959    0.264    0.572    6.576
  325.870   -0.000   81.127    0.272    0.545    6.264
  326.120    0.000   80.843    0.279    0.570    6.076
  326.370    0.000   82.766    0.256    0.605    5.845
  326.620    0.000   88.465    0.257    0.630    5.360
  326.870   -0.000   88.283    0.264    0.636    4.747
  327.120   -0.000   86.805    0.262    0.637    3.998
  327.370   -0.000   89.642    0.266    0.631    3.030
  327.620    0.000   92.335    0.283    0.632    2.510
  327.870    0.000   92.248    0.295    0.636    2.257
  328.120   -0.000   94.819    0.298    0.633    2.007
  328.370   -0.000   96.291    0.313    0.632    1.998
  328.620   -0.000   92.913    0.313    0.632    2.155
  328.870    0.000   89.552    0.296    0.633    2.387
  329.120    0.000   89.215    0.310    0.632    2.835
  329.370    0.000   88.777    0.315    0.632    3.344
  329.620   -0.000   85.788    0.305    0.633    4.340
  329.870   -0.000   80.715    0.292    0.630    5.260
  330.120   -0.000   78.029    0.297    0.624    6.847
  330.370    0.000   79.071    0.293    0.598    8.450
  330.620    0.000   79.696    0.302    0.555   10.046
  330.870    0.000   78.614    0.330    0.473   12.156
  331.120   -0.000   78.151    0.364    0.389   12.542
  331.370   -0.000   75.563    0.365    0.369   11.946
  331.620    0.000   69.852    0.303    0.380   10.504
  331.870    0.000   63.375    0.276    0.364    9.406
  332.120    0.000   63.092    0.107    0.342    8.324
  332.370   -0.000   65.106    0.080    0.361    7.464
  332.620   -0.000   69.734    0.161    0.454    6.848
  332.870   -0.000   73.528    0.240    0.571    6.624
  333.120    0.000   75.448    0.243    0.602    6.626
  333.370    0.000   77.849    0.280    0.588    6.789
  333.620    0.000   81.142    0.284    0.571    6.984
  333.870   -0.000   80.125    0.288    0.528    7.066
  334.120   -0.000   78.492    0.294    0.511    7.296
  334.370    0.000   80.532    0.282    0.515    7.374
  334.620    0.000   83.219    0.267    0.492    7.465
  334.870    0.000   84.473    0.250    0.461    7.506
  335.120   -0.000   85.931    0.262    0.446    7.509
  335.370   -0.000   86.680    0.257    0.466    7.507
  335.620   -0.000   85.850    0.267    0.485    7.507
  335.870    0.000   84.918    0.253    0.480    7.506
  336.120    0.000   82.835    0.239    0.480    7.501
  336.370    0.000   74.522    0.256    0.486    7.491
  336.620   -0.000   72.502    0.280    0.483    7.370
  336.870   -0.000   74.959    0.332    0.499    7.177
  337.120   -0.000   76.996    0.331    0.534    6.968
  337.370    0.000   76.466    0.334    0.543    6.895
  337.620    0.000   78.084    0.316    0.540    6.718
  337.870   -0.000   82.903    0.308    0.556    6.596
  338.120   -0.000   86.645    0.291    0.547    6.809
  338.370   -0.000   85.811    0.288    0.529    6.858
  338.620    0.000   82.848    0.294    0.547    7.088
  338.870    0.000   77.235    0.285    0.554    7.107
  339.120    0.000   76.989    0.284    0.539    6.962
  339.370   -0.000   78.469    0.286    0.515    6.761
  339.620   -0.000   80.165    0.281    0.508    6.540
  339.870   -0.000   79.362    0.272    0.508    6.341
  340.120    0.000   77.891    0.281    0.517    6.143
  340.370    0.000   75.201    0.275    0.527    6.125
  340.620    0.000   71.619    0.275    0.556    6.120
  340.870   -0.000   68.213    0.290    0.582    6.323
  341.120   -0.000   62.972    0.306    0.572    6.377
  341.370    0.000   63.144    0.329    0.536    6.462
  341.620    0.000   63.578    0.326    0.548    6.608
  341.870    0.000   62.624    0.321    0.543    6.452
  342.120   -0.000   62.589    0.329    0.526    6.470
  342.370   -0.000   64.491    0.313    0.534    6.284
  342.620   -0.000   66.453    0.318    0.534    6.097
  342.870    0.000   67.995    0.319    0.548    5.998
  343.120    0.000   67.577    0.319    0.544    6.004
  343.370    0.000   63.828    0.340    0.569    6.005
  343.620   -0.000   62.016    0.356    0.609    6.132
  343.870   -0.000   61.941    0.330    0.627    6.003
