~VERSION INFORMATION
 VERS.                 2.0:   CWLS LOG ASCII STANDARD -VERSION 2.0
 WRAP.                  NO:   ONE LINE PER DEPTH STEP
~WELL INFORMATION BLOCK
#MNEM.UNIT           DATA                    DESCRIPTION OF MNEMONIC
#---------    -------------------            -------------------------------
# Generated from Intellog Unique Number	CN_94_101/WELL/2640
WELL.         07-28-094-19W4                 : Well_name    - WELL
LOC .         00/07-28-094-19W4/0            : Location     - LOCATION
UWI .         00/07-28-094-19W4/0            : Uwi          - UNIQUE WELL ID
ENTR.         JOETTE                         : Entered      - ENTERED BY
SRVC.         SCHLUMBERGER                   : Scn          - SERVICE COMPANY
DATE.         07\03\92                       : Date         - LOG DATE
STRT.F        500                            : top_depth    - START DEPTH
STOP.F        1195.54                        : bot_depth    - STOP DEPTH
STEP.F        0.82                           : increment    - STEP LENGTH
 NULL. -999.2500:NULL Value
~CURVE INFORMATION BLOCK
#MNEM UNIT       ERCB CURVE CODE    CURVE DESCRIPTION
#-----------   ------------------   ----------------------------------
DEPT.F        00 001 00 00         : DEPTH        - DEPTH
CALI.IN       00 280 01 00         : CAL          - CALIPER
GR  .API      00 310 00 00         : GR           - GAMMA RAY
NPHI.V/V      00 330 00 00         : PHIN         - NEUTRON POROSITY (SANDSTONE)
ILD .OHMM     00 120 00 00         : RESD         - DEEP RESISTIVITY (DIL)
~PARAMETER INFORMATION
#MNEM.UNIT           DATA             DESCRIPTION OF MNEMONIC
#---------         -----------     ------------------------------
GL  .M        639.775              : gl           - GROUND LEVEL ELEVATION
EREF.M        641.909              : kb           - ELEVATION OF DEPTH REFERENCE
DATM.M        641.909              : datum        - DATUM ELEVATION
TDD .M        368.198              : tdd          - TOTAL DEPTH DRILLER
RUN .         ONE                  : Run          - RUN NUMBER
ENG .         JO                   : Engineer     - RECORDING ENGINEER
WIT .         TIM                  : Witness      - WITNESSED BY
MUD .         GEL                  : Mud_type     - MUD TYPE
MATR.         SANDSTONE            : Logunit      - NEUTRON MATRIX
TMAX.F        60                   : BHT          - MAXIMUM RECORDED TEMPERATURE
BHTD.F        1208                 : BHTDEP       - MAXIMUM RECORDED TEMPERATURE
RMT .F        60                   : MDTP         - TEMPERATURE OF MUD
MUDD.LB/G     1.06                 : MWT          - MUD DENSITY
NEUT.         1                    : NEUTRON      - NEUTRON TYPE
RESI.         0                    : RESIST       - RESISTIVITY TYPE
RM  .OHMM     5.7                  : RM           - RESISTIVITY OF MUD
RMC .OHMM     5.7                  : RMC          - RESISTIVITY OF MUD CAKE
RMF .OHMM     5.7                  : RMF          - RESISTIVITY OF MUD FILTRATE
SUFT.F        39.2                 : SUFT         - SURFACE TEMPERATURE
~A  DEPTH      CAL       GR     PHIN     RESD
# ...
  785.433    6.585   86.222    0.401    4.144
  786.253    6.626   84.984    0.417    3.845
  787.073    6.869   84.970    0.418    3.702
  787.894    6.909   83.728    0.420    3.565
  788.714    6.990   79.427    0.404    3.496
  789.534    6.989   82.473    0.400    3.559
  790.354    6.743   83.071    0.387    3.760
  791.175    6.620   82.445    0.377    3.971
  791.995    6.619   84.268    0.371    4.273
  792.815    6.781   89.154    0.384    4.597
  793.635    6.944   87.909    0.379    4.681
  794.455    6.943   89.123    0.391    4.854
  795.276    6.737   84.825    0.403    4.850
  796.096    6.818   82.975    0.405    4.847
  796.916    6.939   86.633    0.375    4.843
  797.736    7.020   89.068    0.379    4.751
  798.556    7.019   85.381    0.404    4.660
  799.377    6.978   82.297    0.418    4.486
  800.197    6.936   82.286    0.409    4.400
  801.017    6.935   82.276    0.384    4.397
  801.837    6.975   82.262    0.381    4.394
  802.657    7.015   82.245    0.369    4.392
  803.478    7.054   81.619    0.361    4.553
  804.298    7.094   80.993    0.356    4.636
  805.118    7.093   80.976    0.373    4.806
  805.938    7.092   79.126    0.373    4.891
  806.759    7.173   75.443    0.388    4.887
  807.579    7.091   81.550    0.362    4.796
  808.399    7.048   86.433    0.359    4.617
  809.219    7.048   92.536    0.378    4.285
  810.039    6.965   96.198    0.425    3.903
  810.860    6.923   99.853    0.415    3.689
  811.680    6.922   96.782    0.432    3.552
  812.500    7.044   90.644    0.458    3.550
  813.320    7.084   90.627    0.460    3.548
  814.140    7.124   92.453    0.426    3.545
  814.961    6.919   91.215    0.467    3.608
  815.781    6.877   88.753    0.492    3.742
  816.601    6.917   93.024    0.470    3.880
  817.421    6.957   93.618    0.446    4.023
  818.241    7.037   87.480    0.440    4.093
  819.062    6.710   83.797    0.472    4.015
  819.882    6.587   86.844    0.444    4.013
  820.702    6.789   92.951    0.430    3.865
  821.522    6.992   97.218    0.453    3.721
  822.343    7.033   97.204    0.486    3.583
  823.163    7.072   93.518    0.487    3.516
  823.983    6.949   91.052    0.469    3.512
  824.803    6.989   92.266    0.456    3.509
  825.623    7.151   84.295    0.451    3.573
  826.444    7.313   88.566    0.464    3.570
  827.264    7.271   95.897    0.452    3.635
  828.084    6.659   98.332    0.438    3.699
  828.904    6.698   96.482    0.443    3.766
  829.724    6.983   92.792    0.452    3.834
  830.545    6.982   89.714    0.441    3.902
  831.365    6.696   90.924    0.448    3.899
  832.185    6.940   92.750    0.443    3.967
  833.005    7.387   95.185    0.433    3.966
  833.825    7.549   95.168    0.415    3.961
  834.646    7.508   90.873    0.427    3.959
  835.466    7.303   88.407    0.428    3.956
  836.286    7.138   87.169    0.444    4.027
  837.106    7.056   89.603    0.430    4.100
  837.927    7.015   93.259    0.419    4.172
  838.747    6.932   92.633    0.428    4.327
  839.567    6.931   88.943    0.439    4.404
  840.387    6.930   87.096    0.427    4.484
  841.207    6.928   85.246    0.421    4.650
  842.028    6.928   85.232    0.421    4.645
  842.848    6.968   87.667    0.427    4.641
  843.668    7.008   88.258    0.418    4.639
  844.488    7.088   87.024    0.429    4.550
  845.308    7.251   83.950    0.441    4.463
  846.129    7.290   84.551    0.454    4.219
  846.949    6.841   88.206    0.466    4.063
  847.769    6.962   90.641    0.467    3.911
  848.589    6.798   96.132    0.443    3.910
  849.409    7.001   93.674    0.425    3.979
  850.230    7.000   88.760    0.428    4.202
  851.050    7.040   89.970    0.401    4.279
  851.870    7.121   93.629    0.395    4.275
  852.690    7.446   95.454    0.386    4.042
  853.510    7.527   94.829    0.445    3.750
  854.331    7.281   88.690    0.469    3.748
  855.151    7.117   85.616    0.453    3.744
  855.971    7.116   83.766    0.441    3.954
  856.791    7.115   82.525    0.434    4.255
  857.612    7.114   81.287    0.428    4.332
  858.432    7.113   80.657    0.422    4.409
  859.252    6.949   80.031    0.426    4.572
  860.072    6.621   80.018    0.421    4.655
  860.892    6.498   77.555    0.420    5.102
  861.713    6.742   73.873    0.402    5.491
  862.533    7.026   65.902    0.355    5.692
  863.353    6.944   64.048    0.328    5.282
  864.173    6.698   72.607    0.297    4.551
  864.993    6.616   89.119    0.274    3.995
  865.814    6.656   96.450    0.434    3.777
  866.634    6.940  100.102    0.445    3.441
  867.454    7.103  100.704    0.440    3.135
  868.274    6.938  103.750    0.439    3.018
  869.094    7.019  109.245    0.439    3.307
  869.915    7.303  106.167    0.436    3.494
  870.735    7.466  101.872    0.433    3.691
  871.555    7.220   98.186    0.427    3.898
  872.375    7.097  100.002    0.410    3.896
  873.196    7.096  103.660    0.421    3.751
  874.016    7.054  102.426    0.418    3.417
  874.836    7.135   98.127    0.483    3.113
  875.656    7.297   95.050    0.482    2.784
  876.476    7.459   93.812    0.483    2.681
  877.297    7.581   91.962    0.476    2.780
  878.117    7.988   92.560    0.438    3.221
  878.937    7.905   95.606    0.430    3.873
  879.757    7.741   94.981    0.435    4.832
  880.577    7.577   82.113    0.446    6.614
  881.398    7.331   75.978    0.440    7.386
  882.218    6.881   69.844    0.423    8.715
  883.038    6.513   71.047    0.419    9.207
  883.858    6.390   71.037    0.388    9.906
  884.678    6.307   68.575    0.367   10.085
  885.499    6.265   64.888    0.367    9.710
  886.319    6.264   63.038    0.352    9.525
  887.139    6.263   60.573    0.330    9.520
  887.959    6.303   55.050    0.306    9.688
  888.780    6.343   56.873    0.244   10.425
  889.600    6.424   62.364    0.304   11.428
  890.420    6.504   62.354    0.344   12.763
  891.240    6.544   59.888    0.350   13.988
  892.060    6.584   61.714    0.338   13.977
  892.881    6.787   67.205    0.347   12.499
  893.701    6.950   70.255    0.362   10.002
  894.521    7.275   75.138    0.374    7.572
  895.341    7.927   83.693    0.388    6.647
  896.161    7.396   88.573    0.393    5.943
  896.982    6.742   83.047    0.381    5.618
  897.802    7.353   83.033    0.384    5.409
  898.622    7.556   83.631    0.362    5.307
  899.442    7.759   86.069    0.369    4.924
  900.262    8.003   89.728    0.396    4.654
  901.083    7.104   95.222    0.413    4.400
  901.903    6.777   93.372    0.423    4.562
  902.723    6.735   89.071    0.425    4.819
  903.543    6.816   89.057    0.428    5.283
  904.364    6.978   87.819    0.432    6.121
  905.184    6.936   82.908    0.417    8.693
  906.004    6.894   77.998    0.383    9.182
  906.824    6.812   70.024    0.365   10.065
  907.644    6.688   70.010    0.359   10.439
  908.465    6.647   70.608    0.359   11.027
  909.285    6.646   70.594    0.353   10.817
  910.105    6.645   70.580    0.366    8.496
  910.925    6.684   71.791    0.372    6.432
  911.745    6.765   73.613    0.366    5.147
  912.566    7.009   77.884    0.368    4.518
  913.386    7.172   82.763    0.406    3.682
  914.206    7.130   87.030    0.442    3.233
  915.026    7.047   90.689    0.459    3.231
  915.846    6.965   88.223    0.474    3.288
  916.667    7.004   86.380    0.456    3.409
  917.487    7.044   83.306    0.444    3.602
  918.307    7.043   85.740    0.429    3.876
  919.127    7.042   88.784    0.431    4.093
  919.948    7.082   89.378    0.436    4.404
  920.768    7.204   88.137    0.432    4.652
  921.588    7.529   87.518    0.424    4.913
  922.408    7.610   87.504    0.427    5.002
  923.228    7.364   87.490    0.429    5.092
  924.049    6.996   87.473    0.428    4.903
  924.869    6.831   88.071    0.423    4.990
  925.689    6.749   89.281    0.416    5.082
  926.509    6.748   83.759    0.400    5.367
  927.329    6.788   78.233    0.374    5.773
