~VERSION INFORMATION
 VERS.                 2.0:   CWLS LOG ASCII STANDARD -VERSION 2.0
 WRAP.                  NO:   ONE LINE PER DEPTH STEP
~WELL INFORMATION BLOCK
#MNEM.UNIT           DATA                    DESCRIPTION OF MNEMONIC
#---------    -------------------            -------------------------------
# Generated from Intellog Unique Number	CS_67_68/WELL/2170
WELL.         06-16-067-05W4                 : Well_name    - WELL
LOC .         00/06-16-067-05W4/0            : Location     - LOCATION
UWI .         00/06-16-067-05W4/0            : Uwi          - UNIQUE WELL ID
ENTR.         SP                             : Entered      - ENTERED BY
SRVC.         SCHLUMBERGER                   : Scn          - SERVICE COMPANY
STRT.M        325                            : top_depth    - START DEPTH
STOP.M        545                            : bot_depth    - STOP DEPTH
STEP.M        0.25                           : increment    - STEP LENGTH
 NULL. -999.2500:NULL Value
~CURVE INFORMATION BLOCK
#MNEM UNIT       ERCB CURVE CODE    CURVE DESCRIPTION
#-----------   ------------------   ----------------------------------
DEPT.M        00 001 00 00         : DEPTH        - DEPTH
ILD .OHMM     00 120 00 00         : RESD         - DEEP RESISTIVITY (DIL)
DPHI.V/V      00 890 00 00         : PHID         - DENSITY POROSITY (LIMESTONE)
NPHI.V/V      00 330 00 00         : PHIN         - NEUTRON POROSITY (LIMESTONE)
GR  .API      00 310 00 00         : GR           - GAMMA RAY
CALI.MM       00 280 01 00         : CAL          - CALIPER
~PARAMETER INFORMATION
#MNEM.UNIT           DATA             DESCRIPTION OF MNEMONIC
#---------         -----------     ------------------------------
GL  .M        656.66               : gl           - GROUND LEVEL ELEVATION
EREF.M        660.02               : kb           - ELEVATION OF DEPTH REFERENCE
DATM.M        660.02               : datum        - DATUM ELEVATION
TDD .M        550                  : tdd          - TOTAL DEPTH DRILLER
RUN .         ONE                  : Run          - RUN NUMBER
ENG .         BILL                 : Engineer     - RECORDING ENGINEER
WIT .         JIM                  : Witness      - WITNESSED BY
MUD .         GEL                  : Mud_type     - MUD TYPE
MATR.         LIMESTONE            : Logunit      - NEUTRON MATRIX
TMAX.C        24                   : BHT          - MAXIMUM RECORDED TEMPERATURE
BHTD.M        550.4                : BHTDEP       - MAXIMUM RECORDED TEMPERATURE
MATR.         1                    : LOGUNIT      - NEUTRON MATRIX
RMT .C        25                   : MDTP         - TEMPERATURE OF MUD
NEUT.         1                    : NEUTRON      - NEUTRON TYPE
RESI.         0                    : RESIST       - RESISTIVITY TYPE
RMC .OHMM     0.25                 : RMC          - RESISTIVITY OF MUD CAKE
RMF .OHMM     0.25                 : RMF          - RESISTIVITY OF MUD FILTRATE
SUFT.C        15                   : SUFT         - SURFACE TEMPERATURE
~A  DEPTH     RESD     PHID     PHIN       GR      CAL
# ...
  361.500   11.778    0.008    0.150   46.444  210.563
  361.750   10.079    0.095    0.159   51.112  210.290
  362.000    8.626    0.211    0.346   58.169  209.818
  362.250    7.737    0.269    0.390   64.610  209.444
  362.500    6.928    0.293    0.427   71.114  208.863
  362.750    6.624    0.279    0.440   75.906  208.591
  363.000    6.479    0.267    0.452   78.068  208.625
  363.250    6.409    0.260    0.460   82.188  208.865
  363.500    6.364    0.259    0.459   85.875  208.997
  363.750    6.390    0.263    0.463   89.078  208.931
  364.000    6.440    0.272    0.470   92.401  208.757
  364.250    6.455    0.284    0.498   94.989  208.593
  364.500    6.518    0.283    0.515   86.202  208.420
  364.750    6.533    0.277    0.507   81.328  208.450
  365.000    6.523    0.276    0.496   81.410  208.690
  365.250    6.563    0.277    0.469   86.018  209.130
  365.500    6.492    0.279    0.455   88.667  210.390
  365.750    6.325    0.274    0.444   88.628  211.645
  366.000    6.060    0.271    0.452   90.850  214.023
  366.250    5.762    0.277    0.463   93.377  216.504
  366.500    5.657    0.280    0.470   95.844  217.660
  366.750    5.691    0.282    0.486   97.886  217.286
  367.000    5.736    0.286    0.491   97.475  214.566
  367.250    5.792    0.281    0.481   98.413  211.745
  367.500    5.927    0.277    0.487   90.178  209.946
  367.750    6.007    0.288    0.466   83.897  208.756
  368.000    6.216    0.297    0.450   81.469  207.871
  368.250    6.555    0.303    0.439   82.041  207.193
  368.500    6.938    0.291    0.431   84.508  207.429
  368.750    7.234    0.277    0.423   88.258  207.466
  369.000    7.374    0.280    0.417   91.704  207.192
  369.250    7.433    0.282    0.423   94.050  207.226
  369.500    7.394    0.280    0.432   92.907  207.259
  369.750    7.328    0.271    0.439   91.337  207.086
  370.000    7.330    0.266    0.443   89.888  206.715
  370.250    7.374    0.279    0.452   85.994  206.244
  370.500    7.391    0.295    0.465   80.999  205.659
  370.750    7.352    0.305    0.480   78.938  204.979
  371.000    7.300    0.314    0.481   78.530  204.607
  371.250    7.207    0.318    0.465   79.225  204.336
  371.500    7.102    0.318    0.467   79.369  204.471
  371.750    7.065    0.316    0.469   79.754  205.011
  372.000    7.041    0.315    0.458   74.147  205.453
  372.250    7.004    0.319    0.454   70.130  205.591
  372.500    6.981    0.329    0.451   69.538  205.522
  372.750    6.957    0.332    0.444   70.355  205.655
  373.000    6.959    0.333    0.429   71.108  206.201
  373.250    6.962    0.327    0.416   74.125  206.750
  373.500    6.991    0.304    0.434   78.732  207.185
  373.750    6.993    0.289    0.456   83.161  207.731
  374.000    6.983    0.277    0.467   86.175  208.281
  374.250    6.972    0.268    0.468   89.499  208.508
  374.500    7.041    0.263    0.467   91.475  208.542
  374.750    7.218    0.263    0.468   83.727  208.374
  375.000    7.540    0.265    0.478   78.242  208.609
  375.250    7.862    0.197    0.341   71.717  210.176
  375.500    8.166    0.170    0.303   67.333  212.861
  375.750    8.355    0.183    0.282   63.867  217.074
  376.000    8.454    0.223    0.316   66.887  220.469
  376.250    8.330    0.243    0.395   70.942  220.199
  376.500    8.026    0.252    0.434   76.651  218.191
  376.750    7.560    0.242    0.438   78.383  217.923
  377.000    7.148    0.231    0.442   79.934  219.279
  377.250    6.991    0.222    0.452   82.768  221.048
  377.500    6.942    0.245    0.452   86.033  221.081
  377.750    6.957    0.236    0.440   88.131  216.934
  378.000    6.960    0.255    0.453   81.545  214.928
  378.250    6.937    0.269    0.443   78.016  214.150
  378.500    6.900    0.279    0.439   78.466  216.627
  378.750    6.902    0.252    0.458   80.936  226.244
  379.000    7.050    0.273    0.469   82.909  235.553
  379.250    7.132    0.294    0.448   82.562  223.353
  379.500    7.256    0.286    0.431   83.928  213.600
  379.750    7.397    0.277    0.428   84.989  213.431
  380.000    7.400    0.273    0.449   84.887  217.644
  380.250    7.251    0.265    0.465   82.644  220.533
  380.500    7.026    0.257    0.480   77.464  219.347
  380.750    6.923    0.254    0.449   74.549  218.258
  381.000    6.848    0.264    0.432   72.000  217.476
  381.250    6.838    0.274    0.437   69.695  216.394
  381.500    6.918    0.280    0.422   70.085  215.806
  381.750    7.013    0.280    0.408   70.898  215.033
  382.000    7.081    0.274    0.406   68.654  214.548
  382.250    7.111    0.268    0.402   67.696  213.665
  382.500    7.101    0.269    0.409   70.898  212.170
  382.750    7.130    0.276    0.429   73.364  211.388
  383.000    7.146    0.286    0.421   72.467  213.158
  383.250    7.135    0.281    0.420   72.980  212.274
  383.500    7.111    0.274    0.419   73.425  210.571
  383.750    7.073    0.273    0.410   73.874  208.875
  384.000    7.037    0.273    0.402   72.792  208.192
  384.250    6.986    0.273    0.399   73.917  207.414
  384.500    6.923    0.287    0.402   74.484  206.120
  384.750    6.874    0.300    0.420   73.343  204.930
  385.000    6.825    0.290    0.447   73.975  204.251
  385.250    6.802    0.283    0.461   75.462  204.998
  385.500    6.792    0.280    0.432   74.016  206.153
  385.750    6.833    0.275    0.412   73.729  207.003
  386.000    6.926    0.269    0.403   75.098  207.649
  386.250    7.007    0.267    0.406   77.321  208.093
  386.500    7.103    0.260    0.427   77.826  208.632
  386.750    7.268    0.256    0.433   75.706  208.970
  387.000    7.381    0.261    0.443   73.464  208.903
  387.250    7.496    0.273    0.458   72.688  208.941
  387.500    7.540    0.284    0.448   72.344  209.071
  387.750    7.558    0.282    0.430   73.769  209.106
  388.000    7.504    0.274    0.416   76.848  209.146
  388.250    7.285    0.288    0.423   72.526  209.785
  388.500    7.058    0.303    0.428   73.585  210.328
  388.750    6.813    0.287    0.428   76.908  211.177
  389.000    6.564    0.254    0.429   79.252  212.841
  389.250    6.468    0.243    0.431   82.332  216.546
  389.500    6.386    0.241    0.439   85.044  220.047
  389.750    6.305    0.259    0.440   87.509  221.306
  390.000    6.213    0.255    0.435   83.615  220.520
  390.250    6.145    0.243    0.449   86.877  220.156
  390.500    6.102    0.236    0.460   83.903  220.996
  390.750    6.070    0.240    0.439   79.337  220.213
  391.000    6.027    0.249    0.411   77.824  216.377
  391.250    6.052    0.247    0.398   77.296  214.169
  391.500    6.088    0.241    0.408   78.416  213.792
  391.750    6.148    0.244    0.432   79.601  213.521
  392.000    6.185    0.243    0.445   80.474  215.082
  392.250    6.222    0.239    0.453   82.085  214.812
  392.500    6.248    0.258    0.458   83.878  213.730
  392.750    6.286    0.259    0.463   84.143  213.042
  393.000    6.288    0.236    0.468   78.169  212.262
  393.250    6.232    0.228    0.467   80.820  211.683
  393.500    6.211    0.235    0.457   84.450  211.209
  393.750    6.190    0.242    0.445   81.289  210.532
  394.000    6.181    0.249    0.438   80.513  210.363
  394.250    6.183    0.253    0.435   80.227  210.291
  394.500    6.197    0.250    0.436   80.614  210.219
  394.750    6.258    0.247    0.444   79.412  210.049
  395.000    6.403    0.262    0.447   75.396  209.675
  395.250    6.502    0.285    0.445   72.173  209.511
  395.500    6.530    0.298    0.440   71.276  209.544
  395.750    6.434    0.277    0.449   72.153  209.677
  396.000    6.281    0.245    0.466   74.437  210.022
  396.250    6.190    0.255    0.467   75.618  210.252
  396.500    6.157    0.259    0.447   72.948  210.489
  396.750    6.160    0.263    0.456   70.642  210.626
  397.000    6.127    0.280    0.455   70.418  210.657
  397.250    6.118    0.289    0.439   70.867  210.692
  397.500    6.063    0.290    0.432   64.832  210.321
  397.750    5.952    0.315    0.454   60.205  209.842
