~VERSION INFORMATION
 VERS.                 2.0:   CWLS LOG ASCII STANDARD -VERSION 2.0
 WRAP.                  NO:   ONE LINE PER DEPTH STEP
~WELL INFORMATION BLOCK
#MNEM.UNIT           DATA                    DESCRIPTION OF MNEMONIC
#---------    -------------------            -------------------------------
# Generated from Intellog Unique Number	CN_91_93/WELL/2999
WELL.         PARAMOUNT RESOURCES LTD.       : Well_name    - WELL
LOC .         00/07-36-093-19W4/0            : Location     - LOCATION
UWI .         00/07-36-093-19W4/0            : Uwi          - UNIQUE WELL ID
ENTR.         JOETTE                         : Entered      - ENTERED BY
SRVC.         COMPUTALOG                     : Scn          - SERVICE COMPANY
DATE.         04/07/92                       : Date         - LOG DATE
STRT.M        110                            : top_depth    - START DEPTH
STOP.M        241                            : bot_depth    - STOP DEPTH
STEP.M        0.25                           : increment    - STEP LENGTH
 NULL. -999.2500:NULL Value
~CURVE INFORMATION BLOCK
#MNEM UNIT       ERCB CURVE CODE    CURVE DESCRIPTION
#-----------   ------------------   ----------------------------------
DEPT.M        00 001 00 00         : DEPTH        - DEPTH
CALI.MM       00 280 01 00         : CAL          - CALIPER
GR  .API      00 310 00 00         : GR           - GAMMA RAY
NPHI.V/V      00 330 00 00         : PHIN         - NEUTRON POROSITY (SANDSTONE)
DPHI.V/V      00 890 00 00         : PHID         - DENSITY POROSITY (SANDSTONE)
ILD .OHMM     00 120 00 00         : RESD         - DEEP RESISTIVITY (DIL)
~PARAMETER INFORMATION
#MNEM.UNIT           DATA             DESCRIPTION OF MNEMONIC
#---------         -----------     ------------------------------
GL  .M        521.1                : gl           - GROUND LEVEL ELEVATION
EREF.M        524.6                : kb           - ELEVATION OF DEPTH REFERENCE
DATM.M        524.6                : datum        - DATUM ELEVATION
TDD .M        240.8                : tdd          - TOTAL DEPTH DRILLER
RUN .         ONE                  : Run          - RUN NUMBER
ENG .         JO                   : Engineer     - RECORDING ENGINEER
WIT .         TIM                  : Witness      - WITNESSED BY
MUD .         GEL                  : Mud_type     - MUD TYPE
MATR.         SANDSTONE            : Logunit      - NEUTRON MATRIX
TMAX.C        25                   : BHT          - MAXIMUM RECORDED TEMPERATURE
BHTD.M        240.8                : BHTDEP       - MAXIMUM RECORDED TEMPERATURE
RMT .C        15.5                 : MDTP         - TEMPERATURE OF MUD
MUDD.KG/M     1110                 : MWT          - MUD DENSITY
NEUT.         1                    : NEUTRON      - NEUTRON TYPE
RESI.         0                    : RESIST       - RESISTIVITY TYPE
RM  .OHMM     3                    : RM           - RESISTIVITY OF MUD
RMC .OHMM     3                    : RMC          - RESISTIVITY OF MUD CAKE
RMF .OHMM     3                    : RMF          - RESISTIVITY OF MUD FILTRATE
SUFT.C        4                    : SUFT         - SURFACE TEMPERATURE
~A  DEPTH      CAL       GR     PHIN     PHID     RESD
# ...
  219.500  165.880  111.635    0.429    0.145    6.306
  219.750  165.460  103.147    0.425    0.145    6.315
  220.000  165.540   97.894    0.421    0.143    6.440
  220.250  165.681   84.411    0.411    0.139    6.938
  220.500  165.241   75.046    0.386    0.138    8.729
  220.750  164.811   63.616    0.375    0.150    9.576
  221.000  164.902   56.899    0.374    0.186   11.721
  221.250  164.992   54.294    0.378    0.212   13.832
  221.500  165.053   51.112    0.382    0.263   19.962
  221.750  164.643   49.096    0.386    0.288   25.106
  222.000  164.243   48.862    0.381    0.275   29.358
  222.250  164.384   52.146    0.380    0.238   24.723
  222.500  164.414   66.019    0.390    0.175   16.719
  222.750  164.505   80.199    0.396    0.164   11.726
  223.000  164.505   87.602    0.404    0.162   10.816
  223.250  164.645   92.651    0.407    0.148    9.979
  223.500  165.226   93.581    0.408    0.139   10.459
  223.750  165.797   86.864    0.403    0.156   13.161
  224.000  166.388   61.315    0.398    0.192   15.531
  224.250  166.448   45.178    0.399    0.228   18.493
  224.500  166.448   42.297    0.396    0.271   22.842
  224.750  166.629   41.456    0.389    0.289   29.012
  225.000  167.190   41.799    0.387    0.286   36.495
  225.250  167.270   52.437    0.390    0.277   47.615
  225.500  166.871   53.956    0.387    0.274   43.913
  225.750  166.471   54.004    0.394    0.303   33.754
  226.000  166.041   62.595    0.404    0.286   28.157
  226.250  166.142   79.705    0.389    0.252   22.857
  226.500  165.712   90.061    0.380    0.219   18.219
  226.750  165.712   86.285    0.386    0.202   15.200
  227.000  165.423   80.738    0.389    0.189   13.393
  227.250  164.983   80.204    0.384    0.194   12.246
  227.500  164.983   87.024    0.390    0.180   12.488
  227.750  164.693   86.778    0.397    0.155   13.209
  228.000  164.744   82.702    0.397    0.142   15.731
  228.250  164.344   69.801    0.360    0.169   16.487
  228.500  164.485   63.384    0.246    0.295   19.460
  228.750  164.495   61.379    0.217    0.341   23.822
  229.000  163.615   61.127    0.209    0.336   25.656
  229.250  163.205   59.999    0.213    0.326   30.282
  229.500  163.205   59.159    0.232    0.320   31.733
  229.750  162.886   59.507    0.252    0.318   43.739
  230.000  162.456   60.138    0.258    0.318   50.700
  230.250  162.456   60.492    0.267    0.311   51.234
  230.500  163.137   58.764    0.278    0.319   51.765
  230.750  163.688   54.700    0.257    0.337   54.254
  231.000  164.269   52.389    0.228    0.345   58.461
  231.250  164.339   50.384    0.223    0.351   61.273
  231.500  164.420   53.080    0.255    0.339   60.798
  231.750  164.500   61.076    0.268    0.339   55.075
  232.000  164.580   60.548    0.292    0.342   50.785
  232.250  164.671   57.937    0.299    0.325   40.851
  232.500  164.762   55.926    0.328    0.313   40.851
  232.750  164.762   55.680    0.360    0.308   39.876
  233.000  164.912   58.964    0.388    0.303   37.100
  233.250  165.003   61.084    0.400    0.296   32.141
  233.500  165.003   61.721    0.393    0.276   31.571
  233.750  165.184   61.763    0.387    0.258   29.934
  234.000  165.234   61.223    0.391    0.257   29.155
  234.250  165.234   60.683    0.407    0.269   28.444
  234.500  165.435   60.443    0.405    0.266   27.690
  234.750  165.486   57.255    0.398    0.268   26.979
  235.000  166.066   56.427    0.394    0.271   26.979
  235.250  167.117   57.346    0.392    0.230   27.043
  235.500  169.169   61.236    0.371    0.203   27.043
  235.750  169.740   61.273    0.332    0.194   26.639
  236.000  167.369   61.327    0.319    0.188   26.661
  236.250  163.537   63.134    0.311    0.164   26.706
  236.500  159.215   64.077    0.311    0.159   26.987
  236.750  156.354   62.654    0.305    0.159   27.526
  237.000  153.983   62.654    0.283    0.177   29.381
  237.250  152.573   61.874    0.260    0.219   32.226
  237.500  150.692   61.334    0.264    0.260   34.086
  237.750  150.773   61.959    0.256    0.357   35.401
  238.000  150.853   75.845    0.249    0.375   37.443
  238.250  151.914   73.834    0.252    0.386   41.083
  238.500  152.985   69.176    0.258    0.385   33.047
  238.750  154.056   67.747    0.261    0.380   29.390
  239.000  154.127   67.801    0.262    0.374   29.705
  239.250  154.708   70.209    0.263    0.366   27.395
  239.500  154.308   72.022    0.262    0.329   26.696
  239.750  153.888   70.894    0.261    0.299   28.751
  240.000  153.488   68.301    0.262    0.298    7.527
  240.250  153.569   66.278    0.266    0.305    5.944
  240.500  153.649   63.685    0.302    0.306   15.378
  240.750  152.759   64.609    0.353    0.306   84.901
  241.000  152.329   63.487    0.451    0.307  460.104
