~VERSION INFORMATION
 VERS.                 2.0:   CWLS LOG ASCII STANDARD -VERSION 2.0
 WRAP.                  NO:   ONE LINE PER DEPTH STEP
~WELL INFORMATION BLOCK
#MNEM.UNIT           DATA                    DESCRIPTION OF MNEMONIC
#---------    -------------------            -------------------------------
# Generated from Intellog Unique Number	CS_67_68/WELL/737
WELL.         BRASCAN RESOURCES              : Well_name    - WELL
LOC .         00/06-31-068-18W4/0            : Location     - LOCATION
UWI .         00/06-31-068-18W4/0            : Uwi          - UNIQUE WELL ID
ENTR.         SP                             : Entered      - ENTERED BY
SRVC.         SCHLUMBERGER                   : Scn          - SERVICE COMPANY
STRT.M        274.32                         : top_depth    - START DEPTH
STOP.M        517.82                         : bot_depth    - STOP DEPTH
STEP.M        0.25                           : increment    - STEP LENGTH
 NULL. -999.2500:NULL Value
~CURVE INFORMATION BLOCK
#MNEM UNIT       ERCB CURVE CODE    CURVE DESCRIPTION
#-----------   ------------------   ----------------------------------
DEPT.M        00 001 00 00         : DEPTH        - DEPTH
GR  .API      00 310 00 00         : GR           - GAMMA RAY
DPHI.V/V      00 890 00 00         : PHID         - DENSITY POROSITY (SANDSTONE)
NPHI.V/V      00 330 00 00         : PHIN         - NEUTRON POROSITY (SANDSTONE)
ILD .OHMM     00 120 00 00         : RESD         - DEEP RESISTIVITY (DIL)
~PARAMETER INFORMATION
#MNEM.UNIT           DATA             DESCRIPTION OF MNEMONIC
#---------         -----------     ------------------------------
GL  .M        551.993              : gl           - GROUND LEVEL ELEVATION
EREF.M        554.431              : kb           - ELEVATION OF DEPTH REFERENCE
DATM.M        551.993              : datum        - DATUM ELEVATION
TDD .M        525.78               : tdd          - TOTAL DEPTH DRILLER
RUN .         ONE                  : Run          - RUN NUMBER
ENG .         BILL                 : Engineer     - RECORDING ENGINEER
WIT .         JIM                  : Witness      - WITNESSED BY
MUD .         GEL                  : Mud_type     - MUD TYPE
MATR.         SANDSTONE            : Logunit      - NEUTRON MATRIX
TMAX.C        15                   : BHT          - MAXIMUM RECORDED TEMPERATURE
BHTD.M        526.085              : BHTDEP       - MAXIMUM RECORDED TEMPERATURE
MATR.         1                    : LOGUNIT      - NEUTRON MATRIX
RMT .C        25                   : MDTP         - TEMPERATURE OF MUD
NEUT.         1                    : NEUTRON      - NEUTRON TYPE
RESI.         0                    : RESIST       - RESISTIVITY TYPE
RMC .OHMM     0.25                 : RMC          - RESISTIVITY OF MUD CAKE
RMF .OHMM     0.25                 : RMF          - RESISTIVITY OF MUD FILTRATE
SUFT.C        15                   : SUFT         - SURFACE TEMPERATURE
~A  DEPTH       GR     PHID     PHIN     RESD
# ...
  361.320   71.877    0.308    0.452    6.699
  361.570   72.705    0.301    0.452    6.060
  361.820   74.276    0.295    0.476    5.160
  362.070   75.319    0.298    0.488    4.592
  362.320   75.560    0.293    0.495    4.270
  362.570   75.471    0.286    0.487    4.041
  362.820   75.011    0.288    0.477    3.958
  363.070   79.331    0.303    0.474    3.949
  363.320   84.537    0.292    0.474    4.009
  363.570   89.252    0.265    0.480    4.057
  363.820   92.467    0.234    0.482    4.105
  364.070   94.793    0.216    0.484    4.108
  364.320   94.748    0.205    0.495    4.077
  364.570   96.485    0.209    0.503    4.037
  364.820   99.129    0.207    0.509    4.027
  365.070   99.555    0.187    0.511    4.057
  365.320   98.699    0.204    0.502    4.114
  365.570   95.853    0.221    0.505    4.252
  365.820   93.403    0.226    0.504    4.459
  366.070   91.809    0.244    0.492    4.535
  366.320   92.612    0.236    0.486    4.464
  366.570   96.705    0.221    0.485    4.341
  366.820  100.290    0.201    0.489    4.225
  367.070  102.801    0.197    0.496    4.122
  367.320  104.096    0.190    0.501    3.993
  367.570  104.141    0.191    0.486    3.747
  367.820  104.929    0.206    0.495    3.597
  368.070  106.802    0.200    0.523    3.478
  368.320  106.942    0.206    0.544    3.706
  368.570  105.888    0.230    0.569    3.895
  368.820  104.193    0.223    0.553    4.238
  369.070  105.300    0.205    0.507    4.493
  369.320  105.944    0.222    0.500    4.539
  369.570  104.671    0.206    0.489    4.704
  369.820  100.993    0.190    0.482    4.882
  370.070   96.770    0.209    0.483    4.994
  370.320   90.903    0.217    0.490    4.838
  370.570   87.054    0.215    0.494    4.182
  370.820   81.711    0.213    0.500    3.628
  371.070   75.487    0.219    0.509    3.120
  371.320   67.071    0.245    0.483    2.956
  371.570   56.536    0.279    0.450    2.730
  371.820   52.571    0.315    0.444    2.634
  372.070   54.742    0.303    0.448    2.677
  372.320   53.352    0.298    0.446    2.692
  372.570   50.521    0.299    0.442    2.732
  372.820   52.071    0.307    0.440    2.747
  373.070   54.138    0.318    0.446    2.741
  373.320   54.947    0.328    0.459    2.728
  373.570   53.893    0.336    0.456    2.704
  373.820   52.262    0.327    0.444    2.688
  374.070   52.859    0.320    0.435    2.672
  374.320   53.802    0.316    0.439    2.661
  374.570   54.631    0.313    0.449    2.636
  374.820   55.300    0.316    0.454    2.620
  375.070   55.729    0.317    0.451    2.615
  375.320   55.438    0.309    0.449    2.608
  375.570   54.812    0.307    0.451    2.598
  375.820   54.634    0.314    0.458    2.582
  376.070   55.088    0.323    0.452    2.562
  376.320   56.077    0.320    0.443    2.559
  376.570   56.025    0.314    0.436    2.563
  376.820   54.972    0.310    0.430    2.574
  377.070   55.811    0.304    0.430    2.583
  377.320   57.842    0.291    0.432    2.587
  377.570   59.077    0.304    0.431    2.590
  377.820   59.587    0.314    0.436    2.587
  378.070   59.543    0.323    0.433    2.575
  378.320   60.551    0.323    0.430    2.567
  378.570   61.447    0.309    0.440    2.559
  378.820   61.733    0.298    0.447    2.560
  379.070   62.014    0.286    0.450    2.560
  379.320   61.803    0.293    0.449    2.564
  379.570   61.339    0.312    0.448    2.576
  379.820   61.636    0.324    0.431    2.597
  380.070   62.864    0.328    0.423    2.629
  380.320   64.483    0.331    0.437    2.665
  380.570   66.152    0.323    0.451    2.728
  380.820   67.018    0.313    0.469    2.816
  381.070   67.561    0.311    0.477    2.922
  381.320   67.146    0.311    0.480    3.084
  381.570   68.306    0.304    0.485    3.262
  381.820   70.298    0.302    0.484    3.455
  382.070   73.426    0.317    0.478    3.558
  382.320   74.919    0.287    0.472    3.587
  382.570   75.691    0.271    0.476    3.456
  382.820   75.697    0.283    0.470    3.366
  383.070   75.297    0.293    0.463    3.353
  383.320   75.467    0.298    0.462    3.391
  383.570   76.177    0.304    0.470    3.464
  383.820   77.113    0.298    0.482    3.501
  384.070   77.504    0.301    0.500    3.486
  384.320   77.572    0.283    0.503    3.434
  384.570   77.341    0.281    0.492    3.393
  384.820   76.320    0.276    0.473    3.376
  385.070   75.975    0.281    0.470    3.394
  385.320   75.937    0.295    0.474    3.443
  385.570   76.606    0.299    0.475    3.489
  385.820   78.853    0.292    0.472    3.527
  386.070   81.468    0.284    0.458    3.554
  386.320   83.594    0.265    0.468    3.517
  386.570   79.850    0.247    0.485    3.348
  386.820   75.712    0.248    0.499    3.203
  387.070   71.906    0.267    0.496    3.040
  387.320   67.864    0.278    0.491    2.856
  387.570   64.744    0.279    0.476    2.727
  387.820   62.728    0.298    0.459    2.637
  388.070   61.525    0.315    0.461    2.611
  388.320   60.501    0.305    0.454    2.616
  388.570   60.396    0.281    0.462    2.650
  388.820   62.748    0.288    0.469    2.667
  389.070   65.430    0.302    0.478    2.697
  389.320   65.845    0.291    0.463    2.743
  389.570   65.094    0.304    0.450    2.792
  389.820   64.129    0.322    0.451    2.881
  390.070   64.782    0.306    0.456    3.012
  390.320   66.891    0.302    0.453    3.135
  390.570   72.695    0.299    0.454    3.280
  390.820   79.472    0.289    0.472    3.437
  391.070   87.272    0.276    0.490    3.588
  391.320   93.102    0.264    0.516    3.750
  391.570   96.293    0.248    0.527    3.889
  391.820   94.327    0.237    0.517    3.933
  392.070   89.485    0.256    0.504    3.938
  392.320   81.788    0.288    0.490    3.905
  392.570   77.882    0.293    0.489    3.860
  392.820   74.347    0.295    0.472    3.782
  393.070   72.493    0.286    0.454    3.674
  393.320   71.473    0.282    0.456    3.574
  393.570   71.969    0.282    0.460    3.092
  393.820   72.706    0.294    0.456    3.044
  394.070   71.933    0.283    0.457    2.944
  394.320   71.530    0.275    0.463    2.836
  394.570   70.853    0.274    0.456    2.775
  394.820   69.753    0.289    0.470    2.734
  395.070   70.027    0.297    0.479    2.733
  395.320   70.195    0.307    0.475    2.775
  395.570   70.365    0.298    0.466    2.803
  395.820   70.575    0.293    0.457    2.897
  396.070   70.376    0.303    0.456    2.973
  396.320   71.283    0.298    0.459    3.124
  396.570   74.155    0.295    0.453    3.254
  396.820   76.624    0.281    0.460    3.381
  397.070   77.730    0.265    0.463    3.490
  397.320   77.285    0.257    0.453    3.528
  397.570   76.788    0.265    0.444    3.527
  397.820   76.519    0.271    0.440    3.287
  398.070   77.214    0.270    0.460    3.298
  398.320   79.199    0.284    0.484    3.337
  398.570   78.132    0.277    0.502    3.402
  398.820   76.632    0.268    0.488    3.474
  399.070   75.751    0.260    0.473    3.493
  399.320   75.684    0.256    0.456    3.444
  399.570   76.452    0.251    0.464    3.404
  399.820   77.286    0.255    0.475    3.410
  400.070   77.250    0.264    0.482    3.484
  400.320   77.268    0.259    0.481    3.542
  400.570   79.440    0.268    0.487    3.494
  400.820   84.478    0.271    0.494    3.409
  401.070   89.601    0.273    0.492    3.327
  401.320   94.627    0.282    0.485    3.263
  401.570   98.678    0.252    0.487    3.217
  401.820  100.663    0.223    0.497    3.241
  402.070   99.311    0.215    0.506    3.405
  402.320   93.214    0.251    0.507    3.639
  402.570   90.288    0.236    0.498    3.874
  402.820   89.224    0.212    0.488    4.030
  403.070   86.316    0.242    0.458    4.119
  403.320   84.151    0.221    0.461    4.119
  403.570   84.794    0.229    0.467    3.992
  403.820   86.610    0.245    0.481    3.819
  404.070   83.989    0.257    0.500    3.642
  404.320   80.624    0.260    0.511    3.501
  404.570   78.717    0.264    0.498    3.382
