~VERSION INFORMATION
 VERS.                 2.0:   CWLS LOG ASCII STANDARD -VERSION 2.0
 WRAP.                  NO:   ONE LINE PER DEPTH STEP
~WELL INFORMATION BLOCK
#MNEM.UNIT           DATA                    DESCRIPTION OF MNEMONIC
#---------    -------------------            -------------------------------
# Generated from Intellog Unique Number	CS_69_70/WELL/769
WELL.         INTER-CITY CITY GAS            : Well_name    - WELL
LOC .         00/06-08-070-16W4/0            : Location     - LOCATION
UWI .         00/06-08-070-16W4/0            : Uwi          - UNIQUE WELL ID
ENTR.         SP                             : Entered      - ENTERED BY
SRVC.         SCHLUMBERGER                   : Scn          - SERVICE COMPANY
STRT.M        285                            : top_depth    - START DEPTH
STOP.M        485                            : bot_depth    - STOP DEPTH
STEP.M        0.25                           : increment    - STEP LENGTH
 NULL. -999.2500:NULL Value
~CURVE INFORMATION BLOCK
#MNEM UNIT       ERCB CURVE CODE    CURVE DESCRIPTION
#-----------   ------------------   ----------------------------------
DEPT.M        00 001 00 00         : DEPTH        - DEPTH
ILD .OHMM     00 120 00 00         : RESD         - DEEP RESISTIVITY (DIL)
DPHI.V/V      00 890 00 00         : PHID         - DENSITY POROSITY (LIMESTONE)
NPHI.V/V      00 330 00 00         : PHIN         - NEUTRON POROSITY (LIMESTONE)
GR  .API      00 310 00 00         : GR           - GAMMA RAY
~PARAMETER INFORMATION
#MNEM.UNIT           DATA             DESCRIPTION OF MNEMONIC
#---------         -----------     ------------------------------
GL  .M        569.4                : gl           - GROUND LEVEL ELEVATION
EREF.M        573                  : kb           - ELEVATION OF DEPTH REFERENCE
DATM.M        569.4                : datum        - DATUM ELEVATION
TDD .M        493.5                : tdd          - TOTAL DEPTH DRILLER
RUN .         ONE                  : Run          - RUN NUMBER
ENG .         BILL                 : Engineer     - RECORDING ENGINEER
WIT .         JIM                  : Witness      - WITNESSED BY
MUD .         GEL                  : Mud_type     - MUD TYPE
MATR.         LIMESTONE            : Logunit      - NEUTRON MATRIX
TMAX.C        22.5                 : BHT          - MAXIMUM RECORDED TEMPERATURE
BHTD.M        493.5                : BHTDEP       - MAXIMUM RECORDED TEMPERATURE
MATR.         1                    : LOGUNIT      - NEUTRON MATRIX
RMT .C        25                   : MDTP         - TEMPERATURE OF MUD
NEUT.         1                    : NEUTRON      - NEUTRON TYPE
RESI.         0                    : RESIST       - RESISTIVITY TYPE
RMC .OHMM     0.25                 : RMC          - RESISTIVITY OF MUD CAKE
RMF .OHMM     0.25                 : RMF          - RESISTIVITY OF MUD FILTRATE
SUFT.C        15                   : SUFT         - SURFACE TEMPERATURE
~A  DEPTH     RESD     PHID     PHIN       GR
# ...
  415.500    3.610    0.222    0.421   82.327
  415.750    3.112    0.223    0.424   85.358
  416.000    2.831    0.229    0.460   89.658
  416.250    2.760    0.234    0.502   94.441
  416.500    2.769    0.238    0.549   98.984
  416.750    2.787    0.233    0.538  101.591
  417.000    2.845    0.216    0.533  100.209
  417.250    2.935    0.214    0.517  101.366
  417.500    2.978    0.221    0.508  102.342
  417.750    2.995    0.230    0.502  101.748
  418.000    2.987    0.225    0.520  100.487
  418.250    2.965    0.214    0.533   99.951
  418.500    2.902    0.216    0.545   99.296
  418.750    2.838    0.225    0.554   96.464
  419.000    2.767    0.233    0.554   97.439
  419.250    2.705    0.238    0.551   99.261
  419.500    2.698    0.230    0.559  100.539
  419.750    2.756    0.226    0.554   99.944
  420.000    2.870    0.221    0.535   97.356
  420.250    3.073    0.216    0.520   96.275
  420.500    3.195    0.208    0.511   94.773
  420.750    3.277    0.207    0.517   93.151
  421.000    3.351    0.212    0.501   90.137
  421.250    3.433    0.221    0.487   86.822
  421.500    3.564    0.228    0.479   84.836
  421.750    3.879    0.218    0.467   83.272
  422.000    4.211    0.175    0.434   81.410
  422.250    4.575    0.127    0.373   80.392
  422.500    4.714    0.139    0.350   80.459
  422.750    4.764    0.148    0.360   83.006
  423.000    4.805    0.161    0.384   85.797
  423.250    4.968    0.191    0.426   87.618
  423.500    5.227    0.201    0.444   88.896
  423.750    5.632    0.209    0.462   88.480
  424.000    6.198    0.227    0.462   80.693
  424.250    6.618    0.242    0.448   72.905
  424.500    6.773    0.272    0.440   71.826
  424.750    6.541    0.260    0.439   72.258
  425.000    6.276    0.247    0.445   73.960
  425.250    5.745    0.230    0.451   75.539
  425.500    5.279    0.204    0.450   77.300
  425.750    4.950    0.174    0.454   79.549
  426.000    4.774    0.161    0.461   80.643
  426.250    4.687    0.173    0.456   82.165
  426.500    4.632    0.189    0.449   83.139
  426.750    4.601    0.195    0.441   84.359
  427.000    4.683    0.183    0.429   84.848
  427.250    4.822    0.173    0.410   86.309
  427.500    5.000    0.159    0.402   87.587
  427.750    5.099    0.152    0.399   86.265
  428.000    5.100    0.142    0.401   83.494
  428.250    5.094    0.154    0.404   83.441
  428.500    5.103    0.163    0.413   85.204
  428.750    5.137    0.149    0.419   86.240
  429.000    5.186    0.143    0.412   87.458
  429.250    5.196    0.144    0.401   88.010
  429.500    5.157    0.153    0.395   89.287
  429.750    4.989    0.171    0.394   91.412
  430.000    4.773    0.180    0.397   92.872
  430.250    4.645    0.180    0.399   93.847
  430.500    4.646    0.190    0.404   91.741
  430.750    4.737    0.169    0.410   89.938
  431.000    4.883    0.144    0.416   87.770
  431.250    5.175    0.129    0.426   84.756
  431.500    5.813    0.114    0.433   80.112
  431.750    6.830    0.119    0.440   77.099
  432.000    7.807    0.118    0.443   74.327
  432.250    8.711    0.100    0.332   69.863
  432.500    9.108    0.125    0.330   69.751
  432.750    8.900    0.152    0.343   72.057
  433.000    8.458    0.162    0.379   73.516
  433.250    7.774    0.132    0.377   69.838
  433.500    6.469    0.096    0.366   71.297
  433.750    5.503    0.165    0.360   75.115
  434.000    4.876    0.179    0.369   77.963
  434.250    4.611    0.181    0.390   80.995
  434.500    4.363    0.167    0.426   83.602
  434.750    3.977    0.153    0.424   86.452
  435.000    3.511    0.165    0.422   88.817
  435.250    2.972    0.186    0.420   91.669
  435.500    2.563    0.198    0.419   93.612
  435.750    2.306    0.212    0.432   94.887
  436.000    2.170    0.227    0.474   96.408
  436.250    2.341    0.222    0.502   96.295
  436.500    2.770    0.213    0.494   93.947
  436.750    3.086    0.202    0.504   89.545
  437.000    3.756    0.181    0.481   84.779
  437.250    4.773    0.169    0.448   80.797
  437.500    5.815    0.155    0.416   76.576
  437.750    6.340    0.140    0.368   71.871
  438.000    6.608    0.104    0.308   65.594
  438.250    6.673    0.039    0.272   61.976
  438.500    6.651    0.078    0.288   63.073
  438.750    6.402    0.132    0.331   69.307
  439.000    6.654    0.166    0.363   75.359
  439.250    7.469    0.144    0.390   77.303
  439.500    8.067    0.093    0.394   72.115
  439.750    8.359    0.060    0.374   67.408
  440.000    8.312    0.041    0.299   59.620
  440.250    7.886    0.034    0.260   57.816
  440.500    7.065    0.073    0.304   69.550
  440.750    6.059    0.116    0.336   84.850
  441.000    5.456    0.151    0.367   87.518
  441.250    5.062    0.161    0.401   87.647
  441.500    4.846    0.152    0.408   86.085
  441.750    4.710    0.147    0.400   87.121
  442.000    4.591    0.141    0.401   89.184
  442.250    4.503    0.167    0.409   91.491
  442.500    4.432    0.161    0.417   92.950
  442.750    4.345    0.152    0.422   93.502
  443.000    4.258    0.143    0.425   95.143
  443.250    4.195    0.130    0.430   96.300
  443.500    4.148    0.114    0.439   94.738
  443.750    4.045    0.086    0.432   91.120
  444.000    3.981    0.120    0.426   90.403
  444.250    3.934    0.133    0.436   93.616
  444.500    3.863    0.143    0.446   96.286
  444.750    3.793    0.160    0.456   97.138
  445.000    3.890    0.171    0.464   92.917
  445.250    3.908    0.184    0.461   91.113
  445.500    3.941    0.153    0.447   92.390
  445.750    3.967    0.140    0.434   94.152
  446.000    4.033    0.160    0.431   92.408
  446.250    4.083    0.177    0.451   90.000
  446.500    4.100    0.156    0.448   88.799
  446.750    4.102    0.131    0.430   90.803
  447.000    4.103    0.110    0.419   94.800
  447.250    4.073    0.136    0.408   97.831
  447.500    4.025    0.175    0.414   97.901
  447.750    3.825    0.176    0.426   97.971
  448.000    3.649    0.177    0.435   99.611
  448.250    3.457    0.190    0.444  101.676
  448.500    3.378    0.196    0.461  103.800
  448.750    3.428    0.175    0.474  105.499
  449.000    3.510    0.154    0.478  104.843
  449.250    3.648    0.138    0.478   99.657
  449.500    3.641    0.117    0.478   96.642
  449.750    3.474    0.092    0.399   92.964
  450.000    3.282    0.150    0.420   95.389
  450.250    3.001    0.167    0.438  102.530
  450.500    2.713    0.174    0.459  106.649
  450.750    2.698    0.184    0.474  108.471
  451.000    2.836    0.178    0.480  108.480
  451.250    3.652    0.175    0.482  105.346
  451.500    5.040    0.167    0.490   98.041
  451.750    6.766    0.151    0.395   88.804
  452.000    9.251    0.073    0.373   81.440
  452.250   11.807    0.045    0.343   72.563
  452.500   13.986    0.031    0.295   63.022
  452.750   16.664    0.040    0.274   60.372
  453.000   18.777    0.048    0.230   57.238
  453.250   20.004    0.057    0.203   51.747
  453.500   20.521    0.090    0.192   48.371
  453.750   20.628    0.118    0.198   49.106
  454.000   19.726    0.143    0.259   50.385
  454.250   17.785    0.176    0.304   51.782
  454.500   15.609    0.222    0.340   53.968
  454.750   14.813    0.236    0.357   54.700
  455.000   14.403    0.241    0.367   55.194
  455.250   14.114    0.236    0.377   55.264
  455.500   13.890    0.233    0.386   56.904
  455.750   13.690    0.225    0.395   58.544
  456.000   13.489    0.215    0.400   60.065
  456.250   13.274    0.208    0.380   60.798
  456.500   13.146    0.200    0.363   61.049
  456.750   12.970    0.191    0.355   61.964
  457.000   12.576    0.193    0.365   61.973
  457.250   12.021    0.182    0.379   60.652
  457.500   11.322    0.176    0.385   60.721
  457.750   10.605    0.173    0.381   61.757
  458.000   10.002    0.156    0.371   65.695
  458.250    9.463    0.138    0.365   69.088
  458.500    8.949    0.143    0.362   72.422
  458.750    8.547    0.157    0.357   76.965
