~VERSION INFORMATION
 VERS.                 2.0:   CWLS LOG ASCII STANDARD -VERSION 2.0
 WRAP.                  NO:   ONE LINE PER DEPTH STEP
~WELL INFORMATION BLOCK
#MNEM.UNIT           DATA                    DESCRIPTION OF MNEMONIC
#---------    -------------------            -------------------------------
# Generated from Intellog Unique Number	CW_70_72/WELL/3300
NULL.         -999.25                        : NULL_VALUE
WELL.         CALSTAN SOBC MITSUE            : Well_name    - WELL              
LOC .         04-03-072-04W5                 : Location     - LOCATION          
UWI .         00/04-03-072-04W5/0            : Uwi          - UNIQUE WELL ID    
ENTR.         Campbell                       : Entered      - ENTERED BY        
SRVC.         SCHLUMBERGER                   : Scn          - SERVICE COMPANY   
DATE.         24 JULY 1965                   : Date         - LOG DATE          
STRT.M        621.792                        : top_depth    - START DEPTH       
STOP.M        765.042                        : bot_depth    - STOP DEPTH        
STEP.M        0.25                           : increment    - STEP LENGTH       
~CURVE INFORMATION BLOCK
#MNEM UNIT       ERCB CURVE CODE    CURVE DESCRIPTION
#-----------   ------------------   ----------------------------------
DEPT.M        00 001 00 00         : DEPTH        - DEPTH                       
DELT.US/F     00 520 00 00         : DELT         - SONIC TRAVEL TIME           
ILD .OHMM     00 120 00 00         : RESD         - DEEP RESISTIVITY (DIL)      
GR  .API      00 310 00 00         : GR           - GAMMA RAY                   
~PARAMETER INFORMATION       
#MNEM.UNIT           DATA             DESCRIPTION OF MNEMONIC
#---------         -----------     ------------------------------
GL  .M        739.597              : gl           - GROUND LEVEL ELEVATION      
EREF.M        744.626              : kb           - ELEVATION OF DEPTH REFERENCE
DATM.M        744.626              : datum        - DATUM ELEVATION             
TDD .M        1815.08              : tdd          - TOTAL DEPTH DRILLER         
RUN .         ONE                  : Run          - RUN NUMBER                  
ENG .         WOOLLAM              : Engineer     - RECORDING ENGINEER          
WIT .         CHANT                : Witness      - WITNESSED BY                
MUD .         GEL                  : Mud_type     - MUD TYPE                    
MATR.         SANDSTONE            : Logunit      - NEUTRON MATRIX              
TMAX.C        51.1111              : BHT          - MAXIMUM RECORDED TEMPERATURE
BHTD.M        1815.08              : BHTDEP       - MAXIMUM RECORDED TEMPERATURE
RMT .C        21.1111              : MDTP         - TEMPERATURE OF MUD          
MUDD.KG/M     10000                : MWT          - MUD DENSITY                 
NEUT.         1                    : NEUTRON      - NEUTRON TYPE                
RESI.         0                    : RESIST       - RESISTIVITY TYPE            
RM  .OHMM     1.9                  : RM           - RESISTIVITY OF MUD          
RMC .OHMM     2                    : RMC          - RESISTIVITY OF MUD CAKE     
RMF .OHMM     1.5                  : RMF          - RESISTIVITY OF MUD FILTRATE 
SUFT.C        20                   : SUFT         - SURFACE TEMPERATURE         
~A  DEPTH     DELT     RESD       GR
# ...
  676.042  336.732    9.484   54.041
  676.292  339.605    8.997   55.933
  676.542  336.987    8.706   57.355
  676.792  328.861    8.610   57.602
  677.042  319.445    8.515   55.268
  677.292  335.263    8.810   54.340
  677.542  334.582    8.519   56.468
  677.792  348.459    8.032   56.717
  678.042  363.953    7.447   55.086
  678.292  370.709    7.156   56.975
  678.542  370.998    6.767   58.634
  678.792  366.434    6.965   58.647
  679.042  362.518    7.358   58.658
  679.292  355.362    7.752   58.439
  679.542  346.917    8.341   57.982
  679.792  346.878    9.028   56.584
  680.042  350.403    9.715   54.955
  680.292  348.751   10.403   54.263
  680.542  353.565   10.405   49.580
  680.792  363.236   10.113   48.888
  681.042  363.849    9.724   49.608
  681.292  365.105    9.531   48.916
  681.542  366.688    9.337   50.574
  681.792  369.242    8.752   51.994
  682.042  372.762    7.679   55.059
  682.292  369.497    7.289   56.951
  682.542  360.724    6.704   58.608
  682.792  350.984    6.511   60.499
  683.042  339.946    6.415   57.695
  683.292  347.353    5.733   55.596
  683.542  349.579    5.442   54.436
  683.792  347.604    5.346   53.042
  684.042  359.540    5.348   52.347
  684.292  361.123    5.644   53.535
  684.542  355.589    5.841   55.426
  684.792  351.021    6.039   52.623
  685.042  349.370    6.238   51.225
  685.292  349.974    6.435   50.535
  685.542  354.473    6.535   50.314
  685.792  353.136    6.635   50.325
  686.042  353.111    6.735   50.807
  686.292  353.396    7.031   54.578
  686.542  354.009    7.229   57.174
  686.792  355.915    7.525   59.536
  687.042  352.965    7.429   60.489
  687.292  352.931    7.040   60.034
  687.542  357.103    6.847   59.106
  687.792  356.421    6.751   60.997
  688.042  351.854    6.753   62.888
  688.292  349.546    6.462   63.843
  688.542  346.605    6.171   65.264
  688.792  342.365    5.978   66.922
  689.042  323.562    5.979   67.872
  689.292  305.731    6.080   69.293
  689.542  338.052    6.277   68.838
  689.792  337.690    5.986   68.148
  690.042  336.686    5.205   67.691
  690.292  336.328    4.817   66.999
  690.542  353.440    4.623   68.186
  690.792  355.023    4.234   71.722
  691.042  351.750    4.138   68.917
  691.292  358.833    4.141   67.757
  691.542  341.648    4.241   67.768
  691.792  335.144    4.244   67.784
  692.042  330.576    4.343   69.439
  692.292  365.809    4.443   72.035
  692.542  377.098    4.445   73.224
  692.792  366.711    4.545   69.948
  693.042  350.821    4.841   67.142
  693.292  344.635    4.941   65.515
  693.542  366.928    5.237   64.823
  693.792  373.041    5.337   65.305
  694.042  278.846    5.534   63.907
  694.292  277.190    5.534   62.043
  694.542  339.927    5.149   65.578
  694.792  352.190    4.758   71.697
  695.042  364.450    3.880   69.832
  695.292  369.264    3.784   67.730
  695.542  364.701    3.591   64.692
  695.792  357.549    3.593   67.992
  696.042  352.011    3.596   71.763
  696.292  362.006    3.696   71.541
  696.542  352.262    3.796   70.379
  696.792  358.374    3.895   70.392
  697.042  363.516    3.895   70.173
  697.292  356.365    3.998   69.245
  697.542  347.915    4.098   67.614
  697.792  331.053    4.100   69.038
  698.042  305.134    4.102   69.990
  698.292  343.926    4.104   72.351
  698.542  311.531    4.107   70.954
  698.792  274.608    3.914   67.210
  699.042  327.315    3.818   64.642
  699.292  375.817    3.820   67.237
  699.542  346.011    3.822   70.537
  699.792  321.385    3.531   72.195
  700.042  296.112    3.435   72.444
  700.292  335.551    3.437   71.281
  700.542  374.986    3.441   70.591
  700.792  368.482    3.540   70.840
  701.042  374.275    3.835   70.616
  701.292  343.498    4.132   69.221
  701.542  331.813    4.329   66.183
  701.792  344.724    4.527   65.022
  702.042  338.862    4.334   64.566
  702.292  334.618    4.043   64.341
  702.542  307.728    3.751   66.237
  702.792  298.631    3.852   67.420
  703.042  353.603    3.951   69.312
  703.292  372.660    3.464   70.499
  703.542  356.123    2.880   71.686
  703.792  342.496    2.686   69.587
  704.042  360.256    2.688   68.895
  704.292  373.490    2.691   68.907
  704.542  355.658    2.693   67.043
  704.792  332.322    2.695   66.352
  705.042  342.317    2.599   66.129
  705.292  362.021    2.503   63.090
  705.542  375.251    2.701   61.695
  705.792  400.132    3.095   63.586
  706.042  444.424    3.391   65.947
  706.292  434.033    3.785   63.613
  706.542  444.356    4.276   60.340
  706.792  417.138    4.768   58.239
  707.042  402.864    5.357   59.193
  707.292  392.154    6.142   59.204
  707.542  377.234    6.926   56.635
  707.792  368.461    7.320   56.179
  708.042  361.952    7.518   56.897
  708.292  355.771    7.520   57.379
  708.542  345.380    7.229   59.035
  708.792  331.430    6.644   61.162
  709.042  363.105    6.157   59.295
  709.292  383.780    5.866   59.544
  709.542  379.212    6.161   57.209
  709.792  368.498    6.555   54.404
  710.042  360.052    7.047   51.365
  710.292  362.929    7.734   55.371
  710.542  362.240    8.127   58.435
  710.792  361.563    8.325   57.744
  711.042  359.583    8.425   54.470
  711.292  362.137    8.525   51.430
  711.542  359.515    8.626   49.564
  711.792  352.682    8.726   50.752
  712.042  348.119    8.923   51.000
  712.292  350.349    9.023   51.953
  712.542  347.076    9.221   51.027
  712.792  316.950    9.517   50.335
  713.042  292.644   10.107   49.410
  713.292  278.371   10.696   46.606
  713.542  261.509   11.481   46.383
  713.792  243.677   12.657   46.162
  714.042  239.114   13.833   44.767
  714.292  229.047   14.912   44.545
  714.542  364.911   14.914   42.914
  714.792  384.615   14.427   43.631
  715.042  377.136   13.646   41.767
  715.292  274.206   12.279   42.014
  715.542  218.515   11.890   42.966
  715.792  200.036   11.990   41.806
  716.042  239.798   12.775   42.287
  716.292  294.447   13.462   47.232
  716.542  318.034   13.855   51.236
  716.792  345.179   12.586   54.066
  717.042  362.938   11.316   55.255
  717.292  365.169   10.242   57.615
  717.542  358.660    8.776   57.864
  717.792  358.945    7.605   55.764
  718.042  357.940    7.020   58.124
  718.292  357.906    6.728   57.201
  718.542  357.548    6.535   55.333
  718.792  361.068    6.537   54.642
  719.042  361.039    6.540   54.185
  719.292  359.706    6.737   53.731
  719.542  357.084    7.033   53.507
  719.792  352.835    7.231   53.991
  720.042  350.217    7.429   54.475
  720.292  346.620    7.627   52.844
  720.542  353.052    7.825   50.272
  720.792  353.669    8.023   47.468
  721.042  350.076    8.318   47.481
  721.292  348.420    8.810   49.843
  721.542  355.503    8.910   51.736
  721.792  359.028    9.010   52.217
  722.042  358.989    9.012   51.760
  722.292  357.014    8.917   51.542
  722.542  359.564    8.626   50.847
  722.792  357.269    8.530   49.920
  723.042  352.054    8.141   47.352
  723.292  351.697    8.045   49.010
  723.542  356.192    7.754   47.612
  723.792  357.443    7.560   52.792
  724.042  352.556    7.367   50.691
  724.292  356.085    7.075   52.582
  724.542  359.605    7.077   54.241
  724.792  356.012    6.884   53.078
  725.042  349.827    6.789   52.623
  725.292  342.999    6.791   49.115
  725.542  336.809    6.793   49.596
  725.792  343.250    6.795   51.019
  726.042  353.568    6.797   54.084
  726.292  354.824    6.897   56.210
  726.542  358.999    6.802   56.457
  726.792  362.200    6.706   56.941
  727.042  366.691    6.513   57.658
  727.292  360.182    6.417   58.142
  727.542  350.766    6.419   57.452
  727.792  343.938    6.617   58.403
  728.042  334.841    6.815   57.005
  728.292  342.895    7.111   55.376
  728.542  343.180    7.309   54.921
  728.792  341.856    7.507   54.699
  729.042  345.376    7.215   53.773
  729.292  348.254    7.022   52.611
  729.542  350.484    6.926   47.694
  729.792  353.038    6.537   51.698
  730.042  350.088    6.442   52.417
