~VERSION INFORMATION
 VERS.                 2.0:   CWLS LOG ASCII STANDARD -VERSION 2.0
 WRAP.                  NO:   ONE LINE PER DEPTH STEP
~WELL INFORMATION BLOCK
#MNEM.UNIT           DATA                    DESCRIPTION OF MNEMONIC
#---------    -------------------            -------------------------------
# Generated from Intellog Unique Number	CW_76_78/WELL/529
WELL.         CHIEFCO RR ET AL PELICAN 06-21 : Well_name    - WELL
LOC .         00/06-21-077-22W4/0            : Location     - LOCATION
UWI .         00/06-21-077-22W4/0            : Uwi          - UNIQUE WELL ID
ENTR.         jj                             : Entered      - ENTERED BY
SRVC.         SCHLUMBERGER                   : Scn          - SERVICE COMPANY
DATE.         24 FEB 1973                    : Date         - LOG DATE
STRT.M        377.952                        : top_depth    - START DEPTH
STOP.M        600.452                        : bot_depth    - STOP DEPTH
STEP.M        0.25                           : increment    - STEP LENGTH
 NULL. -999.2500:NULL Value
~CURVE INFORMATION BLOCK
#MNEM UNIT       ERCB CURVE CODE    CURVE DESCRIPTION
#-----------   ------------------   ----------------------------------
DEPT.M        00 001 00 00         : DEPTH        - DEPTH
ILD .OHMM     00 120 00 00         : RESD         - DEEP RESISTIVITY (DIL)
NPHI.V/V      00 330 00 00         : PHIN         - NEUTRON POROSITY (SANDSTONE)
DPHI.V/V      00 890 00 00         : PHID         - DENSITY POROSITY (SANDSTONE)
GR  .API      00 310 00 00         : GR           - GAMMA RAY
CALI.MM       00 280 01 00         : CAL          - CALIPER
~PARAMETER INFORMATION
#MNEM.UNIT           DATA             DESCRIPTION OF MNEMONIC
#---------         -----------     ------------------------------
GL  .M        701.954              : gl           - GROUND LEVEL ELEVATION
EREF.M        704.088              : kb           - ELEVATION OF DEPTH REFERENCE
DATM.M        701.954              : datum        - DATUM ELEVATION
TDD .M        601.066              : tdd          - TOTAL DEPTH DRILLER
RUN .         ONE                  : Run          - RUN NUMBER
ENG .         XXXXX                : Engineer     - RECORDING ENGINEER
WIT .         XXXXX                : Witness      - WITNESSED BY
BASE.         EDMONTON             : Branch       - HOME BASE OF LOGGING UNIT
MUD .         GEL CHEM             : Mud_type     - MUD TYPE
MATR.         SANDSTONE            : Logunit      - NEUTRON MATRIX
TMAX.C        20                   : BHT          - MAXIMUM RECORDED TEMPERATURE
BHTD.M        598.932              : BHTDEP       - MAXIMUM RECORDED TEMPERATURE
RMT .C        15.5556              : MDTP         - TEMPERATURE OF MUD
MUDD.KG/M     1080                 : MWT          - MUD DENSITY
NEUT.         1                    : NEUTRON      - NEUTRON TYPE
RESI.         0                    : RESIST       - RESISTIVITY TYPE
RM  .OHMM     3.57                 : RM           - RESISTIVITY OF MUD
RMC .OHMM     2.5                  : RMC          - RESISTIVITY OF MUD CAKE
RMF .OHMM     3.51                 : RMF          - RESISTIVITY OF MUD FILTRATE
SUFT.C        4.5                  : SUFT         - SURFACE TEMPERATURE
~A  DEPTH     RESD     PHIN     PHID       GR      CAL
# ...
  560.452   18.973    0.371    0.236   73.894  161.713
  560.702   16.889    0.359    0.207   77.841  161.649
  560.952   13.043    0.358    0.191   84.027  161.698
  561.202    9.817    0.366    0.183   91.596  161.241
  561.452    7.375    0.395    0.151  101.154  161.075
  561.702    5.643    0.438    0.161  106.793  161.151
  561.952    4.797    0.450    0.152   92.944  161.269
  562.202    5.476    0.390    0.129   81.510  161.533
  562.452    5.862    0.327    0.120   72.849  161.669
  562.702    7.326    0.306    0.145   65.093  161.620
  562.952    8.857    0.274    0.202   63.373  160.745
  563.202   12.594    0.248    0.278   67.624  159.871
  563.452   15.652    0.230    0.252   69.038  159.623
  563.702   17.936    0.230    0.231   65.626  159.587
  563.952   19.058    0.250    0.241   59.080  159.716
  564.202   18.810    0.246    0.248   53.074  160.072
  564.452   16.898    0.246    0.300   49.541  160.214
  564.702   14.713    0.274    0.327   48.063  160.674
  564.952   12.323    0.318    0.313   46.401  160.724
  565.202   10.829    0.351    0.308   46.184  160.769
  565.452    9.764    0.365    0.285   44.886  160.412
  565.702   10.222    0.366    0.256   44.130  160.141
  565.952   11.043    0.370    0.261   44.762  160.399
  566.202   12.725    0.369    0.246   47.508  160.563
  566.452   13.497    0.373    0.231   50.916  160.188
  566.702   15.495    0.368    0.244   52.568  159.626
  566.952   16.989    0.364    0.231   55.857  159.469
  567.202   18.591    0.369    0.222   57.814  159.304
  567.452   19.392    0.379    0.230   58.324  158.036
  567.702   19.896    0.378    0.248   59.438  157.154
  567.952   20.261    0.370    0.254   61.457  155.980
  568.202   20.072    0.365    0.233   64.447  158.069
  568.452   19.447    0.362    0.230   65.136  159.755
  568.702   19.123    0.361    0.230   65.766  160.614
  568.952   18.945    0.362    0.230   66.940  160.152
  569.202   18.836    0.366    0.210   66.731  159.684
  569.452   18.660    0.368    0.224   66.516  159.441
  569.702   18.450    0.361    0.241   68.171  159.278
  569.952   18.378    0.364    0.219   71.879  159.318
  570.202   18.339    0.367    0.211   76.071  159.266
  570.452   18.235    0.373    0.236   77.428  159.417
  570.702   18.131    0.370    0.224   80.354  159.581
  570.952   18.061    0.363    0.191   81.712  159.514
  571.202   17.660    0.367    0.183   81.131  159.666
  571.452   17.271    0.367    0.182   81.829  160.022
  571.702   16.520    0.359    0.193   82.819  160.466
  571.952   15.831    0.351    0.176   83.450  160.944
  572.202   15.311    0.340    0.176   85.770  161.404
  572.452   14.918    0.326    0.163   86.945  161.734
  572.702   14.695    0.294    0.124   87.816  162.189
  572.952   14.504    0.304    0.077   88.688  162.749
  573.202   14.369    0.329    0.128   89.805  163.102
  573.452   14.052    0.333    0.146   90.195  162.852
  573.702   13.565    0.343    0.166   95.833  163.415
  573.952   12.344    0.352    0.151  100.507  164.575
  574.202   11.443    0.353    0.147  103.732  165.540
  574.452   10.905    0.356    0.140   97.971  166.101
  574.702   10.335    0.340    0.112   93.896  166.041
  574.952    9.510    0.325    0.105   87.828  165.078
  575.202    9.249    0.318    0.106   85.683  164.107
  575.452    8.621    0.331    0.106   83.059  163.326
  575.702    8.261    0.328    0.107   78.862  163.270
  575.952    8.230    0.305    0.107   72.976  163.828
  576.202    8.792    0.260    0.060   62.685  163.773
  576.452    9.947    0.231    0.046   50.827  163.421
  576.702   12.523    0.193    0.020   40.054  163.066
  576.952   18.071    0.146    0.009   28.864  163.417
  577.202   27.257    0.083   -0.000   29.009  163.670
  577.452   37.631    0.120    0.008   34.292  164.122
  577.702   43.764    0.165    0.018   39.689  163.861
  577.952   36.386    0.193    0.058   45.930  163.506
  578.202   27.691    0.247    0.092   55.851  162.935
  578.452   20.726    0.329    0.123   63.542  162.472
  578.702   14.841    0.327    0.169   78.475  162.716
  578.952   10.433    0.376    0.185   90.750  163.190
  579.202    7.983    0.568    0.230  109.724  163.850
  579.452    6.109    0.604    0.247  114.096  164.913
  579.702    5.079    0.629    0.259  113.279  165.261
  579.952    3.981    0.638    0.246  110.052  164.597
  580.202    3.697    0.629    0.286  110.078  163.716
  580.452    3.717    0.609    0.289  113.605  162.138
  580.702    4.038    0.567    0.212  106.512  162.299
  580.952    4.748    0.468    0.208   97.856  162.959
  581.202    5.411    0.428    0.234  100.297  163.208
  581.452    6.133    0.425    0.226  109.194  162.828
  581.702    6.724    0.445    0.212  117.788  162.594
  581.952    6.722    0.473    0.209  124.578  162.428
  582.202    6.371    0.483    0.212  124.360  162.579
  582.452    6.452    0.470    0.205  120.647  163.326
  582.702    6.957    0.468    0.140  112.409  164.295
  582.952    7.914    0.413    0.149   88.726  164.442
  583.202    9.585    0.301    0.167   64.860  163.468
  583.452   12.270    0.225    0.211   51.131  162.401
  583.702   17.512    0.277    0.356   54.839  162.447
  583.952   25.363    0.335    0.347   62.771  162.394
  584.202   29.119    0.366    0.312   66.117  162.340
  584.452   28.163    0.386    0.291   64.036  161.472
  584.702   24.656    0.412    0.292   62.433  161.212
  584.952   21.706    0.429    0.296   60.529  161.765
  585.202   19.214    0.447    0.294   54.947  162.439
  585.452   17.714    0.435    0.305   50.209  162.374
  585.702   16.633    0.417    0.308   51.081  162.005
  585.952   16.692    0.403    0.313   53.222  161.450
  586.202   17.379    0.397    0.300   58.017  161.399
  586.452   18.363    0.399    0.284   61.243  161.231
  586.702   18.910    0.391    0.271   64.893  161.068
  586.952   17.626    0.380    0.253   69.567  161.327
  587.202   16.070    0.380    0.224   73.456  161.573
  587.452   15.034    0.395    0.232   80.122  162.032
  587.702   13.886    0.421    0.260   85.578  162.082
  587.952   14.194    0.448    0.284   81.506  161.719
  588.202   15.109    0.451    0.295   71.996  161.461
  588.452   16.054    0.427    0.293   63.095  161.093
  588.702   17.089    0.404    0.285   67.412  160.940
  588.952   18.224    0.396    0.294   68.943  160.680
  589.202   18.663    0.405    0.297   71.749  161.036
  589.452   17.557    0.391    0.278   77.688  160.776
  589.702   15.571    0.401    0.252   95.275  160.013
  589.952   12.733    0.446    0.237  105.801  159.642
  590.202   11.148    0.483    0.230  100.947  159.393
  590.452    9.149    0.517    0.241   93.972  159.941
  590.702    8.800    0.483    0.267   91.288  160.519
  590.952    8.995    0.422    0.265   89.446  160.875
  591.202    9.575    0.410    0.265   91.706  160.805
  591.452   10.732    0.400    0.254   95.052  161.375
  591.702   11.446    0.395    0.250   99.845  161.827
  591.952   10.435    0.410    0.230  110.490  162.381
  592.202    9.444    0.467    0.217  127.052  163.344
  592.452    7.881    0.572    0.225  135.467  164.415
  592.702    6.874    0.608    0.257  133.202  164.873
  592.952    6.279    0.596    0.294  131.185  164.916
  593.202    5.821    0.559    0.321  117.147  164.147
  593.452    6.128    0.518    0.330  112.475  163.384
  593.702    6.620    0.498    0.266  111.176  163.033
  593.952    7.420    0.406    0.252  113.860  163.072
  594.202    8.016    0.391    0.242  150.271  162.815
  594.452    8.502    0.387    0.227  150.352  162.341
  594.702    8.690    0.390    0.220  150.267  162.388
  594.952    8.482    0.399    0.235  150.168  163.249
  595.202    8.250    0.421    0.275  150.079  163.515
  595.452    8.417    0.512    0.319  149.922  163.344
  595.702    9.663    0.527    0.350  149.712  162.275
  595.952   10.952    0.507    0.372  149.572  160.988
  596.202   12.321    0.479    0.340  149.463  159.712
  596.452   14.356    0.504    0.374  149.324  161.196
  596.702   15.424    0.512    0.394  149.409  161.751
