~VERSION INFORMATION
 VERS.                 2.0:   CWLS LOG ASCII STANDARD -VERSION 2.0
 WRAP.                  NO:   ONE LINE PER DEPTH STEP
~WELL INFORMATION BLOCK
#MNEM.UNIT           DATA                    DESCRIPTION OF MNEMONIC
#---------    -------------------            -------------------------------
# Generated from Intellog Unique Number	CW_82_90/WELL/3433
WELL.         TEXEX WOODEN                   : Well_name    - WELL
LOC .         00/07-35-088-24W4/0            : Location     - LOCATION
UWI .         00/07-35-088-24W4/0            : Uwi          - UNIQUE WELL ID
ENTR.         MAX                            : Entered      - ENTERED BY
SRVC.         SCHLUMBERGER                   : Scn          - SERVICE COMPANY
STRT.M        60.96                          : top_depth    - START DEPTH
STOP.M        304.71                         : bot_depth    - STOP DEPTH
STEP.M        0.25                           : increment    - STEP LENGTH
 NULL. -999.2500:NULL Value
~CURVE INFORMATION BLOCK
#MNEM UNIT       ERCB CURVE CODE    CURVE DESCRIPTION
#-----------   ------------------   ----------------------------------
DEPT.M        00 001 00 00         : DEPTH        - DEPTH
ILD .OHMM     00 120 00 00         : RESD         - DEEP RESISTIVITY (DIL)
NPHI.V/V      00 330 00 00         : PHIN         - NEUTRON POROSITY (SANDSTONE)
DPHI.V/V      00 890 00 00         : PHID         - DENSITY POROSITY (SANDSTONE)
CALI.MM       00 280 01 00         : CAL          - CALIPER
GR  .API      00 310 00 00         : GR           - GAMMA RAY
~PARAMETER INFORMATION
#MNEM.UNIT           DATA             DESCRIPTION OF MNEMONIC
#---------         -----------     ------------------------------
GL  .M        524.866              : gl           - GROUND LEVEL ELEVATION
EREF.M        527.914              : kb           - ELEVATION OF DEPTH REFERENCE
DATM.M        524.866              : datum        - DATUM ELEVATION
TDD .M        304.495              : tdd          - TOTAL DEPTH DRILLER
RUN .         ONE                  : Run          - RUN NUMBER
ENG .         BILL                 : Engineer     - RECORDING ENGINEER
WIT .         JIM                  : Witness      - WITNESSED BY
MUD .         GEL                  : Mud_type     - MUD TYPE
MATR.         SANDSTONE            : Logunit      - NEUTRON MATRIX
TMAX.C        14.4444              : BHT          - MAXIMUM RECORDED TEMPERATURE
BHTD.M        304.495              : BHTDEP       - MAXIMUM RECORDED TEMPERATURE
MATR.         1                    : LOGUNIT      - NEUTRON MATRIX
RMT .C        6.66667              : MDTP         - TEMPERATURE OF MUD
NEUT.         1                    : NEUTRON      - NEUTRON TYPE
RESI.         0                    : RESIST       - RESISTIVITY TYPE
RMC .OHMM     4.24                 : RMC          - RESISTIVITY OF MUD CAKE
RMF .OHMM     4.24                 : RMF          - RESISTIVITY OF MUD FILTRATE
SUFT.C        -23.3333             : SUFT         - SURFACE TEMPERATURE
~A  DEPTH     RESD     PHIN     PHID      CAL       GR
# ...
  206.960    4.669    0.488    0.220  250.746   68.381
  207.210    4.463    0.484    0.220  244.325   62.732
  207.460    4.539    0.480    0.201  240.039   56.467
  207.710    4.828    0.476    0.224  235.218   48.947
  207.960    5.273    0.471    0.236  232.003   45.798
  208.210    5.811    0.464    0.260  229.825   45.440
  208.460    6.236    0.456    0.274  229.201   46.949
  208.710    6.812    0.448    0.260  229.148   47.841
  208.960    7.180    0.451    0.246  228.015   47.800
  209.210    7.175    0.442    0.255  226.900   47.447
  209.460    7.106    0.434    0.275  226.285   47.089
  209.710    7.229    0.417    0.269  225.687   46.425
  209.960    7.419    0.413    0.256  225.608   45.133
  210.210    7.414    0.407    0.237  225.020   44.781
  210.460    7.277    0.404    0.199  225.476   44.744
  210.710    6.893    0.461    0.177  229.085   44.697
  210.960    6.472    0.448    0.241  233.758   45.895
  211.210    5.510    0.442    0.262  238.965   48.349
  211.460    4.691    0.470    0.238  246.799   52.352
  211.710    3.853    0.508    0.251  272.558   56.974
  211.960    3.340    0.509    0.294  296.200   60.983
  212.210    2.894    0.506    0.264  290.333   64.987
  212.460    2.645    0.540    0.249  285.512   68.990
  212.710    2.529    0.567    0.253  292.292   71.438
  212.960    2.504    0.583    0.253  293.275   71.085
  213.210    2.593    0.559    0.255  295.312   68.544
  213.460    2.782    0.532    0.249  298.931   65.707
  213.710    3.067    0.499    0.244  307.818   61.926
  213.960    3.565    0.471    0.249  324.083   60.951
  214.210    4.295    0.468    0.233  319.797   61.526
  214.460    5.361    0.453    0.217  307.598   57.133
  214.710    5.805    0.461    0.218  293.291   54.592
  214.960    6.397    0.477    0.204  290.059   55.172
  215.210    6.566    0.481    0.210  288.399   55.753
  215.460    6.560    0.462    0.202  292.544   61.007
  215.710    6.440    0.464    0.198  303.013   60.654
  215.960    6.321    0.475    0.212  300.308   58.424
  216.210    6.260    0.475    0.224  309.195   56.520
  216.460    6.256    0.468    0.232  290.673   54.601
  216.710    6.196    0.456    0.221  285.851   53.626
  216.960    6.191    0.445    0.217  288.407   52.967
  217.210    6.132    0.436    0.226  296.258   53.227
  217.460    6.127    0.436    0.242  302.511   53.807
  217.710    6.123    0.448    0.247  286.623   54.388
  217.960    6.174    0.459    0.243  286.535   55.280
  218.210    6.225    0.446    0.234  286.482   56.478
  218.460    6.276    0.425    0.242  286.930   57.692
  218.710    6.106    0.426    0.240  292.120   59.512
  218.960    5.681    0.442    0.261  289.933   60.715
  219.210    5.012    0.457    0.271  286.192   61.918
  219.460    4.422    0.476    0.249  285.059   62.178
  219.710    3.665    0.502    0.264  285.515   60.896
  219.960    3.204    0.535    0.285  288.598   57.426
  220.210    3.090    0.556    0.287  291.153   54.895
  220.460    3.199    0.519    0.299  290.038   53.303
  220.710    3.343    0.469    0.333  280.992   50.450
  220.960    3.717    0.455    0.298  276.187   49.786
  221.210    4.399    0.443    0.293  272.428   52.239
  221.460    5.206    0.434    0.289  270.777   53.443
  221.710    5.892    0.432    0.266  270.171   49.662
  221.960    5.994    0.478    0.278  272.208   49.926
  222.210    5.627    0.542    0.365  286.365   50.813
  222.460    5.284    0.557    0.475  339.007   51.715
  222.710    5.095    0.567    0.450  354.219   51.357
  222.960    5.046    0.551    0.386  310.403   49.137
  223.210    5.042    0.517    0.344  269.213   50.646
  223.460    5.039    0.468    0.313  261.229   52.161
  223.710    5.035    0.502    0.289  276.976   55.542
  223.960    5.076    0.494    0.362  294.286   59.235
  224.210    5.164    0.469    0.326  268.395   60.127
  224.460    5.253    0.456    0.263  254.079   60.085
  224.710    5.440    0.435    0.198  252.964   57.554
  224.960    5.837    0.422    0.163  252.894   56.885
  225.210    6.432    0.440    0.172  252.805   56.532
  225.460    7.026    0.456    0.186  254.852   55.863
  225.710    7.882    0.442    0.193  256.362   51.154
  225.960    8.611    0.427    0.188  257.346   48.623
  226.210    8.759    0.391    0.156  253.586   51.071
  226.460    8.752    0.319    0.106  249.283   57.875
  226.710    8.291    0.378    0.126  252.365   63.124
  226.960    7.445    0.425    0.168  254.411   65.878
  227.210    6.510    0.426    0.186  259.092   65.208
  227.460    5.897    0.444    0.177  257.415   64.544
  227.710    5.842    0.450    0.160  258.407   66.681
  227.960    6.048    0.446    0.166  259.917   67.890
  228.210    6.208    0.461    0.169  261.437   67.843
  228.460    6.601    0.453    0.173  263.456   66.862
  228.710    6.897    0.441    0.172  265.494   64.954
  228.960    7.080    0.438    0.182  268.576   61.805
  229.210    7.266    0.433    0.195  267.996   60.509
  229.460    7.591    0.426    0.181  264.764   61.089
  229.710    8.002    0.410    0.158  262.042   57.630
  229.960    9.139    0.361    0.200  253.013   50.426
  230.210    9.632    0.289    0.152  250.835   48.517
  230.460    9.288    0.256    0.060  250.229   57.500
  230.710    8.799    0.323    0.055  251.212   62.743
  230.960    7.762    0.416    0.149  253.249   63.641
  231.210    6.786    0.451    0.191  254.242   64.206
  231.460    6.428    0.447    0.208  251.528   65.419
  231.710    6.367    0.438    0.214  252.511   64.128
  231.960    6.476    0.425    0.209  253.495   61.913
  232.210    6.647    0.420    0.209  250.245   58.443
  232.460    6.822    0.408    0.216  248.067   55.290
  232.710    6.940    0.420    0.241  245.370   53.998
  232.960    6.934    0.432    0.219  237.369   56.752
  233.210    6.868    0.417    0.216  236.254   55.777
  233.460    6.801    0.413    0.203  236.174   52.629
  233.710    6.737    0.402    0.185  232.951   48.225
  233.960    6.672    0.402    0.210  227.084   48.178
  234.210    6.609    0.418    0.252  229.104   51.254
  234.460    6.487    0.413    0.221  230.087   56.502
  234.710    6.425    0.419    0.212  230.026   59.884
  234.960    6.477    0.422    0.211  229.955   57.343
  235.210    6.708    0.430    0.216  229.349   53.878
  235.460    7.198    0.399    0.221  228.216   51.041
  235.710    8.003    0.310    0.190  228.146   47.882
  235.960    9.991    0.259    0.056  228.066   45.351
  236.210   12.036    0.210    0.009  228.541   47.488
  236.460   12.799    0.265    0.011  229.515   53.981
  236.710   12.676    0.356    0.232  231.544   58.607
  236.960   11.798    0.393    0.203  233.045   57.933
  237.210   10.501    0.403    0.204  234.565   57.264
  237.460    9.264    0.407    0.187  236.084   57.222
  237.710    8.245    0.409    0.147  237.594   57.497
  237.960    7.604    0.408    0.150  240.659   59.940
  238.210    7.398    0.422    0.152  242.714   61.770
  238.460    7.262    0.431    0.139  245.797   62.351
  238.710    7.258    0.422    0.150  248.370   57.948
  238.960    7.448    0.388    0.139  252.506   55.100
  239.210    7.921    0.332    0.107  252.963   54.130
  239.460    8.652    0.317    0.087  257.626   59.068
  239.710    8.801    0.384    0.102  262.825   62.449
  239.960    8.795    0.401    0.182  269.087   63.964
  240.210    8.481    0.424    0.184  275.866   66.095
  240.460    8.034    0.421    0.165  281.584   67.604
  240.710    7.957    0.424    0.143  285.202   68.496
  240.960    8.238    0.430    0.134  288.829   69.072
  241.210    8.457    0.434    0.169  292.965   69.658
  241.460    8.526    0.420    0.156  296.065   67.116
  241.710    8.520    0.396    0.145  299.684   66.457
  241.960    8.143    0.377    0.179  305.383   68.283
  242.210    7.922    0.384    0.183  309.546   70.425
  242.460    7.776    0.394    0.186  313.691   73.490
  242.710    7.432    0.416    0.191  316.782   75.321
  242.960    7.427    0.427    0.194  318.811   73.713
  243.210    7.690    0.423    0.201  319.803   72.121
