~VERSION INFORMATION
 VERS.                 2.0:   CWLS LOG ASCII STANDARD -VERSION 2.0
 WRAP.                  NO:   ONE LINE PER DEPTH STEP
~WELL INFORMATION BLOCK
#MNEM.UNIT           DATA                    DESCRIPTION OF MNEMONIC
#---------    -------------------            -------------------------------
# Generated from Intellog Unique Number	CS_69_70/WELL/810
WELL.         HUSKY OIL OPERATIONS           : Well_name    - WELL
LOC .         00/06-36-069-06W4/0            : Location     - LOCATION
UWI .         00/06-36-069-06W4/0            : Uwi          - UNIQUE WELL ID
ENTR.         SP                             : Entered      - ENTERED BY
SRVC.         SCHLUMBERGER                   : Scn          - SERVICE COMPANY
STRT.M        340                            : top_depth    - START DEPTH
STOP.M        585                            : bot_depth    - STOP DEPTH
STEP.M        0.25                           : increment    - STEP LENGTH
 NULL. -999.2500:NULL Value
~CURVE INFORMATION BLOCK
#MNEM UNIT       ERCB CURVE CODE    CURVE DESCRIPTION
#-----------   ------------------   ----------------------------------
DEPT.M        00 001 00 00         : DEPTH        - DEPTH
ILD .OHMM     00 120 00 00         : RESD         - DEEP RESISTIVITY (DIL)
DPHI.V/V      00 890 00 00         : PHID         - DENSITY POROSITY (LIMESTONE)
NPHI.V/V      00 330 00 00         : PHIN         - NEUTRON POROSITY (LIMESTONE)
GR  .API      00 310 00 00         : GR           - GAMMA RAY
~PARAMETER INFORMATION
#MNEM.UNIT           DATA             DESCRIPTION OF MNEMONIC
#---------         -----------     ------------------------------
GL  .M        692.4                : gl           - GROUND LEVEL ELEVATION
EREF.M        696                  : kb           - ELEVATION OF DEPTH REFERENCE
DATM.M        692.4                : datum        - DATUM ELEVATION
TDD .M        592                  : tdd          - TOTAL DEPTH DRILLER
RUN .         ONE                  : Run          - RUN NUMBER
ENG .         BILL                 : Engineer     - RECORDING ENGINEER
WIT .         JIM                  : Witness      - WITNESSED BY
MUD .         GEL                  : Mud_type     - MUD TYPE
MATR.         LIMESTONE            : Logunit      - NEUTRON MATRIX
TMAX.C        25                   : BHT          - MAXIMUM RECORDED TEMPERATURE
BHTD.M        592                  : BHTDEP       - MAXIMUM RECORDED TEMPERATURE
MATR.         1                    : LOGUNIT      - NEUTRON MATRIX
RMT .C        25                   : MDTP         - TEMPERATURE OF MUD
NEUT.         1                    : NEUTRON      - NEUTRON TYPE
RESI.         0                    : RESIST       - RESISTIVITY TYPE
RMC .OHMM     0.25                 : RMC          - RESISTIVITY OF MUD CAKE
RMF .OHMM     0.25                 : RMF          - RESISTIVITY OF MUD FILTRATE
SUFT.C        15                   : SUFT         - SURFACE TEMPERATURE
~A  DEPTH     RESD     PHID     PHIN       GR
# ...
  383.500    7.184    0.256    0.465   86.659
  383.750    6.832    0.313    0.474   89.939
  384.000    6.583    0.341    0.482   92.795
  384.250    6.368    0.325    0.486   91.351
  384.500    6.288    0.304    0.491   90.938
  384.750    6.338    0.287    0.490   93.128
  385.000    6.424    0.280    0.468   93.986
  385.250    6.512    0.280    0.448   94.420
  385.500    6.713    0.288    0.426   94.612
  385.750    7.065    0.294    0.448   92.745
  386.000    7.351    0.278    0.454   90.937
  386.250    7.650    0.271    0.419   87.798
  386.500    7.841    0.276    0.396   85.386
  386.750    8.009    0.283    0.388   83.701
  387.000    8.027    0.291    0.400   84.074
  387.250    7.985    0.290    0.414   91.897
  387.500    7.989    0.281    0.425   97.297
  387.750    7.918    0.282    0.407   95.914
  388.000    7.937    0.286    0.401   92.169
  388.250    7.939    0.282    0.403   91.875
  388.500    7.884    0.278    0.398   93.763
  388.750    7.726    0.274    0.405   90.382
  389.000    7.239    0.270    0.413   85.487
  389.250    6.833    0.274    0.405   81.863
  389.500    6.535    0.283    0.399   86.839
  389.750    6.322    0.288    0.409   95.570
  390.000    6.289    0.280    0.439   96.065
  390.250    6.303    0.276    0.461   88.141
  390.500    6.377    0.284    0.436   82.761
  390.750    6.501    0.289    0.420   81.015
  391.000    6.664    0.299    0.466   83.871
  391.250    6.895    0.305    0.482   85.578
  391.500    7.162    0.301    0.481   87.102
  391.750    7.425    0.301    0.473   85.355
  392.000    7.669    0.306    0.467   80.763
  392.250    7.890    0.307    0.458   80.773
  392.500    8.149    0.281    0.465   77.210
  392.750    8.402    0.244    0.466   67.712
  393.000    8.564    0.214    0.427   59.365
  393.250    8.615    0.208    0.393   52.714
  393.500    8.303    0.260    0.391   48.910
  393.750    8.076    0.302    0.399   48.252
  394.000    7.855    0.335    0.398   47.657
  394.250    7.699    0.262    0.366   49.121
  394.500    7.687    0.231    0.344   52.340
  394.750    7.720    0.260    0.351   52.895
  395.000    7.737    0.294    0.370   50.301
  395.250    7.712    0.320    0.389   52.673
  395.500    7.614    0.341    0.399   57.709
  395.750    7.337    0.338    0.398   60.384
  396.000    7.031    0.345    0.415   56.276
  396.250    6.814    0.355    0.422   55.014
  396.500    6.677    0.364    0.428   57.447
  396.750    6.606    0.363    0.419   61.152
  397.000    6.621    0.351    0.413   63.706
  397.250    6.686    0.343    0.407   64.442
  397.500    6.841    0.334    0.417   62.695
  397.750    6.948    0.330    0.433   62.524
  398.000    7.029    0.340    0.425   62.534
  398.250    7.125    0.347    0.407   60.969
  398.500    7.155    0.351    0.399   56.013
  398.750    7.158    0.354    0.406   52.936
  399.000    7.121    0.353    0.405   55.609
  399.250    7.097    0.345    0.403   58.345
  399.500    7.100    0.342    0.415   63.382
  399.750    7.117    0.329    0.425   67.086
  400.000    7.160    0.317    0.415   69.397
  400.250    7.230    0.304    0.405   73.889
  400.500    7.315    0.302    0.399   77.293
  400.750    7.429    0.305    0.414   78.572
  401.000    7.488    0.310    0.421   78.037
  401.250    7.549    0.318    0.413   74.292
  401.500    7.579    0.322    0.423   77.816
  401.750    7.625    0.317    0.438   83.338
  402.000    7.657    0.310    0.430   87.040
  402.250    7.676    0.296    0.422   90.078
  402.500    7.707    0.279    0.418   89.422
  402.750    7.725    0.262    0.423   84.829
  403.000    7.743    0.266    0.418   76.544
  403.250    7.717    0.273    0.421   70.436
  403.500    7.605    0.271    0.444   64.754
  403.750    7.370    0.286    0.463   62.281
  404.000    6.996    0.305    0.469   61.686
  404.250    6.543    0.324    0.461   64.118
  404.500    5.982    0.342    0.452   68.488
  404.750    5.690    0.336    0.455   70.799
  405.000    5.778    0.332    0.463   65.603
  405.250    6.081    0.336    0.457   62.466
  405.500    6.376    0.339    0.452   61.686
  405.750    6.584    0.338    0.455   61.696
  406.000    6.826    0.335    0.451   64.370
  406.250    6.959    0.327    0.431   68.982
  406.500    7.066    0.314    0.412   72.263
  406.750    7.176    0.299    0.392   72.152
  407.000    7.247    0.303    0.387   71.133
  407.250    7.278    0.319    0.383   71.023
  407.500    7.227    0.323    0.381   70.003
  407.750    7.136    0.324    0.388   66.318
  408.000    7.072    0.331    0.396   63.421
  408.250    6.995    0.330    0.398   65.490
  408.500    6.959    0.320    0.391   70.165
  408.750    6.962    0.312    0.385   74.959
  409.000    6.966    0.302    0.394   78.722
  409.250    7.007    0.292    0.407   82.124
  409.500    7.103    0.285    0.420   83.951
  409.750    7.160    0.292    0.402   81.176
  410.000    7.230    0.294    0.388   79.247
  410.250    7.329    0.296    0.396   80.653
  410.500    7.415    0.300    0.404   81.872
  410.750    7.516    0.301    0.408   77.522
  411.000    7.618    0.290    0.417   70.385
  411.250    7.723    0.283    0.424   61.554
  411.500    7.799    0.294    0.421   54.176
  411.750    7.920    0.315    0.415   52.916
  412.000    7.938    0.330    0.408   54.863
  412.250    8.032    0.330    0.398   55.296
  412.500    8.020    0.327    0.384   50.946
  412.750    7.948    0.324    0.385   47.928
  413.000    7.938    0.325    0.400   46.545
  413.250    7.896    0.332    0.413   48.008
  413.500    7.841    0.342    0.410   47.897
  413.750    7.814    0.344    0.393   46.515
  414.000    7.759    0.341    0.394   46.101
  414.250    7.793    0.342    0.403   46.353
  414.500    7.824    0.350    0.405   47.212
  414.750    7.902    0.351    0.408   47.223
  415.000    7.964    0.336    0.414   46.565
  415.250    7.983    0.310    0.418   46.333
  415.500    7.986    0.294    0.421   45.253
  415.750    7.990    0.313    0.405   43.749
  416.000    7.949    0.328    0.385   43.335
  416.250    7.804    0.341    0.379   45.525
  416.500    7.619    0.350    0.394   47.170
  416.750    7.594    0.353    0.406   43.003
  417.000    7.902    0.354    0.418   42.467
  417.250    8.998    0.329    0.430   44.113
  417.500   10.149    0.213    0.409   44.909
  417.750   10.780    0.075    0.245   45.706
  418.000   10.526    0.038    0.188   48.382
  418.250   10.010    0.190    0.266   50.996
  418.500    9.187    0.265    0.365   52.035
  418.750    8.184    0.327    0.407   49.564
  419.000    7.624    0.335    0.423   48.543
  419.250    6.997    0.342    0.429   47.161
  419.500    6.581    0.349    0.426   45.720
  419.750    6.425    0.357    0.418   45.000
  420.000    6.416    0.362    0.414   45.192
  420.250    6.383    0.362    0.410   47.382
  420.500    6.337    0.358    0.408   47.756
  420.750    6.293    0.354    0.418   48.614
  421.000    6.272    0.351    0.435   52.138
  421.250    6.263    0.353    0.456   54.630
  421.500    6.172    0.357    0.450   56.516
  421.750    6.061    0.351    0.427   56.528
  422.000    5.995    0.341    0.412   57.143
  422.250    5.876    0.335    0.420   57.941
  422.500    5.834    0.346    0.429   58.072
  422.750    5.793    0.350    0.419   58.020
  423.000    5.742    0.345    0.428   57.425
  423.250    5.680    0.336    0.449   56.526
  423.500    5.566    0.337    0.470   55.992
  423.750    5.496    0.346    0.453   58.789
  424.000    5.417    0.342    0.441   60.917
  424.250    5.358    0.334    0.437   63.289
  424.500    5.291    0.329    0.449   64.692
  424.750    5.224    0.327    0.467   63.128
  425.000    5.120    0.332    0.476   62.471
  425.250    5.027    0.330    0.481   61.694
  425.500    4.936    0.325    0.484   62.067
  425.750    4.864    0.324    0.486   64.984
  426.000    4.768    0.332    0.485   59.302
  426.250    4.733    0.342    0.467   62.522
  426.500    4.648    0.343    0.457   67.316
  426.750    4.555    0.324    0.485   70.233
