~VERSION INFORMATION
 VERS.                 2.0:   CWLS LOG ASCII STANDARD -VERSION 2.0
 WRAP.                  NO:   ONE LINE PER DEPTH STEP
~WELL INFORMATION BLOCK
#MNEM.UNIT           DATA                    DESCRIPTION OF MNEMONIC
#---------    -------------------            -------------------------------
# Generated from Intellog Unique Number	CS_77_79/WELL/3298
WELL.         NOVALTA RESOURCES LTD.         : Well_name    - WELL
LOC .         00/07-29-078-03W4/0            : Location     - LOCATION
UWI .         00/07-29-078-03W4/0            : Uwi          - UNIQUE WELL ID
ENTR.         JOETTE                         : Entered      - ENTERED BY
SRVC.         SCHLUMBERGER                   : Scn          - SERVICE COMPANY
DATE.         08-26-92                       : Date         - LOG DATE
STRT.M        140                            : top_depth    - START DEPTH
STOP.M        325                            : bot_depth    - STOP DEPTH
STEP.M        0.25                           : increment    - STEP LENGTH
 NULL. -999.2500:NULL Value
~CURVE INFORMATION BLOCK
#MNEM UNIT       ERCB CURVE CODE    CURVE DESCRIPTION
#-----------   ------------------   ----------------------------------
DEPT.M        00 001 00 00         : DEPTH        - DEPTH
ILD .OHMM     00 120 00 00         : RESD         - DEEP RESISTIVITY (DIL)
GR  .API      00 310 00 00         : GR           - GAMMA RAY
NPHI.V/V      00 330 00 00         : PHIN         - NEUTRON POROSITY (SANDSTONE)
DPHI.V/V      00 890 00 00         : PHID         - DENSITY POROSITY (SANDSTONE)
~PARAMETER INFORMATION
#MNEM.UNIT           DATA             DESCRIPTION OF MNEMONIC
#---------         -----------     ------------------------------
GL  .M        551.2                : gl           - GROUND LEVEL ELEVATION
EREF.M        555.2                : kb           - ELEVATION OF DEPTH REFERENCE
DATM.M        555.2                : datum        - DATUM ELEVATION
TDD .M        330.8                : tdd          - TOTAL DEPTH DRILLER
RUN .         ONE                  : Run          - RUN NUMBER
ENG .         BILL                 : Engineer     - RECORDING ENGINEER
WIT .         JIM                  : Witness      - WITNESSED BY
MUD .         GEL                  : Mud_type     - MUD TYPE
MATR.         SANDSTONE            : Logunit      - NEUTRON MATRIX
TMAX.C        22                   : BHT          - MAXIMUM RECORDED TEMPERATURE
BHTD.M        330.8                : BHTDEP       - MAXIMUM RECORDED TEMPERATURE
RMT .C        8                    : MDTP         - TEMPERATURE OF MUD
MUDD.KG/M     1050                 : MWT          - MUD DENSITY
NEUT.         1                    : NEUTRON      - NEUTRON TYPE
RESI.         0                    : RESIST       - RESISTIVITY TYPE
RM  .OHMM     1.27                 : RM           - RESISTIVITY OF MUD
RMC .OHMM     1.27                 : RMC          - RESISTIVITY OF MUD CAKE
RMF .OHMM     1.17                 : RMF          - RESISTIVITY OF MUD FILTRATE
SUFT.C        15                   : SUFT         - SURFACE TEMPERATURE
~A  DEPTH     RESD       GR     PHIN     PHID
# ...
  183.500   15.752   95.023    0.364    0.255
  183.750   17.663   97.604    0.376    0.246
  184.000   19.417   78.473    0.377    0.302
  184.250   21.345   58.103    0.366    0.306
  184.500   23.935   45.168    0.364    0.296
  184.750   25.845   37.810    0.365    0.304
  185.000   26.910   38.557    0.358    0.316
  185.250   26.982   41.783    0.352    0.322
  185.500   27.035   41.885    0.364    0.312
  185.750   26.155   40.129    0.370    0.292
  186.000   26.190   38.966    0.359    0.299
  186.250   25.795   38.449    0.347    0.325
  186.500   25.881   38.551    0.355    0.332
  186.750   26.400   38.678    0.364    0.342
  187.000   26.487   39.426    0.365    0.349
  187.250   26.558   40.097    0.372    0.350
  187.500   26.140   42.058    0.380    0.357
  187.750   24.792   46.548    0.381    0.356
  188.000   23.937   49.723    0.386    0.357
  188.250   21.081   57.260    0.381    0.356
  188.500   17.890   76.621    0.382    0.309
  188.750   16.978   81.680    0.391    0.293
  189.000   17.012   84.906    0.404    0.291
  189.250   17.701   81.910    0.413    0.303
  189.500   19.498   78.269    0.418    0.299
  189.750   19.889   70.316    0.393    0.329
  190.000   20.708   71.038    0.367    0.343
  190.250   21.152   75.503    0.370    0.314
  190.500   20.832   79.297    0.378    0.290
  190.750   20.491   82.523    0.386    0.261
  191.000   20.545   82.031    0.392    0.250
  191.250   20.613   78.390    0.386    0.295
  191.500   20.302   75.369    0.383    0.320
  191.750   20.329   69.920    0.384    0.330
  192.000   20.383   66.899    0.386    0.336
  192.250   20.062   64.523    0.386    0.337
  192.500   19.396   68.962    0.388    0.334
  192.750   18.740   79.029    0.394    0.329
  193.000   17.762   84.088    0.401    0.324
  193.250   16.537   87.908    0.400    0.318
  193.500   15.684   90.514    0.382    0.321
  193.750   14.602   92.475    0.377    0.323
  194.000   13.336   95.650    0.382    0.312
  194.250   12.188  103.213    0.393    0.286
  194.500   11.139  110.750    0.402    0.234
  194.750   10.187  110.903    0.408    0.227
  195.000    9.843  110.360    0.420    0.227
  195.250    9.862  111.702    0.415    0.228
  195.500   10.080  115.521    0.422    0.232
  195.750   10.496  122.439    0.426    0.234
  196.000   10.706  120.708    0.413    0.238
  196.250   11.371  117.067    0.416    0.242
  196.500   11.816  114.717    0.409    0.248
  196.750   12.525  112.315    0.409    0.259
  197.000   13.285  107.460    0.411    0.286
  197.250   14.355  101.341    0.398    0.302
  197.500   14.652   91.530    0.402    0.313
  197.750   15.236   92.277    0.405    0.309
  198.000   15.236   91.760    0.416    0.308
  198.250   14.789   89.358    0.416    0.304
  198.500   17.175   85.097    0.408    0.302
  198.750   17.883   80.888    0.397    0.309
  199.000   17.931   80.965    0.399    0.316
  199.250   18.327   86.669    0.404    0.314
  199.500   18.363   92.347    0.406    0.278
  199.750   18.062   96.167    0.393    0.262
  200.000   17.778  100.064    0.388    0.255
  200.250   16.573  100.140    0.414    0.252
  200.500   16.002   96.525    0.427    0.242
  200.750   15.471   92.884    0.424    0.243
  201.000   15.207   88.624    0.424    0.279
  201.250   14.977   84.389    0.410    0.295
  201.500   15.027   80.799    0.390    0.299
  201.750   15.329   84.593    0.436    0.302
  202.000   16.270   84.695    0.440    0.334
  202.250   17.909   81.725    0.439    0.350
  202.500   18.268   84.306    0.420    0.362
  202.750   19.739   86.292    0.418    0.361
  203.000   20.525   83.271    0.427    0.355
  203.250   21.385   79.630    0.427    0.349
  203.500   21.829   79.112    0.420    0.338
  203.750   21.872   84.197    0.411    0.330
  204.000   21.930   85.590    0.406    0.323
  204.250   21.599   82.543    0.407    0.319
  204.500   20.869   79.521    0.412    0.320
  204.750   20.163   79.004    0.409    0.324
  205.000   19.468   81.610    0.399    0.318
  205.250   18.149   82.358    0.376    0.311
  205.500   17.851   83.079    0.369    0.287
  205.750   17.236   83.801    0.399    0.279
  206.000   16.664   84.497    0.404    0.273
  206.250   16.708   84.625    0.400    0.273
  206.500   16.742   83.488    0.404    0.272
  206.750   17.112   80.492    0.414    0.271
  207.000   17.478   77.471    0.384    0.269
  207.250   17.548   75.095    0.359    0.265
  207.500   17.571   83.277    0.369    0.256
  207.750   17.618   81.495    0.381    0.251
  208.000   17.676   77.286    0.380    0.251
  208.250   17.712   73.076    0.366    0.252
  208.500   16.820   71.269    0.365    0.260
  208.750   15.932   71.371    0.382    0.272
  209.000   14.293   76.456    0.398    0.280
  209.250   13.063   79.630    0.364    0.266
  209.500   12.621   87.193    0.353    0.253
  209.750   12.431   94.111    0.363    0.240
  210.000   12.705   87.397    0.389    0.261
  210.250   13.211   75.702    0.425    0.276
  210.500   14.552   67.749    0.439    0.290
  210.750   15.404   56.054    0.434    0.310
  211.000   16.622   50.580    0.428    0.312
  211.250   19.356   45.105    0.420    0.319
  211.500   20.517   42.084    0.425    0.338
  211.750   21.334   40.947    0.436    0.356
  212.000   21.805   42.934    0.438    0.361
  212.250   21.863   44.895    0.427    0.360
  212.500   21.922   46.261    0.404    0.365
  212.750   21.562   46.983    0.430    0.373
  213.000   22.024   48.944    0.432    0.369
  213.250   23.345   55.862    0.419    0.358
  213.500   26.702   67.117    0.422    0.329
  213.750   29.902   65.980    0.436    0.317
  214.000   34.135   61.745    0.333    0.282
  214.250   36.182   58.749    0.247    0.139
  214.500   36.982   58.852    0.110   -0.008
  214.750   33.821   59.573    0.166    0.022
  215.000   32.612   56.578    0.334    0.060
  215.250   27.675   53.582    0.375    0.282
  215.500   23.925   54.923    0.373    0.335
  215.750   21.084   53.167    0.353    0.348
  216.000   19.984   48.932    0.381    0.334
  216.250   18.978   50.893    0.405    0.322
  216.500   18.654   63.412    0.409    0.321
  216.750   18.373   63.514    0.377    0.317
  217.000   18.096   61.190    0.365    0.306
  217.250   17.799   60.647    0.368    0.297
  217.500   17.834   63.227    0.374    0.295
  217.750   17.565   65.782    0.377    0.291
  218.000   16.971   70.867    0.378    0.285
  218.250   15.810   73.473    0.370    0.281
  218.500   15.266   74.195    0.361    0.285
  218.750   14.739   77.369    0.369    0.280
  219.000   14.527   76.877    0.385    0.277
  219.250   14.546   73.237    0.397    0.321
  219.500   15.145   70.266    0.412    0.329
  219.750   15.459   73.466    0.408    0.324
  220.000   15.511   79.145    0.401    0.313
  220.250   14.976   83.585    0.401    0.304
  220.500   13.952   85.546    0.397    0.297
  220.750   13.224   91.250    0.399    0.291
  221.000   12.320   92.591    0.440    0.293
  221.250   12.345   92.099    0.458    0.299
  221.500   12.626   87.839    0.468    0.306
  221.750   12.887   77.382    0.461    0.321
  222.000   12.913   66.306    0.434    0.353
  222.250   13.198   65.789    0.441    0.352
  222.500   12.982   71.518    0.440    0.326
  222.750   12.543   76.552    0.438    0.324
  223.000   11.463   87.832    0.439    0.322
  223.250   10.476   92.272    0.461    0.319
  223.500    9.399   94.258    0.465    0.310
  223.750    8.125   92.476    0.467    0.297
  224.000    7.421   87.002    0.474    0.282
  224.250    7.446   75.306    0.472    0.281
  224.500    8.201   69.858    0.464    0.307
  224.750    8.522   60.046    0.462    0.319
  225.000    9.374   58.858    0.457    0.332
  225.250   10.708   55.243    0.444    0.340
  225.500   11.142   55.965    0.430    0.337
  225.750   11.179   64.767    0.440    0.333
  226.000   11.003   69.851    0.449    0.336
  226.250   10.624   66.210    0.456    0.340
  226.500    9.722   62.001    0.464    0.329
  226.750    9.215   66.415    0.476    0.336
