~VERSION INFORMATION
 VERS.                 2.0:   CWLS LOG ASCII STANDARD -VERSION 2.0
 WRAP.                  NO:   ONE LINE PER DEPTH STEP
~WELL INFORMATION BLOCK
#MNEM.UNIT           DATA                    DESCRIPTION OF MNEMONIC
#---------    -------------------            -------------------------------
# Generated from Intellog Unique Number	CW_82_90/WELL/3423
WELL.         COSEKA BCRIC LIEGE             : Well_name    - WELL
LOC .         00/06-31-089-19W4/0            : Location     - LOCATION
UWI .         00/06-31-089-19W400            : Uwi          - UNIQUE WELL ID
ENTR.         MAX                            : Entered      - ENTERED BY
SRVC.         SCHLUMBERGER                   : Scn          - SERVICE COMPANY
STRT.M        175                            : top_depth    - START DEPTH
STOP.M        253                            : bot_depth    - STOP DEPTH
STEP.M        0.25                           : increment    - STEP LENGTH
 NULL. -999.2500:NULL Value
~CURVE INFORMATION BLOCK
#MNEM UNIT       ERCB CURVE CODE    CURVE DESCRIPTION
#-----------   ------------------   ----------------------------------
DEPT.M        00 001 00 00         : DEPTH        - DEPTH
ILD .OHMM     00 120 00 00         : RESD         - DEEP RESISTIVITY (DIL)
NPHI.V/V      00 330 00 00         : PHIN         - NEUTRON POROSITY (SANDSTONE)
DPHI.V/V      00 890 00 00         : PHID         - DENSITY POROSITY (SANDSTONE)
CALI.MM       00 280 01 00         : CAL          - CALIPER
GR  .API      00 310 00 00         : GR           - GAMMA RAY
~PARAMETER INFORMATION
#MNEM.UNIT           DATA             DESCRIPTION OF MNEMONIC
#---------         -----------     ------------------------------
GL  .M        517.4                : gl           - GROUND LEVEL ELEVATION
EREF.M        521                  : kb           - ELEVATION OF DEPTH REFERENCE
DATM.M        517.4                : datum        - DATUM ELEVATION
TDD .M        254                  : tdd          - TOTAL DEPTH DRILLER
RUN .         ONE                  : Run          - RUN NUMBER
ENG .         BILL                 : Engineer     - RECORDING ENGINEER
WIT .         JIM                  : Witness      - WITNESSED BY
MUD .         GEL                  : Mud_type     - MUD TYPE
MATR.         SANDSTONE            : Logunit      - NEUTRON MATRIX
TMAX.C        18.3                 : BHT          - MAXIMUM RECORDED TEMPERATURE
BHTD.M        254                  : BHTDEP       - MAXIMUM RECORDED TEMPERATURE
MATR.         1                    : LOGUNIT      - NEUTRON MATRIX
RMT .C        12.2                 : MDTP         - TEMPERATURE OF MUD
NEUT.         1                    : NEUTRON      - NEUTRON TYPE
RESI.         0                    : RESIST       - RESISTIVITY TYPE
RMC .OHMM     1.741                : RMC          - RESISTIVITY OF MUD CAKE
RMF .OHMM     2.2                  : RMF          - RESISTIVITY OF MUD FILTRATE
SUFT.C        -5                   : SUFT         - SURFACE TEMPERATURE
~A  DEPTH     RESD     PHIN     PHID      CAL       GR
  175.000   12.067    0.409    0.263  207.989   59.392
  175.250   12.983    0.302    0.197  208.457   52.776
  175.500   14.098    0.295    0.115  208.935   57.262
  175.750   14.886    0.399    0.268  209.906   60.846
  176.000   15.012    0.418    0.218  212.880   61.129
  176.250   14.718    0.434    0.183  217.351   60.514
  176.500   14.434    0.418    0.206  218.832   61.096
  176.750   14.026    0.404    0.162  220.307   62.883
  177.000   13.755    0.410    0.170  221.275   66.767
  177.250   13.490    0.415    0.232  221.756   71.551
  177.500   12.983    0.419    0.234  224.227   77.535
  177.750   12.502    0.448    0.214  226.198   90.717
  178.000   11.281    0.456    0.178  227.679   89.800
  178.250   10.559    0.413    0.148  230.153   91.587
  178.500   10.454    0.429    0.189  232.127   94.569
  178.750   10.637    0.448    0.218  233.102   93.656
  179.000   10.627    0.430    0.224  234.077   93.041
  179.250   10.421    0.441    0.221  234.551   93.026
  179.500    9.849    0.455    0.218  235.019   93.611
  179.750    9.569    0.463    0.213  234.997   95.095
  180.000    9.560    0.472    0.194  234.466   95.380
  180.250    9.730    0.445    0.154  232.944   93.563
  180.500    9.994    0.409    0.100  231.919   93.848
  180.750   10.077    0.405    0.112  230.397  101.931
  181.000   10.067    0.452    0.188  229.366  106.117
  181.250   10.056    0.455    0.209  229.347  101.603
  181.500   10.233    0.437    0.220  229.821   95.889
  181.750   10.415    0.444    0.238  230.796   89.573
  182.000   10.796    0.451    0.262  231.267   87.158
  182.250   11.090    0.418    0.244  231.242   86.543
  182.500   11.495    0.383    0.217  231.213   87.428
  182.750   11.807    0.364    0.143  231.688   87.713
  183.000   12.355    0.354    0.136  231.663   88.595
  183.250   12.925    0.360    0.157  231.634   87.380
  183.500   13.275    0.376    0.180  231.615   85.566
  183.750   12.900    0.409    0.227  231.590   87.952
  184.000   12.078    0.403    0.245  231.065   89.736
  184.250   11.629    0.419    0.247  231.040   90.921
  184.500   11.090    0.432    0.244  231.011   91.504
  184.750   10.578    0.429    0.229  230.989   92.688
  185.000   10.375    0.420    0.208  230.964   94.771
  185.250   10.080    0.417    0.213  230.938   92.656
  185.500   10.164    0.422    0.225  229.410   91.441
  185.750   10.248    0.431    0.225  226.882   90.226
  186.000   10.430    0.441    0.223  225.860   89.013
  186.250   10.710    0.436    0.206  224.332   87.196
  186.500   10.898    0.421    0.185  223.310   88.083
  186.750   10.991    0.419    0.201  219.282   89.264
  187.000   10.778    0.436    0.233  216.258   90.152
  187.250   10.090    0.424    0.234  214.233   93.137
  187.500    9.538    0.443    0.220  213.211   96.419
  187.750    9.268    0.469    0.201  212.686   96.404
  188.000    9.344    0.474    0.176  210.158   92.787
  188.250    9.509    0.419    0.169  203.633   93.672
  188.500    9.500    0.402    0.212  200.106   96.956
  188.750    9.490    0.444    0.245  198.584   96.643
  189.000    9.480    0.478    0.245  198.059   93.326
  189.250    9.472    0.446    0.215  197.530   89.414
  189.500    9.550    0.427    0.192  196.505   83.700
  189.750    9.277    0.420    0.194  195.980   87.284
  190.000    8.295    0.433    0.220  194.955   95.667
  190.250    5.994    0.598    0.238  193.430  110.650
  190.500    4.578    0.598    0.237  192.408  114.534
  190.750    4.247    0.577    0.232  192.376  115.718
  191.000    4.654    0.535    0.223  190.354  107.001
  191.250    5.101    0.498    0.215  187.326  103.990
  191.500    5.854    0.479    0.207  189.801   94.675
  191.750    6.973    0.458    0.196  192.275   94.059
  192.000    8.229    0.485    0.191  191.753   97.642
  192.250    9.358    0.480    0.205  191.228  100.328
  192.500    9.701    0.464    0.224  190.703  102.411
  192.750    9.601    0.452    0.222  190.674  102.397
  193.000    9.330    0.453    0.201  190.652  102.380
  193.250    8.981    0.458    0.179  190.127  105.067
  193.500    8.971    0.460    0.183  188.102  107.751
  193.750    9.128    0.464    0.202  187.074  106.236
  194.000    9.292    0.477    0.211  185.049  100.220
  194.250    9.633    0.457    0.226  182.524   97.205
  194.500   10.266    0.444    0.222  176.999   94.791
  194.750   11.248    0.420    0.198  176.474   89.676
  195.000   11.882    0.401    0.169  175.446   87.561
  195.250   12.901    0.411    0.190  174.921   84.845
  195.500   14.536    0.376    0.175  174.392   80.331
  195.750   16.077    0.318    0.130  173.870   75.818
  196.000   17.620    0.291    0.099  173.345   71.603
  196.250   19.489    0.292    0.104  172.823   68.585
  196.500   19.833    0.331    0.172  171.795   69.472
  196.750   17.896    0.342    0.158  171.763   70.354
  197.000   16.906    0.375    0.200  171.741   69.441
  197.250   17.050    0.434    0.213  171.216   67.923
  197.500   16.721    0.411    0.182  170.688   68.811
  197.750   16.547    0.356    0.153  170.162   71.793
  198.000   16.530    0.339    0.169  170.143   74.480
  198.250   16.824    0.367    0.189  169.618   73.565
  198.500   17.123    0.385    0.187  169.587   73.250
  198.750   17.588    0.359    0.129  169.568   73.534
  199.000   18.233    0.324    0.115  169.036   68.720
  199.250   19.252    0.285    0.030  169.017   63.004
  199.500   20.711    0.252    0.011  168.489   58.488
  199.750   20.693    0.233    0.048  168.960   57.575
  200.000   18.672    0.255    0.119  169.935   59.059
  200.250   15.359    0.415    0.234  174.412   62.043
  200.500   15.628    0.516    0.265  182.885   64.126
  200.750   16.052    0.483    0.266  184.360   67.112
  201.000   15.595    0.434    0.114  176.336   70.696
  201.250   15.155    0.307    0.093  172.808   74.579
  201.500   15.280    0.312    0.134  171.783   77.265
  201.750   15.695    0.430    0.214  175.760   81.747
  202.000   15.972    0.451    0.227  176.734   85.033
  202.250   15.803    0.431    0.195  174.710   83.518
  202.500   15.646    0.405    0.171  171.685   79.902
  202.750   16.070    0.375    0.190  171.653   85.286
  203.000   16.206    0.396    0.193  171.128   81.973
  203.250   16.492    0.370    0.180  171.103   78.655
  203.500   16.024    0.413    0.178  171.081   72.343
  203.750   15.281    0.436    0.140  171.055   73.225
  204.000   14.988    0.389    0.120  171.027   76.811
  204.250   14.161    0.360    0.147  171.002   87.294
  204.500   13.384    0.406    0.175  171.976   95.076
  204.750   12.414    0.432    0.215  173.451   94.763
  205.000   11.955    0.449    0.203  174.428   91.746
  205.250   11.616    0.434    0.186  172.903   90.233
  205.500   12.041    0.432    0.167  171.375   87.817
  205.750   12.484    0.453    0.143  169.850   79.705
  206.000   12.704    0.387    0.079  168.822   78.186
  206.250   12.808    0.296    0.036  168.793   85.673
  206.500   12.797    0.361    0.126  169.271   93.457
  206.750   12.204    0.437    0.181  171.745   96.141
  207.000   11.749    0.451    0.189  172.223   97.026
  207.250   11.521    0.447    0.179  171.698   98.508
  207.500   11.405    0.438    0.184  171.673   99.095
  207.750   11.289    0.428    0.190  172.141   99.378
  208.000   10.867    0.431    0.199  172.119   98.763
  208.250   10.757    0.430    0.207  172.097  100.547
  208.500   10.548    0.431    0.208  173.071  102.332
  208.750   10.344    0.437    0.196  173.040  101.715
  209.000   10.144    0.451    0.142  173.018   97.502
  209.250   10.042    0.451    0.102  172.492   91.488
  209.500   10.124    0.437    0.105  171.464   92.373
  209.750   10.115    0.458    0.157  171.439   97.157
  210.000   10.102    0.454    0.200  171.910  101.639
  210.250   10.094    0.453    0.207  171.891  101.024
  210.500   10.176    0.478    0.203  171.863   98.907
  210.750   10.259    0.462    0.190  171.841   96.793
  211.000   10.250    0.453    0.170  171.815   96.775
  211.250   10.240    0.465    0.173  171.790   98.264
