~VERSION INFORMATION
 VERS.                 2.0:   CWLS LOG ASCII STANDARD -VERSION 2.0
 WRAP.                  NO:   ONE LINE PER DEPTH STEP
~WELL INFORMATION BLOCK
#MNEM.UNIT           DATA                    DESCRIPTION OF MNEMONIC
#---------    -------------------            -------------------------------
# Generated from Intellog Unique Number	CS_67_68/WELL/637
WELL.         CANADIAN HOMESTEAD OIL         : Well_name    - WELL
LOC .         00/03-19-068-09W4/0            : Location     - LOCATION
UWI .         00/03-19-068-09W4/0            : Uwi          - UNIQUE WELL ID
ENTR.         SP                             : Entered      - ENTERED BY
SRVC.         SCHLUMBERGER                   : Scn          - SERVICE COMPANY
STRT.M        390                            : top_depth    - START DEPTH
STOP.M        609                            : bot_depth    - STOP DEPTH
STEP.M        0.25                           : increment    - STEP LENGTH
 NULL. -999.2500:NULL Value
~CURVE INFORMATION BLOCK
#MNEM UNIT       ERCB CURVE CODE    CURVE DESCRIPTION
#-----------   ------------------   ----------------------------------
DEPT.M        00 001 00 00         : DEPTH        - DEPTH
ILD .OHMM     00 120 00 00         : RESD         - DEEP RESISTIVITY (DIL)
DPHI.V/V      00 890 00 00         : PHID         - DENSITY POROSITY (LIMESTONE)
NPHI.V/V      00 330 00 00         : PHIN         - NEUTRON POROSITY (LIMESTONE)
GR  .API      00 310 00 00         : GR           - GAMMA RAY
~PARAMETER INFORMATION
#MNEM.UNIT           DATA             DESCRIPTION OF MNEMONIC
#---------         -----------     ------------------------------
GL  .M        702.5                : gl           - GROUND LEVEL ELEVATION
EREF.M        705.5                : kb           - ELEVATION OF DEPTH REFERENCE
DATM.M        702.5                : datum        - DATUM ELEVATION
TDD .M        624                  : tdd          - TOTAL DEPTH DRILLER
RUN .         ONE                  : Run          - RUN NUMBER
ENG .         BILL                 : Engineer     - RECORDING ENGINEER
WIT .         JIM                  : Witness      - WITNESSED BY
MUD .         GEL                  : Mud_type     - MUD TYPE
MATR.         LIMESTONE            : Logunit      - NEUTRON MATRIX
TMAX.C        23                   : BHT          - MAXIMUM RECORDED TEMPERATURE
BHTD.M        624                  : BHTDEP       - MAXIMUM RECORDED TEMPERATURE
MATR.         1                    : LOGUNIT      - NEUTRON MATRIX
RMT .C        25                   : MDTP         - TEMPERATURE OF MUD
NEUT.         1                    : NEUTRON      - NEUTRON TYPE
RESI.         0                    : RESIST       - RESISTIVITY TYPE
RMC .OHMM     0.25                 : RMC          - RESISTIVITY OF MUD CAKE
RMF .OHMM     0.25                 : RMF          - RESISTIVITY OF MUD FILTRATE
SUFT.C        15                   : SUFT         - SURFACE TEMPERATURE
~A  DEPTH     RESD     PHID     PHIN       GR
# ...
  477.000    3.972    0.315    0.438   85.342
  477.250    3.988    0.301    0.423   82.926
  477.500    4.041    0.286    0.416   80.571
  477.750    4.221    0.273    0.404   79.183
  478.000    4.334    0.263    0.394   81.844
  478.250    4.417    0.263    0.398   85.230
  478.500    4.468    0.273    0.404   82.694
  478.750    4.461    0.278    0.408   81.487
  479.000    4.430    0.280    0.401   80.764
  479.250    4.431    0.273    0.399   78.832
  479.500    4.465    0.270    0.401   76.054
  479.750    4.646    0.269    0.395   73.941
  480.000    5.583    0.265    0.382   72.975
  480.250    7.381    0.227    0.362   74.669
  480.500   10.597    0.099    0.286   73.040
  480.750   14.599    0.065    0.191   69.114
  481.000   19.374    0.047    0.178   66.758
  481.250   22.980    0.039    0.169   64.161
  481.500   24.773    0.033    0.162   60.537
  481.750   24.459    0.025    0.155   56.611
  482.000   22.279    0.018    0.148   53.409
  482.250   14.873    0.012    0.141   58.548
  482.500   10.985    0.005    0.134   64.231
  482.750    7.801    0.177    0.290   67.859
  483.000    5.773    0.208    0.351   72.031
  483.250    5.190    0.231    0.394   77.352
  483.500    4.772    0.258    0.407   81.040
  483.750    4.364    0.281    0.441   84.185
  484.000    4.204    0.292    0.406   85.819
  484.250    4.043    0.300    0.355   87.029
  484.500    3.918    0.305    0.413   88.603
  484.750    3.876    0.308    0.431   90.538
  485.000    3.855    0.305    0.438   91.326
  485.250    3.834    0.305    0.440   91.147
  485.500    3.807    0.304    0.439   90.121
  485.750    3.745    0.304    0.434   88.431
  486.000    3.711    0.305    0.433   87.103
  486.250    3.691    0.307    0.434   88.495
  486.500    3.671    0.309    0.436   90.492
  486.750    3.652    0.310    0.437   91.823
  487.000    3.632    0.310    0.437   92.913
  487.250    3.634    0.307    0.436   94.245
  487.500    3.676    0.302    0.434   95.757
  487.750    3.725    0.297    0.429   97.754
  488.000    3.811    0.290    0.422  101.502
  488.250    3.943    0.284    0.415  103.136
  488.500    4.109    0.279    0.406   99.029
  488.750    4.291    0.275    0.401   97.701
  489.000    4.473    0.277    0.403  102.840
  489.250    4.534    0.284    0.412  107.979
  489.500    4.485    0.289    0.418  112.393
  489.750    4.452    0.293    0.414  115.537
  490.000    4.487    0.282    0.407  118.863
  490.250    4.642    0.274    0.399  116.750
  490.500    4.839    0.266    0.389  113.005
  490.750    4.969    0.260    0.386  110.045
  491.000    5.093    0.255    0.384  107.207
  491.250    5.161    0.258    0.385  109.143
  491.500    5.173    0.260    0.387  108.480
  491.750    5.126    0.260    0.385  108.058
  492.000    5.023    0.255    0.380  111.989
  492.250    4.822    0.259    0.378  115.556
  492.500    4.707    0.274    0.394  112.839
  492.750    4.604    0.286    0.412  108.489
  493.000    4.597    0.280    0.416  104.079
  493.250    4.598    0.277    0.406  108.010
  493.500    4.582    0.282    0.408  112.967
  493.750    4.541    0.294    0.418  116.293
  494.000    4.525    0.302    0.431  114.543
  494.250    4.510    0.303    0.433  114.061
  494.500    4.485    0.300    0.428  115.392
  494.750    4.470    0.298    0.426  114.971
  495.000    4.388    0.298    0.428  109.594
  495.250    4.260    0.300    0.433  116.305
  495.500    4.167    0.304    0.436  128.152
  495.750    4.060    0.297    0.436  135.527
  496.000    4.008    0.270    0.392  130.150
  496.250    3.965    0.194    0.229  123.021
  496.500    3.929    0.272    0.421  117.523
  496.750    3.857    0.297    0.439  113.173
  497.000    3.759    0.314    0.446  118.978
  497.250    3.554    0.162    0.343  121.820
  497.500    3.374    0.202    0.278  122.366
  497.750    3.215    0.279    0.446  126.054
  498.000    3.012    0.308    0.461  129.380
  498.250    2.843    0.320    0.472  130.712
  498.500    2.734    0.329    0.480  128.175
  498.750    2.735    0.335    0.481  124.490
  499.000    2.850    0.343    0.481  121.410
  499.250    3.010    0.351    0.485  119.297
  499.500    3.167    0.356    0.491  115.008
  499.750    3.389    0.350    0.495  110.235
  500.000    3.606    0.331    0.478  107.880
  500.250    3.780    0.309    0.461  109.756
  500.500    3.896    0.299    0.444  110.241
  500.750    3.934    0.292    0.431  113.627
  501.000    3.943    0.293    0.420  116.772
  501.250    3.937    0.300    0.417  113.329
  501.500    3.923    0.302    0.426  109.222
  501.750    3.910    0.302    0.429  113.152
  502.000    3.881    0.297    0.426  116.840
  502.250    3.782    0.293    0.429  117.869
  502.500    3.603    0.290    0.426  114.427
  502.750    3.433    0.291    0.420  109.292
  503.000    3.302    0.299    0.419  103.854
  503.250    3.117    0.307    0.432   97.510
  503.500    3.008    0.302    0.439   92.859
  503.750    2.998    0.296    0.432   92.317
  504.000    3.027    0.291    0.425   90.868
  504.250    3.062    0.290    0.421   89.238
  504.500    3.092    0.302    0.418   86.823
  504.750    3.134    0.312    0.435   82.896
  505.000    3.200    0.314    0.445   77.096
  505.250    3.267    0.309    0.442   82.296
  505.500    3.349    0.307    0.441   90.094
  505.750    3.381    0.307    0.440   94.810
  506.000    3.382    0.307    0.434   98.377
  506.250    3.339    0.306    0.422  103.033
  506.500    3.593    0.289    0.410  103.700
  506.750    3.918    0.258    0.397   94.878
  507.000    4.279    0.247    0.385   83.760
  507.250    4.825    0.234    0.380   76.086
  507.500    5.380    0.072    0.338   67.990
  507.750    5.003    0.057    0.257   74.458
  508.000    4.065    0.120    0.220   87.938
  508.250    3.554    0.192    0.349  100.208
  508.500    3.392    0.236    0.391  108.188
  508.750    3.244    0.276    0.421  114.656
  509.000    3.155    0.304    0.439  119.856
  509.250    3.168    0.310    0.445  116.171
  509.500    3.175    0.305    0.439  114.178
  509.750    3.242    0.304    0.438  112.730
  510.000    3.379    0.305    0.438  110.254
  510.250    3.583    0.307    0.440  108.140
  510.500    3.637    0.308    0.441  106.752
  510.750    3.721    0.305    0.441  108.809
  511.000    3.757    0.300    0.440  106.636
  511.250    3.816    0.298    0.433  106.275
  511.500    3.853    0.296    0.430  110.205
  511.750    3.876    0.296    0.426  112.987
  512.000    3.847    0.298    0.426  112.687
  512.250    3.618    0.301    0.428  106.947
  512.500    3.619    0.303    0.430  102.839
  512.750    3.681    0.303    0.431  103.023
  513.000    3.738    0.302    0.431  105.079
  513.250    3.746    0.300    0.431  108.103
  513.500    3.747    0.299    0.431  110.764
  513.750    3.755    0.298    0.430  114.030
  514.000    3.792    0.298    0.429  115.784
  514.250    3.800    0.298    0.427  111.254
  514.500    3.780    0.300    0.425  106.964
  514.750    3.753    0.300    0.426  109.203
  515.000    3.733    0.298    0.427  110.655
  515.250    3.678    0.296    0.427  108.905
  515.500    3.652    0.292    0.426  108.241
  515.750    3.646    0.289    0.424  108.062
  516.000    3.607    0.287    0.421  109.696
  516.250    3.567    0.289    0.418  115.923
  516.500    3.399    0.293    0.420  121.666
  516.750    2.878    0.295    0.420  126.866
  517.000    2.588    0.292    0.418  132.730
  517.250    2.279    0.299    0.429  136.781
  517.500    2.064    0.325    0.460  138.112
  517.750    1.930    0.361    0.486  135.757
  518.000    1.795    0.383    0.508  136.122
  518.250    1.736    0.394    0.526  138.420
  518.500    1.691    0.399    0.530  139.752
  518.750    1.624    0.408    0.538  138.122
  519.000    1.597    0.419    0.551  133.833
  519.250    1.631    0.421    0.558  129.846
  519.500    1.716    0.416    0.550  126.343
  519.750    1.829    0.420    0.547  122.960
  520.000    1.950    0.404    0.554  120.907
  520.250    2.002    0.382    0.538  119.519
