~VERSION INFORMATION
 VERS.                 2.0:   CWLS LOG ASCII STANDARD -VERSION 2.0
 WRAP.                  NO:   ONE LINE PER DEPTH STEP
~WELL INFORMATION BLOCK
#MNEM.UNIT           DATA                    DESCRIPTION OF MNEMONIC
#---------    -------------------            -------------------------------
# Generated from Intellog Unique Number	CS_69_70/WELL/852
WELL.         HUSKEY OIL OPERATIONS          : Well_name    - WELL
LOC .         00/07-04-069-05W4/0            : Location     - LOCATION
UWI .         00/07-04-069-05W4/0            : Uwi          - UNIQUE WELL ID
ENTR.         SP                             : Entered      - ENTERED BY
SRVC.         SCHLUMBERGER                   : Scn          - SERVICE COMPANY
STRT.M        315                            : top_depth    - START DEPTH
STOP.M        555                            : bot_depth    - STOP DEPTH
STEP.M        0.25                           : increment    - STEP LENGTH
 NULL. -999.2500:NULL Value
~CURVE INFORMATION BLOCK
#MNEM UNIT       ERCB CURVE CODE    CURVE DESCRIPTION
#-----------   ------------------   ----------------------------------
DEPT.M        00 001 00 00         : DEPTH        - DEPTH
ILD .OHMM     00 120 00 00         : RESD         - DEEP RESISTIVITY (DIL)
DPHI.V/V      00 890 00 00         : PHID         - DENSITY POROSITY (LIMESTONE)
NPHI.V/V      00 330 00 00         : PHIN         - NEUTRON POROSITY (LIMESTONE)
GR  .API      00 310 00 00         : GR           - GAMMA RAY
~PARAMETER INFORMATION
#MNEM.UNIT           DATA             DESCRIPTION OF MNEMONIC
#---------         -----------     ------------------------------
GL  .M        680.2                : gl           - GROUND LEVEL ELEVATION
EREF.M        683.8                : kb           - ELEVATION OF DEPTH REFERENCE
DATM.M        680.2                : datum        - DATUM ELEVATION
TDD .M        564                  : tdd          - TOTAL DEPTH DRILLER
RUN .         ONE                  : Run          - RUN NUMBER
ENG .         BILL                 : Engineer     - RECORDING ENGINEER
WIT .         JIM                  : Witness      - WITNESSED BY
MUD .         GEL                  : Mud_type     - MUD TYPE
MATR.         LIMESTONE            : Logunit      - NEUTRON MATRIX
TMAX.C        32                   : BHT          - MAXIMUM RECORDED TEMPERATURE
BHTD.M        564                  : BHTDEP       - MAXIMUM RECORDED TEMPERATURE
MATR.         1                    : LOGUNIT      - NEUTRON MATRIX
RMT .C        25                   : MDTP         - TEMPERATURE OF MUD
NEUT.         1                    : NEUTRON      - NEUTRON TYPE
RESI.         0                    : RESIST       - RESISTIVITY TYPE
RMC .OHMM     0.25                 : RMC          - RESISTIVITY OF MUD CAKE
RMF .OHMM     0.25                 : RMF          - RESISTIVITY OF MUD FILTRATE
SUFT.C        15                   : SUFT         - SURFACE TEMPERATURE
~A  DEPTH     RESD     PHID     PHIN       GR
  315.000    2.691    0.268    0.575   91.551
  315.250    2.697    0.260    0.579   89.075
  315.500    2.688    0.269    0.585   87.140
  315.750    2.644    0.268    0.580   85.807
  316.000    2.586    0.271    0.551   85.377
  316.250    2.548    0.283    0.521   90.305
  316.500    2.511    0.278    0.522   92.824
  316.750    2.452    0.270    0.522   93.116
  317.000    2.421    0.278    0.519   93.469
  317.250    2.413    0.283    0.514   94.724
  317.500    2.418    0.283    0.505   94.775
  317.750    2.432    0.284    0.529   92.300
  318.000    2.429    0.290    0.561   89.762
  318.250    2.389    0.292    0.593   89.574
  318.500    2.346    0.283    0.585   91.070
  318.750    2.329    0.276    0.560   89.797
  319.000    2.356    0.269    0.544   88.465
  319.250    2.461    0.267    0.560   87.613
  319.500    2.527    0.268    0.575   87.424
  319.750    2.528    0.276    0.548   88.920
  320.000    2.515    0.280    0.537   90.356
  320.250    2.511    0.273    0.525   92.094
  320.500    2.507    0.267    0.522   94.372
  320.750    2.499    0.263    0.531   95.989
  321.000    2.440    0.258    0.541   95.559
  321.250    2.386    0.266    0.551   93.323
  321.500    2.441    0.274    0.524   92.713
  321.750    2.574    0.256    0.507   94.871
  322.000    2.634    0.244    0.511   94.080
  322.250    2.674    0.246    0.528   92.386
  322.500    2.690    0.261    0.546   91.113
  322.750    2.717    0.269    0.500   92.128
  323.000    2.733    0.256    0.479   96.813
  323.250    2.734    0.246    0.498   99.093
  323.500    2.745    0.244    0.513   96.857
  323.750    2.757    0.251    0.526   94.321
  324.000    2.794    0.258    0.509   92.928
  324.250    2.832    0.258    0.499   98.336
  324.500    2.838    0.249    0.508  103.684
  324.750    2.855    0.244    0.516  104.338
  325.000    2.878    0.254    0.508  103.667
  325.250    2.928    0.254    0.513  104.201
  325.500    3.024    0.245    0.524  105.878
  325.750    3.100    0.244    0.519  101.957
  326.000    3.154    0.238    0.499   97.614
  326.250    3.221    0.238    0.482   94.716
  326.500    3.246    0.225    0.468   91.879
  326.750    3.229    0.217    0.489   90.064
  327.000    3.071    0.241    0.497   93.185
  327.250    2.899    0.249    0.505   96.126
  327.500    2.835    0.244    0.511   98.707
  327.750    2.825    0.242    0.529  100.022
  328.000    2.848    0.248    0.543   99.411
  328.250    2.952    0.249    0.535   99.343
  328.500    3.089    0.241    0.519  100.357
  328.750    3.276    0.239    0.507   93.546
  329.000    3.383    0.243    0.503   89.987
  329.250    3.500    0.225    0.529   91.062
  329.500    3.601    0.151    0.562   90.151
  329.750    3.616    0.099    0.492   85.568
  330.000    3.530    0.072    0.465   91.638
  330.250    3.505    0.202    0.499   96.084
  330.500    3.416    0.239    0.542   99.626
  330.750    3.279    0.244    0.511   99.919
  331.000    3.183    0.239    0.472   95.035
  331.250    3.184    0.236    0.471   93.580
  331.500    3.414    0.232    0.492   93.453
  331.750    3.695    0.230    0.509   92.300
  332.000    3.947    0.227    0.495   92.352
  332.250    4.154    0.226    0.465   96.375
  332.500    4.338    0.227    0.446   98.474
  332.750    4.464    0.230    0.443  100.934
  333.000    4.490    0.218    0.459  103.032
  333.250    4.577    0.205    0.450  105.250
  333.500    4.692    0.198    0.424  108.371
  333.750    4.720    0.215    0.417  110.350
  334.000    4.722    0.217    0.426  109.920
  334.250    4.849    0.222    0.453  106.299
  334.500    5.017    0.221    0.476  104.123
  334.750    5.330    0.208    0.411  101.707
  335.000    5.587    0.200    0.385   98.990
  335.250    5.684    0.209    0.389   98.861
  335.500    5.729    0.208    0.405   98.251
  335.750    5.939    0.209    0.419   96.798
  336.000    6.285    0.224    0.431   90.228
  336.250    6.803    0.226    0.426   78.964
  336.500    7.376    0.219    0.410   71.189
  336.750    8.430    0.213    0.386   66.306
  337.000    9.687    0.208    0.364   61.182
  337.250   10.723    0.274    0.344   56.297
  337.500   11.498    0.307    0.323   53.098
  337.750   12.282    0.330    0.287   52.247
  338.000   12.852    0.308    0.287   55.369
  338.250   11.995    0.293    0.278   61.199
  338.500   11.217    0.295    0.302   64.621
  338.750   11.013    0.288    0.310   56.185
  339.000   10.337    0.320    0.288   51.603
  339.250    9.172    0.350    0.290   55.325
  339.500    8.576    0.335    0.313   58.327
  339.750    8.156    0.307    0.337   59.041
  340.000    7.814    0.287    0.353   57.948
  340.250    7.558    0.272    0.360   55.893
  340.500    7.406    0.275    0.351   53.236
  340.750    7.382    0.302    0.352   63.039
  341.000    7.468    0.287    0.374   69.230
  341.250    7.698    0.264    0.394   61.095
  341.500    8.041    0.289    0.376   53.503
  341.750    8.180    0.307    0.349   44.404
  342.000    8.213    0.312    0.317   38.016
  342.250    8.094    0.284    0.324   44.087
  342.500    7.947    0.241    0.344   53.107
  342.750    7.788    0.221    0.359   49.608
  343.000    7.575    0.240    0.369   43.458
  343.250    7.381    0.299    0.342   42.127
  343.500    7.193    0.332    0.325   44.886
  343.750    7.088    0.345    0.338   47.466
  344.000    7.011    0.339    0.363   51.672
  344.250    6.975    0.313    0.379   56.478
  344.500    7.017    0.277    0.393   61.646
  344.750    7.166    0.255    0.394   65.249
  345.000    7.400    0.241    0.380   61.328
  345.250    7.700    0.252    0.377   58.971
  345.500    7.703    0.270    0.387   65.224
  345.750    7.367    0.271    0.398   73.280
  346.000    7.125    0.258    0.405   78.509
  346.250    7.048    0.246    0.410   67.845
  346.500    7.171    0.258    0.420   62.118
  346.750    7.419    0.279    0.434   60.365
  347.000    7.662    0.296    0.417   60.658
  347.250    7.855    0.304    0.416   61.612
  347.500    7.828    0.308    0.432   65.093
  347.750    7.685    0.301    0.442   68.154
  348.000    7.405    0.283    0.407   70.133
  348.250    7.095    0.264    0.383   71.028
  348.500    7.085    0.249    0.385   69.936
  348.750    7.262    0.238    0.409   67.881
  349.000    7.472    0.232    0.427   65.223
  349.250    7.602    0.265    0.443   64.673
  349.500    7.705    0.310    0.435   67.554
  349.750    7.722    0.315    0.417   65.078
  350.000    7.668    0.268    0.399   58.628
  350.250    7.599    0.256    0.388   52.841
  350.500    7.531    0.275    0.396   61.802
  350.750    7.520    0.283    0.409   71.905
  351.000    7.523    0.267    0.417   76.712
  351.250    7.582    0.257    0.400   73.934
  351.500    7.584    0.263    0.405   67.184
  351.750    7.502    0.285    0.427   63.504
  352.000    7.352    0.308    0.440   66.806
  352.250    7.125    0.309    0.441   65.112
  352.500    6.904    0.293    0.432   53.547
  352.750    6.816    0.309    0.416   44.870
  353.000    6.692    0.322    0.402   40.467
  353.250    6.656    0.319    0.379   47.560
  353.500    6.684    0.299    0.358   55.738
  353.750    6.788    0.276    0.369   61.569
  354.000    6.828    0.254    0.394   62.042
  354.250    6.883    0.257    0.411   53.547
  354.500    6.910    0.299    0.416   46.014
  354.750    6.887    0.316    0.403   40.588
  355.000    6.838    0.324    0.393   44.973
  355.250    6.777    0.325    0.387   52.007
  355.500    6.742    0.297    0.376   61.810
  355.750    6.706    0.238    0.372   72.817
  356.000    6.721    0.204    0.393   82.439
  356.250    6.762    0.220    0.406   77.254
  356.500    6.828    0.246    0.388   68.939
  356.750    6.999    0.261    0.370   63.092
  357.000    7.147    0.250    0.382   66.574
  357.250    7.272    0.238    0.401   71.260
  357.500    7.302    0.229    0.413   76.007
  357.750    7.304    0.235    0.410   77.864
  358.000    7.226    0.249    0.385   73.763
  358.250    7.161    0.244    0.370   72.249
