~VERSION INFORMATION
 VERS.                 2.0:   CWLS LOG ASCII STANDARD -VERSION 2.0
 WRAP.                  NO:   ONE LINE PER DEPTH STEP
~WELL INFORMATION BLOCK
#MNEM.UNIT           DATA                    DESCRIPTION OF MNEMONIC
#---------    -------------------            -------------------------------
# Generated from Intellog Unique Number	CS_73_76/WELL/770
WELL.         ALLIED ROXANA MINERALS LTD     : Well_name    - WELL
LOC .         00/07-20-073-14W4/0            : Location     - LOCATION
UWI .         00/07-20-073-14W4/0            : Uwi          - UNIQUE WELL ID
ENTR.         SP                             : Entered      - ENTERED BY
SRVC.         SCHLUMBERGER                   : Scn          - SERVICE COMPANY
STRT.M        329.184                        : top_depth    - START DEPTH
STOP.M        548.434                        : bot_depth    - STOP DEPTH
STEP.M        0.25                           : increment    - STEP LENGTH
 NULL. -999.2500:NULL Value
~CURVE INFORMATION BLOCK
#MNEM UNIT       ERCB CURVE CODE    CURVE DESCRIPTION
#-----------   ------------------   ----------------------------------
DEPT.M        00 001 00 00         : DEPTH        - DEPTH
GR  .API      00 310 00 00         : GR           - GAMMA RAY
DPHI.V/V      00 890 00 00         : PHID         - DENSITY POROSITY (SANDSTONE)
NPHI.V/V      00 330 00 00         : PHIN         - NEUTRON POROSITY (SANDSTONE)
ILD .OHMM     00 120 00 00         : RESD         - DEEP RESISTIVITY (DIL)
~PARAMETER INFORMATION
#MNEM.UNIT           DATA             DESCRIPTION OF MNEMONIC
#---------         -----------     ------------------------------
GL  .M        670.255              : gl           - GROUND LEVEL ELEVATION
EREF.M        673.303              : kb           - ELEVATION OF DEPTH REFERENCE
DATM.M        670.255              : datum        - DATUM ELEVATION
TDD .M        573.024              : tdd          - TOTAL DEPTH DRILLER
RUN .         ONE                  : Run          - RUN NUMBER
ENG .         BILL                 : Engineer     - RECORDING ENGINEER
WIT .         JIM                  : Witness      - WITNESSED BY
MUD .         GEL                  : Mud_type     - MUD TYPE
MATR.         SANDSTONE            : Logunit      - NEUTRON MATRIX
TMAX.C        18.8889              : BHT          - MAXIMUM RECORDED TEMPERATURE
BHTD.M        573.024              : BHTDEP       - MAXIMUM RECORDED TEMPERATURE
MATR.         1                    : LOGUNIT      - NEUTRON MATRIX
RMT .C        25                   : MDTP         - TEMPERATURE OF MUD
NEUT.         1                    : NEUTRON      - NEUTRON TYPE
RESI.         0                    : RESIST       - RESISTIVITY TYPE
RMC .OHMM     0.25                 : RMC          - RESISTIVITY OF MUD CAKE
RMF .OHMM     0.25                 : RMF          - RESISTIVITY OF MUD FILTRATE
SUFT.C        15                   : SUFT         - SURFACE TEMPERATURE
~A  DEPTH       GR     PHID     PHIN     RESD
# ...
  503.184   70.567    0.097    0.420   20.541
  503.434   70.823    0.095    0.394   20.313
  503.684   70.849    0.133    0.377   20.061
  503.934   71.049    0.142    0.385   19.529
  504.184   73.501    0.152    0.405   19.219
  504.434   77.118    0.167    0.419   18.870
  504.684   80.369    0.182    0.418   19.412
  504.934   82.394    0.179    0.399   19.941
  505.184   78.707    0.172    0.387   20.204
  505.434   77.028    0.169    0.384   20.221
  505.684   80.641    0.153    0.387   20.225
  505.934   84.071    0.142    0.390   20.289
  506.184   85.748    0.131    0.391   20.308
  506.434   86.933    0.121    0.384   20.227
  506.684   93.237    0.114    0.378   19.771
  506.934   99.163    0.122    0.370   18.018
  507.184  106.284    0.127    0.403   15.041
  507.434  109.959    0.090    0.432   11.910
  507.684  112.017    0.073    0.449    9.560
  507.934  113.042    0.081    0.457    8.087
  508.184  110.593    0.093    0.464    7.359
  508.434  108.014    0.098    0.454    7.376
  508.684  104.154    0.107    0.428    7.751
  508.934   99.210    0.122    0.405    8.594
  509.184   93.043    0.135    0.423    9.780
  509.434   86.009    0.117    0.387   11.805
  509.684   81.021    0.099    0.363   13.886
  509.934   77.890    0.090    0.367   15.185
  510.184   81.974    0.066    0.387   15.648
  510.434   84.769   -0.003    0.404   15.845
  510.684   81.053   -0.006    0.415   15.761
  510.934   78.006    0.135    0.399   15.553
  511.184   79.152    0.141    0.376   15.217
  511.434   83.677    0.130    0.367   14.808
  511.684   87.471    0.118    0.362   15.046
  511.934   89.922    0.089    0.367   15.197
  512.184   90.829    0.087    0.373   14.511
  512.434   86.842    0.096    0.376   13.533
  512.684   83.758    0.102    0.367   12.901
  512.934   82.190    0.109    0.359   12.583
  513.184   87.633    0.093    0.381   12.594
  513.434   90.258    0.081    0.399   12.224
  513.684   91.913    0.074    0.409   11.486
  513.934   89.512    0.079    0.413   10.796
  514.184   83.814    0.085    0.414   10.256
  514.434   70.877    0.123    0.395   10.619
  514.684   62.598    0.144    0.357   11.514
  514.934   61.539    0.168    0.341   13.033
  515.184   65.816    0.171    0.336   15.466
  515.434   65.800    0.128    0.379   17.380
  515.684   63.874    0.137    0.410   19.361
  515.934   59.934    0.170    0.429   20.437
  516.184   59.354    0.199    0.403   20.838
  516.434   65.162    0.209    0.382   21.644
  516.684   68.376    0.183    0.381   22.328
  516.934   67.604    0.160    0.390   22.430
  517.184   72.193    0.172    0.380   22.047
  517.434   75.877    0.151    0.366   21.448
  517.684   81.026    0.115    0.357   19.799
  517.934   83.580    0.067    0.369   17.713
  518.184   87.617    0.041    0.371   16.651
  518.434   93.120    0.028    0.373   15.402
  518.684   96.393    0.052    0.382   14.080
  518.934  101.707    0.061    0.389   12.760
  519.184  103.907    0.062    0.393   11.713
  519.434  103.080    0.060    0.389   11.468
  519.684  106.810    0.092    0.383   11.146
  519.934  109.419    0.072    0.375   10.757
  520.184  111.303    0.063    0.375   10.661
  520.434  111.755    0.060    0.400   10.598
  520.684  107.934    0.065    0.436   10.424
  520.934  105.853    0.069    0.439   10.245
  521.184  105.815    0.065    0.435    9.909
  521.434  105.018    0.060    0.433    9.681
  521.684   99.560    0.060    0.448    9.560
  521.934   93.883    0.078    0.427    9.479
  522.184   89.456    0.069    0.403    9.597
  522.434   85.463    0.090    0.401   10.206
  522.684   81.841    0.111    0.362   10.862
  522.934   78.023    0.135    0.315   12.354
  523.184   74.329    0.150    0.289   14.659
  523.434   71.927    0.174    0.266   17.630
  523.684   70.396    0.199    0.245   18.887
  523.934   68.755    0.215    0.224   19.796
  524.184   70.615    0.243    0.222   20.268
  524.434   76.392    0.258    0.290   20.427
  524.684   79.141    0.257    0.318   20.437
  524.934   79.573    0.219    0.313   20.274
  525.184   74.665    0.182    0.293   20.007
  525.434   72.366    0.208    0.283   18.918
  525.684   74.937    0.194    0.300   18.013
  525.934   71.833    0.167    0.288   17.581
  526.184   67.300    0.207    0.274   22.033
  526.434   62.618    0.232    0.255   24.233
  526.684   61.496    0.280    0.229   26.033
  526.934   62.525    0.277    0.237   28.237
  527.184   63.596    0.254    0.258   30.603
  527.434   64.209    0.237    0.440   32.668
  527.684   60.808    0.215    0.448   32.938
  527.934   54.233    0.193    0.425   34.365
  528.184   54.398    0.182    0.420   38.354
  528.434   53.970    0.173    0.422   42.079
  528.684   54.434    0.182    0.415   43.788
  528.934   53.334    0.198    0.399   43.692
  529.184   53.914    0.211    0.400   46.150
  529.434   50.450    0.195    0.406   49.268
  529.684   48.180    0.178    0.412   51.906
  529.934   51.429    0.195    0.424   46.487
  530.184   54.757    0.204    0.424   44.954
  530.434   57.429    0.183    0.422   41.298
  530.684   59.304    0.162    0.418   35.465
  530.934   60.050    0.161    0.399   28.150
  531.184   64.625    0.119    0.420   25.875
  531.434   65.031    0.137    0.438   24.159
  531.684   62.019    0.156    0.421   20.490
  531.934   66.439    0.158    0.406   20.878
  532.184   66.920    0.157    0.425   23.582
  532.434   68.504    0.172    0.430   27.611
  532.684   77.267    0.177    0.397   26.476
  532.934   83.165    0.137    0.383   20.551
  533.184   88.046    0.111    0.392   19.973
  533.434   83.367    0.096    0.414   18.360
  533.684   79.430    0.132    0.429   16.480
  533.934   78.465    0.146    0.433   15.528
  534.184   85.302    0.125    0.402   14.902
  534.434   97.242    0.097    0.386   13.947
  534.684  105.549    0.077    0.395   13.102
  534.934  100.054    0.069    0.414   11.973
  535.184   96.399    0.086    0.400    8.558
  535.434   93.234    0.100    0.391    7.463
  535.684   96.038    0.110    0.422    6.664
  535.934   87.652    0.125    0.438    6.090
  536.184   79.702    0.142    0.448    5.634
  536.434   71.810    0.156    0.455    5.175
  536.684   68.812    0.162    0.412    4.789
  536.934   65.580    0.151    0.427    4.402
  537.184   59.255    0.163    0.437    4.073
  537.434   50.155    0.185    0.443    3.793
  537.684   45.252    0.201    0.422    3.401
  537.934   43.731    0.221    0.406    3.206
  538.184   47.150    0.237    0.387    2.980
  538.434   48.345    0.221    0.384    2.945
  538.684   48.997    0.208    0.381    2.806
  538.934   47.836    0.210    0.397    2.771
  539.184   41.406    0.213    0.432    2.714
  539.434   42.215    0.214    0.432    2.633
  539.684   43.086    0.247    0.419    2.539
  539.934   41.511    0.257    0.396    2.415
  540.184   39.645    0.269    0.389    2.313
  540.434   39.405    0.285    0.385    2.316
  540.684   39.377    0.253    0.389    2.241
  540.934   39.155    0.241    0.417    2.246
  541.184   38.782    0.250    0.429    2.249
  541.434   38.185    0.246    0.432    2.259
  541.684   38.546    0.235    0.464    2.164
  541.934   39.356    0.250    0.453    2.174
  542.184   45.154    0.258    0.430    2.167
  542.434   57.872    0.236    0.403    2.265
  542.684   65.554    0.219    0.377    2.253
  542.934   76.373    0.185    0.350    2.383
  543.184   99.798    0.073    0.336    2.519
  543.434  130.022    0.040    0.356    2.766
  543.684  133.819    0.006    0.397    3.164
  543.934  134.669    0.000    0.433    3.733
  544.184  136.273   -0.002    0.447    4.282
  544.434  136.199    0.019    0.459    4.629
  544.684  135.174    0.011    0.473    4.799
  544.934  133.956    0.024    0.486    4.806
  545.184  130.353    0.008    0.469    4.704
  545.434  126.347    0.000    0.433    4.874
  545.684  126.390    0.000    0.421    4.920
  545.934  124.857    0.000    0.409    5.069
  546.184  124.338    0.000    0.396    5.331
  546.434  125.643    0.000    0.391    5.689
