~VERSION INFORMATION
 VERS.                 2.0:   CWLS LOG ASCII STANDARD -VERSION 2.0
 WRAP.                  NO:   ONE LINE PER DEPTH STEP
~WELL INFORMATION BLOCK
#MNEM.UNIT           DATA                    DESCRIPTION OF MNEMONIC
#---------    -------------------            -------------------------------
# Generated from Intellog Unique Number	CW_70_72/WELL/468
NULL.         -999.25                        : NULL_VALUE
WELL.         GLOBAL CALLING LAKE SOUTH 05-0 : Well_name    - WELL              
LOC .         05-06-071-21W4                 : Location     - LOCATION          
UWI .         00/05-06-071-21W4/0            : Uwi          - UNIQUE WELL ID    
ENTR.         JAYE                           : Entered      - ENTERED BY        
SRVC.         SCHLUMBERGER                   : Scn          - SERVICE COMPANY   
DATE.         13 MAR 83                      : Date         - LOG DATE          
STRT.M        432                            : top_depth    - START DEPTH       
STOP.M        620                            : bot_depth    - STOP DEPTH        
STEP.M        0.25                           : increment    - STEP LENGTH       
~CURVE INFORMATION BLOCK
#MNEM UNIT       ERCB CURVE CODE    CURVE DESCRIPTION
#-----------   ------------------   ----------------------------------
DEPT.M        00 001 00 00         : DEPTH        - DEPTH                       
DPHI.V/V      00 890 00 00         : PHID         - DENSITY POROSITY (SANDSTONE)
NPHI.V/V      00 330 00 00         : PHIN         - NEUTRON POROSITY (SANDSTONE)
GR  .API      00 310 00 00         : GR           - GAMMA RAY                   
CALI.MM       00 280 01 00         : CAL          - CALIPER                     
ILD .OHMM     00 120 00 00         : RESD         - DEEP RESISTIVITY (DIL)      
~PARAMETER INFORMATION       
#MNEM.UNIT           DATA             DESCRIPTION OF MNEMONIC
#---------         -----------     ------------------------------
GL  .M        681.1                : gl           - GROUND LEVEL ELEVATION      
EREF.M        685.6                : kb           - ELEVATION OF DEPTH REFERENCE
DATM.M        681.1                : datum        - DATUM ELEVATION             
TDD .M        622                  : tdd          - TOTAL DEPTH DRILLER         
RUN .         ONE                  : Run          - RUN NUMBER                  
ENG .         DUNLOP               : Engineer     - RECORDING ENGINEER          
WIT .         LOWTHER              : Witness      - WITNESSED BY                
BASE.         EDM                  : Branch       - HOME BASE OF LOGGING UNIT   
MUD .         GEL CHEM             : Mud_type     - MUD TYPE                    
MATR.         SANDSTONE            : Logunit      - NEUTRON MATRIX              
TMAX.C        20.6                 : BHT          - MAXIMUM RECORDED TEMPERATURE
BHTD.M        622.5                : BHTDEP       - MAXIMUM RECORDED TEMPERATURE
RMT .C        22.8                 : MDTP         - TEMPERATURE OF MUD          
MUDD.KG/M     1110                 : MWT          - MUD DENSITY                 
NEUT.         1                    : NEUTRON      - NEUTRON TYPE                
RESI.         0                    : RESIST       - RESISTIVITY TYPE            
RM  .OHMM     4.22                 : RM           - RESISTIVITY OF MUD          
RMC .OHMM     0                    : RMC          - RESISTIVITY OF MUD CAKE     
RMF .OHMM     2.83                 : RMF          - RESISTIVITY OF MUD FILTRATE 
SUFT.C        0                    : SUFT         - SURFACE TEMPERATURE         
~A  DEPTH     PHID     PHIN       GR      CAL     RESD
# ...
  541.500    0.248    0.477   92.879  155.788    3.855
  541.750    0.240    0.456   87.639  155.609    3.832
  542.000    0.234    0.438   84.777  155.223    3.809
  542.250    0.228    0.424   83.924  155.258    3.814
  542.500    0.223    0.419   83.877  156.336    3.807
  542.750    0.223    0.418   84.713  158.250    3.797
  543.000    0.229    0.418   86.551  159.431    3.781
  543.250    0.218    0.420   88.949  160.091    3.730
  543.500    0.209    0.472   93.419  161.169    3.632
  543.750    0.201    0.485   97.384  162.141    3.530
  544.000    0.202    0.476  101.788  162.694    3.368
  544.250    0.210    0.462  104.627  162.939    3.171
  544.500    0.225    0.511  108.155  163.394    2.942
  544.750    0.255    0.541  111.933  164.362    2.595
  545.000    0.272    0.573  114.521  166.068    2.145
  545.250    0.241    0.576  116.669  167.037    2.160
  545.500    0.224    0.561  116.814  166.864    2.344
  545.750    0.204    0.525  111.762  165.750    2.576
  546.000    0.191    0.470  109.715  162.651    2.923
  546.250    0.184    0.452  107.731  159.450    3.468
  546.500    0.190    0.444  106.187  159.168    4.046
  546.750    0.180    0.440  103.637  159.202    4.532
  547.000    0.174    0.432   99.022  159.243    4.881
  547.250    0.168    0.409   95.723  159.587    5.053
  547.500    0.162    0.396   99.878  160.036    5.165
  547.750    0.158    0.390  101.713  160.176    5.231
  548.000    0.164    0.416  103.801  160.416    5.190
  548.250    0.168    0.417  109.207  160.660    5.044
  548.500    0.166    0.408  105.720  160.589    4.840
  548.750    0.155    0.394   98.161  160.097    4.747
  549.000    0.147    0.383   88.974  157.938    4.898
  549.250    0.151    0.373   89.498  156.092    5.179
  549.500    0.185    0.398   93.587  155.505    5.282
  549.750    0.202    0.426   99.870  155.848    5.290
  550.000    0.167    0.443  104.336  156.301    5.277
  550.250    0.141    0.424   93.459  156.544    5.256
  550.500    0.138    0.388   89.471  156.573    5.214
  550.750    0.179    0.378   97.384  156.190    5.153
  551.000    0.187    0.406  103.603  155.496    5.132
  551.250    0.179    0.422  105.252  155.317    5.110
  551.500    0.176    0.420   99.637  155.350    5.090
  551.750    0.181    0.413   97.150  156.430    5.067
  552.000    0.184    0.406   98.738  157.610    5.046
  552.250    0.181    0.406  103.393  159.107    5.052
  552.500    0.171    0.408  105.730  160.083    5.071
  552.750    0.155    0.409   96.981  160.111    5.067
  553.000    0.147    0.431   95.059  159.415    5.075
  553.250    0.156    0.409   96.896  157.472    5.111
  553.500    0.187    0.393  101.113  157.084    5.116
  553.750    0.211    0.416  106.330  157.114    5.105
  554.000    0.209    0.408  107.289  157.466    5.065
  554.250    0.202    0.389  104.993  157.914    5.025
  554.500    0.200    0.395  103.074  158.467    4.820
  554.750    0.205    0.413  101.714  159.134    4.488
  555.000    0.208    0.418   99.167  159.373    4.445
  555.250    0.195    0.408  100.627  159.822    4.560
  555.500    0.187    0.402  101.525  160.074    4.661
  555.750    0.190    0.410  101.481  160.204    4.827
  556.000    0.192    0.402   99.998  160.237    4.519
  556.250    0.193    0.395   98.577  160.163    4.369
  556.500    0.190    0.402   97.156  159.362    4.533
  556.750    0.186    0.412   91.540  157.833    4.738
  557.000    0.182    0.428   86.487  156.929    4.833
  557.250    0.172    0.437   91.143  156.438    4.876
  557.500    0.167    0.420   95.546  156.051    4.901
  557.750    0.144    0.441   92.812  155.777    5.075
  558.000    0.081    0.420   87.885  155.810    5.590
  558.250    0.039    0.231   82.455  155.631    8.854
  558.500    0.018    0.250   73.454  155.461   12.403
  558.750    0.004    0.271   65.582  155.180   14.937
  559.000    0.008    0.260   51.824  155.106   17.367
  559.250    0.027    0.168   49.715  155.043   19.410
  559.500    0.036    0.169   53.368  154.972   20.367
  559.750    0.039    0.175   56.894  154.997   19.942
  560.000    0.050    0.201   63.115  155.243   17.235
  560.250    0.091    0.228   68.022  155.276   13.621
  560.500    0.168    0.265   74.182  155.098   10.724
  560.750    0.214    0.375   76.707  154.719    8.570
  561.000    0.234    0.405   78.229  154.331    6.033
  561.250    0.218    0.392   75.430  153.947    4.848
  561.500    0.215    0.378   68.434  153.668    4.358
  561.750    0.229    0.406   62.004  153.387    4.088
  562.000    0.241    0.435   63.779  153.007    4.155
  562.250    0.230    0.409   68.746  152.724    4.376
  562.500    0.205    0.380   72.024  152.861    4.498
  562.750    0.194    0.380   72.735  152.795    4.529
  563.000    0.206    0.393   72.817  152.615    4.562
  563.250    0.217    0.406   77.093  152.549    4.585
  563.500    0.217    0.415   77.934  152.577    4.608
  563.750    0.222    0.392   77.133  152.928    4.614
  564.000    0.225    0.370   76.278  153.066    4.630
  564.250    0.199    0.365   76.736  153.306    4.636
  564.500    0.184    0.393   76.819  153.236    4.660
  564.750    0.188    0.406   74.772  153.064    4.649
  565.000    0.205    0.401   70.971  152.883    4.613
  565.250    0.210    0.394   67.859  152.815    4.576
  565.500    0.215    0.389   69.070  152.851    4.456
  565.750    0.224    0.393   73.287  152.678    4.339
  566.000    0.232    0.404   75.751  152.706    4.281
  566.250    0.230    0.414   75.958  152.642    4.328
  566.500    0.216    0.424   75.731  152.566    4.498
  566.750    0.205    0.417   76.249  152.495    4.588
  567.000    0.182    0.386   76.207  152.009    4.841
  567.250    0.161    0.360   75.912  151.517    5.272
  567.500    0.135    0.330   75.933  151.653    5.614
  567.750    0.103    0.335   84.972  152.420    6.036
  568.000    0.139    0.383   95.265  154.647    6.214
  568.250    0.181    0.439  100.734  157.183    5.996
  568.500    0.194    0.451  104.825  162.963    5.388
  568.750    0.191    0.460  108.165  168.110    4.934
  569.000    0.189    0.469  109.628  171.480    4.663
  569.250    0.184    0.479  111.152  171.931    4.359
  569.500    0.177    0.478  113.362  164.033    4.221
  569.750    0.183    0.470  117.140  165.215    4.133
  570.000    0.227    0.462  119.352  167.022    4.055
  570.250    0.232    0.485  118.809  167.266    4.008
  570.500    0.197    0.474  110.749  165.734    3.984
  570.750    0.148    0.442  100.748  164.618    4.019
  571.000    0.110    0.417   93.564  163.820    4.401
  571.250    0.079    0.403   95.716  163.227    4.947
  571.500    0.117    0.386  101.622  162.838    5.133
  571.750    0.169    0.405  102.581  162.250    5.217
  572.000    0.124    0.408  101.664  161.973    5.303
  572.250    0.137    0.401  105.128  161.688    5.391
  572.500    0.160    0.408  111.536  161.517    5.387
  572.750    0.161    0.403  104.667  161.554    5.396
  573.000    0.148    0.378  104.500  161.371    5.403
  573.250    0.158    0.377  103.642  161.194    5.421
  573.500    0.166    0.389   98.087  161.440    5.449
  573.750    0.172    0.403   99.924  161.160    5.446
  574.000    0.155    0.412   96.374  159.939    5.413
  574.250    0.127    0.411   91.008  156.110    5.370
  574.500    0.138    0.406   98.921  155.411    5.328
  574.750    0.157    0.390  103.826  155.445    5.296
  575.000    0.171    0.383  105.915  156.213    5.244
  575.250    0.156    0.402  107.812  157.079    5.183
  575.500    0.141    0.420  111.843  158.678    5.066
  575.750    0.139    0.416  115.431  160.285    4.979
  576.000    0.150    0.409  112.947  161.050    4.921
  576.250    0.163    0.404  109.459  161.283    4.901
  576.500    0.170    0.402  105.471  162.058    4.899
  576.750    0.172    0.394  101.043  162.396    4.970
  577.000    0.169    0.380   96.869  162.743    5.156
  577.250    0.140    0.392   94.445  162.777    5.584
  577.500    0.100    0.398   93.401  162.813    5.793
  577.750    0.112    0.413   97.741  162.950    5.910
