~VERSION INFORMATION
 VERS.                 2.0:   CWLS LOG ASCII STANDARD -VERSION 2.0
 WRAP.                  NO:   ONE LINE PER DEPTH STEP
~WELL INFORMATION BLOCK
#MNEM.UNIT           DATA                    DESCRIPTION OF MNEMONIC
#---------    -------------------            -------------------------------
# Generated from Intellog Unique Number	CW_76_78/WELL/195
WELL.         SCURRY APL AMOCO 06-17         : Well_name    - WELL
LOC .         00/06-17-078-01W5/0            : Location     - LOCATION
UWI .         00/06-17-078-01W5/0            : Uwi          - UNIQUE WELL ID
ENTR.         JJ                             : Entered      - ENTERED BY
SRVC.         WESTERN ATLAS                  : Scn          - SERVICE COMPANY
DATE.         16 FEB 75                      : Date         - LOG DATE
STRT.M        399.288                        : top_depth    - START DEPTH
STOP.M        527.288                        : bot_depth    - STOP DEPTH
STEP.M        0.25                           : increment    - STEP LENGTH
 NULL. -999.2500:NULL Value
~CURVE INFORMATION BLOCK
#MNEM UNIT       ERCB CURVE CODE    CURVE DESCRIPTION
#-----------   ------------------   ----------------------------------
DEPT.M        00 001 00 00         : DEPTH        - DEPTH
CALI.MM       00 280 01 00         : CAL          - CALIPER
DELT.US/F     00 520 00 00         : DELT         - SONIC TRAVEL TIME
GR  .API      00 310 00 00         : GR           - GAMMA RAY
ILD .OHMM     00 120 00 00         : RESD         - DEEP RESISTIVITY (DIL)
~PARAMETER INFORMATION
#MNEM.UNIT           DATA             DESCRIPTION OF MNEMONIC
#---------         -----------     ------------------------------
GL  .M        606.552              : gl           - GROUND LEVEL ELEVATION
EREF.M        610.514              : kb           - ELEVATION OF DEPTH REFERENCE
DATM.M        606.552              : datum        - DATUM ELEVATION
TDD .M        525.17               : tdd          - TOTAL DEPTH DRILLER
RUN .         ONE                  : Run          - RUN NUMBER
ENG .         THOMPSON             : Engineer     - RECORDING ENGINEER
WIT .         KIRKPATRICK          : Witness      - WITNESSED BY
BASE.         BROOKS               : Branch       - HOME BASE OF LOGGING UNIT
MUD .         MUD/GEL              : Mud_type     - MUD TYPE
MATR.         SANDSTONE            : Logunit      - NEUTRON MATRIX
TMAX.C        25.5556              : BHT          - MAXIMUM RECORDED TEMPERATURE
BHTD.M        526.085              : BHTDEP       - MAXIMUM RECORDED TEMPERATURE
RMT .C        15.5556              : MDTP         - TEMPERATURE OF MUD
MUDD.KG/M     1116                 : MWT          - MUD DENSITY
NEUT.         1                    : NEUTRON      - NEUTRON TYPE
RESI.         0                    : RESIST       - RESISTIVITY TYPE
RM  .OHMM     6                    : RM           - RESISTIVITY OF MUD
RMC .OHMM     2.4                  : RMC          - RESISTIVITY OF MUD CAKE
RMF .OHMM     2.8                  : RMF          - RESISTIVITY OF MUD FILTRATE
SUFT.C        5                    : SUFT         - SURFACE TEMPERATURE
~A  DEPTH      CAL     DELT       GR     RESD
# ...
  442.788  175.362  233.248   72.838   31.629
  443.038  174.618  272.120   71.141   28.956
  443.288  173.972  352.597   81.795   25.199
  443.538  173.686  355.689   89.527   22.142
  443.788  173.694  332.328   87.139   19.444
  444.038  174.137  313.882   82.686   17.467
  444.288  175.126  306.871   81.192   16.803
  444.538  175.263  306.095   82.148   17.708
  444.788  174.297  326.563   84.818   18.833
  445.038  174.988  354.615   87.828   18.810
  445.288  173.581  369.330   91.234   17.947
  445.538  173.047  374.826   95.514   16.819
  445.788  173.232  366.208   94.733   15.784
  446.038  173.703  354.072   88.723   15.644
  446.288  174.314  349.621   85.778   16.458
  446.538  174.316  356.585   86.821   16.953
  446.788  174.413  364.553   91.160   16.223
  447.038  174.169  372.807   91.453   15.130
  447.288  174.796  377.852   94.629   13.791
  447.538  174.174  362.119   93.141   13.231
  447.788  173.003  338.950   86.413   14.225
  448.038  171.547  316.832   80.399   16.275
  448.288  172.024  306.172   83.738   18.942
  448.538  173.656  322.206   86.153   21.013
  448.788  174.607  346.303   89.325   18.944
  449.038  175.198  364.183   92.201   16.662
  449.288  175.522  368.603   93.529   13.848
  449.538  175.207  372.949   97.293   12.223
  449.788  173.890  369.193  101.888   12.132
  450.038  170.977  350.754   96.525   12.907
  450.288  170.705  325.021   88.601   14.110
  450.538  171.308  297.947   84.928   15.335
  450.788  172.513  289.979   79.145   16.639
  451.038  173.067  320.286   82.880   18.640
  451.288  171.907  339.958   80.239   20.462
  451.538  171.244  353.026   78.666   20.547
  451.788  172.555  364.684   81.581   19.992
  452.038  174.221  373.008   85.103   19.499
  452.288  173.384  380.105   87.437   18.857
  452.538  172.792  374.259   85.104   18.100
  452.788  173.277  374.921   88.152   17.290
  453.038  174.091  370.564   94.301   16.399
  453.288  174.916  352.104   98.302   15.278
  453.538  176.167  338.313   92.596   14.674
  453.788  173.693  341.502   85.397   14.807
  454.038  172.919  335.525   85.053   15.216
  454.288  173.408  341.035   87.436   15.756
  454.538  174.447  360.559   92.863   16.299
  454.788  174.273  367.333   94.587   16.291
  455.038  174.920  366.566   95.925   15.289
  455.288  173.575  367.058   98.227   13.893
  455.538  171.882  368.276  102.221   12.493
  455.788  171.135  369.772  100.884   11.572
  456.038  173.351  372.173  101.087   10.976
  456.288  174.079  369.195  101.198   10.707
  456.538  173.057  358.085   98.063   10.760
  456.788  173.420  345.034  100.410   11.318
  457.038  172.204  333.183   96.193   12.514
  457.288  171.036  325.780   92.523   12.854
  457.538  171.868  334.867   99.738   12.671
  457.788  173.736  357.130  104.257   12.108
  458.038  175.168  364.876  105.735   11.404
  458.288  175.414  365.114  109.056   10.444
  458.538  174.830  369.856  107.777    9.718
  458.788  175.069  366.345  102.077    9.451
  459.038  174.161  359.078   98.840    9.522
  459.288  172.678  352.113   97.313    9.775
  459.538  172.641  343.607   99.840   10.300
  459.788  172.501  332.138  100.735   11.054
  460.038  172.388  328.633   92.914   11.378
  460.288  171.999  343.192   91.638   11.303
  460.538  171.785  347.031   96.882   11.716
  460.788  172.139  336.359  101.690   11.756
  461.038  172.817  350.109  100.607   10.966
  461.288  173.880  364.016  106.393    9.976
  461.538  175.174  374.733  110.998    9.431
  461.788  176.211  380.503  106.856    8.783
  462.038  176.977  370.361  102.970    8.321
  462.288  176.889  361.163  103.705    8.269
  462.538  175.922  352.104   96.617    8.512
  462.788  174.896  343.760   88.443    9.272
  463.038  174.490  351.224   89.515   10.987
  463.288  173.781  372.871   89.048   13.626
  463.538  170.613  366.847   81.141   18.261
  463.788  170.077  348.173   74.622   21.645
  464.038  170.478  340.132   71.968   24.130
  464.288  170.980  269.826   75.437   26.427
  464.538  170.909  243.848   77.185   25.985
  464.788  171.402  303.684   70.928   25.492
  465.038  172.436  253.689   64.792   28.071
  465.288  172.381  222.006   62.813   30.286
  465.538  173.346  224.846   64.306   32.001
  465.788  174.782  230.893   67.386   34.256
  466.038  175.689  235.622   72.660   35.561
  466.288  175.933  336.150   77.970   32.272
  466.538  174.386  341.440   86.129   28.371
  466.788  172.209  296.582   79.353   25.817
  467.038  173.672  276.033   74.567   23.082
  467.288  174.794  264.762   79.743   21.467
  467.538  175.345  305.936   82.777   20.239
  467.788  175.498  334.506   90.316   19.082
  468.038  174.207  344.511   92.562   17.945
  468.288  174.282  322.040   87.596   16.716
  468.538  174.763  307.743   88.722   15.527
  468.788  175.131  325.000   95.162   14.796
  469.038  175.149  330.285   99.011   15.040
  469.288  175.012  332.525   96.885   15.492
  469.538  174.832  311.932   94.766   16.031
  469.788  174.752  324.347   99.081   16.007
  470.038  174.843  337.240  102.253   15.604
  470.288  175.031  344.260  101.375   14.829
  470.538  175.155  344.298   99.443   14.074
  470.788  175.451  328.246   97.630   13.538
  471.038  175.228  345.196   94.510   12.930
  471.288  174.303  347.104   91.875   12.421
  471.538  173.604  349.065  101.204   12.063
  471.788  173.239  359.376   96.989   11.571
  472.038  173.860  347.794  100.012   10.807
  472.288  175.300  352.200  105.677   10.168
  472.538  172.548  356.038  105.752    9.920
  472.788  172.887  348.415  100.662    9.908
  473.038  172.039  354.989   94.987   10.018
  473.288  170.411  355.401   89.341   10.303
  473.538  170.478  343.751   90.749   10.708
  473.788  172.210  348.839   95.723   11.290
  474.038  172.299  349.862   99.381   11.858
  474.288  172.250  341.176   92.918   12.358
  474.538  172.805  341.166   89.419   12.402
  474.788  173.548  349.722   91.988   11.959
  475.038  174.462  348.125   95.986   11.429
  475.288  173.395  352.565   93.022   11.089
  475.538  171.942  350.085   93.418   10.920
  475.788  171.007  338.063   91.435   10.889
  476.038  170.934  347.130   93.981   10.913
  476.288  171.472  352.893   99.632   10.965
  476.538  172.388  351.200   99.002   11.214
  476.788  173.024  347.821   96.540   11.443
  477.038  173.419  344.016   97.661   11.354
  477.288  173.587  355.781  102.000   11.128
  477.538  174.572  361.665  107.370   11.057
  477.788  174.679  354.079  103.809   11.070
  478.038  174.126  356.348   96.490   11.199
  478.288  174.391  364.369   88.698   11.929
  478.538  172.328  341.493   81.752   13.596
  478.788  169.739  264.914   75.030   16.468
  479.038  170.450  250.274   76.053   19.667
  479.288  173.007  289.539   83.483   21.303
  479.538  172.895  344.328   87.669   21.628
  479.788  172.047  358.938   84.118   20.994
  480.038  172.095  351.512   79.834   19.936
  480.288  172.505  348.477   76.615   19.345
  480.538  173.092  341.183   70.499   20.564
  480.788  173.909  287.909   65.268   22.944
  481.038  174.523  263.199   61.661   26.551
  481.288  175.029  250.710   57.381   29.080
  481.538  175.045  257.606   60.254   29.846
  481.788  174.161  255.968   72.313   27.122
  482.038  171.523  306.430   83.607   23.878
  482.288  167.560  340.002   83.353   19.966
  482.538  168.465  343.889   86.848   16.613
  482.788  168.228  334.845   91.899   14.768
  483.038  168.385  320.289   84.983   13.770
  483.288  168.432  317.510   84.073   13.331
  483.538  167.122  330.382   88.156   13.326
  483.788  168.577  335.187   87.967   13.381
  484.038  168.549  329.725   85.809   13.164
  484.288  167.592  322.709   87.291   12.857
  484.538  166.565  333.275   91.714   12.588
  484.788  165.985  334.207   94.824   12.397
  485.038  165.987  330.593   97.927   12.320
  485.288  166.347  325.486   95.660   12.328
  485.538  167.127  332.082  103.570   12.102
  485.788  167.535  338.013  100.527   11.810
  486.038  167.641  336.425  100.210   11.579
