~VERSION INFORMATION
 VERS.                 2.0:   CWLS LOG ASCII STANDARD -VERSION 2.0
 WRAP.                  NO:   ONE LINE PER DEPTH STEP
~WELL INFORMATION BLOCK
#MNEM.UNIT           DATA                    DESCRIPTION OF MNEMONIC
#---------    -------------------            -------------------------------
# Generated from Intellog Unique Number	CS_73_76/WELL/2175
WELL.         BOW VALLEY INDUSTRIES LTD.     : Well_name    - WELL
LOC .         00/07-20-074-13W4/0            : Location     - LOCATION
UWI .         00/07-20-074-13W4/0            : Uwi          - UNIQUE WELL ID
ENTR.         SP                             : Entered      - ENTERED BY
SRVC.         SCHLUMBERGER                   : Scn          - SERVICE COMPANY
STRT.M        370                            : top_depth    - START DEPTH
STOP.M        605                            : bot_depth    - STOP DEPTH
STEP.M        0.25                           : increment    - STEP LENGTH
 NULL. -999.2500:NULL Value
~CURVE INFORMATION BLOCK
#MNEM UNIT       ERCB CURVE CODE    CURVE DESCRIPTION
#-----------   ------------------   ----------------------------------
DEPT.M        00 001 00 00         : DEPTH        - DEPTH
ILD .OHMM     00 120 00 00         : RESD         - DEEP RESISTIVITY (DIL)
DPHI.V/V      00 890 00 00         : PHID         - DENSITY POROSITY (LIMESTONE)
NPHI.V/V      00 330 00 00         : PHIN         - NEUTRON POROSITY (LIMESTONE)
GR  .API      00 310 00 00         : GR           - GAMMA RAY
~PARAMETER INFORMATION
#MNEM.UNIT           DATA             DESCRIPTION OF MNEMONIC
#---------         -----------     ------------------------------
GL  .M        728.69               : gl           - GROUND LEVEL ELEVATION
EREF.M        732.14               : kb           - ELEVATION OF DEPTH REFERENCE
DATM.M        728.69               : datum        - DATUM ELEVATION
TDD .M        610                  : tdd          - TOTAL DEPTH DRILLER
RUN .         ONE                  : Run          - RUN NUMBER
ENG .         BILL                 : Engineer     - RECORDING ENGINEER
WIT .         JIM                  : Witness      - WITNESSED BY
MUD .         GEL                  : Mud_type     - MUD TYPE
MATR.         LIMESTONE            : Logunit      - NEUTRON MATRIX
TMAX.C        24                   : BHT          - MAXIMUM RECORDED TEMPERATURE
BHTD.M        610                  : BHTDEP       - MAXIMUM RECORDED TEMPERATURE
MATR.         1                    : LOGUNIT      - NEUTRON MATRIX
RMT .C        25                   : MDTP         - TEMPERATURE OF MUD
NEUT.         1                    : NEUTRON      - NEUTRON TYPE
RESI.         0                    : RESIST       - RESISTIVITY TYPE
RMC .OHMM     0.25                 : RMC          - RESISTIVITY OF MUD CAKE
RMF .OHMM     0.25                 : RMF          - RESISTIVITY OF MUD FILTRATE
SUFT.C        15                   : SUFT         - SURFACE TEMPERATURE
~A  DEPTH     RESD     PHID     PHIN       GR
# ...
  413.500    7.508    0.251    0.431  101.546
  413.750    7.650    0.234    0.430   99.725
  414.000    7.795    0.242    0.425   99.118
  414.250    7.653    0.249    0.430   96.690
  414.500    7.512    0.257    0.435   96.691
  414.750    7.374    0.240    0.444   96.084
  415.000    7.106    0.242    0.449   93.049
  415.250    6.976    0.191    0.459   92.442
  415.500    6.722    0.187    0.472   92.443
  415.750    6.477    0.199    0.482   89.407
  416.000    6.358    0.161    0.443   90.015
  416.250    6.242    0.092    0.438   94.267
  416.500    6.360    0.205    0.449   95.482
  416.750    6.480    0.248    0.467   94.268
  417.000    7.114    0.272    0.472   91.840
  417.250    7.385    0.283    0.483   85.768
  417.500    7.524    0.287    0.481   82.125
  417.750    7.811    0.270    0.473   79.696
  418.000    7.812    0.285    0.471   80.912
  418.250    7.960    0.271    0.451   82.734
  418.500    8.418    0.253    0.442   85.164
  418.750    8.739    0.265    0.447   74.234
  419.000    9.243    0.263    0.425   62.089
  419.250    9.417    0.260    0.415   53.587
  419.500    9.418    0.270    0.398   61.483
  419.750    9.076    0.279    0.396   71.200
  420.000    9.077    0.262    0.404   82.132
  420.250    9.248    0.243    0.412   88.206
  420.500    9.601    0.253    0.425   89.421
  420.750    9.603    0.259    0.432   93.066
  421.000    9.784    0.258    0.430  102.176
  421.250    9.785    0.260    0.425  108.249
  421.500    9.787    0.247    0.432  110.680
  421.750    9.788    0.256    0.427  110.680
  422.000    9.973    0.266    0.437  108.859
  422.250   10.162    0.256    0.443  104.002
  422.500   10.163    0.264    0.449  100.358
  422.750   10.356    0.270    0.459   94.894
  423.000   10.357    0.271    0.453   90.643
  423.250   10.359    0.256    0.447   84.571
  423.500   10.169    0.266    0.442   81.535
  423.750   10.170    0.282    0.438   76.678
  424.000    9.984    0.281    0.430   73.642
  424.250    9.620    0.281    0.436   67.570
  424.500    9.444    0.289    0.435   61.497
  424.750    9.271    0.287    0.424   56.033
  425.000    9.102    0.263    0.412   51.175
  425.250    9.274    0.260    0.407   50.569
  425.500    9.627    0.269    0.410   51.176
  425.750    9.810    0.274    0.421   52.392
  426.000    9.811    0.276    0.420   54.215
  426.250    9.996    0.294    0.426   54.822
  426.500    9.998    0.306    0.414   54.823
  426.750    9.999    0.308    0.412   53.610
  427.000   10.000    0.316    0.431   54.218
  427.250   10.001    0.320    0.438   55.433
  427.500   10.191    0.329    0.435   57.255
  427.750   10.192    0.334    0.424   57.256
  428.000   10.195    0.312    0.429   55.435
  428.250   10.196    0.302    0.410   55.436
  428.500   10.197    0.300    0.418   54.829
  428.750   10.390    0.315    0.432   54.830
  429.000   10.391    0.322    0.442   57.867
  429.250   10.393    0.315    0.425   59.690
  429.500   10.394    0.316    0.416   60.298
  429.750   10.395    0.323    0.419   59.691
  430.000   10.397    0.321    0.424   59.085
  430.250   10.399    0.315    0.418   59.693
  430.500   10.399    0.327    0.404   60.908
  430.750   10.401    0.319    0.395   61.516
  431.000   10.402    0.317    0.394   63.339
  431.250   10.403    0.319    0.402   64.554
  431.500   10.405    0.312    0.407   64.555
  431.750   10.407    0.322    0.416   66.985
  432.000   10.216    0.321    0.424   66.985
  432.250   10.217    0.322    0.431   65.771
  432.500   10.219    0.331    0.441   65.772
  432.750   10.220    0.335    0.450   66.987
  433.000   10.222    0.339    0.447   66.988
  433.250   10.223    0.332    0.432   64.560
  433.500   10.224    0.331    0.437   64.561
  433.750   10.226    0.335    0.435   64.561
  434.000   10.227    0.331    0.433   68.206
  434.250   10.229    0.328    0.447   67.599
  434.500   10.230    0.316    0.458   67.600
  434.750   10.231    0.321    0.449   65.779
  435.000   10.232    0.322    0.430   66.994
  435.250   10.234    0.316    0.417   68.210
  435.500   10.236    0.327    0.430   68.210
  435.750   10.237    0.328    0.444   68.818
  436.000   10.050    0.320    0.430   69.427
  436.250   10.051    0.328    0.423   69.427
  436.500   10.052    0.332    0.420   67.606
  436.750   10.053    0.329    0.423   68.214
  437.000    9.870    0.311    0.429   69.429
  437.250    9.871    0.306    0.431   71.859
  437.500    9.690    0.321    0.427   72.467
  437.750    9.513    0.328    0.427   69.432
  438.000    9.514    0.337    0.426   65.181
  438.250    9.515    0.339    0.418   59.109
  438.500    9.341    0.321    0.408   59.110
  438.750    9.342    0.337    0.426   60.932
  439.000    9.343    0.346    0.454   60.326
  439.250    9.344    0.339    0.470   59.719
  439.500    9.347    0.338    0.477   59.113
  439.750    9.347    0.333    0.464   59.113
  440.000    9.349    0.332    0.446   59.114
  440.250    9.525    0.316    0.441   59.115
  440.500    9.706    0.321    0.446   60.330
  440.750    9.707    0.322    0.447   60.938
  441.000    9.891    0.323    0.444   62.154
  441.250   10.078    0.327    0.443   63.369
  441.500   10.080    0.329    0.447   63.977
  441.750   10.081    0.314    0.443   63.370
  442.000   10.082    0.316    0.453   61.549
  442.250   10.083    0.327    0.449   59.728
  442.500   10.085    0.314    0.444   59.729
  442.750    9.901    0.316    0.441   61.552
  443.000    9.902    0.317    0.441   63.374
  443.250    9.904    0.319    0.459   63.375
  443.500    9.905    0.323    0.466   62.768
  443.750    9.905    0.309    0.477   63.376
  444.000    9.907    0.316    0.469   63.984
  444.250    9.909    0.326    0.464   65.200
  444.500    9.727    0.327    0.464   66.415
  444.750    9.729    0.314    0.458   66.416
  445.000    9.730    0.321    0.448   65.202
  445.250    9.731    0.321    0.449   64.595
  445.500    9.732    0.319    0.447   63.381
  445.750    9.734    0.320    0.450   63.989
  446.000    9.735    0.317    0.458   63.383
  446.250    9.736    0.313    0.456   64.598
  446.500    9.737    0.305    0.450   64.599
  446.750    9.739    0.302    0.449   63.385
  447.000    9.740    0.305    0.449   62.779
  447.250    9.562    0.307    0.444   62.172
  447.500    9.563    0.303    0.436   62.173
  447.750    9.565    0.290    0.441   62.781
  448.000    9.565    0.298    0.427   60.960
  448.250    9.930    0.311    0.424   60.353
  448.500   10.118    0.307    0.431   59.139
  448.750   10.503    0.275    0.430   59.140
  449.000   10.903    0.048    0.418   57.319
  449.250   10.506    0.028    0.392   56.712
  449.500    9.573    0.060    0.256   63.393
  449.750    8.405    0.269    0.277   70.074
  450.000    7.379    0.296    0.307   72.504
  450.250    7.110    0.282    0.431   71.897
  450.500    6.851    0.285    0.453   71.291
  450.750    6.725    0.280    0.459   71.899
  451.000    6.481    0.267    0.463   70.685
  451.250    6.362    0.257    0.464   69.472
  451.500    6.130    0.268    0.463   71.294
  451.750    6.131    0.277    0.461   74.331
  452.000    6.132    0.275    0.475   76.761
  452.250    6.133    0.276    0.478   76.154
  452.500    6.366    0.273    0.483   73.726
  452.750    6.487    0.259    0.477   69.476
  453.000    6.609    0.268    0.469   66.440
  453.250    6.862    0.280    0.460   62.190
  453.500    6.862    0.297    0.452   62.190
  453.750    6.863    0.288    0.444   66.442
  454.000    6.613    0.290    0.438   68.265
  454.250    6.373    0.303    0.436   71.909
  454.500    6.255    0.302    0.458   73.125
  454.750    5.808    0.291    0.487   72.518
  455.000    5.392    0.305    0.484   73.733
  455.250    5.392    0.310    0.473   75.556
  455.500    5.293    0.288    0.473   76.771
  455.750    5.394    0.271    0.478   79.808
  456.000    5.599    0.258    0.469   84.060
  456.250    5.921    0.212    0.461   88.312
  456.500    6.147    0.206    0.493   89.527
  456.750    6.263    0.207    0.482   90.743
