~VERSION INFORMATION
 VERS.                 2.0:   CWLS LOG ASCII STANDARD -VERSION 2.0
 WRAP.                  NO:   ONE LINE PER DEPTH STEP
~WELL INFORMATION BLOCK
#MNEM.UNIT           DATA                    DESCRIPTION OF MNEMONIC
#---------    -------------------            -------------------------------
# Generated from Intellog Unique Number	CS_71_72/WELL/2057
WELL.         HUS BVX UNIGAS LYLE            : Well_name    - WELL
LOC .         00/07-13-071-16W4/0            : Location     - LOCATION
UWI .         00/07-13-071-16W4/0            : Uwi          - UNIQUE WELL ID
ENTR.         T                              : Entered      - ENTERED BY
SRVC.         WESTERN ATLAS                  : Scn          - SERVICE COMPANY
DATE.         01\13\92                       : Date         - LOG DATE
STRT.M        304.8                          : top_depth    - START DEPTH
STOP.M        499.8                          : bot_depth    - STOP DEPTH
STEP.M        0.25                           : increment    - STEP LENGTH
 NULL. -999.2500:NULL Value
~CURVE INFORMATION BLOCK
#MNEM UNIT       ERCB CURVE CODE    CURVE DESCRIPTION
#-----------   ------------------   ----------------------------------
DEPT.M        00 001 00 00         : DEPTH        - DEPTH
GR  .API      00 310 00 00         : GR           - GAMMA RAY
NPHI.V/V      00 330 00 00         : PHIN         - NEUTRON POROSITY (SANDSTONE)
ILD .OHMM     00 120 00 00         : RESD         - DEEP RESISTIVITY (DIL)
~PARAMETER INFORMATION
#MNEM.UNIT           DATA             DESCRIPTION OF MNEMONIC
#---------         -----------     ------------------------------
GL  .M        600.151              : gl           - GROUND LEVEL ELEVATION
EREF.M        603.199              : kb           - ELEVATION OF DEPTH REFERENCE
DATM.M        603.199              : datum        - DATUM ELEVATION
TDD .M        500.482              : tdd          - TOTAL DEPTH DRILLER
RUN .         ONE                  : Run          - RUN NUMBER
ENG .         JO                   : Engineer     - RECORDING ENGINEER
WIT .         TIM                  : Witness      - WITNESSED BY
MUD .         GEL                  : Mud_type     - MUD TYPE
MATR.         SANDSTONE            : Logunit      - NEUTRON MATRIX
TMAX.C        24.4444              : BHT          - MAXIMUM RECORDED TEMPERATURE
BHTD.M        500.482              : BHTDEP       - MAXIMUM RECORDED TEMPERATURE
RMT .C        14.4444              : MDTP         - TEMPERATURE OF MUD
MUDD.KG/M     9483.33              : MWT          - MUD DENSITY
NEUT.         1                    : NEUTRON      - NEUTRON TYPE
RESI.         0                    : RESIST       - RESISTIVITY TYPE
RM  .OHMM     4.16                 : RM           - RESISTIVITY OF MUD
RMC .OHMM     4.16                 : RMC          - RESISTIVITY OF MUD CAKE
RMF .OHMM     4.16                 : RMF          - RESISTIVITY OF MUD FILTRATE
SUFT.C        4                    : SUFT         - SURFACE TEMPERATURE
~A  DEPTH       GR     PHIN     RESD
# ...
  413.300   62.025    0.420    9.404
  413.550   59.615    0.408   14.230
  413.800   59.118    0.394   20.769
  414.050   59.094    0.365   13.719
  414.300   58.602    0.275   10.096
  414.550   60.013    0.227    7.843
  414.800   61.908    0.262    5.772
  415.050   62.368    0.348    3.882
  415.300   60.440    0.392    3.300
  415.550   57.073    0.400    3.240
  415.800   53.223    0.395    3.239
  416.050   47.942    0.383    3.238
  416.300   46.005    0.372    3.180
  416.550   45.982    0.378    3.122
  416.800   45.494    0.390    3.065
  417.050   45.475    0.396    3.010
  417.300   46.887    0.396    3.119
  417.550   48.786    0.398    3.233
  417.800   51.633    0.399    3.351
  418.050   52.575    0.400    3.601
  418.300   54.939    0.404    3.869
  418.550   56.360    0.407    3.938
  418.800   57.781    0.407    4.081
  419.050   61.111    0.409    4.154
  419.300   60.613    0.411    4.153
  419.550   61.068    0.413    4.078
  419.800   62.006    0.413    3.933
  420.050   60.552    0.415    3.861
  420.300   58.620    0.417    3.931
  420.550   57.645    0.421    4.223
  420.800   56.191    0.422    4.538
  421.050   54.259    0.410    4.619
  421.300   51.843    0.403    4.618
  421.550   54.221    0.388    4.617
  421.800   59.464    0.382    4.452
  422.050   62.794    0.386    4.294
  422.300   66.597    0.390    4.140
  422.550   66.583    0.395    4.065
  422.800   68.478    0.403    3.921
  423.050   69.889    0.410    3.781
  423.300   66.049    0.415    3.712
  423.550   60.285    0.418    3.645
  423.800   57.870    0.419    3.644
  424.050   56.894    0.422    3.709
  424.300   58.794    0.422    3.844
  424.550   63.558    0.415    3.914
  424.800   64.018    0.413    4.281
  425.050   63.042    0.413    4.358
  425.300   63.502    0.413    4.517
  425.550   64.914    0.413    4.681
  425.800   63.938    0.413    4.851
  426.050   64.402    0.413    4.938
  426.300   66.297    0.412    5.027
  426.550   66.757    0.411    5.026
  426.800   68.168    0.411    4.935
  427.050   70.546    0.411    4.590
  427.300   74.354    0.411    4.427
  427.550   78.162    0.413    3.831
  427.800   81.013    0.411    3.629
  428.050   86.252    0.422    3.437
  428.300   88.629    0.427    3.375
  428.550   90.046    0.437    3.254
  428.800   91.931    0.447    3.138
  429.050   90.004    0.460    3.137
  429.300   87.115    0.477    3.194
  429.550   84.226    0.480    3.370
  429.800   80.854    0.468    3.493
  430.050   79.405    0.468    3.556
  430.300   77.951    0.474    3.491
  430.550   76.497    0.480    3.490
  430.800   75.522    0.484    3.366
  431.050   76.938    0.483    3.245
  431.300   80.746    0.483    3.245
  431.550   83.114    0.490    3.186
  431.800   82.617    0.492    3.185
  432.050   82.598    0.492    3.185
  432.300   81.140    0.485    3.242
  432.550   79.691    0.482    3.359
  432.800   81.107    0.476    3.610
  433.050   82.045    0.457    3.949
  433.300   78.199    0.435    5.174
  433.550   75.310    0.426    6.778
  433.800   72.895    0.411    7.414
  434.050   74.790    0.402    7.412
  434.300   71.896    0.398    7.148
  434.550   69.490    0.396    7.019
  434.800   68.037    0.393    6.892
  435.050   71.840    0.389    6.767
  435.300   74.696    0.386    7.013
  435.550   75.151    0.384    7.672
  435.800   76.572    0.381    8.393
  436.050   82.772    0.374    9.183
  436.300   80.361    0.259   10.797
  436.550   70.297    0.225   11.394
  436.800   64.538    0.238   10.597
  437.050   57.817    0.274    9.858
  437.300   60.669    0.308    9.337
  437.550   64.477    0.363    9.004
  437.800   63.501    0.379    9.332
  438.050   53.916    0.373   10.027
  438.300   48.635    0.357   10.774
  438.550   52.443    0.296   11.166
  438.800   57.208    0.213   10.202
  439.050   62.929    0.299    7.784
  439.300   70.081    0.390    6.617
  439.550   71.497    0.398    6.044
  439.800   72.909    0.400    5.828
  440.050   74.335    0.400    5.723
  440.300   77.177    0.401    5.620
  440.550   78.602    0.408    5.618
  440.800   79.540    0.409    5.617
  441.050   79.043    0.408    5.615
  441.300   78.541    0.413    5.614
  441.550   75.652    0.422    5.714
  441.800   73.237    0.430    5.817
  442.050   73.218    0.427    5.921
  442.300   73.678    0.411    5.919
  442.550   74.137    0.410    6.026
  442.800   75.554    0.412    6.024
  443.050   77.927    0.418    6.022
  443.300   80.783    0.423    6.130
  443.550   84.586    0.419    6.240
  443.800   81.702    0.412    6.352
  444.050   78.330    0.410    6.466
  444.300   77.355    0.405    6.464
  444.550   76.862    0.398    6.579
  444.800   78.752    0.393    6.578
  445.050   76.341    0.393    6.576
  445.300   71.061    0.398    6.342
  445.550   62.905    0.402    6.007
  445.800   61.456    0.406    5.487
  446.050   62.873    0.409    5.105
  446.300   67.159    0.414    4.418
  446.550   70.967    0.420    3.894
  446.800   75.732    0.420    3.370
  447.050   79.540    0.420    3.024
  447.300   80.478    0.424    2.763
  447.550   77.579    0.432    2.664
  447.800   75.174    0.458    2.712
  448.050   77.073    0.472    2.810
  448.300   81.838    0.486    2.913
  448.550   86.124    0.493    3.245
  448.800   90.406    0.489    3.680
  449.050   91.827    0.484    4.486
  449.300   86.541    0.469    5.876
  449.550   77.434    0.432    6.201
  449.800   76.458    0.430    6.427
  450.050   71.656    0.419    6.542
  450.300   64.462    0.356    6.540
  450.550   53.915    0.276    6.778
  450.800   61.071    0.308    7.416
  451.050   59.617    0.335    9.203
  451.300   56.250    0.403   10.821
  451.550   50.970    0.375   10.624
  451.800   46.167    0.215    9.707
  452.050   49.019    0.193    8.869
  452.300   54.262    0.241    7.957
  452.550   62.853    0.270    7.537
  452.800   74.793    0.328    6.762
  453.050   73.818    0.360    6.522
  453.300   72.838    0.369    6.177
  453.550   72.336    0.377    5.746
  453.800   72.322    0.383    5.344
  454.050   72.303    0.390    5.154
  454.300   71.806    0.399    4.794
  454.550   70.835    0.410    4.623
  454.800   70.338    0.422    4.623
  455.050   71.745    0.435    5.435
  455.300   73.157    0.435    4.377
  455.550   75.539    0.434    4.145
  455.800   79.825    0.434    3.998
  456.050   76.936    0.434    3.855
  456.300   78.826    0.433    3.651
  456.550   81.682    0.433    3.521
  456.800   85.969    0.434    3.395
  457.050   84.515    0.438    3.334
  457.300   82.583    0.442    3.333
  457.550   81.607    0.449    3.393
  457.800   79.671    0.453    3.392
  458.050   78.695    0.457    3.453
  458.300   77.715    0.461    3.515
  458.550   77.222    0.459    3.578
  458.800   75.769    0.453    3.708
  459.050   76.702    0.439    3.843
  459.300   78.596    0.436    4.204
  459.550   80.491    0.439    4.357
  459.800   79.520    0.442    4.598
  460.050   76.622    0.440    4.681
  460.300   78.521    0.434    4.679
  460.550   81.377    0.423    4.678
  460.800   88.534    0.425    4.677
  461.050   92.820    0.432    4.592
  461.300   88.018    0.434    4.349
  461.550   83.694    0.429    4.194
  461.800   79.370    0.438    3.832
  462.050   76.960    0.433    3.501
  462.300   79.811    0.419    3.628
  462.550   81.701    0.423    3.969
  462.800   79.764    0.449    4.502
  463.050   78.788    0.477    5.106
  463.300   78.770    0.491    6.224
  463.550   78.746    0.490    7.724
  463.800   78.737    0.484    9.415
  464.050   77.761    0.468   11.684
  464.300   75.346    0.370   12.555
  464.550   71.979    0.327   12.106
  464.800   67.660    0.319   11.465
  465.050   59.504    0.307   11.259
  465.300   54.224    0.237   10.857
  465.550   48.943    0.257   10.470
  465.800   45.097    0.288   10.467
  466.050   49.384    0.315   10.465
  466.300   57.975    0.320   11.043
  466.550   57.478    0.317   11.446
  466.800   56.498    0.310   11.650
  467.050   56.006    0.313   11.235
  467.300   57.422    0.320   10.264
