~VERSION INFORMATION
 VERS.                 2.0:   CWLS LOG ASCII STANDARD -VERSION 2.0
 WRAP.                  NO:   ONE LINE PER DEPTH STEP
~WELL INFORMATION BLOCK
#MNEM.UNIT           DATA                    DESCRIPTION OF MNEMONIC
#---------    -------------------            -------------------------------
# Generated from Intellog Unique Number	CX_WELLS/WELL/1055
WELL.         05-01-088-17W4                 : Well_name    - WELL
LOC .         00/05-01-088-17W4/0            : Location     - LOCATION
UWI .         00/05-01-088-17W400            : Uwi          - UNIQUE WELL ID
ENTR.         DW                             : Entered      - ENTERED BY
SRVC.         SCHLUMBERGER                   : Scn          - SERVICE COMPANY
STRT.M        100                            : top_depth    - START DEPTH
STOP.M        235                            : bot_depth    - STOP DEPTH
STEP.M        0.25                           : increment    - STEP LENGTH
 NULL. -999.2500:NULL Value
~CURVE INFORMATION BLOCK
#MNEM UNIT       ERCB CURVE CODE    CURVE DESCRIPTION
#-----------   ------------------   ----------------------------------
DEPT.M        00 001 00 00         : DEPTH        - DEPTH
GR  .API      00 310 00 00         : GR           - GAMMA RAY
NPHI.V/V      00 330 00 00         : PHIN         - NEUTRON POROSITY (SANDSTONE)
DPHI.V/V      00 890 00 00         : PHID         - DENSITY POROSITY (SANDSTONE)
ILD .OHMM     00 120 00 00         : RESD         - DEEP RESISTIVITY (DIL)
~PARAMETER INFORMATION
#MNEM.UNIT           DATA             DESCRIPTION OF MNEMONIC
#---------         -----------     ------------------------------
GL  .M        532.79               : gl           - GROUND LEVEL ELEVATION
EREF.M        536.09               : kb           - ELEVATION OF DEPTH REFERENCE
DATM.M        536.09               : datum        - DATUM ELEVATION
TDD .M        236                  : tdd          - TOTAL DEPTH DRILLER
RUN .         ONE                  : Run          - RUN NUMBER
ENG .         BILL                 : Engineer     - RECORDING ENGINEER
WIT .         JIM                  : Witness      - WITNESSED BY
MUD .         GEL                  : Mud_type     - MUD TYPE
MATR.         SANDSTONE            : Logunit      - NEUTRON MATRIX
TMAX.C        16                   : BHT          - MAXIMUM RECORDED TEMPERATURE
BHTD.M        236                  : BHTDEP       - MAXIMUM RECORDED TEMPERATURE
MATR.         1                    : LOGUNIT      - NEUTRON MATRIX
RMT .C        25                   : MDTP         - TEMPERATURE OF MUD
NEUT.         1                    : NEUTRON      - NEUTRON TYPE
RESI.         0                    : RESIST       - RESISTIVITY TYPE
RMC .OHMM     0.25                 : RMC          - RESISTIVITY OF MUD CAKE
RMF .OHMM     0.25                 : RMF          - RESISTIVITY OF MUD FILTRATE
SUFT.C        15                   : SUFT         - SURFACE TEMPERATURE
~A  DEPTH       GR     PHIN     PHID     RESD
# ...
  143.500   60.869    0.233    0.086   28.336
  143.750   59.158    0.203    0.074   28.414
  144.000   56.264    0.196    0.071   27.952
  144.250   54.553    0.199    0.104   26.991
  144.500   58.163    0.209    0.133   24.635
  144.750   62.366    0.229    0.175   22.498
  145.000   68.949    0.314    0.211   20.156
  145.250   72.575    0.372    0.234   18.069
  145.500   74.412    0.382    0.259   15.327
  145.750   74.475    0.398    0.269   14.252
  146.000   75.129    0.416    0.266   13.022
  146.250   76.966    0.430    0.264   12.575
  146.500   78.819    0.443    0.267   12.363
  146.750   78.897    0.452    0.270   11.951
  147.000   78.928    0.457    0.270   11.750
  147.250   79.023    0.457    0.259   11.991
  147.500   79.070    0.449    0.245   12.242
  147.750   79.148    0.434    0.236   12.499
  148.000   79.180    0.430    0.237   12.762
  148.250   79.243    0.431    0.242   13.037
  148.500   78.714    0.432    0.253   13.065
  148.750   79.368    0.433    0.254   13.094
  149.000   80.038    0.436    0.249   13.116
  149.250   81.875    0.437    0.239   12.665
  149.500   84.303    0.436    0.224   12.229
  149.750   89.112    0.436    0.225   12.030
  150.000   92.707    0.437    0.231   12.056
  150.250   97.516    0.443    0.236   10.419
  150.500   98.171    0.451    0.243    9.688
  150.750   97.051    0.456    0.246    9.014
  151.000   94.748    0.461    0.243    8.080
  151.250   91.279    0.463    0.232    7.517
  151.500   94.282    0.468    0.223    6.994
  151.750   96.135    0.472    0.217    6.753
  152.000   96.789    0.474    0.211    6.768
  152.250   96.245    0.477    0.213    6.787
  152.500   94.549    0.479    0.212    6.933
  152.750   92.838    0.476    0.192    6.944
  153.000   90.536    0.471    0.207    7.223
  153.250   88.249    0.463    0.224    7.658
  153.500   87.113    0.454    0.236    7.962
  153.750   90.133    0.450    0.240    8.432
  154.000   96.109    0.455    0.242    9.284
  154.250  101.494    0.460    0.228    9.651
  154.500  108.061    0.463    0.222    9.859
  154.750  111.688    0.469    0.211    9.520
  155.000  110.568    0.475    0.200    9.188
  155.250  109.448    0.485    0.210    8.391
  155.500  109.511    0.496    0.218    7.522
  155.750  110.756    0.505    0.222    6.746
  156.000  112.002    0.508    0.207    6.387
  156.250  112.656    0.494    0.218    6.168
  156.500  111.568    0.480    0.228    6.181
  156.750  110.432    0.483    0.238    7.059
  157.000  109.888    0.490    0.245    7.764
  157.250  105.811    0.492    0.240    8.862
  157.500  101.143    0.463    0.239   10.122
  157.750   98.250    0.451    0.236   11.132
  158.000   97.145    0.451    0.230   12.243
  158.250   96.010    0.451    0.224   13.224
  158.500   94.906    0.452    0.224   13.763
  158.750   93.210    0.450    0.229   14.044
  159.000   92.059    0.444    0.235   14.347
  159.250   90.348    0.427    0.232   14.370
  159.500   89.819    0.427    0.227   14.394
  159.750   88.715    0.429    0.217   14.425
  160.000   88.778    0.435    0.211   14.457
  160.250   90.023    0.445    0.207   14.496
  160.500   91.300    0.456    0.209   14.528
  160.750   91.347    0.464    0.213   14.560
  161.000   92.017    0.458    0.223   14.866
  161.250   92.049    0.446    0.242   14.898
  161.500   90.945    0.441    0.245   15.211
  161.750   89.233    0.441    0.247   15.244
  162.000   88.114    0.439    0.251   14.720
  162.250   90.542    0.432    0.254   14.752
  162.500   92.970    0.431    0.245   14.512
  162.750   95.398    0.432    0.228   12.077
  163.000   97.858    0.434    0.215   10.832
  163.250   98.480    0.439    0.223   10.454
  163.500   98.559    0.441    0.230   10.477
  163.750   98.030    0.444    0.235   11.108
  164.000   97.502    0.444    0.237   12.223
  164.250   96.958    0.441    0.235   12.707
  164.500   95.838    0.431    0.233   12.974
  164.750   94.126    0.418    0.230   13.002
  165.000   90.066    0.415    0.223   13.024
  165.250   85.989    0.416    0.218   12.589
  165.500   81.897    0.416    0.216   12.603
  165.750   79.594    0.416    0.216   12.638
  166.000   78.475    0.417    0.221   12.659
  166.250   77.371    0.419    0.263   12.938
  166.500   77.449    0.423    0.283   12.960
  166.750   77.496    0.420    0.296   12.981
  167.000   77.575    0.418    0.298   13.024
  167.250   77.622    0.421    0.277   12.576
  167.500   77.669    0.425    0.244   12.143
  167.750   78.354    0.427    0.253   11.939
  168.000   78.386    0.429    0.268   11.535
  168.250   79.040    0.432    0.263   11.777
  168.500   80.908    0.434    0.242   12.024
  168.750   82.169    0.439    0.260   12.501
  169.000   82.792    0.451    0.258   12.763
  169.250   84.053    0.459    0.242   12.562
  169.500   84.116    0.467    0.215   12.358
  169.750   83.588    0.472    0.197   12.624
  170.000   83.635    0.454    0.201   13.131
  170.250   83.106    0.448    0.208   13.643
  170.500   82.593    0.443    0.217   14.473
  170.750   82.656    0.430    0.230   14.489
  171.000   83.326    0.418    0.241   14.793
  171.250   83.389    0.404    0.212   14.285
  171.500   83.452    0.382    0.183   13.547
  171.750   85.288    0.354    0.182   12.833
  172.000   87.701    0.346    0.189   11.739
  172.250   88.946    0.374    0.202   11.329
  172.500   89.616    0.398    0.216   10.934
  172.750   88.496    0.425    0.226   10.750
  173.000   87.377    0.440    0.231   10.982
  173.250   87.439    0.443    0.239   11.416
  173.500   88.094    0.444    0.245   12.345
  173.750   88.156    0.445    0.227   12.833
  174.000   87.628    0.448    0.195   13.110
  174.250   87.099    0.447    0.171   13.131
  174.500   87.162    0.411    0.135   12.446
  174.750   87.816    0.376    0.127   11.797
  175.000   90.852    0.397    0.140   11.175
  175.250   93.264    0.418    0.169   10.206
  175.500  101.621    0.427    0.193    9.149
  175.750  107.006    0.443    0.214    8.046
  176.000  111.208    0.457    0.230    6.949
  176.250  111.894    0.465    0.239    5.679
  176.500  111.334    0.469    0.243    5.584
  176.750  109.063    0.463    0.237    6.615
  177.000  108.503    0.457    0.211    9.270
  177.250  106.791    0.449    0.193   12.277
  177.500  105.112    0.443    0.171   13.764
  177.750  103.992    0.439    0.154   15.137
  178.000  103.463    0.431    0.164   15.472
  178.250  103.510    0.426    0.191   15.489
  178.500  102.391    0.426    0.200   15.523
  178.750  100.679    0.438    0.198   15.271
  179.000   98.377    0.446    0.168   14.474
  179.250   99.622    0.441    0.177   13.984
  179.500  103.249    0.420    0.189   13.496
  179.750  106.268    0.422    0.202   13.283
  180.000  108.712    0.424    0.203   13.074
  180.250  110.549    0.427    0.202   12.848
  180.500  111.779    0.432    0.196   12.652
  180.750  110.083    0.432    0.197   12.666
  181.000  107.781    0.428    0.213   12.932
  181.250  104.280    0.411    0.226   13.704
  181.500  101.402    0.405    0.227   14.522
  181.750  100.873    0.395    0.221   15.677
  182.000  100.936    0.381    0.218   17.584
  182.250  100.423    0.379    0.219   18.973
  182.500   99.863    0.387    0.221   20.482
  182.750   98.743    0.390    0.223   22.111
  183.000   97.048    0.396    0.228   23.870
  183.250   94.746    0.400    0.233   26.760
  183.500   92.443    0.403    0.238   28.357
  183.750   91.323    0.373    0.163   29.512
  184.000   92.569    0.361    0.134   29.560
  184.250   94.390    0.346    0.158   29.625
  184.500   98.001    0.335    0.168   28.095
  184.750  102.234    0.330    0.177   26.629
  185.000   96.944    0.350    0.181   26.196
  185.250   89.319    0.367    0.197   22.625
  185.500   85.258    0.382    0.216   20.293
  185.750   83.547    0.384    0.230   19.563
  186.000   81.229    0.374    0.108   20.006
  186.250   77.152    0.364    0.063   20.787
  186.500   74.274    0.351    0.030   21.622
  186.750   77.869    0.336    0.059   23.355
