~VERSION INFORMATION
 VERS.                 2.0:   CWLS LOG ASCII STANDARD -VERSION 2.0
 WRAP.                  NO:   ONE LINE PER DEPTH STEP
~WELL INFORMATION BLOCK
#MNEM.UNIT           DATA                    DESCRIPTION OF MNEMONIC
#---------    -------------------            -------------------------------
# Generated from Intellog Unique Number	CW_76_78/WELL/468
WELL.         PCP MARTIN HILLS 06-05         : Well_name    - WELL
LOC .         00/06-05-076-04W5/0            : Location     - LOCATION
UWI .         00/06-05-076-04W5/0            : Uwi          - UNIQUE WELL ID
ENTR.         JAYE                           : Entered      - ENTERED BY
SRVC.         SCHLUMBERGER                   : Scn          - SERVICE COMPANY
DATE.         8 MAR 74                       : Date         - LOG DATE
STRT.M        682.752                        : top_depth    - START DEPTH
STOP.M        905.252                        : bot_depth    - STOP DEPTH
STEP.M        0.25                           : increment    - STEP LENGTH
 NULL. -999.2500:NULL Value
~CURVE INFORMATION BLOCK
#MNEM UNIT       ERCB CURVE CODE    CURVE DESCRIPTION
#-----------   ------------------   ----------------------------------
DEPT.M        00 001 00 00         : DEPTH        - DEPTH
ILD .OHMM     00 120 00 00         : RESD         - DEEP RESISTIVITY (DIL)
NPHI.V/V      00 330 00 00         : PHIN         - NEUTRON POROSITY (SANDSTONE)
DPHI.V/V      00 890 00 00         : PHID         - DENSITY POROSITY (SANDSTONE)
GR  .API      00 310 00 00         : GR           - GAMMA RAY
CALI.MM       00 280 01 00         : CAL          - CALIPER
~PARAMETER INFORMATION
#MNEM.UNIT           DATA             DESCRIPTION OF MNEMONIC
#---------         -----------     ------------------------------
GL  .M        955.243              : gl           - GROUND LEVEL ELEVATION
EREF.M        958.596              : kb           - ELEVATION OF DEPTH REFERENCE
DATM.M        955.243              : datum        - DATUM ELEVATION
TDD .M        920.496              : tdd          - TOTAL DEPTH DRILLER
RUN .         ONE                  : Run          - RUN NUMBER
BASE.         EDM                  : Branch       - HOME BASE OF LOGGING UNIT
MATR.         SANDSTONE            : Logunit      - NEUTRON MATRIX
TMAX.C        33.3333              : BHT          - MAXIMUM RECORDED TEMPERATURE
BHTD.M        825.094              : BHTDEP       - MAXIMUM RECORDED TEMPERATURE
RMT .C        2.22222              : MDTP         - TEMPERATURE OF MUD
MUDD.KG/M     0                    : MWT          - MUD DENSITY
NEUT.         1                    : NEUTRON      - NEUTRON TYPE
RESI.         0                    : RESIST       - RESISTIVITY TYPE
RM  .OHMM     2.5                  : RM           - RESISTIVITY OF MUD
RMC .OHMM     0                    : RMC          - RESISTIVITY OF MUD CAKE
RMF .OHMM     4.8                  : RMF          - RESISTIVITY OF MUD FILTRATE
SUFT.C        -17.7778             : SUFT         - SURFACE TEMPERATURE
~A  DEPTH     RESD     PHIN     PHID       GR      CAL
  682.752    1.657    0.542    0.241   98.859  200.897
  683.002    1.662    0.526    0.236   98.087  200.111
  683.252    1.662    0.520    0.229   97.192  199.831
  683.502    1.662    0.527    0.227   98.614  199.760
  683.752    1.674    0.531    0.229  100.707  199.692
  684.002    1.696    0.516    0.214  102.678  199.311
  684.252    1.724    0.498    0.204  104.526  199.033
  684.502    1.775    0.466    0.198  106.129  199.274
  684.752    1.821    0.442    0.199  100.725  200.342
  685.002    1.848    0.467    0.218  102.146  201.506
  685.252    1.875    0.494    0.221  100.641  202.883
  685.502    1.917    0.490    0.221   97.186  204.153
  685.752    1.956    0.475    0.219   92.576  206.361
  686.002    2.003    0.443    0.216   90.279  208.247
  686.252    2.063    0.463    0.213   92.736  210.240
  686.502    2.128    0.483    0.214   96.777  211.202
  686.752    2.241    0.499    0.218   91.251  211.647
  687.002    2.376    0.485    0.224   84.689  213.333
  687.252    2.553    0.440    0.217   79.224  206.043
  687.502    2.718    0.417    0.224   74.915  200.704
  687.752    2.909    0.405    0.235   73.412  203.835
  688.002    2.814    0.389    0.230   73.552  207.172
  688.252    2.742    0.396    0.217   69.916  205.965
  688.502    2.834    0.415    0.209   67.436  200.841
  688.752    2.989    0.429    0.217   65.081  197.987
  689.002    3.194    0.418    0.247   62.602  196.467
  689.252    3.514    0.393    0.240   60.242  194.959
  689.502    3.803    0.375    0.221   57.520  194.372
  689.752    4.193    0.377    0.205   61.622  193.993
  690.002    4.108    0.376    0.184   67.920  194.228
  690.252    3.631    0.358    0.168   74.217  195.293
  690.502    3.191    0.377    0.159   81.246  197.492
  690.752    2.831    0.398    0.201   86.873  199.901
  691.002    2.474    0.405    0.219   91.220  201.068
  691.252    2.320    0.424    0.225   94.349  201.822
  691.502    2.182    0.462    0.230   95.891  202.382
  691.752    2.227    0.479    0.234   96.033  202.819
  692.002    2.231    0.485    0.241   93.920  203.169
  692.252    2.210    0.503    0.250   91.318  203.713
  692.502    2.106    0.514    0.257   91.825  203.959
  692.752    2.049    0.503    0.265   90.566  204.193
  693.002    2.102    0.506    0.274   87.722  203.814
  693.252    2.238    0.511    0.281   82.803  201.885
  693.502    2.435    0.494    0.294   79.288  197.686
  693.752    2.724    0.471    0.298   79.125  195.036
  694.002    3.015    0.436    0.285   82.679  195.378
  694.252    3.305    0.412    0.285   84.770  199.648
  694.502    3.454    0.421    0.281   82.536  198.749
  694.752    3.498    0.403    0.266   76.644  193.312
  695.002    3.459    0.406    0.258   69.410  193.963
  695.252    3.178    0.416    0.249   69.127  198.129
  695.502    2.996    0.432    0.260   73.715  201.357
  695.752    2.984    0.447    0.251   83.305  203.663
  696.002    3.125    0.463    0.242   90.394  205.147
  696.252    3.413    0.437    0.239   85.599  205.174
  696.502    3.708    0.416    0.240   78.853  204.896
  696.752    4.013    0.431    0.248   79.362  203.072
  697.002    4.163    0.449    0.256   75.906  199.804
  697.252    3.748    0.445    0.267   74.950  196.126
  697.502    3.361    0.434    0.272   75.947  194.301
  697.752    3.168    0.445    0.280   77.794  193.817
  698.002    2.932    0.445    0.279   78.546  194.060
  698.252    2.739    0.422    0.280   72.227  194.090
  698.502    2.563    0.403    0.274   69.930  193.814
  698.752    2.474    0.460    0.270   72.999  193.639
  699.002    2.511    0.492    0.272   77.345  193.466
  699.252    2.658    0.507    0.266   78.218  193.705
  699.502    2.903    0.495    0.265   75.981  194.153
  699.752    2.995    0.448    0.269   68.261  194.395
  700.002    2.741    0.452    0.263   67.366  194.426
  700.252    2.463    0.463    0.260   68.482  194.665
  700.502    2.431    0.470    0.268   70.453  194.391
  700.752    2.495    0.470    0.276   73.398  194.011
  701.002    2.612    0.456    0.283   75.429  193.429
  701.252    3.240    0.435    0.288   69.171  193.046
  701.502    3.880    0.421    0.298   59.865  193.386
  701.752    4.857    0.406    0.312   54.582  193.731
  702.002    5.981    0.409    0.325   54.664  194.382
  702.252    6.296    0.422    0.332   54.135  194.726
  702.502    5.902    0.427    0.338   52.874  195.480
  702.752    5.392    0.436    0.344   52.408  197.370
  703.002    5.055    0.454    0.351   53.525  198.746
  703.252    5.008    0.497    0.347   55.858  196.094
  703.502    5.101    0.501    0.325   60.693  193.654
  703.752    5.272    0.393    0.284   55.289  192.968
  704.002    5.664    0.362    0.279   48.361  193.410
  704.252    6.372    0.352    0.283   45.517  193.342
  704.502    7.155    0.356    0.295   44.682  193.899
  704.752    7.181    0.368    0.307   45.860  194.547
  705.002    6.946    0.380    0.314   46.976  195.090
  705.252    6.632    0.380    0.311   46.508  195.331
  705.502    6.252    0.370    0.304   47.139  195.053
  705.752    5.871    0.365    0.285   53.068  194.575
  706.002    5.464    0.356    0.263   55.283  194.400
  706.252    5.094    0.340    0.253   52.620  194.435
  706.502    5.000    0.328    0.265   49.654  194.881
  706.752    5.111    0.356    0.282   54.855  195.533
  707.002    5.411    0.432    0.305   58.592  195.982
  707.252    5.932    0.438    0.321   54.832  196.321
  707.502    6.552    0.433    0.337   49.305  196.872
  707.752    7.290    0.414    0.338   50.849  196.074
  708.002    7.356    0.393    0.325   51.846  194.871
  708.252    6.935    0.367    0.312   51.680  193.973
  708.502    6.489    0.379    0.308   52.614  193.187
  708.752    6.219    0.392    0.301   55.986  192.499
  709.002    6.172    0.401    0.291   62.527  192.121
  709.252    6.240    0.399    0.283   65.474  192.049
  709.502    6.426    0.381    0.298   61.594  192.181
  709.752    6.654    0.386    0.306   57.588  192.526
  710.002    6.690    0.400    0.315   52.732  192.663
  710.252    6.531    0.401    0.310   53.971  192.692
  710.502    6.055    0.403    0.298   59.112  193.144
  710.752    5.761    0.407    0.284   61.386  193.899
  711.002    5.697    0.395    0.275   62.383  194.348
  711.252    5.932    0.368    0.275   63.071  194.585
  711.502    6.199    0.372    0.290   66.321  195.036
  711.752    6.479    0.385    0.304   62.439  195.067
  712.002    6.783    0.393    0.307   58.497  195.200
  712.252    7.076    0.415    0.313   61.199  195.442
  712.502    7.340    0.441    0.317   60.121  195.477
  712.752    7.587    0.423    0.313   55.997  195.507
  713.002    7.770    0.422    0.315   53.396  195.231
  713.252    7.841    0.427    0.320   53.659  194.958
  713.502    7.782    0.424    0.326   55.446  194.472
  713.752    7.667    0.410    0.326   57.844  193.676
  714.002    7.485    0.391    0.323   60.668  193.090
  714.252    7.267    0.393    0.317   63.368  192.509
  714.502    6.825    0.415    0.306   66.069  192.433
  714.752    6.110    0.432    0.297   68.467  192.987
  715.002    5.582    0.430    0.295   70.741  193.328
  715.252    5.053    0.406    0.286   74.478  193.467
  715.502    4.549    0.385    0.267   77.422  193.913
  715.752    4.248    0.369    0.247   76.774  194.147
  716.002    4.178    0.380    0.231   78.194  194.185
  716.252    4.240    0.412    0.252   79.860  193.492
  716.502    4.169    0.429    0.258   75.246  192.804
  716.752    3.916    0.443    0.259   78.682  192.634
  717.002    3.644    0.446    0.266   81.868  192.871
  717.252    3.391    0.434    0.276   77.378  193.628
  717.502    3.036    0.457    0.286   78.129  197.376
  717.752    2.703    0.495    0.294   76.870  200.713
  718.002    2.634    0.533    0.301   74.694  201.983
  718.252    2.809    0.542    0.305   72.641  202.636
  718.502    3.601    0.496    0.311   71.016  200.399
  718.752    4.826    0.475    0.324   66.465  196.096
  719.002    6.075    0.440    0.344   57.220  193.033
