~VERSION INFORMATION
 VERS.                 2.0:   CWLS LOG ASCII STANDARD -VERSION 2.0
 WRAP.                  NO:   ONE LINE PER DEPTH STEP
~WELL INFORMATION BLOCK
#MNEM.UNIT           DATA                    DESCRIPTION OF MNEMONIC
#---------    -------------------            -------------------------------
# Generated from Intellog Unique Number	CX_WELLS/WELL/2722
WELL.         MAYNARD CLAREN                 : Well_name    - WELL
LOC .         00/06-06-080-12W4/0            : Location     - LOCATION
UWI .         00/06-06-080-12W4/0            : Uwi          - UNIQUE WELL ID
ENTR.         T                              : Entered      - ENTERED BY
SRVC.         SCHLUMBERGER                   : Scn          - SERVICE COMPANY
STRT.M        265                            : top_depth    - START DEPTH
STOP.M        488                            : bot_depth    - STOP DEPTH
STEP.M        0.25                           : increment    - STEP LENGTH
 NULL. -999.2500:NULL Value
~CURVE INFORMATION BLOCK
#MNEM UNIT       ERCB CURVE CODE    CURVE DESCRIPTION
#-----------   ------------------   ----------------------------------
DEPT.M        00 001 00 00         : DEPTH        - DEPTH
GR  .API      00 310 00 00         : GR           - GAMMA RAY
NPHI.V/V      00 330 00 00         : PHIN         - NEUTRON POROSITY (SANDSTONE)
DPHI.V/V      00 890 00 00         : PHID         - DENSITY POROSITY (SANDSTONE)
ILD .OHMM     00 120 00 00         : RESD         - DEEP RESISTIVITY (DIL)
~PARAMETER INFORMATION
#MNEM.UNIT           DATA             DESCRIPTION OF MNEMONIC
#---------         -----------     ------------------------------
GL  .M        683.5                : gl           - GROUND LEVEL ELEVATION
EREF.M        686.8                : kb           - ELEVATION OF DEPTH REFERENCE
DATM.M        686.8                : datum        - DATUM ELEVATION
TDD .M        497                  : tdd          - TOTAL DEPTH DRILLER
RUN .         ONE                  : Run          - RUN NUMBER
ENG .         BILL                 : Engineer     - RECORDING ENGINEER
WIT .         JIM                  : Witness      - WITNESSED BY
MUD .         GEL                  : Mud_type     - MUD TYPE
MATR.         SANDSTONE            : Logunit      - NEUTRON MATRIX
TMAX.C        20                   : BHT          - MAXIMUM RECORDED TEMPERATURE
BHTD.M        497                  : BHTDEP       - MAXIMUM RECORDED TEMPERATURE
MATR.         1                    : LOGUNIT      - NEUTRON MATRIX
RMT .C        20                   : MDTP         - TEMPERATURE OF MUD
NEUT.         1                    : NEUTRON      - NEUTRON TYPE
RESI.         5.13                 : RESIST       - RESISTIVITY TYPE
RMC .OHMM     3.4                  : RMC          - RESISTIVITY OF MUD CAKE
RMF .OHMM     4.4                  : RMF          - RESISTIVITY OF MUD FILTRATE
SUFT.C        3                    : SUFT         - SURFACE TEMPERATURE
~A  DEPTH       GR     PHIN     PHID     RESD
# ...
  395.500   99.294    0.386    0.224    6.901
  395.750   96.752    0.379    0.221    6.741
  396.000   96.109    0.376    0.216    6.740
  396.250   94.198    0.381    0.216    6.739
  396.500   92.282    0.386    0.219    6.818
  396.750   91.639    0.391    0.226    6.976
  397.000   89.728    0.397    0.233    7.055
  397.250   89.720    0.402    0.252    7.372
  397.500   88.442    0.405    0.256    7.530
  397.750   87.796    0.405    0.265    7.609
  398.000   87.149    0.399    0.278    7.608
  398.250   87.133    0.397    0.283    7.607
  398.500   87.743    0.395    0.289    7.527
  398.750   88.362    0.396    0.290    7.446
  399.000   89.598    0.397    0.281    7.365
  399.250   90.217    0.402    0.269    7.365
  399.500   90.831    0.401    0.259    7.284
  399.750   90.815    0.393    0.250    7.283
  400.000   90.799    0.376    0.243    7.282
  400.250   90.148    0.357    0.233    7.361
  400.500   88.879    0.331    0.218    7.598
  400.750   83.819    0.311    0.195    7.677
  401.000   76.237    0.310    0.214    7.995
  401.250   73.699    0.320    0.254    8.312
  401.500   75.575    0.338    0.277    9.187
  401.750   78.707    0.353    0.283    9.505
  402.000   80.582    0.364    0.260    9.663
  402.250   81.196    0.330    0.201    9.662
  402.500   78.023    0.305    0.111    9.661
  402.750   74.229    0.286    0.083    9.660
  403.000   68.538    0.276    0.037    9.659
  403.250   64.109    0.240    0.019    9.738
  403.500   59.671    0.180    0.009    9.816
  403.750   57.772    0.156    0.048   11.169
  404.000   55.230    0.191    0.078   13.954
  404.250   55.848    0.233    0.117   16.103
  404.500   60.245    0.286    0.174   16.579
  404.750   66.534    0.316    0.202   15.862
  405.000   70.931    0.358    0.221   14.348
  405.250   75.954    0.381    0.243   13.074
  405.500   80.986    0.375    0.248   11.321
  405.750   82.861    0.359    0.226    9.569
  406.000   82.845    0.334    0.207    8.533
  406.250   82.194    0.334    0.198    8.770
  406.500   80.917    0.335    0.218    9.008
  406.750   80.901    0.338    0.225    8.848
  407.000   82.772    0.339    0.233    8.688
  407.250   84.025    0.356    0.244    8.209
  407.500   86.526    0.376    0.251    7.970
  407.750   87.145    0.377    0.258    7.730
  408.000   87.129    0.377    0.261    7.570
  408.250   86.482    0.376    0.262    7.409
  408.500   85.831    0.376    0.267    7.249
  408.750   85.811    0.374    0.269    7.249
  409.000   85.803    0.376    0.272    7.088
  409.250   85.783    0.378    0.275    7.007
  409.500   86.401    0.384    0.276    6.927
  409.750   86.381    0.392    0.271    6.767
  410.000   86.365    0.397    0.268    6.686
  410.250   86.975    0.406    0.265    6.606
  410.500   87.589    0.414    0.263    6.525
  410.750   87.577    0.420    0.254    6.365
  411.000   90.083    0.426    0.250    6.125
  411.250   95.737    0.431    0.248    5.726
  411.500   99.507    0.431    0.246    5.486
  411.750  103.896    0.425    0.245    5.406
  412.000  104.518    0.415    0.245    5.405
  412.250  103.872    0.408    0.245    5.722
  412.500  100.699    0.397    0.247    5.881
  412.750   96.270    0.388    0.249    6.357
  413.000   93.736    0.377    0.242    6.595
  413.250   90.563    0.368    0.189    6.992
  413.500   89.290    0.364    0.155    7.150
  413.750   88.636    0.367    0.150    7.309
  414.000   87.993    0.370    0.157    7.307
  414.250   88.611    0.375    0.188    7.307
  414.500   89.848    0.380    0.217    7.146
  414.750   91.097    0.385    0.233    7.066
  415.000   91.715    0.389    0.229    6.985
  415.250   94.217    0.396    0.222    6.905
  415.500   95.461    0.395    0.215    6.904
  415.750   96.706    0.389    0.191    6.983
  416.000   97.955    0.388    0.188    7.061
  416.250   99.192    0.384    0.187    7.140
  416.500   99.183    0.382    0.192    7.218
  416.750   98.529    0.382    0.197    7.297
  417.000   98.517    0.384    0.199    7.296
  417.250   97.874    0.391    0.201    7.375
  417.500   97.223    0.398    0.202    7.374
  417.750   97.203    0.399    0.201    7.294
  418.000   96.561    0.395    0.193    7.213
  418.250   96.536    0.389    0.193    7.132
  418.500   96.528    0.379    0.195    7.131
  418.750   96.512    0.373    0.198    7.130
  419.000   97.757    0.372    0.200    7.050
  419.250  100.258    0.375    0.204    6.969
  419.500  102.768    0.378    0.214    6.888
  419.750  105.274    0.380    0.214    6.888
  420.000  108.406    0.380    0.212    6.728
  420.250  109.024    0.381    0.214    6.647
  420.500  109.626    0.385    0.222    6.487
  420.750  109.614    0.393    0.225    6.247
  421.000  108.971    0.402    0.228    5.927
  421.250  107.690    0.410    0.225    5.608
  421.500  107.052    0.410    0.223    5.448
  421.750  104.506    0.407    0.219    5.128
  422.000  103.233    0.401    0.212    4.649
  422.250  101.321    0.391    0.205    4.490
  422.500  100.048    0.387    0.195    4.409
  422.750   98.775    0.383    0.184    4.488
  423.000   95.602    0.379    0.175    4.884
  423.250   93.699    0.378    0.159    5.123
  423.500   90.530    0.377    0.153    5.600
  423.750   87.362    0.372    0.178    5.917
  424.000   87.976    0.373    0.182    5.916
  424.250   91.739    0.377    0.189    5.756
  424.500   95.509    0.384    0.195    5.356
  424.750  100.537    0.393    0.197    5.117
  425.000  104.934    0.393    0.186    4.957
  425.250  103.026    0.384    0.159    5.035
  425.500   99.858    0.383    0.158    5.114
  425.750   97.946    0.391    0.200    5.193
  426.000  100.452    0.402    0.205    5.112
  426.250  105.475    0.417    0.210    4.634
  426.500  107.985    0.427    0.213    4.314
  426.750  110.487    0.424    0.215    3.915
  427.000  110.470    0.420    0.215    3.516
  427.250  109.824    0.414    0.213    3.356
  427.500  109.177    0.410    0.207    3.275
  427.750  109.165    0.410    0.200    3.274
  428.000  109.145    0.412    0.196    3.273
  428.250  109.133    0.415    0.194    3.352
  428.500  109.113    0.416    0.190    3.510
  428.750  109.731    0.419    0.186    3.748
  429.000  109.707    0.422    0.184    3.827
  429.250  109.698    0.424    0.178    4.065
  429.500  109.678    0.426    0.174    4.382
  429.750  109.662    0.426    0.176    4.779
  430.000  109.015    0.422    0.179    4.858
  430.250  108.999    0.419    0.189    5.175
  430.500  108.353    0.415    0.198    5.413
  430.750  107.076    0.402    0.207    5.731
  431.000  105.798    0.376    0.211    5.969
  431.250  104.525    0.353    0.222    6.445
  431.500  101.353    0.338    0.244    7.081
  431.750   98.188    0.331    0.267    8.752
  432.000   93.129    0.330    0.291   11.856
  432.250   89.960    0.336    0.311   13.527
  432.500   89.305    0.339    0.306   15.357
  432.750   88.028    0.341    0.295   16.789
  433.000   86.747    0.339    0.298   16.948
  433.250   84.848    0.329    0.295   16.946
  433.500   81.679    0.317    0.271   16.866
  433.750   76.615    0.320    0.260   16.865
  434.000   74.081    0.326    0.247   16.705
  434.250   72.174    0.328    0.239   16.623
  434.500   75.940    0.333    0.232   16.464
  434.750   80.333    0.334    0.233   16.304
  435.000   84.730    0.332    0.235   16.144
  435.250   87.236    0.334    0.236   15.824
  435.500   89.115    0.338    0.237   15.107
  435.750   91.621    0.342    0.235   14.469
  436.000   95.383    0.347    0.229   13.911
  436.250   99.154    0.347    0.219   13.432
  436.500  104.812    0.343    0.220   13.272
  436.750  107.318    0.336    0.228   13.271
  437.000  102.258    0.332    0.237   13.350
  437.250   96.564    0.325    0.240   13.508
  437.500   92.769    0.320    0.234   13.825
  437.750   90.231    0.314    0.224   14.461
  438.000   87.692    0.312    0.211   15.335
  438.250   85.785    0.315    0.207   15.335
  438.500   83.243    0.318    0.213   15.334
  438.750   82.600    0.314    0.223   15.412
