~VERSION INFORMATION
 VERS.                 2.0:   CWLS LOG ASCII STANDARD -VERSION 2.0
 WRAP.                  NO:   ONE LINE PER DEPTH STEP
~WELL INFORMATION BLOCK
#MNEM.UNIT           DATA                    DESCRIPTION OF MNEMONIC
#---------    -------------------            -------------------------------
# Generated from Intellog Unique Number	CW_70_72/WELL/877
NULL.         -999.25                        : NULL_VALUE
WELL.         SUNDANCE MCMORAN SMITH 07-08   : Well_name    - WELL              
LOC .         07-08-072-24W4                 : Location     - LOCATION          
UWI .         00/07-08-072-24W4/0            : Uwi          - UNIQUE WELL ID    
ENTR.         JAYE                           : Entered      - ENTERED BY        
SRVC.         SCHLUMBERGER                   : Scn          - SERVICE COMPANY   
DATE.         24 JAN 73                      : Date         - LOG DATE          
STRT.M        329.184                        : top_depth    - START DEPTH       
STOP.M        535.434                        : bot_depth    - STOP DEPTH        
STEP.M        0.25                           : increment    - STEP LENGTH       
~CURVE INFORMATION BLOCK
#MNEM UNIT       ERCB CURVE CODE    CURVE DESCRIPTION
#-----------   ------------------   ----------------------------------
DEPT.M        00 001 00 00         : DEPTH        - DEPTH                       
DPHI.V/V      00 890 00 00         : PHID         - DENSITY POROSITY (SANDSTONE)
NPHI.V/V      00 330 00 00         : PHIN         - NEUTRON POROSITY (SANDSTONE)
GR  .API      00 310 00 00         : GR           - GAMMA RAY                   
CALI.MM       00 280 01 00         : CAL          - CALIPER                     
ILD .OHMM     00 120 00 00         : RESD         - DEEP RESISTIVITY (DIL)      
~PARAMETER INFORMATION       
#MNEM.UNIT           DATA             DESCRIPTION OF MNEMONIC
#---------         -----------     ------------------------------
GL  .M        560.222              : gl           - GROUND LEVEL ELEVATION      
EREF.M        562.661              : kb           - ELEVATION OF DEPTH REFERENCE
DATM.M        560.222              : datum        - DATUM ELEVATION             
TDD .M        544.068              : tdd          - TOTAL DEPTH DRILLER         
RUN .         ONE                  : Run          - RUN NUMBER                  
MATR.         SANDSTONE            : Logunit      - NEUTRON MATRIX              
TMAX.C        23.3333              : BHT          - MAXIMUM RECORDED TEMPERATURE
BHTD.M        543.763              : BHTDEP       - MAXIMUM RECORDED TEMPERATURE
RMT .C        21.1111              : MDTP         - TEMPERATURE OF MUD          
MUDD.KG/M     0                    : MWT          - MUD DENSITY                 
NEUT.         1                    : NEUTRON      - NEUTRON TYPE                
RESI.         0                    : RESIST       - RESISTIVITY TYPE            
RM  .OHMM     3.82                 : RM           - RESISTIVITY OF MUD          
RMC .OHMM     0                    : RMC          - RESISTIVITY OF MUD CAKE     
RMF .OHMM     2.92                 : RMF          - RESISTIVITY OF MUD FILTRATE 
SUFT.C        -17.7778             : SUFT         - SURFACE TEMPERATURE         
~A  DEPTH     PHID     PHIN       GR      CAL     RESD
# ...
  475.184    0.185    0.404  102.036  170.160    5.648
  475.434    0.172    0.420  105.813  169.770    5.622
  475.684    0.157    0.437  106.673  169.580    5.639
  475.934    0.169    0.453  103.707  169.495    5.674
  476.184    0.158    0.463  102.746  169.612    5.817
  476.434    0.171    0.455  104.578  169.628    5.953
  476.684    0.145    0.439  107.686  169.647    6.013
  476.934    0.136    0.421  107.939  169.872    5.985
  477.184    0.128    0.423  107.767  169.888    5.860
  477.434    0.155    0.447  110.146  169.902    5.728
  477.684    0.186    0.437  114.834  169.818    5.629
  477.934    0.165    0.464  115.938  169.838    5.552
  478.184    0.151    0.490  118.014  169.852    5.537
  478.434    0.160    0.454  118.814  169.973    5.542
  478.684    0.165    0.433  117.547  170.090    5.547
  478.934    0.153    0.426  110.206  170.211    5.552
  479.184    0.152    0.419  105.113  170.432    5.557
  479.434    0.162    0.411  108.890  170.762    5.573
  479.684    0.162    0.434  111.026  170.878    5.640
  479.934    0.157    0.463  111.887  171.307    5.718
  480.184    0.176    0.430  111.776  171.735    5.884
  480.434    0.189    0.414  105.832  169.488    6.121
  480.684    0.186    0.392  100.739  168.785    6.414
  480.934    0.168    0.395   98.379  168.700    6.721
  481.184    0.167    0.384   96.384  168.721    6.841
  481.434    0.155    0.372   94.208  168.837    6.709
  481.684    0.119    0.363   90.573  168.853    6.415
  481.934    0.121    0.379   90.522  168.873    6.121
  482.184    0.166    0.396   98.490  169.094    5.895
  482.434    0.183    0.429  103.847  169.318    5.740
  482.684    0.176    0.452  107.987  169.336    5.600
  482.934    0.164    0.435  106.904  169.661    5.544
  483.184    0.122    0.436  102.297  169.986    5.468
  483.434    0.096    0.459  100.728  170.518    5.443
  483.684    0.137    0.458  105.051  170.842    5.428
  483.934    0.164    0.445  109.496  170.552    5.444
  484.184    0.170    0.428  107.076  169.954    5.519
  484.434    0.171    0.417  106.600  169.558    5.637
  484.684    0.160    0.441  108.798  169.469    5.736
  484.934    0.171    0.472  112.513  169.487    5.837
  485.184    0.160    0.455  114.345  169.606    5.996
  485.434    0.156    0.446  115.754  169.727    6.045
  485.684    0.145    0.461  115.763  169.540    6.007
  485.934    0.153    0.460  116.927  169.455    6.045
  486.184    0.151    0.442  122.162  169.469    6.197
  486.434    0.155    0.411  121.018  169.488    6.518
  486.684    0.159    0.396  118.052  169.400    7.034
  486.934    0.160    0.420  114.538  169.212    8.185
  487.184    0.153    0.435  109.019  169.228    9.736
  487.434    0.150    0.398  101.314  169.144   12.281
  487.684    0.151    0.380   94.763  169.159   16.279
  487.934    0.118    0.366   88.819  169.181   20.274
  488.184    0.080    0.334   81.660  169.193   20.037
  488.434    0.031    0.319   73.955  169.212   18.261
  488.684    0.015    0.298   73.479  169.330   15.581
  488.934    0.082    0.246   82.054  169.353   13.663
  489.184    0.118    0.344   88.990  169.263   12.026
  489.434    0.161    0.371   94.164  169.076   10.470
  489.684    0.154    0.378   96.909  168.987    9.149
  489.934    0.134    0.355   99.105  169.007    8.431
  490.184    0.132    0.345  101.424  168.919    8.001
  490.434    0.143    0.376  107.023  168.731    8.128
  490.684    0.155    0.399  104.057  168.541    8.596
  490.934    0.162    0.418  101.028  168.352    9.396
  491.184    0.161    0.427   97.819  168.060   10.141
  491.434    0.153    0.416   96.857  167.873   10.472
  491.684    0.141    0.400   88.483  167.682   10.216
  491.934    0.111    0.364   79.016  166.774    9.732
  492.184    0.048    0.305   67.240  166.072    9.033
  492.434    0.061    0.322   79.826  166.397    7.967
  492.684    0.116    0.400  100.431  167.034    7.261
  492.934    0.141    0.417  104.754  167.358    6.891
  493.184    0.147    0.443  104.157  167.477    6.723
  493.434    0.145    0.431  103.741  167.805    6.631
  493.684    0.142    0.410   99.195  168.128    6.601
  493.934    0.122    0.395   98.780  168.559    6.608
  494.184    0.154    0.430  103.468  168.780    6.613
  494.434    0.162    0.451  102.445  168.800    6.619
  494.684    0.146    0.450  104.096  168.813    6.662
  494.934    0.154    0.451  107.022  168.829    6.729
  495.184    0.159    0.434  108.612  168.746    6.823
  495.434    0.156    0.403  108.500  168.968    6.930
  495.684    0.143    0.408  108.328  169.089    7.066
  495.934    0.153    0.414  107.791  169.103    7.112
  496.184    0.137    0.386  105.492  169.228    6.989
  496.434    0.069    0.352  102.222  169.244    6.805
  496.684    0.085    0.367  101.139  169.260    6.651
  496.934    0.127    0.384  103.396  169.482    6.560
  497.184    0.148    0.400  107.234  169.601    6.651
  497.434    0.141    0.422  110.525  169.720    6.793
  497.684    0.150    0.398  114.058  169.737    7.002
  497.934    0.163    0.399  111.274  169.446    7.102
  498.184    0.164    0.400  103.933  169.361    7.661
  498.434    0.157    0.388  100.480  169.275    8.148
  498.684    0.147    0.375  103.102  169.188    7.172
  498.934    0.139    0.362  101.775  169.000    5.351
  499.184    0.131    0.346  101.482  168.915    3.596
  499.434    0.114    0.352  104.165  168.829    2.856
  499.684    0.126    0.374  108.549  168.950    2.340
  499.934    0.150    0.379  112.690  168.966    2.094
  500.184    0.133    0.371  113.368  168.981    1.898
  500.434    0.120    0.361  104.691  168.792    1.699
  500.684    0.102    0.328   91.822  167.988    1.598
  500.934    0.081    0.300   87.093  167.180    1.544
  501.184    0.100    0.323   97.005  167.917    1.534
  501.434    0.125    0.359  107.769  169.786    1.561
  501.684    0.139    0.383  107.841  170.421    1.682
  501.934    0.138    0.380  106.817  170.438    1.929
  502.184    0.141    0.366  108.164  170.557    2.207
  502.434    0.135    0.383  110.908  170.162    2.126
  502.684    0.138    0.402  113.773  170.695    2.277
  502.934    0.147    0.436  116.152  171.432    2.431
  503.184    0.167    0.555  117.074  172.374    2.567
  503.434    0.155    0.602  116.962  172.802    2.611
  503.684    0.169    0.600  118.491  171.792    2.717
  503.934    0.177    0.586  121.539  170.368    2.842
  504.184    0.187    0.586  122.278  169.459    3.084
  504.434    0.163    0.586  121.074  169.270    3.267
  504.684    0.151    0.574  120.232  169.698    3.545
  504.934    0.158    0.554  117.873  171.259    3.723
  505.184    0.141    0.509  112.294  172.306    3.747
  505.434    0.126    0.389  108.598  173.043    3.702
  505.684    0.118    0.402  107.940  173.470    3.665
  505.934    0.118    0.399  109.225  170.709    3.682
  506.184    0.082    0.374  112.699  171.859    3.788
  506.434    0.072    0.386  117.082  174.343    4.007
  506.684    0.104    0.397  121.527  174.671    4.316
  506.934    0.134    0.404  121.173  173.863    4.684
  507.184    0.141    0.410  116.749  172.440    5.120
  507.434    0.100    0.406  111.473  172.149    5.957
  507.684    0.094    0.396  100.851  172.064    6.794
  507.934    0.082    0.338   83.729  168.376    7.159
  508.184    0.003    0.249   75.902  168.085    7.217
  508.434   -0.019    0.259   90.493  169.234    6.776
  508.684    0.123    0.325   98.279  170.899    6.371
  508.934    0.151    0.363  101.509  171.737    5.980
  509.184    0.145    0.402  105.468  171.961    5.634
  509.434    0.138    0.417  106.268  171.672    5.366
  509.684    0.137    0.411  103.665  171.789    5.216
  509.934    0.135    0.410  102.035  172.321    5.164
  510.184    0.129    0.420  101.256  172.647    5.093
  510.434    0.122    0.412  104.364  172.971    5.006
  510.684    0.121    0.399  114.398  173.710    4.919
  510.934    0.146    0.393  120.908  174.241    4.869
  511.184    0.138    0.403  122.680  174.565    4.794
  511.434    0.143    0.422  116.797  174.480    4.747
