~VERSION INFORMATION
 VERS.                 2.0:   CWLS LOG ASCII STANDARD -VERSION 2.0
 WRAP.                  NO:   ONE LINE PER DEPTH STEP
~WELL INFORMATION BLOCK
#MNEM.UNIT           DATA                    DESCRIPTION OF MNEMONIC
#---------    -------------------            -------------------------------
# Generated from Intellog Unique Number	CS_71_72/WELL/813
WELL.         BOW VALLEY EXPLORATION         : Well_name    - WELL
LOC .         00/07-24-071-17W4/0            : Location     - LOCATION
UWI .         00/07-24-071-17W4/0            : Uwi          - UNIQUE WELL ID
ENTR.         SP                             : Entered      - ENTERED BY
SRVC.         SCHLUMBERGER                   : Scn          - SERVICE COMPANY
STRT.M        274.320                        : top_depth    - START DEPTH
STOP.M        475.320                        : bot_depth    - STOP DEPTH
STEP.M        0.25                           : increment    - STEP LENGTH
 NULL. -999.2500:NULL Value
~CURVE INFORMATION BLOCK
#MNEM UNIT       ERCB CURVE CODE    CURVE DESCRIPTION
#-----------   ------------------   ----------------------------------
DEPT.M        00 001 00 00         : DEPTH        - DEPTH
GR  .API      00 310 00 00         : GR           - GAMMA RAY
DPHI.V/V      00 890 00 00         : PHID         - DENSITY POROSITY (SANDSTONE)
NPHI.V/V      00 330 00 00         : PHIN         - NEUTRON POROSITY (SANDSTONE)
ILD .OHMM     00 120 00 00         : RESD         - DEEP RESISTIVITY (DIL)
~PARAMETER INFORMATION
#MNEM.UNIT           DATA             DESCRIPTION OF MNEMONIC
#---------         -----------     ------------------------------
GL  .M        565.404              : gl           - GROUND LEVEL ELEVATION
EREF.M        568.452              : kb           - ELEVATION OF DEPTH REFERENCE
DATM.M        565.404              : datum        - DATUM ELEVATION
TDD .M        482.803              : tdd          - TOTAL DEPTH DRILLER
RUN .         ONE                  : Run          - RUN NUMBER
ENG .         BILL                 : Engineer     - RECORDING ENGINEER
WIT .         JIM                  : Witness      - WITNESSED BY
MUD .         GEL                  : Mud_type     - MUD TYPE
MATR.         SANDSTONE            : Logunit      - NEUTRON MATRIX
TMAX.C        18.3333              : BHT          - MAXIMUM RECORDED TEMPERATURE
BHTD.M        476.707              : BHTDEP       - MAXIMUM RECORDED TEMPERATURE
MATR.         1                    : LOGUNIT      - NEUTRON MATRIX
RMT .C        25                   : MDTP         - TEMPERATURE OF MUD
NEUT.         1                    : NEUTRON      - NEUTRON TYPE
RESI.         0                    : RESIST       - RESISTIVITY TYPE
RMC .OHMM     0.25                 : RMC          - RESISTIVITY OF MUD CAKE
RMF .OHMM     0.25                 : RMF          - RESISTIVITY OF MUD FILTRATE
SUFT.C        15                   : SUFT         - SURFACE TEMPERATURE
~A  DEPTH       GR     PHID     PHIN     RESD
# ...
  448.320   50.759    0.268    0.348    4.377
  448.570   48.146    0.258    0.347    4.245
  448.820   46.414    0.258    0.344    4.093
  449.070   45.927    0.270    0.342    3.988
  449.320   46.062    0.262    0.342    3.959
  449.570   46.099    0.248    0.339    3.939
  449.820   43.828    0.255    0.338    3.918
  450.070   41.338    0.262    0.346    3.950
  450.320   40.880    0.253    0.362    4.021
  450.570   44.181    0.274    0.378    4.119
  450.820   41.145    0.309    0.406    4.169
  451.070   35.040    0.336    0.443    4.262
  451.320   30.665    0.345    0.416    4.275
  451.570   33.507    0.310    0.348    4.339
  451.820   36.537    0.294    0.357    4.613
  452.070   41.027    0.304    0.398    5.013
  452.320   44.932    0.327    0.421    5.383
  452.570   46.086    0.346    0.442    5.604
  452.820   43.497    0.347    0.406    5.721
  453.070   36.741    0.299    0.401    5.754
  453.320   32.229    0.326    0.471    5.819
  453.570   29.952    0.359    0.508    5.855
  453.820   32.388    0.469    0.539    5.858
  454.070   33.846    0.509    0.581    5.774
  454.320   32.900    0.411    0.617    5.868
  454.570   33.365    0.345    0.448    5.770
  454.820   35.521    0.320    0.384    5.419
  455.070   38.366    0.313    0.374    5.366
  455.320   43.687    0.318    0.369    5.877
  455.570   49.984    0.343    0.382    7.058
  455.820   54.473    0.368    0.515    8.673
  456.070   58.510    0.606    0.623    9.650
  456.320   73.071    0.601    0.681   10.123
  456.570  105.946    0.493    0.675   10.234
  456.820  120.327    0.289    0.546    9.742
  457.070   99.025    0.242    0.499    8.765
  457.320   84.276    0.291    0.524    7.697
  457.570   66.326    0.344    0.488    6.945
  457.820   49.150    0.339    0.360    6.093
  458.070   45.187    0.288    0.360    5.435
  458.320   40.737    0.267    0.381    4.691
  458.570   39.269    0.283    0.375    4.036
  458.820   40.268    0.295    0.371    3.706
  459.070   41.875    0.297    0.383    3.629
  459.320   42.836    0.309    0.392    3.593
  459.570   42.063    0.303    0.383    3.603
  459.820   41.163    0.292    0.372    3.752
  460.070   42.050    0.286    0.363    4.071
  460.320   39.211    0.280    0.376    4.567
  460.570   40.062    0.363    0.432    5.190
  460.820   71.612    0.473    0.528    5.885
  461.070   91.080    0.540    0.569    7.066
  461.320   98.167    0.437    0.630    9.099
  461.570  100.014    0.396    0.586   10.671
  461.820   93.668    0.363    0.588   11.111
  462.070   77.545    0.356    0.554   10.283
  462.320   65.222    0.282    0.405    9.147
  462.570   57.307    0.211    0.362    8.252
  462.820   55.735    0.253    0.381    7.376
  463.070   57.500    0.294    0.374    6.781
  463.320   57.971    0.279    0.357    6.744
  463.570   61.020    0.258    0.359    7.008
  463.820   65.912    0.251    0.386    7.248
  464.070   77.000    0.268    0.428    7.529
  464.320   76.662    0.264    0.472    7.838
  464.570   58.224    0.287    0.455    8.065
  464.820   52.309    0.292    0.395    7.872
  465.070   46.885    0.324    0.413    7.243
  465.320   43.528    0.355    0.407    6.612
  465.570   45.235    0.338    0.390    6.181
  465.820   48.334    0.314    0.370    5.887
  466.070   46.428    0.290    0.355    5.740
  466.320   43.199    0.259    0.345    5.656
  466.570   44.795    0.236    0.343    5.610
  466.820   48.206    0.245    0.340    5.560
  467.070   49.446    0.239    0.337    5.425
  467.320   44.773    0.233    0.346    5.149
  467.570   42.323    0.246    0.336    4.931
  467.820   42.880    0.246    0.321    4.888
  468.070   44.941    0.240    0.326    4.949
  468.320   46.464    0.259    0.354    5.118
  468.570   50.899    0.274    0.344    5.410
  468.820   58.315    0.277    0.326    5.586
  469.070   58.960    0.191    0.314    5.902
  469.320   58.460    0.190    0.322    6.228
  469.570   67.163    0.216    0.308    6.471
  469.820   73.331    0.204    0.300    6.568
  470.070   78.184    0.203    0.306    6.867
  470.320   84.674    0.209    0.311    7.327
  470.570   93.510    0.163    0.325    7.724
  470.820   83.251    0.170    0.320    7.686
  471.070   72.534    0.193    0.321    7.642
  471.320   74.171    0.223    0.318    7.828
  471.570   81.720    0.177    0.308    7.885
  471.820   83.861    0.146    0.297    7.809
  472.070   69.998    0.127    0.287    7.945
  472.320   60.556    0.137    0.279    8.013
  472.570   55.825    0.166    0.272    7.722
  472.820   54.948    0.181    0.265    7.386
  473.070   60.708    0.181    0.259    7.274
  473.320   71.191    0.159    0.271    7.477
  473.570   77.533    0.118    0.316    7.548
  473.820   80.573    0.058    0.352    7.037
  474.070   79.874    0.020    0.431    5.877
  474.320   57.812   -0.002    0.546    4.603
  474.570   53.237   -0.008    0.573    4.145
  474.820   81.387    0.055    0.503    3.978
  475.070  100.472    0.145    0.414    4.007
  475.320  103.938    0.172    0.400    4.108
