~VERSION INFORMATION
 VERS.                 2.0:   CWLS LOG ASCII STANDARD -VERSION 2.0
 WRAP.                  NO:   ONE LINE PER DEPTH STEP
~WELL INFORMATION BLOCK
#MNEM.UNIT           DATA                    DESCRIPTION OF MNEMONIC
#---------    -------------------            -------------------------------
# Generated from Intellog Unique Number	CW_76_78/WELL/185
WELL.         AMOCO 78 MARTEN HILLS 02-05    : Well_name    - WELL
LOC .         00/02-05-076-26W4/0            : Location     - LOCATION
UWI .         00/02-05-076-26W4/0            : Uwi          - UNIQUE WELL ID
ENTR.         JAYE                           : Entered      - ENTERED BY
SRVC.         SCHLUMBERGER                   : Scn          - SERVICE COMPANY
DATE.         23 FEB 76                      : Date         - LOG DATE
STRT.M        612.648                        : top_depth    - START DEPTH
STOP.M        804.148                        : bot_depth    - STOP DEPTH
STEP.M        0.25                           : increment    - STEP LENGTH
 NULL. -999.2500:NULL Value
~CURVE INFORMATION BLOCK
#MNEM UNIT       ERCB CURVE CODE    CURVE DESCRIPTION
#-----------   ------------------   ----------------------------------
DEPT.M        00 001 00 00         : DEPTH        - DEPTH
CALI.MM       00 280 01 00         : CAL          - CALIPER
ILD .OHMM     00 120 00 00         : RESD         - DEEP RESISTIVITY (DIL)
NPHI.V/V      00 330 00 00         : PHIN         - NEUTRON POROSITY (SANDSTONE)
DPHI.V/V      00 890 00 00         : PHID         - DENSITY POROSITY (SANDSTONE)
GR  .API      00 310 00 00         : GR           - GAMMA RAY
~PARAMETER INFORMATION
#MNEM.UNIT           DATA             DESCRIPTION OF MNEMONIC
#---------         -----------     ------------------------------
GL  .M        899.77               : gl           - GROUND LEVEL ELEVATION
EREF.M        903.427              : kb           - ELEVATION OF DEPTH REFERENCE
DATM.M        899.77               : datum        - DATUM ELEVATION
TDD .M        806.196              : tdd          - TOTAL DEPTH DRILLER
RUN .         ONE                  : Run          - RUN NUMBER
ENG .         LAZOR                : Engineer     - RECORDING ENGINEER
WIT .         HUCULAK              : Witness      - WITNESSED BY
MUD .         GEL                  : Mud_type     - MUD TYPE
MATR.         SANDSTONE            : Logunit      - NEUTRON MATRIX
TMAX.C        29.4444              : BHT          - MAXIMUM RECORDED TEMPERATURE
BHTD.M        805.282              : BHTDEP       - MAXIMUM RECORDED TEMPERATURE
RMT .C        15.5556              : MDTP         - TEMPERATURE OF MUD
MUDD.KG/M     1080                 : MWT          - MUD DENSITY
NEUT.         1                    : NEUTRON      - NEUTRON TYPE
RESI.         0                    : RESIST       - RESISTIVITY TYPE
RM  .OHMM     5.07                 : RM           - RESISTIVITY OF MUD
RMC .OHMM     0                    : RMC          - RESISTIVITY OF MUD CAKE
RMF .OHMM     7.19                 : RMF          - RESISTIVITY OF MUD FILTRATE
SUFT.C        -17.7778             : SUFT         - SURFACE TEMPERATURE
~A  DEPTH      CAL     RESD     PHIN     PHID       GR
# ...
  649.148  217.890    7.556    0.433    0.271   68.556
  649.398  217.661    7.328    0.428    0.256   68.965
  649.648  217.511    6.401    0.423    0.230   71.624
  649.898  217.461    5.539    0.429    0.208   76.055
  650.148  217.633    4.865    0.443    0.200   81.342
  650.398  218.022    4.457    0.454    0.192   83.332
  650.648  218.174    4.347    0.444    0.178   78.122
  650.898  218.345    4.247    0.379    0.158   72.914
  651.148  218.308    4.211    0.360    0.106   69.415
  651.398  217.961    4.032    0.397    0.125   81.047
  651.648  217.406    3.700    0.443    0.204   85.231
  651.898  217.161    3.403    0.468    0.260   86.553
  652.148  220.222    3.228    0.507    0.249   79.757
  652.398  232.478    3.189    0.470    0.262   72.720
  652.648  227.795    3.304    0.458    0.270   63.670
  652.898  218.562    3.571    0.442    0.278   57.913
  653.148  216.776    3.797    0.434    0.292   60.636
  653.398  217.458    4.135    0.442    0.301   62.203
  653.648  218.349    4.436    0.456    0.287   61.815
  653.898  218.409    4.902    0.456    0.271   60.327
  654.148  218.173    5.367    0.445    0.269   57.680
  654.398  217.817    6.210    0.442    0.259   54.489
  654.648  217.573    6.674    0.442    0.244   53.670
  654.898  217.849    6.878    0.391    0.215   54.201
  655.148  217.709    6.646    0.356    0.166   55.700
  655.398  217.670    5.404    0.389    0.224   60.684
  655.648  217.430    4.550    0.439    0.258   64.869
  655.898  217.196    4.018    0.450    0.257   64.966
  656.148  217.246    3.574    0.456    0.236   61.286
  656.398  217.017    3.233    0.461    0.236   60.417
  656.648  216.972    3.124    0.475    0.241   60.329
  656.898  217.030    3.345    0.493    0.236   60.364
  657.148  217.094    3.636    0.498    0.246   59.182
  657.398  217.377    4.033    0.445    0.217   60.203
  657.648  217.541    4.351    0.411    0.195   61.276
  657.898  217.508    4.617    0.411    0.216   61.922
  658.148  217.469    4.811    0.429    0.228   60.014
  658.398  217.421    4.805    0.423    0.216   57.668
  658.648  217.385    4.738    0.410    0.200   57.098
  658.898  217.248    4.646    0.398    0.207   58.420
  659.148  217.222    4.531    0.401    0.213   60.535
  659.398  217.269    4.410    0.413    0.214   61.363
  659.648  217.234    4.301    0.416    0.238   63.415
  659.898  217.414    4.202    0.429    0.242   66.505
  660.148  217.777    4.128    0.445    0.251   66.603
  660.398  218.155    4.093    0.459    0.266   65.302
  660.648  218.531    4.126    0.468    0.274   65.097
  660.898  218.809    4.236    0.474    0.271   64.770
  661.148  218.452    4.215    0.480    0.256   63.891
  661.398  217.907    4.368    0.482    0.269   62.285
  661.648  217.139    4.652    0.464    0.266   65.005
  661.898  216.071    4.910    0.448    0.253   67.977
  662.148  215.520    5.456    0.430    0.231   67.707
  662.398  216.205    6.174    0.397    0.185   64.024
  662.648  217.407    6.600    0.341    0.139   61.255
  662.898  218.512    6.604    0.324    0.089   59.953
  663.148  219.498    6.335    0.307    0.103   61.761
  663.398  220.600    5.890    0.343    0.129   66.498
  663.648  221.072    5.377    0.409    0.185   70.073
  663.898  221.457    4.845    0.423    0.212   73.597
  664.148  221.825    4.216    0.433    0.238   76.009
  664.398  221.583    3.799    0.444    0.254   78.852
  664.648  227.326    3.719    0.468    0.247   82.491
  664.898  222.437    3.776    0.472    0.220   86.615
  665.148  219.098    3.956    0.456    0.241   92.085
  665.398  218.853    4.206    0.450    0.237   87.124
  665.648  219.231    4.488    0.459    0.242   78.377
  665.898  219.399    4.825    0.452    0.240   76.280
  666.148  219.670    5.120    0.445    0.228   76.136
  666.398  219.744    5.364    0.442    0.229   75.442
  666.648  219.594    5.508    0.441    0.246   73.650
  666.898  219.870    5.592    0.441    0.242   72.104
  667.148  219.925    5.658    0.432    0.231   69.946
  667.398  220.314    5.798    0.417    0.218   67.242
  667.648  220.575    6.096    0.419    0.200   65.329
  667.898  220.855    6.651    0.418    0.195   63.779
  668.148  221.119    7.084    0.395    0.178   63.819
  668.398  221.182    7.573    0.379    0.145   66.356
  668.648  220.732    7.453    0.375    0.159   67.434
  668.898  220.695    6.667    0.403    0.197   69.793
  669.148  221.286    5.781    0.473    0.254   74.591
  669.398  225.475    5.096    0.516    0.286   78.590
  669.648  231.119    4.443    0.505    0.316   77.594
  669.898  235.831    4.055    0.461    0.322   72.632
  670.148  223.502    3.862    0.444    0.309   67.667
  670.398  219.745    3.864    0.443    0.307   63.987
  670.648  219.104    4.048    0.461    0.297   61.461
  670.898  218.846    4.296    0.460    0.295   58.142
  671.148  219.119    4.534    0.445    0.292   56.232
  671.398  219.192    4.811    0.430    0.274   61.395
  671.648  219.042    5.162    0.420    0.253   60.703
  671.898  218.600    5.349    0.421    0.240   61.655
  672.148  218.458    5.333    0.441    0.253   66.879
  672.398  218.525    5.297    0.436    0.301   67.101
  672.648  218.177    5.379    0.444    0.294   63.907
  672.898  218.351    5.604    0.469    0.301   63.456
  673.148  218.613    5.926    0.494    0.313   63.433
  673.398  218.887    6.151    0.489    0.309   61.705
  673.648  219.061    6.166    0.451    0.283   59.789
  673.898  219.221    5.776    0.418    0.259   61.904
  674.148  219.394    5.399    0.412    0.243   67.068
  674.398  219.770    4.919    0.435    0.241   77.597
  674.648  220.345    4.507    0.445    0.277   84.411
  674.898  225.783    4.114    0.462    0.261   88.534
  675.148  220.582    3.917    0.442    0.290   89.975
  675.398  222.509    3.919    0.445    0.234   85.745
  675.648  226.601    4.331    0.452    0.193   81.577
  675.898  227.498    4.821    0.446    0.208   76.917
  676.148  227.458    5.416    0.431    0.165   72.013
  676.398  227.014    5.854    0.401    0.167   66.744
  676.648  226.769    5.575    0.396    0.183   66.602
  676.898  226.627    5.183    0.411    0.173   69.753
  677.148  227.106    4.679    0.425    0.175   73.082
  677.398  227.886    4.984    0.440    0.188   77.635
  677.648  230.227    5.671    0.456    0.168   79.749
  677.898  231.947    6.634    0.443    0.138   76.431
  678.148  228.706    7.079    0.372    0.124   71.163
  678.398  224.849    7.241    0.329    0.088   67.787
  678.648  223.163    7.088    0.356    0.061   76.852
  678.898  223.022    6.737    0.419    0.094   86.043
  679.148  223.290    6.474    0.425    0.164   84.253
  679.398  223.555    6.165    0.417    0.146   82.584
  679.648  223.733    5.935    0.406    0.141   83.906
  679.898  224.222    5.704    0.396    0.123   87.420
  680.148  224.270    5.635    0.428    0.162   93.560
  680.398  224.649    5.596    0.440    0.182   97.499
  680.648  224.712    5.559    0.436    0.157  101.813
  680.898  224.777    5.491    0.430    0.161  101.973
  681.148  224.945    5.425    0.412    0.192   98.776
  681.398  225.016    5.358    0.423    0.190   94.179
  681.648  225.490    5.322    0.437    0.172   91.901
  681.898  226.488    5.306    0.449    0.158   93.828
  682.148  229.652    5.320    0.459    0.137   98.385
  682.398  235.192    5.303    0.449    0.194   97.567
  682.648  232.676    5.230    0.451    0.193   95.591
  682.898  228.608    5.185    0.472    0.178   98.623
  683.148  227.961    5.150    0.485    0.177   97.804
  683.398  229.565    5.097    0.476    0.169   97.112
  683.648  229.016    5.053    0.460    0.155   98.069
  683.898  225.565    5.028    0.448    0.167   99.568
  684.148  223.874    5.031    0.459    0.145  101.866
  684.398  226.525    5.035    0.474    0.154  104.283
  684.648  231.135    4.974    0.465    0.137  106.393
  684.898  232.856    4.931    0.469    0.152  105.641
  685.148  231.781    4.907    0.486    0.140  103.726
  685.398  230.503    4.910    0.497    0.145  101.569
