~VERSION INFORMATION
 VERS.                 2.0:   CWLS LOG ASCII STANDARD -VERSION 2.0
 WRAP.                  NO:   ONE LINE PER DEPTH STEP
~WELL INFORMATION BLOCK
#MNEM.UNIT           DATA                    DESCRIPTION OF MNEMONIC
#---------    -------------------            -------------------------------
# Generated from Intellog Unique Number	CS_77_79/WELL/922
WELL.         CANADIAN WORLDWIDE ENERGY      : Well_name    - WELL
LOC .         00/09-06-077-04W4/0            : Location     - LOCATION
UWI .         00/09-06-077-04W4/0            : Uwi          - UNIQUE WELL ID
ENTR.         SP                             : Entered      - ENTERED BY
SRVC.         SCHLUMBERGER                   : Scn          - SERVICE COMPANY
STRT.M        150                            : top_depth    - START DEPTH
STOP.M        392                            : bot_depth    - STOP DEPTH
STEP.M        0.25                           : increment    - STEP LENGTH
 NULL. -999.2500:NULL Value
~CURVE INFORMATION BLOCK
#MNEM UNIT       ERCB CURVE CODE    CURVE DESCRIPTION
#-----------   ------------------   ----------------------------------
DEPT.M        00 001 00 00         : DEPTH        - DEPTH
ILD .OHMM     00 120 00 00         : RESD         - DEEP RESISTIVITY (DIL)
DPHI.V/V      00 890 00 00         : PHID         - DENSITY POROSITY (LIMESTONE)
NPHI.V/V      00 330 00 00         : PHIN         - NEUTRON POROSITY (LIMESTONE)
GR  .API      00 310 00 00         : GR           - GAMMA RAY
~PARAMETER INFORMATION
#MNEM.UNIT           DATA             DESCRIPTION OF MNEMONIC
#---------         -----------     ------------------------------
GL  .M        576.6                : gl           - GROUND LEVEL ELEVATION
EREF.M        579.8                : kb           - ELEVATION OF DEPTH REFERENCE
DATM.M        576.6                : datum        - DATUM ELEVATION
TDD .M        397                  : tdd          - TOTAL DEPTH DRILLER
RUN .         ONE                  : Run          - RUN NUMBER
ENG .         BILL                 : Engineer     - RECORDING ENGINEER
WIT .         JIM                  : Witness      - WITNESSED BY
MUD .         GEL                  : Mud_type     - MUD TYPE
MATR.         LIMESTONE            : Logunit      - NEUTRON MATRIX
TMAX.C        19                   : BHT          - MAXIMUM RECORDED TEMPERATURE
BHTD.M        397                  : BHTDEP       - MAXIMUM RECORDED TEMPERATURE
MATR.         1                    : LOGUNIT      - NEUTRON MATRIX
RMT .C        25                   : MDTP         - TEMPERATURE OF MUD
NEUT.         1                    : NEUTRON      - NEUTRON TYPE
RESI.         0                    : RESIST       - RESISTIVITY TYPE
RMC .OHMM     0.25                 : RMC          - RESISTIVITY OF MUD CAKE
RMF .OHMM     0.25                 : RMF          - RESISTIVITY OF MUD FILTRATE
SUFT.C        15                   : SUFT         - SURFACE TEMPERATURE
~A  DEPTH     RESD     PHID     PHIN       GR
# ...
  367.500    8.934    0.172    0.323   91.391
  367.750   10.004    0.176    0.322   90.173
  368.000   10.993    0.194    0.339   82.812
  368.250   13.023    0.222    0.371   68.072
  368.500   15.426    0.262    0.374   58.865
  368.750   17.271    0.290    0.424   48.429
  369.000   19.705    0.305    0.420   40.452
  369.250   21.655    0.339    0.413   35.550
  369.500   22.075    0.344    0.387   36.797
  369.750   21.270    0.328    0.372   38.038
  370.000   20.115    0.328    0.354   36.821
  370.250   18.323    0.324    0.346   46.677
  370.500   17.004    0.304    0.329   53.450
  370.750   15.783    0.239    0.317   47.320
  371.000   15.494    0.270    0.355   44.872
  371.250   14.928    0.287    0.336   44.271
  371.500   14.938    0.304    0.330   43.675
  371.750   14.943    0.284    0.325   43.073
  372.000   15.231    0.293    0.328   41.861
  372.250   14.678    0.299    0.329   40.641
  372.500   13.624    0.304    0.327   39.433
  372.750   13.126    0.294    0.329   39.442
  373.000   11.516    0.287    0.342   42.528
  373.250   10.294    0.285    0.333   51.766
  373.500    9.733    0.264    0.319   65.921
  373.750    8.866    0.172    0.300   77.613
  374.000    8.542    0.105    0.293  104.061
  374.250    8.231    0.094    0.295  115.755
  374.500    7.499    0.094    0.301  115.770
  374.750    7.225    0.097    0.299  109.024
  375.000    7.093    0.121    0.294   95.513
  375.250    6.834    0.148    0.321   90.000
  375.500    6.710    0.193    0.338   89.399
  375.750    6.715    0.202    0.358   90.025
  376.000    6.844    0.196    0.375   94.956
  376.250    6.720    0.195    0.379   88.827
  376.500    6.237    0.190    0.333   82.691
  376.750    5.897    0.208    0.332   69.185
  377.000    5.272    0.249    0.334   58.750
  377.250    4.892    0.286    0.336   50.771
  377.500    4.626    0.304    0.355   46.480
  377.750    4.375    0.324    0.345   42.805
  378.000    4.377    0.334    0.334   45.894
  378.250    4.379    0.341    0.340   56.976
  378.500    4.549    0.346    0.358   71.743
  378.750    4.724    0.373    0.378   85.280
  379.000    5.095    0.282    0.416   83.454
  379.250    5.293    0.245    0.358   79.163
  379.500    5.296    0.247    0.340   69.344
  379.750    5.297    0.271    0.332   68.128
  380.000    5.607    0.257    0.329   80.436
  380.250    5.824    0.241    0.333   84.140
  380.500    5.304    0.229    0.338   82.313
  380.750    5.016    0.236    0.351   77.406
  381.000    4.744    0.275    0.377   52.831
  381.250    4.657    0.303    0.357   41.167
  381.500    4.488    0.332    0.343   38.107
  381.750    4.406    0.315    0.341   43.041
  382.000    4.409    0.302    0.344   44.283
  382.250    4.494    0.295    0.343   39.995
  382.500    4.582    0.292    0.318   35.705
  382.750    4.583    0.299    0.313   38.799
  383.000    4.586    0.296    0.317   39.424
  383.250    4.587    0.284    0.312   35.750
  383.500    4.505    0.280    0.311   32.691
  383.750    4.591    0.290    0.318   32.090
  384.000    4.769    0.288    0.314   37.026
  384.250    4.954    0.277    0.311   37.656
  384.500    4.956    0.276    0.309   36.439
  384.750    5.052    0.269    0.313   35.839
  385.000    5.055    0.265    0.317   37.696
  385.250    5.152    0.278    0.315   38.946
  385.500    5.351    0.281    0.305   39.570
  385.750    5.355    0.276    0.305   38.357
  386.000    5.257    0.275    0.315   40.830
  386.250    5.161    0.277    0.309   44.531
  386.500    5.069    0.277    0.302   37.784
  386.750    5.070    0.278    0.297   34.113
  387.000    4.978    0.284    0.302   34.741
  387.250    4.889    0.293    0.306   35.986
  387.500    4.890    0.287    0.313   34.153
  387.750    4.891    0.285    0.321   36.627
  388.000    5.081    0.292    0.320   41.560
  388.250    6.250    0.290    0.309   58.171
  388.500    7.265    0.290    0.299   99.373
  388.750    9.453    0.299    0.365  155.944
  389.000   12.071    0.000    0.407  173.174
  389.250   14.846    0.000    0.347  186.095
  389.500   16.937    0.000    0.304  113.572
  389.750   20.065    0.000    0.267  100.063
  390.000   21.639    0.000    0.230   95.772
  390.250   22.477    0.000    0.205   94.558
  390.500   22.487    0.018    0.199   97.031
  390.750   22.079    0.011    0.202   97.046
  391.000   21.675    0.001    0.207   90.300
  391.250   21.288    0.000    0.208   57.117
  391.500   21.295    0.000    0.210   11.025
  391.750   21.707    0.000    0.211    0.591
  392.000   21.715    0.011    0.212    1.839
