~VERSION INFORMATION
 VERS.                 2.0:   CWLS LOG ASCII STANDARD -VERSION 2.0
 WRAP.                  NO:   ONE LINE PER DEPTH STEP
~WELL INFORMATION BLOCK
#MNEM.UNIT           DATA                    DESCRIPTION OF MNEMONIC
#---------    -------------------            -------------------------------
# Generated from Intellog Unique Number	CX_WELLS/WELL/2574
WELL.         CHARD                          : Well_name    - WELL
LOC .         00/06-02-080-07W4/0            : Location     - LOCATION
UWI .         00/06-02-080-07W400            : Uwi          - UNIQUE WELL ID
ENTR.         T                              : Entered      - ENTERED BY
SRVC.         SCHLUMBERGER                   : Scn          - SERVICE COMPANY
STRT.M        140                            : top_depth    - START DEPTH
STOP.M        380                            : bot_depth    - STOP DEPTH
STEP.M        0.25                           : increment    - STEP LENGTH
 NULL. -999.2500:NULL Value
~CURVE INFORMATION BLOCK
#MNEM UNIT       ERCB CURVE CODE    CURVE DESCRIPTION
#-----------   ------------------   ----------------------------------
DEPT.M        00 001 00 00         : DEPTH        - DEPTH
GR  .API      00 310 00 00         : GR           - GAMMA RAY
NPHI.V/V      00 330 00 00         : PHIN         - NEUTRON POROSITY (SANDSTONE)
DPHI.V/V      00 890 00 00         : PHID         - DENSITY POROSITY (SANDSTONE)
ILD .OHMM     00 120 00 00         : RESD         - DEEP RESISTIVITY (DIL)
~PARAMETER INFORMATION
#MNEM.UNIT           DATA             DESCRIPTION OF MNEMONIC
#---------         -----------     ------------------------------
GL  .M        559.1                : gl           - GROUND LEVEL ELEVATION
EREF.M        562.7                : kb           - ELEVATION OF DEPTH REFERENCE
DATM.M        562.7                : datum        - DATUM ELEVATION
TDD .M        393.7                : tdd          - TOTAL DEPTH DRILLER
RUN .         ONE                  : Run          - RUN NUMBER
ENG .         BILL                 : Engineer     - RECORDING ENGINEER
WIT .         JIM                  : Witness      - WITNESSED BY
MUD .         GEL                  : Mud_type     - MUD TYPE
MATR.         SANDSTONE            : Logunit      - NEUTRON MATRIX
TMAX.C        20                   : BHT          - MAXIMUM RECORDED TEMPERATURE
BHTD.M        393                  : BHTDEP       - MAXIMUM RECORDED TEMPERATURE
MATR.         1                    : LOGUNIT      - NEUTRON MATRIX
RMT .C        20                   : MDTP         - TEMPERATURE OF MUD
NEUT.         1                    : NEUTRON      - NEUTRON TYPE
RESI.         5.65                 : RESIST       - RESISTIVITY TYPE
RMC .OHMM     6.4                  : RMC          - RESISTIVITY OF MUD CAKE
RMF .OHMM     5.2                  : RMF          - RESISTIVITY OF MUD FILTRATE
SUFT.C        3                    : SUFT         - SURFACE TEMPERATURE
~A  DEPTH       GR     PHIN     PHID     RESD
# ...
  314.000   74.833    0.407    0.293   21.421
  314.250   76.696    0.407    0.297   19.464
  314.500   80.433    0.407    0.299   18.040
  314.750   84.783    0.408    0.296   17.390
  315.000   87.895    0.411    0.291   17.078
  315.250   90.994    0.417    0.275   16.456
  315.500   96.554    0.419    0.261   15.252
  315.750  102.740    0.429    0.255   13.597
  316.000  106.451    0.435    0.250   11.670
  316.250  107.727    0.440    0.243   11.235
  316.500  101.661    0.444    0.250   10.826
  316.750   94.371    0.408    0.281   10.850
  317.000   86.468    0.386    0.289   11.082
  317.250   77.941    0.379    0.299   11.998
  317.500   70.650    0.365    0.285   13.505
  317.750   72.539    0.370    0.273   14.628
  318.000   77.501    0.373    0.261   14.928
  318.250   75.718    0.377    0.259   14.961
  318.500   73.921    0.378    0.284   14.415
  318.750   77.646    0.382    0.257   14.157
  319.000   84.443    0.385    0.246   13.641
  319.250   86.345    0.388    0.232   12.891
  319.500   83.325    0.387    0.257   12.665
  319.750   79.094    0.380    0.267   12.693
  320.000   75.462    0.374    0.272   12.959
  320.250   70.619    0.361    0.274   13.778
  320.500   68.849    0.351    0.277   14.624
  320.750   70.113    0.341    0.276   15.522
  321.000   73.225    0.340    0.269   16.475
  321.250   80.022    0.340    0.261   17.838
  321.500   84.385    0.341    0.257   19.709
  321.750   83.800    0.342    0.256   21.339
  322.000   80.806    0.342    0.265   22.223
  322.250   77.786    0.342    0.277   23.134
  322.500   67.423    0.342    0.307   23.628
  322.750   64.442    0.342    0.334   24.134
  323.000   65.706    0.350    0.339   23.711
  323.250   67.594    0.364    0.309   21.157
  323.500   65.798    0.385    0.293   19.609
  323.750   57.284    0.395    0.288   18.878
  324.000   49.382    0.407    0.301   17.497
  324.250   49.447    0.396    0.317   16.224
  324.500   51.948    0.384    0.331   16.253
  324.750   52.613    0.396    0.325   16.600
  325.000   47.757    0.409    0.322   17.620
  325.250   42.302    0.412    0.329   19.833
  325.500   38.072    0.401    0.330   24.128
  325.750   38.111    0.383    0.330   42.477
  326.000   38.164    0.378    0.330   59.203
  326.250   38.829    0.371    0.330   74.911
  326.500   40.105    0.374    0.329   75.041
  326.750   45.679    0.378    0.329   73.694
  327.000   43.909    0.380    0.329   73.854
  327.250   40.889    0.380    0.330   72.559
  327.500   37.869    0.381    0.331   71.287
  327.750   33.651    0.381    0.332   71.380
  328.000   29.434    0.382    0.332   72.939
  328.250   28.249    0.383    0.333   73.067
  328.500   27.065    0.383    0.333   73.226
  328.750   27.131    0.383    0.334   73.290
  329.000   27.171    0.384    0.335   69.261
  329.250   28.460    0.386    0.331   60.559
  329.500   34.619    0.390    0.319   48.049
  329.750   75.698    0.397    0.263   30.195
  330.000   77.586    0.423    0.233   20.902
  330.250   73.356    0.423    0.210   15.049
  330.500   69.125    0.382    0.195   14.228
  330.750   68.579    0.396    0.239   14.253
  331.000   72.303    0.412    0.253   14.277
  331.250   77.238    0.428    0.263   12.729
  331.500   82.186    0.434    0.274   11.348
  331.750   87.135    0.439    0.279   10.513
  332.000   90.859    0.442    0.268    9.552
  332.250   95.820    0.442    0.260    8.037
  332.500  100.782    0.442    0.254    7.165
  332.750  100.848    0.445    0.249    6.511
  333.000  100.874    0.449    0.244    6.273
  333.250  100.315    0.454    0.237    6.533
  333.500  100.980    0.460    0.235    7.074
  333.750  101.658    0.450    0.229    7.659
  334.000  101.724    0.414    0.224    8.296
  334.250  101.763    0.408    0.216    8.639
  334.500  103.040    0.414    0.211    8.484
  334.750  104.303    0.441    0.206    8.175
  335.000  108.041    0.466    0.201    7.726
  335.250  109.304    0.488    0.204    7.301
  335.500  112.443    0.492    0.208    6.770
  335.750  113.693    0.499    0.214    6.398
  336.000  115.595    0.500    0.214    6.406
  336.250  116.872    0.499    0.213    6.543
  336.500  112.628    0.496    0.209    6.951
  336.750   99.218    0.495    0.209    7.239
  337.000   84.585    0.493    0.214    7.683
  337.250   80.966    0.456    0.236    8.486
  337.500   83.466    0.444    0.249    9.367
  337.750   84.756    0.399    0.239   10.549
  338.000   82.335    0.383    0.237   11.868
  338.250   78.104    0.389    0.247   13.888
  338.500   72.038    0.392    0.257   16.571
  338.750   66.583    0.390    0.271   20.967
  339.000   59.905    0.382    0.276   26.518
  339.250   54.437    0.384    0.282   32.275
  339.500   48.982    0.384    0.300   38.492
  339.750   47.824    0.366    0.317   47.768
  340.000   52.773    0.351    0.319   53.767
  340.250   55.885    0.354    0.307   48.875
  340.500   52.878    0.364    0.291   41.106
  340.750   51.707    0.370    0.276   36.630
  341.000   51.747    0.379    0.269   33.297
  341.250   51.800    0.382    0.282   30.861
  341.500   50.628    0.381    0.308   32.168
  341.750   50.083    0.381    0.307   33.472
  342.000   50.135    0.383    0.307   36.967
  342.250   50.800    0.386    0.306   40.827
  342.500   52.077    0.388    0.300   43.353
  342.750   53.978    0.389    0.293   44.280
  343.000   55.867    0.385    0.299   41.041
  343.250   58.354    0.373    0.307   38.785
  343.500   58.407    0.370    0.300   39.614
  343.750   51.742    0.395    0.297   42.084
  344.000   49.334    0.406    0.319   42.947
  344.250   46.925    0.414    0.325   45.603
  344.500   45.156    0.411    0.330   48.425
  344.750   45.209    0.410    0.329   52.475
  345.000   45.248    0.412    0.322   53.574
  345.250   45.301    0.413    0.321   53.668
  345.500   44.143    0.417    0.323   53.738
  345.750   42.972    0.424    0.323   53.855
  346.000   43.025    0.433    0.327   58.283
  346.250   43.064    0.435    0.329   69.541
  346.500   43.742    0.428    0.337   79.880
  346.750   43.782    0.424    0.340   86.448
  347.000   43.834    0.421    0.345   84.932
  347.250   43.275    0.420    0.345   81.909
  347.500   43.967    0.416    0.344   80.403
  347.750   44.605    0.415    0.341   76.049
  348.000   46.533    0.412    0.338   73.215
  348.250   46.559    0.408    0.336   69.190
  348.500   47.876    0.401    0.338   65.386
  348.750   47.915    0.395    0.342   64.268
  349.000   47.941    0.399    0.339   63.141
  349.250   49.231    0.409    0.334   62.007
  349.500   50.495    0.415    0.328   57.446
  349.750   52.995    0.420    0.309   49.283
  350.000   54.897    0.414    0.318   43.918
  350.250   53.713    0.407    0.331   36.937
  350.500   47.660    0.418    0.341   32.944
  350.750   50.147    0.415    0.310   37.066
  351.000   55.707    0.387    0.295   42.558
  351.250   60.043    0.379    0.272   41.025
  351.500   60.096    0.384    0.300   40.271
  351.750   60.774    0.390    0.307   40.341
  352.000   62.064    0.395    0.317   45.428
  352.250   61.505    0.404    0.325   51.111
  352.500   59.708    0.414    0.332   62.234
  352.750   56.090    0.426    0.336   70.019
  353.000   50.622    0.435    0.341   85.183
  353.250   45.779    0.437    0.344  101.680
  353.500   44.608    0.432    0.344  112.248
  353.750   46.523    0.427    0.345  119.193
  354.000   47.175    0.421    0.345  124.131
  354.250   49.050    0.418    0.346  124.402
  354.500   51.550    0.418    0.347  122.168
  354.750   50.991    0.422    0.347  120.078
  355.000   48.610    0.424    0.345  122.647
  355.250   44.991    0.424    0.345  127.729
  355.500   41.997    0.424    0.349  130.405
  355.750   40.188    0.426    0.354  135.808
  356.000   38.405    0.427    0.355  138.774
  356.250   37.260    0.426    0.354  141.744
  356.500   37.300    0.422    0.354  141.991
  356.750   39.813    0.417    0.355  136.817
  357.000   41.675    0.411    0.353  119.576
  357.250   48.459    0.409    0.350  110.828
