~VERSION INFORMATION
 VERS.                 2.0:   CWLS LOG ASCII STANDARD -VERSION 2.0
 WRAP.                  NO:   ONE LINE PER DEPTH STEP
~WELL INFORMATION BLOCK
#MNEM.UNIT           DATA                    DESCRIPTION OF MNEMONIC
#---------    -------------------            -------------------------------
# Generated from Intellog Unique Number	CS_73_76/WELL/2160
WELL.         GULF NISBET                    : Well_name    - WELL
LOC .         00/06-08-074-01W4/0            : Location     - LOCATION
UWI .         00/06-08-074-01W4/0            : Uwi          - UNIQUE WELL ID
ENTR.         SP                             : Entered      - ENTERED BY
SRVC.         SCHLUMBERGER                   : Scn          - SERVICE COMPANY
STRT.M        350                            : top_depth    - START DEPTH
STOP.M        630                            : bot_depth    - STOP DEPTH
STEP.M        0.25                           : increment    - STEP LENGTH
 NULL. -999.2500:NULL Value
~CURVE INFORMATION BLOCK
#MNEM UNIT       ERCB CURVE CODE    CURVE DESCRIPTION
#-----------   ------------------   ----------------------------------
DEPT.M        00 001 00 00         : DEPTH        - DEPTH
ILD .OHMM     00 120 00 00         : RESD         - DEEP RESISTIVITY (DIL)
NPHI.V/V      00 330 00 00         : PHIN         - NEUTRON POROSITY (LIMESTONE)
DPHI.V/V      00 890 00 00         : PHID         - DENSITY POROSITY (LIMESTONE)
GR  .API      00 310 00 00         : GR           - GAMMA RAY
~PARAMETER INFORMATION
#MNEM.UNIT           DATA             DESCRIPTION OF MNEMONIC
#---------         -----------     ------------------------------
GL  .M        705.5                : gl           - GROUND LEVEL ELEVATION
EREF.M        709.2                : kb           - ELEVATION OF DEPTH REFERENCE
DATM.M        705.5                : datum        - DATUM ELEVATION
TDD .M        640                  : tdd          - TOTAL DEPTH DRILLER
RUN .         ONE                  : Run          - RUN NUMBER
ENG .         BILL                 : Engineer     - RECORDING ENGINEER
WIT .         JIM                  : Witness      - WITNESSED BY
MUD .         GEL                  : Mud_type     - MUD TYPE
MATR.         LIMESTONE            : Logunit      - NEUTRON MATRIX
TMAX.C        19.5                 : BHT          - MAXIMUM RECORDED TEMPERATURE
BHTD.M        640                  : BHTDEP       - MAXIMUM RECORDED TEMPERATURE
MATR.         1                    : LOGUNIT      - NEUTRON MATRIX
RMT .C        25                   : MDTP         - TEMPERATURE OF MUD
NEUT.         1                    : NEUTRON      - NEUTRON TYPE
RESI.         0                    : RESIST       - RESISTIVITY TYPE
RMC .OHMM     0.25                 : RMC          - RESISTIVITY OF MUD CAKE
RMF .OHMM     0.25                 : RMF          - RESISTIVITY OF MUD FILTRATE
SUFT.C        15                   : SUFT         - SURFACE TEMPERATURE
~A  DEPTH     RESD     PHIN     PHID       GR
# ...
  393.500   14.498    0.415    0.327   74.548
  393.750   14.769    0.424    0.315   76.391
  394.000   14.768    0.433    0.305   76.402
  394.250   14.767    0.414    0.291   75.199
  394.500   14.766    0.408    0.282   75.215
  394.750   14.492    0.390    0.278   75.838
  395.000   13.959    0.373    0.289   77.073
  395.250   13.700    0.394    0.300   81.355
  395.500   13.445    0.406    0.307   86.858
  395.750   13.195    0.422    0.311   94.193
  396.000   13.194    0.432    0.296   96.034
  396.250   13.193    0.434    0.285   96.659
  396.500   13.192    0.443    0.280  102.164
  396.750   12.947    0.433    0.280  109.495
  397.000   12.946    0.424    0.284  113.167
  397.250   12.706    0.410    0.281  110.751
  397.500   12.469    0.398    0.278  109.540
  397.750   12.468    0.411    0.281  104.676
  398.000   12.237    0.405    0.284   99.811
  398.250   12.236    0.413    0.283  101.052
  398.500   12.008    0.424    0.285  103.503
  398.750   12.008    0.438    0.285  104.128
  399.000   11.566    0.442    0.280  102.313
  399.250   11.352    0.440    0.268   99.279
  399.500   10.534    0.430    0.264  102.340
  399.750    9.775    0.441    0.263  106.623
  400.000    9.416    0.454    0.256  110.299
  400.250    9.070    0.462    0.262  111.532
  400.500    9.070    0.480    0.258  110.937
  400.750    9.239    0.475    0.257  110.954
  401.000    9.239    0.487    0.253  111.576
  401.250    9.412    0.492    0.255  110.984
  401.500    9.588    0.491    0.258  110.386
  401.750    9.769    0.460    0.260  110.404
  402.000    9.768    0.444    0.275  111.026
  402.250   10.138    0.424    0.288  111.044
  402.500   10.138    0.410    0.299  110.450
  402.750   10.328    0.435    0.283  107.414
  403.000   10.522    0.446    0.276  100.111
  403.250   10.521    0.461    0.283   97.689
  403.500   10.718    0.467    0.278   96.482
  403.750   10.717    0.435    0.275   97.106
  404.000   10.918    0.420    0.277   97.733
  404.250   11.123    0.443    0.279   98.964
  404.500   11.545    0.454    0.278   95.931
  404.750   11.983    0.462    0.274   91.680
  405.000   12.439    0.472    0.285   86.814
  405.250   12.911    0.457    0.299   80.730
  405.500   13.653    0.443    0.302   75.258
  405.750   13.910    0.434    0.301   77.714
  406.000   14.171    0.448    0.302   78.336
  406.250   14.436    0.456    0.300   78.961
  406.500   15.267    0.467    0.280   82.027
  406.750   15.553    0.450    0.272   82.651
  407.000   14.982    0.433    0.257   81.445
  407.250   14.164    0.412    0.247   79.631
  407.500   13.645    0.397    0.250   77.816
  407.750   12.197    0.392    0.263   76.003
  408.000   11.750    0.429    0.279   79.066
  408.250   11.318    0.434    0.291   80.301
  408.500   11.748    0.434    0.293   79.706
  408.750   12.193    0.439    0.298   79.719
  409.000   11.967    0.441    0.297   82.174
  409.250   11.314    0.434    0.293   80.970
  409.500   10.305    0.418    0.293   83.423
  409.750   10.304    0.411    0.292   84.050
  410.000   10.303    0.418    0.308   82.234
  410.250   10.496    0.435    0.317   76.153
  410.500   10.693    0.414    0.331   71.287
  410.750   10.894    0.428    0.334   68.865
  411.000   11.520    0.428    0.326   72.540
  411.250   11.737    0.417    0.326   71.334
  411.500   12.182    0.428    0.328   68.908
  411.750   12.181    0.432    0.328   68.318
  412.000   12.180    0.440    0.321   67.108
  412.250   11.953    0.417    0.317   67.736
  412.500   11.952    0.413    0.315   69.577
  412.750   11.730    0.419    0.313   71.422
  413.000   11.729    0.424    0.310   70.826
  413.250   11.729    0.429    0.305   69.621
  413.500   11.728    0.435    0.307   72.078
  413.750   11.727    0.424    0.299   74.533
  414.000   11.725    0.402    0.295   73.935
  414.250   11.725    0.396    0.290   74.559
  414.500   11.724    0.403    0.287   78.235
  414.750   11.506    0.396    0.283   82.523
  415.000   11.293    0.397    0.272   84.363
  415.250   11.083    0.399    0.263   85.596
  415.500   11.291    0.405    0.257   86.223
  415.750   11.502    0.405    0.252   86.236
  416.000   11.718    0.404    0.245   86.251
  416.250   11.938    0.410    0.240   85.655
  416.500   11.716    0.423    0.256   81.404
  416.750   11.715    0.434    0.268   75.929
  417.000   11.498    0.440    0.283   72.894
  417.250   11.075    0.421    0.277   75.960
  417.500   11.074    0.415    0.266   82.075
  417.750   10.869    0.417    0.252   86.354
  418.000   10.667    0.417    0.253   91.858
  418.250   10.469    0.430    0.263   93.094
  418.500   10.274    0.433    0.269   91.278
  418.750    9.897    0.425    0.267   93.120
  419.000    9.357    0.417    0.263   97.403
  419.250    9.013    0.412    0.256  100.469
  419.500    8.846    0.419    0.257   98.655
  419.750    9.012    0.424    0.265   99.889
  420.000    9.354    0.429    0.268   99.902
  420.250    9.529    0.441    0.269   99.917
  420.500    9.708    0.448    0.272   88.956
  420.750   10.077    0.406    0.277   71.288
  421.000   10.656    0.388    0.282   63.376
  421.250   11.061    0.397    0.289   65.833
  421.500   11.268    0.402    0.294   71.943
  421.750   11.479    0.380    0.276   73.179
  422.000   11.266    0.368    0.253   77.461
  422.250   11.057    0.360    0.235   87.233
  422.500   10.260    0.376    0.227   99.441
  422.750    9.884    0.398    0.221  109.213
  423.000    9.700    0.406    0.225  112.277
  423.250    9.699    0.392    0.228  104.975
  423.500    9.881    0.409    0.237   88.527
  423.750   10.066    0.422    0.247   75.127
  424.000   10.066    0.399    0.257   69.042
  424.250    9.879    0.393    0.261   73.939
  424.500    9.695    0.408    0.270   78.832
  424.750    9.515    0.420    0.279   79.454
  425.000    8.996    0.434    0.285   77.640
  425.250    8.666    0.431    0.290   82.540
  425.500    8.665    0.420    0.288   84.383
  425.750    8.828    0.440    0.282   86.220
  426.000    9.335    0.468    0.273   88.065
  426.250    9.510    0.490    0.290   87.473
  426.500    9.689    0.447    0.283   83.216
  426.750    9.870    0.417    0.278   73.477
  427.000    9.870    0.394    0.298   69.830
  427.250    9.869    0.400    0.324   66.797
  427.500    9.868    0.423    0.336   64.376
  427.750    9.867    0.441    0.343   62.559
  428.000    9.866    0.415    0.339   61.356
  428.250    9.866    0.402    0.324   60.761
  428.500   10.051    0.385    0.314   64.436
  428.750   10.050    0.394    0.309   68.718
  429.000   10.049    0.393    0.307   71.780
  429.250    9.325    0.393    0.302   74.234
  429.500    9.325    0.393    0.292   73.028
  429.750    9.499    0.390    0.290   75.486
  430.000    9.498    0.385    0.287   78.550
  430.250    9.498    0.386    0.285   82.228
  430.500    9.497    0.396    0.282   83.454
  430.750    9.496    0.408    0.283   86.517
  431.000    9.320    0.425    0.286   89.581
  431.250    9.147    0.434    0.291   89.597
  431.500    9.146    0.440    0.297   89.004
  431.750    9.145    0.432    0.300   87.186
  432.000    9.144    0.415    0.305   82.935
  432.250    9.144    0.407    0.310   80.509
  432.500    9.143    0.414    0.296   79.308
  432.750    8.807    0.418    0.286   82.981
  433.000    8.643    0.432    0.281   86.048
  433.250    8.483    0.427    0.278   86.666
  433.500    8.020    0.419    0.273   84.854
  433.750    7.442    0.415    0.266   85.477
  434.000    7.304    0.404    0.261   91.595
  434.250    7.304    0.408    0.257   92.824
  434.500    7.168    0.428    0.265   93.453
  434.750    7.167    0.428    0.267   93.466
  435.000    7.034    0.419    0.269   92.262
  435.250    6.776    0.411    0.269   91.054
  435.500    6.650    0.400    0.258   96.558
  435.750    6.287    0.408    0.249   99.013
  436.000    6.056    0.437    0.246   98.418
  436.250    5.620    0.423    0.245   97.212
  436.500    5.516    0.410    0.245   93.568
  436.750    5.313    0.432    0.245   98.462
