~VERSION INFORMATION
 VERS.                 2.0:   CWLS LOG ASCII STANDARD -VERSION 2.0
 WRAP.                  NO:   ONE LINE PER DEPTH STEP
~WELL INFORMATION BLOCK
#MNEM.UNIT           DATA                    DESCRIPTION OF MNEMONIC
#---------    -------------------            -------------------------------
# Generated from Intellog Unique Number	CS_73_76/WELL/2001
WELL.         BOW VALLEY INDUSTRIES LTD.     : Well_name    - WELL
LOC .         00/07-03-075-14W4/0            : Location     - LOCATION
UWI .         00/07-03-075-14W4/0            : Uwi          - UNIQUE WELL ID
ENTR.         SP                             : Entered      - ENTERED BY
SRVC.         SCHLUMBERGER                   : Scn          - SERVICE COMPANY
STRT.M        410                            : top_depth    - START DEPTH
STOP.M        640                            : bot_depth    - STOP DEPTH
STEP.M        0.25                           : increment    - STEP LENGTH
 NULL. -999.2500:NULL Value
~CURVE INFORMATION BLOCK
#MNEM UNIT       ERCB CURVE CODE    CURVE DESCRIPTION
#-----------   ------------------   ----------------------------------
DEPT.M        00 001 00 00         : DEPTH        - DEPTH
ILD .OHMM     00 120 00 00         : RESD         - DEEP RESISTIVITY (DIL)
DPHI.V/V      00 890 00 00         : PHID         - DENSITY POROSITY (LIMESTONE)
NPHI.V/V      00 330 00 00         : PHIN         - NEUTRON POROSITY (LIMESTONE)
GR  .API      00 310 00 00         : GR           - GAMMA RAY
~PARAMETER INFORMATION
#MNEM.UNIT           DATA             DESCRIPTION OF MNEMONIC
#---------         -----------     ------------------------------
GL  .M        774.5                : gl           - GROUND LEVEL ELEVATION
EREF.M        777.8                : kb           - ELEVATION OF DEPTH REFERENCE
DATM.M        774.5                : datum        - DATUM ELEVATION
TDD .M        653.4                : tdd          - TOTAL DEPTH DRILLER
RUN .         ONE                  : Run          - RUN NUMBER
ENG .         BILL                 : Engineer     - RECORDING ENGINEER
WIT .         JIM                  : Witness      - WITNESSED BY
MUD .         GEL                  : Mud_type     - MUD TYPE
MATR.         LIMESTONE            : Logunit      - NEUTRON MATRIX
TMAX.C        27.1                 : BHT          - MAXIMUM RECORDED TEMPERATURE
BHTD.M        653.4                : BHTDEP       - MAXIMUM RECORDED TEMPERATURE
MATR.         1                    : LOGUNIT      - NEUTRON MATRIX
RMT .C        25                   : MDTP         - TEMPERATURE OF MUD
NEUT.         1                    : NEUTRON      - NEUTRON TYPE
RESI.         0                    : RESIST       - RESISTIVITY TYPE
RMC .OHMM     0.25                 : RMC          - RESISTIVITY OF MUD CAKE
RMF .OHMM     0.25                 : RMF          - RESISTIVITY OF MUD FILTRATE
SUFT.C        15                   : SUFT         - SURFACE TEMPERATURE
~A  DEPTH     RESD     PHID     PHIN       GR
# ...
  540.500    5.013    0.317    0.462   62.919
  540.750    5.012    0.313    0.461   63.527
  541.000    4.919    0.319    0.456   64.742
  541.250    4.828    0.324    0.473   66.565
  541.500    4.826    0.325    0.480   68.387
  541.750    4.736    0.322    0.497   70.210
  542.000    4.735    0.323    0.498   71.425
  542.250    4.733    0.315    0.498   72.640
  542.500    4.732    0.321    0.497   74.463
  542.750    4.731    0.319    0.490   76.285
  543.000    4.729    0.326    0.485   76.893
  543.250    4.728    0.330    0.486   76.287
  543.500    4.727    0.320    0.481   77.502
  543.750    4.813    0.296    0.467   79.325
  544.000    4.901    0.276    0.448   81.147
  544.250    4.900    0.285    0.451   82.970
  544.500    4.989    0.254    0.457   84.185
  544.750    5.175    0.244    0.468   84.793
  545.000    5.368    0.261    0.461   78.114
  545.250    5.671    0.265    0.449   75.685
  545.500    5.882    0.274    0.461   71.435
  545.750    6.100    0.283    0.474   70.828
  546.000    6.212    0.283    0.457   70.222
  546.250    6.097    0.292    0.474   70.830
  546.500    5.767    0.290    0.489   71.438
  546.750    5.455    0.286    0.490   72.046
  547.000    5.161    0.278    0.482   73.869
  547.250    4.973    0.289    0.484   74.476
  547.500    4.880    0.285    0.503   76.299
  547.750    4.879    0.291    0.501   75.085
  548.000    4.877    0.297    0.499   70.835
  548.250    4.876    0.274    0.504   72.050
  548.500    4.965    0.278    0.492   73.265
  548.750    4.964    0.286    0.481   75.088
  549.000    4.962    0.280    0.492   75.089
  549.250    4.961    0.289    0.496   73.875
  549.500    4.959    0.294    0.493   73.875
  549.750    4.958    0.291    0.503   73.876
  550.000    4.957    0.286    0.496   74.484
  550.250    4.955    0.284    0.492   75.699
  550.500    4.953    0.284    0.510   77.522
  550.750    4.952    0.285    0.523   78.130
  551.000    4.950    0.291    0.517   78.130
  551.250    4.949    0.289    0.496   76.917
  551.500    5.040    0.294    0.493   75.095
  551.750    5.038    0.298    0.497   73.274
  552.000    5.130    0.289    0.500   70.846
  552.250    5.320    0.292    0.469   70.239
  552.500    5.319    0.269    0.375   70.847
  552.750    5.318    0.254    0.399   71.455
  553.000    5.317    0.265    0.445   73.278
  553.250    5.315    0.269    0.479   76.315
  553.500    5.216    0.267    0.490   77.531
  553.750    5.119    0.267    0.482   78.746
  554.000    5.024    0.273    0.478   79.354
  554.250    5.023    0.280    0.482   79.962
  554.500    5.021    0.286    0.484   78.748
  554.750    5.020    0.280    0.480   78.141
  555.000    5.018    0.275    0.477   77.534
  555.250    5.017    0.275    0.477   76.928
  555.500    5.016    0.279    0.483   76.929
  555.750    5.014    0.279    0.485   77.537
  556.000    5.012    0.272    0.479   78.145
  556.250    5.011    0.264    0.473   80.575
  556.500    5.009    0.263    0.489   82.397
  556.750    5.008    0.266    0.514   84.827
  557.000    5.007    0.256    0.520   87.864
  557.250    5.005    0.250    0.509   83.007
  557.500    5.003    0.266    0.504   83.007
  557.750    5.002    0.239    0.502   85.437
  558.000    5.001    0.243    0.491   87.867
  558.250    5.092    0.255    0.487   89.690
  558.500    5.090    0.245    0.492   92.119
  558.750    4.996    0.231    0.493   97.586
  559.000    4.814    0.246    0.498  100.623
  559.250    4.725    0.255    0.505   95.765
  559.500    4.723    0.241    0.507   87.264
  559.750    4.899    0.246    0.493   80.584
  560.000    5.176    0.258    0.481   75.120
  560.250    5.673    0.246    0.477   72.084
  560.500    6.219    0.169    0.385   68.441
  560.750    6.817    0.105    0.320   66.620
  561.000    7.896    0.061    0.282   68.442
  561.250    8.656    0.088    0.285   70.872
  561.500    9.315    0.118    0.323   73.302
  561.750    8.493    0.152    0.406   75.124
  562.000    7.062    0.198    0.440   76.947
  562.250    5.982    0.243    0.482   78.770
  562.500    5.161    0.256    0.485   79.985
  562.750    5.452    0.257    0.479   78.771
  563.000    5.760    0.232    0.463   69.662
  563.250    6.431    0.214    0.445   64.805
  563.500    7.050    0.039    0.376   60.554
  563.750    7.727    0.064    0.291   66.021
  564.000    7.045    0.131    0.342   71.487
  564.250    6.191    0.197    0.417   81.812
  564.500    5.148    0.251    0.463   86.671
  564.750    4.870    0.267    0.487   91.530
  565.000    4.692    0.269    0.492   92.745
  565.250    4.778    0.278    0.498   87.888
  565.500    4.866    0.240    0.488   86.066
  565.750    5.046    0.224    0.498   83.638
  566.000    5.234    0.222    0.515   81.209
  566.250    5.330    0.220    0.525   84.854
  566.500    5.428    0.206    0.500   89.106
  566.750    5.425    0.200    0.492   89.713
  567.000    5.525    0.199    0.494   89.107
  567.250    5.523    0.199    0.492   89.108
  567.500    5.522    0.201    0.490   90.930
  567.750    5.520    0.209    0.492   93.360
  568.000    5.518    0.214    0.493   93.361
  568.250    5.517    0.207    0.501   91.540
  568.500    5.618    0.201    0.505   90.326
  568.750    5.615    0.217    0.492   88.504
  569.000    5.718    0.224    0.483   87.291
  569.250    5.717    0.220    0.481   85.469
  569.500    5.715    0.204    0.481   89.114
  569.750    5.820    0.181    0.486   93.973
  570.000    5.926    0.168    0.489   95.188
  570.250    6.146    0.182    0.487   95.189
  570.500    6.145    0.187    0.470   92.153
  570.750    6.257    0.178    0.460   95.191
  571.000    6.256    0.187    0.482  101.872
  571.250    6.253    0.200    0.498  103.694
  571.500    6.138    0.198    0.507  106.731
  571.750    6.023    0.199    0.484  106.124
  572.000    6.022    0.195    0.469  108.554
  572.250    6.020    0.188    0.467  107.340
  572.500    6.130    0.199    0.476  103.698
  572.750    6.242    0.183    0.486  100.662
  573.000    6.240    0.181    0.445  100.662
  573.250    6.239    0.183    0.434  103.092
  573.500    6.011    0.188    0.458  100.664
  573.750    5.900    0.176    0.477   93.984
  574.000    5.479    0.194    0.457   90.948
  574.250    5.279    0.198    0.464   87.913
  574.500    5.086    0.198    0.447   89.128
  574.750    5.085    0.143    0.440   92.772
  575.000    5.178    0.161    0.453   97.632
  575.250    5.176    0.207    0.479   98.847
  575.500    5.081    0.212    0.501   94.597
  575.750    4.548    0.227    0.524   92.775
  576.000    3.386    0.236    0.558   93.991
  576.250    2.615    0.252    0.602   96.421
  576.500    2.256    0.267    0.618   96.421
  576.750    2.057    0.253    0.620   95.207
  577.000    1.946    0.247    0.607   95.208
  577.250    1.946    0.245    0.595   95.209
  577.500    1.981    0.250    0.575   96.424
  577.750    2.017    0.249    0.556   99.461
  578.000    2.054    0.239    0.538  102.499
  578.250    2.131    0.226    0.534  104.321
  578.500    2.210    0.216    0.564  104.929
  578.750    2.335    0.211    0.584  101.894
  579.000    2.559    0.218    0.569   98.858
  579.250    2.911    0.200    0.536   96.429
  579.500    3.310    0.180    0.505   92.786
  579.750    3.765    0.182    0.476   90.965
  580.000    4.442    0.193    0.466   95.824
  580.250    4.960    0.171    0.477   98.861
  580.500    5.537    0.193    0.491   94.003
  580.750    5.851    0.146    0.490   87.931
  581.000    6.181    0.026    0.449   82.466
  581.250    6.530    0.040    0.376   86.718
  581.500    6.650    0.120    0.427   92.792
  581.750    6.771    0.201    0.446   95.222
  582.000    6.646    0.178    0.466   97.651
  582.250    5.629    0.189    0.483   99.474
  582.500    4.595    0.199    0.493  101.297
  582.750    4.038    0.200    0.493  102.512
  583.000    3.749    0.194    0.513  103.727
  583.250    3.613    0.187    0.517  104.942
  583.500    3.418    0.180    0.514  106.158
  583.750    3.293    0.184    0.531  106.765
