~VERSION INFORMATION
 VERS.                 2.0:   CWLS LOG ASCII STANDARD -VERSION 2.0
 WRAP.                  NO:   ONE LINE PER DEPTH STEP
~WELL INFORMATION BLOCK
#MNEM.UNIT           DATA                    DESCRIPTION OF MNEMONIC
#---------    -------------------            -------------------------------
# Generated from Intellog Unique Number	CS_77_79/WELL/904
WELL.         DOME PETROLEUM                 : Well_name    - WELL
LOC .         00/07-22-077-15W4/0            : Location     - LOCATION
UWI .         00/07-22-077-15W4/0            : Uwi          - UNIQUE WELL ID
ENTR.         SP                             : Entered      - ENTERED BY
SRVC.         SCHLUMBERGER                   : Scn          - SERVICE COMPANY
STRT.M        290.25                         : top_depth    - START DEPTH
STOP.M        546                            : bot_depth    - STOP DEPTH
STEP.M        0.25                           : increment    - STEP LENGTH
 NULL. -999.2500:NULL Value
~CURVE INFORMATION BLOCK
#MNEM UNIT       ERCB CURVE CODE    CURVE DESCRIPTION
#-----------   ------------------   ----------------------------------
DEPT.M        00 001 00 00         : DEPTH        - DEPTH
ILD .OHMM     00 120 00 00         : RESD         - DEEP RESISTIVITY (DIL)
DPHI.V/V      00 890 00 00         : PHID         - DENSITY POROSITY (LIMESTONE)
NPHI.V/V      00 330 00 00         : PHIN         - NEUTRON POROSITY (LIMESTONE)
GR  .API      00 310 00 00         : GR           - GAMMA RAY
~PARAMETER INFORMATION
#MNEM.UNIT           DATA             DESCRIPTION OF MNEMONIC
#---------         -----------     ------------------------------
GL  .M        689.6                : gl           - GROUND LEVEL ELEVATION
EREF.M        693.74               : kb           - ELEVATION OF DEPTH REFERENCE
DATM.M        689.6                : datum        - DATUM ELEVATION
TDD .M        554                  : tdd          - TOTAL DEPTH DRILLER
RUN .         ONE                  : Run          - RUN NUMBER
ENG .         BILL                 : Engineer     - RECORDING ENGINEER
WIT .         JIM                  : Witness      - WITNESSED BY
MUD .         GEL                  : Mud_type     - MUD TYPE
MATR.         LIMESTONE            : Logunit      - NEUTRON MATRIX
TMAX.C        22                   : BHT          - MAXIMUM RECORDED TEMPERATURE
BHTD.M        554                  : BHTDEP       - MAXIMUM RECORDED TEMPERATURE
MATR.         1                    : LOGUNIT      - NEUTRON MATRIX
RMT .C        25                   : MDTP         - TEMPERATURE OF MUD
NEUT.         1                    : NEUTRON      - NEUTRON TYPE
RESI.         0                    : RESIST       - RESISTIVITY TYPE
RMC .OHMM     0.25                 : RMC          - RESISTIVITY OF MUD CAKE
RMF .OHMM     0.25                 : RMF          - RESISTIVITY OF MUD FILTRATE
SUFT.C        15                   : SUFT         - SURFACE TEMPERATURE
~A  DEPTH     RESD     PHID     PHIN       GR
# ...
  420.750    4.799    0.237    0.430   79.315
  421.000    4.624    0.256    0.446   81.127
  421.250    4.539    0.275    0.456   78.706
  421.500    4.896    0.294    0.466   74.469
  421.750    5.085    0.307    0.456   73.258
  422.000    5.382    0.315    0.446   73.860
  422.250    5.590    0.314    0.436   75.068
  422.500    5.699    0.300    0.430   76.879
  422.750    5.919    0.291    0.419   76.878
  423.000    6.148    0.291    0.408   76.270
  423.250    6.757    0.296    0.402   75.664
  423.500    6.888    0.279    0.391   72.638
  423.750    7.155    0.191    0.375   69.007
  424.000    7.024    0.168    0.345   65.981
  424.250    6.895    0.180    0.322   62.349
  424.500    6.898    0.220    0.338   59.323
  424.750    6.901    0.245    0.379   62.345
  425.000    6.903    0.268    0.402   67.786
  425.250    6.904    0.295    0.402   72.018
  425.500    6.778    0.278    0.401   74.435
  425.750    6.653    0.288    0.409   73.828
  426.000    6.291    0.287    0.413   72.012
  426.250    6.060    0.288    0.414   73.219
  426.500    5.838    0.290    0.422   76.845
  426.750    5.731    0.278    0.429   79.263
  427.000    5.521    0.252    0.429   79.261
  427.250    5.420    0.234    0.425   77.444
  427.500    5.321    0.225    0.423   78.651
  427.750    5.224    0.223    0.420   79.859
  428.000    5.225    0.229    0.419   81.671
  428.250    5.327    0.238    0.417   82.275
  428.500    5.328    0.241    0.416   81.063
  428.750    5.230    0.243    0.414   79.246
  429.000    5.232    0.246    0.413   76.824
  429.250    5.334    0.247    0.412   75.612
  429.500    5.335    0.246    0.411   75.005
  429.750    5.439    0.245    0.412   76.817
  430.000    5.440    0.250    0.416   77.421
  430.250    5.758    0.257    0.419   78.023
  430.500    5.869    0.265    0.419   78.021
  430.750    6.331    0.259    0.417   73.785
  431.000    6.453    0.254    0.413   71.364
  431.250    6.703    0.255    0.402   70.757
  431.500    7.095    0.252    0.395   70.149
  431.750    7.097    0.265    0.391   68.937
  432.000    7.099    0.276    0.389   67.121
  432.250    6.970    0.271    0.379   65.909
  432.500    6.971    0.267    0.363   62.883
  432.750    6.845    0.277    0.353   61.671
  433.000    6.847    0.287    0.349   59.854
  433.250    6.721    0.319    0.353   59.852
  433.500    6.723    0.326    0.364   59.850
  433.750    6.600    0.326    0.375   61.663
  434.000    6.602    0.317    0.379   65.290
  434.250    6.605    0.313    0.383   65.892
  434.500    6.606    0.313    0.391   63.470
  434.750    6.486    0.317    0.400   62.259
  435.000    6.488    0.329    0.395   59.837
  435.250    6.490    0.333    0.390   58.626
  435.500    6.615    0.336    0.383   56.204
  435.750    6.743    0.333    0.380   56.202
  436.000    6.745    0.322    0.379   56.199
  436.250    6.748    0.314    0.383   56.198
  436.500    6.750    0.299    0.389   56.800
  436.750    6.752    0.287    0.395   56.798
  437.000    6.883    0.288    0.397   56.796
  437.250    6.885    0.297    0.399   55.583
  437.500    7.019    0.302    0.396   56.186
  437.750    7.022    0.311    0.395   56.185
  438.000    7.024    0.321    0.391   56.787
  438.250    7.027    0.321    0.389   57.995
  438.500    7.029    0.319    0.389   59.807
  438.750    7.030    0.325    0.390   62.828
  439.000    7.033    0.329    0.392   63.431
  439.250    6.904    0.334    0.391   64.034
  439.500    6.906    0.329    0.390   63.428
  439.750    6.780    0.326    0.388   61.610
  440.000    6.656    0.326    0.383   61.608
  440.250    6.534    0.313    0.383   61.607
  440.500    6.536    0.315    0.381   62.814
  440.750    6.416    0.311    0.383   64.625
  441.000    6.300    0.313    0.384   64.624
  441.250    5.955    0.321    0.384   65.227
  441.500    6.187    0.327    0.388   64.619
  441.750    6.073    0.331    0.388   64.013
  442.000    6.075    0.335    0.386   63.406
  442.250    5.963    0.331    0.385   61.590
  442.500    5.965    0.329    0.380   61.586
  442.750    5.966    0.342    0.372   62.793
  443.000    6.082    0.348    0.369   64.001
  443.250    5.971    0.342    0.366   63.999
  443.500    5.973    0.343    0.366   63.997
  443.750    6.204    0.337    0.367   63.390
  444.000    6.445    0.336    0.366   62.179
  444.250    6.568    0.337    0.362   59.757
  444.500    7.085    0.335    0.361   60.360
  444.750    7.641    0.328    0.362   60.358
  445.000    7.937    0.326    0.367   60.355
  445.250    8.244    0.285    0.357   59.748
  445.500    8.095    0.131    0.314   58.537
  445.750    7.798    0.075    0.275   56.115
  446.000    7.512    0.058    0.227   54.299
  446.250    7.102    0.097    0.198   53.087
  446.500    6.841    0.131    0.250   54.900
  446.750    6.843    0.212    0.308   57.316
  447.000    7.109    0.274    0.339   60.338
  447.250    7.813    0.292    0.347   60.941
  447.500    8.115    0.297    0.346   62.149
  447.750    8.919    0.285    0.320   62.147
  448.000    9.989    0.280    0.297   58.515
  448.250   10.978    0.243    0.234   56.094
  448.500   12.067    0.177    0.160   51.253
  448.750   12.532    0.071    0.119   47.622
  449.000   13.019    0.016    0.088   46.410
  449.250   13.269    0.012    0.081   48.222
  449.500   13.026    0.000    0.082   50.035
  449.750   11.424    0.000    0.092   51.242
  450.000   10.799    0.009    0.108   51.240
  450.250    9.469    0.214    0.173   51.238
  450.500    8.461    0.252    0.301   51.841
  450.750    7.704    0.288    0.315   53.654
  451.000    7.149    0.312    0.337   56.675
  451.250    6.887    0.320    0.351   59.696
  451.500    6.510    0.320    0.366   59.695
  451.750    6.391    0.313    0.378   59.692
  452.000    6.274    0.329    0.380   59.086
  452.250    6.159    0.326    0.378   58.479
  452.500    6.045    0.322    0.376   59.686
  452.750    5.824    0.313    0.374   60.289
  453.000    5.717    0.308    0.383   60.892
  453.250    5.508    0.300    0.389   62.099
  453.500    5.511    0.309    0.395   63.307
  453.750    5.512    0.306    0.403   63.910
  454.000    5.514    0.302    0.410   62.696
  454.250    5.620    0.295    0.411   62.090
  454.500    5.839    0.295    0.409   62.088
  454.750    6.065    0.302    0.408   61.480
  455.000    6.182    0.303    0.396   60.874
  455.250    6.184    0.308    0.394   60.872
  455.500    6.070    0.311    0.395   60.870
  455.750    6.072    0.311    0.398   60.868
  456.000    5.960    0.316    0.400   60.864
  456.250    5.963    0.307    0.401   61.468
  456.500    5.854    0.303    0.400   61.466
  456.750    5.747    0.309    0.400   62.068
  457.000    5.749    0.313    0.398   62.066
  457.250    5.750    0.311    0.395   62.065
  457.500    5.645    0.309    0.389   61.458
  457.750    5.647    0.314    0.386   60.246
  458.000    5.648    0.307    0.382   59.034
  458.250    5.978    0.318    0.381   59.032
  458.500    6.448    0.327    0.377   59.029
  458.750    7.087    0.323    0.367   58.423
  459.000    8.088    0.325    0.354   57.211
  459.250    9.405    0.295    0.325   55.999
  459.500   12.957    0.242    0.240   54.183
  459.750   13.713    0.178    0.186   50.551
  460.000   12.965    0.015    0.134   48.130
  460.250   11.584    0.000    0.128   45.103
  460.500    9.601    0.108    0.165   45.101
  460.750    8.108    0.178    0.274   48.728
  461.000    7.522    0.263    0.354   53.565
  461.250    7.111    0.303    0.399   57.192
  461.500    6.598    0.302    0.403   59.004
  461.750    6.477    0.301    0.397   59.607
  462.000    6.358    0.306    0.393   62.023
  462.250    6.242    0.312    0.391   63.231
  462.500    6.014    0.308    0.399   65.648
  462.750    5.793    0.302    0.399   66.251
  463.000    5.795    0.301    0.394   66.249
  463.250    5.797    0.308    0.389   65.641
  463.500    5.799    0.306    0.394   65.640
  463.750    5.801    0.296    0.405   66.242
  464.000    5.913    0.286    0.420   68.054
