~VERSION INFORMATION
 VERS.                 2.0:   CWLS LOG ASCII STANDARD -VERSION 2.0
 WRAP.                  NO:   ONE LINE PER DEPTH STEP
~WELL INFORMATION BLOCK
#MNEM.UNIT           DATA                    DESCRIPTION OF MNEMONIC
#---------    -------------------            -------------------------------
# Generated from Intellog Unique Number	CN_91_93/WELL/3015
WELL.         PARAMOUNT RESOURCES LTD.       : Well_name    - WELL
LOC .         00/05-31-093-20W4/0            : Location     - LOCATION
UWI .         00/05-31-093-20W4/0            : Uwi          - UNIQUE WELL ID
ENTR.         JOETTE                         : Entered      - ENTERED BY
SRVC.         COMPUTALOG                     : Scn          - SERVICE COMPANY
DATE.         04/09/92                       : Date         - LOG DATE
STRT.M        150                            : top_depth    - START DEPTH
STOP.M        333                            : bot_depth    - STOP DEPTH
STEP.M        0.25                           : increment    - STEP LENGTH
 NULL. -999.2500:NULL Value
~CURVE INFORMATION BLOCK
#MNEM UNIT       ERCB CURVE CODE    CURVE DESCRIPTION
#-----------   ------------------   ----------------------------------
DEPT.M        00 001 00 00         : DEPTH        - DEPTH
CALI.MM       00 280 01 00         : CAL          - CALIPER
GR  .API      00 310 00 00         : GR           - GAMMA RAY
NPHI.V/V      00 330 00 00         : PHIN         - NEUTRON POROSITY (SANDSTONE)
DPHI.V/V      00 890 00 00         : PHID         - DENSITY POROSITY (SANDSTONE)
ILD .OHMM     00 120 00 00         : RESD         - DEEP RESISTIVITY (DIL)
~PARAMETER INFORMATION
#MNEM.UNIT           DATA             DESCRIPTION OF MNEMONIC
#---------         -----------     ------------------------------
GL  .M        638                  : gl           - GROUND LEVEL ELEVATION
EREF.M        641.4                : kb           - ELEVATION OF DEPTH REFERENCE
DATM.M        641.4                : datum        - DATUM ELEVATION
TDD .M        331.6                : tdd          - TOTAL DEPTH DRILLER
RUN .         ONE                  : Run          - RUN NUMBER
ENG .         BILL                 : Engineer     - RECORDING ENGINEER
WIT .         JIM                  : Witness      - WITNESSED BY
MUD .         GEL                  : Mud_type     - MUD TYPE
MATR.         SANDSTONE            : Logunit      - NEUTRON MATRIX
TMAX.C        29                   : BHT          - MAXIMUM RECORDED TEMPERATURE
BHTD.M        331.6                : BHTDEP       - MAXIMUM RECORDED TEMPERATURE
RMT .C        10                   : MDTP         - TEMPERATURE OF MUD
MUDD.KG/M     1150                 : MWT          - MUD DENSITY
NEUT.         1                    : NEUTRON      - NEUTRON TYPE
RESI.         0                    : RESIST       - RESISTIVITY TYPE
RM  .OHMM     4.7                  : RM           - RESISTIVITY OF MUD
RMC .OHMM     4.7                  : RMC          - RESISTIVITY OF MUD CAKE
RMF .OHMM     4.7                  : RMF          - RESISTIVITY OF MUD FILTRATE
SUFT.C        -20                  : SUFT         - SURFACE TEMPERATURE
~A  DEPTH      CAL       GR     PHIN     PHID     RESD
  150.000  175.046  118.577    0.440    0.276    3.184
  150.250  172.511  122.263    0.447    0.268    3.244
  150.500  171.508  127.178    0.460    0.267    3.274
  150.750  172.040  124.433    0.468    0.272    3.336
  151.000  173.077  122.910    0.479    0.270    3.335
  151.250  171.564  124.761    0.490    0.267    3.303
  151.500  170.050  126.917    0.485    0.267    3.272
  151.750  171.092  127.234    0.472    0.266    3.241
  152.000  169.066  126.633    0.461    0.270    3.240
  152.250  168.065  126.645    0.462    0.275    3.332
  152.500  169.616  127.266    0.463    0.276    3.459
  152.750  171.166  128.503    0.455    0.271    3.625
  153.000  170.678  122.080    0.464    0.268    3.763
  153.250  171.713  120.867    0.481    0.266    3.943
  153.500  173.266  126.085    0.471    0.264    4.055
  153.750  172.261  128.855    0.461    0.263    4.054
  154.000  176.365  128.255    0.457    0.261    3.978
  154.250  176.385  126.118    0.448    0.260    3.903
  154.500  175.383  125.823    0.463    0.263    3.830
  154.750  174.888  128.596    0.476    0.261    3.688
  155.000  174.907  129.831    0.466    0.259    3.585
  155.250  175.438  129.537    0.451    0.260    3.585
  155.500  174.435  128.013    0.451    0.263    3.652
  155.750  172.922  128.331    0.469    0.263    3.756
  156.000  172.427  129.874    0.474    0.256    3.972
  156.250  172.956  133.562    0.462    0.250    4.123
  156.500  173.492  135.106    0.462    0.251    4.162
  156.750  172.995  130.213    0.474    0.256    4.200
  157.000  172.503  128.080    0.465    0.252    4.199
  157.250  169.968  133.299    0.454    0.247    4.199
  157.500  169.987  136.376    0.464    0.244    4.198
  157.750  168.984  133.934    0.470    0.243    4.197
  158.000  170.024  131.189    0.467    0.241    4.196
  158.250  170.042  130.281    0.463    0.239    4.235
  158.500  168.531  131.826    0.460    0.245    4.274
  158.750  169.060  133.062    0.456    0.255    4.194
  159.000  171.632  132.462    0.447    0.253    4.154
  159.250  171.653  133.389    0.450    0.237    4.154
  159.500  172.182  135.240    0.451    0.233    4.232
  159.750  172.198  134.331    0.458    0.233    4.232
  160.000  171.706  132.197    0.439    0.243    4.310
  160.250  169.679  128.533    0.423    0.246    4.823
  160.500  167.149  123.947    0.418    0.229    5.150
  160.750  165.633  117.217    0.407    0.206    5.346
  161.000  161.566  115.391    0.391    0.208    5.346
  161.250  168.736  121.225    0.390    0.218    5.445
  161.500  172.840  127.055    0.402    0.221    5.706
  161.750  173.367  128.293    0.420    0.218    5.758
  162.000  169.813  128.304    0.435    0.223    5.758
  162.250  168.812  122.799    0.422    0.226    5.597
  162.500  168.831  120.360    0.436    0.224    5.390
  162.750  168.845  124.353    0.431    0.225    5.190
  163.000  170.908  130.187    0.438    0.227    5.045
  163.250  173.480  132.036    0.447    0.230    4.904
  163.500  174.009  127.759    0.432    0.228    4.858
  163.750  175.048  127.769    0.419    0.222    4.949
  164.000  175.065  131.456    0.422    0.215    5.089
  164.250  175.594  129.016    0.432    0.211    5.333
  164.500  176.640  124.125    0.441    0.214    5.588
  164.750  177.167  122.604    0.441    0.215    5.693
  165.000  177.696  125.986    0.415    0.216    5.534
  165.250  177.204  129.983    0.392    0.220    5.280
  165.500  178.752  131.216    0.389    0.225    4.943
  165.750  181.324  129.695    0.414    0.225    4.942
  166.000  179.813  123.272    0.440    0.230    7.192
  166.250  176.254   92.032    0.435    0.261    9.264
  166.500  168.613   61.403    0.388    0.305   10.762
  166.750  167.102   47.932    0.346    0.284   11.709
  167.000  165.586   36.914    0.317    0.269   11.928
  167.250  158.455   43.972    0.308    0.261   11.379
  167.500  162.048   51.644    0.315    0.258   10.555
  167.750  167.173   65.444    0.339    0.256    9.429
  168.000  167.702   71.888    0.367    0.245    8.503
  168.250  167.721   75.575    0.392    0.233    8.112
  168.500  166.210   71.297    0.390    0.221    8.187
  168.750  165.211   66.406    0.374    0.223    8.579
  169.000  164.204   68.563    0.385    0.247    9.333
  169.250  164.733   68.879    0.385    0.264    9.780
  169.500  165.775   62.762    0.375    0.257    9.778
  169.750  165.794   56.646    0.383    0.241    9.416
  170.000  166.325   64.623    0.382    0.246    9.154
  170.250  166.339   66.472    0.351    0.261    8.815
  170.500  167.892   64.341    0.330    0.262    8.731
  170.750  170.463   60.981    0.332    0.263    9.063
  171.000  173.037   57.928    0.333    0.269    9.147
  171.250  174.583   61.003    0.322    0.266    8.892
  171.500  172.048   69.594    0.330    0.259    8.325
  171.750  164.407   71.442    0.348    0.253    8.972
  172.000  165.447   61.343    0.362    0.263    9.141
  172.250  166.997   61.966    0.344    0.276    8.478
  172.500  172.633   68.718    0.327    0.282    8.319
  172.750  168.568   68.729    0.325    0.289    8.475
  173.000  160.927   61.080    0.343    0.325    9.049
  173.250  167.073   58.028    0.375    0.368    9.662
  173.500  170.666   60.799    0.365    0.381   10.030
  173.750  169.666   58.662    0.355    0.388   10.709
  174.000  170.195   45.499    0.348    0.391   11.541
  174.250  178.381   36.318    0.329    0.381   11.648
  174.500  181.464   32.346    0.318    0.372   11.430
  174.750  175.354   37.260    0.344    0.399   10.502
  175.000  175.883   44.930    0.359    0.436    9.383
  175.250  176.412   59.343    0.346    0.420    8.149
  175.500  164.688   76.512    0.356    0.384    7.012
  175.750  165.726   85.408    0.378    0.269    6.627
  176.000  164.212   87.872    0.394    0.267    6.815
  176.250  161.680   85.124    0.388    0.262    6.814
  176.500  164.762   86.054    0.378    0.262    6.440
  176.750  164.783   95.258    0.377    0.264    5.918
  177.000  164.288  100.479    0.382    0.268    5.698
  177.250  168.903   95.893    0.396    0.266    5.592
  177.500  166.370   94.680    0.420    0.258    5.591
  177.750  162.301   92.239    0.415    0.215    5.590
  178.000  160.790   85.203    0.400    0.202    5.695
  178.250  161.317   89.810    0.391    0.248    5.911
  178.500  167.463   99.013    0.396    0.268    5.910
  178.750  166.462   97.492    0.397    0.262    5.854
  179.000  165.970   90.456    0.391    0.259    6.134
  179.250  165.986   84.339    0.393    0.262    6.428
  179.500  166.005   81.286    0.400    0.262    6.672
  179.750  166.023   81.299    0.403    0.257    6.798
  180.000  165.531   84.679    0.410    0.247    6.925
  180.250  165.549   83.464    0.408    0.233    6.989
  180.500  163.528   79.495    0.390    0.242    7.054
  180.750  164.565   78.279    0.380    0.260    7.053
  181.000  167.139   79.823    0.377    0.270    6.920
  181.250  168.692   82.896    0.389    0.272    6.727
  181.500  170.242   97.618    0.405    0.267    6.358
  181.750  171.280  101.609    0.399    0.264    6.009
  182.000  171.809  103.152    0.400    0.267    5.952
  182.250  166.723   83.861    0.398    0.273    7.595
  182.500  163.169   60.278    0.378    0.285   10.846
  182.750  162.672   55.388    0.362    0.297   13.711
  183.000  163.201   52.336    0.343    0.309   16.851
  183.250  168.326   48.670    0.339    0.329   18.333
  183.500  178.049   43.471    0.339    0.342   19.759
  183.750  182.151   36.129    0.340    0.337   21.698
  184.000  181.148   31.544    0.337    0.332   22.951
  184.250  168.911   31.249    0.354    0.330   23.381
  184.500  170.461   36.471    0.327    0.331   22.942
  184.750  179.676   38.321    0.311    0.343   22.513
  185.000  169.990   40.170    0.315    0.336   21.680
  185.250  170.521   43.244    0.324    0.330   22.294
  185.500  170.540   38.965    0.317    0.335   22.713
  185.750  164.428   34.074    0.304    0.329   22.709
  186.000  163.936   31.021    0.299    0.319   22.283
  186.250  171.614   28.888    0.315    0.318   21.865
