~VERSION INFORMATION
 VERS.                 2.0:   CWLS LOG ASCII STANDARD -VERSION 2.0
 WRAP.                  NO:   ONE LINE PER DEPTH STEP
~WELL INFORMATION BLOCK
#MNEM.UNIT           DATA                    DESCRIPTION OF MNEMONIC
#---------    -------------------            -------------------------------
# Generated from Intellog Unique Number	CS_77_79/WELL/866
WELL.         GULF LEISMER                   : Well_name    - WELL
LOC .         00/06-03-079-09W4/0            : Location     - LOCATION
UWI .         00/06-03-079-09W4/0            : Uwi          - UNIQUE WELL ID
ENTR.         JHS                            : Entered      - ENTERED BY
SRVC.         SCHLUMBERGER                   : Scn          - SERVICE COMPANY
STRT.M        182.88                         : top_depth    - START DEPTH
STOP.M        447.88                         : bot_depth    - STOP DEPTH
STEP.M        0.25                           : increment    - STEP LENGTH
 NULL. -999.2500:NULL Value
~CURVE INFORMATION BLOCK
#MNEM UNIT       ERCB CURVE CODE    CURVE DESCRIPTION
#-----------   ------------------   ----------------------------------
DEPT.M        00 001 00 00         : DEPTH        - DEPTH
GR  .API      00 310 00 00         : GR           - GAMMA RAY
DPHI.V/V      00 890 00 00         : PHID         - DENSITY POROSITY (SANDSTONE)
NPHI.V/V      00 330 00 00         : PHIN         - NEUTRON POROSITY (SANDSTONE)
ILD .OHMM     00 120 00 00         : RESD         - DEEP RESISTIVITY (DIL)
~PARAMETER INFORMATION
#MNEM.UNIT           DATA             DESCRIPTION OF MNEMONIC
#---------         -----------     ------------------------------
GL  .M        654.71               : gl           - GROUND LEVEL ELEVATION
EREF.M        658.368              : kb           - ELEVATION OF DEPTH REFERENCE
DATM.M        658.368              : datum        - DATUM ELEVATION
TDD .M        449.275              : tdd          - TOTAL DEPTH DRILLER
RUN .         ONE                  : Run          - RUN NUMBER
ENG .         BILL                 : Engineer     - RECORDING ENGINEER
WIT .         JIM                  : Witness      - WITNESSED BY
MUD .         GEL                  : Mud_type     - MUD TYPE
MATR.         SANDSTONE            : Logunit      - NEUTRON MATRIX
TMAX.C        23.3333              : BHT          - MAXIMUM RECORDED TEMPERATURE
BHTD.M        449.275              : BHTDEP       - MAXIMUM RECORDED TEMPERATURE
MATR.         1                    : LOGUNIT      - NEUTRON MATRIX
RMT .C        25                   : MDTP         - TEMPERATURE OF MUD
NEUT.         1                    : NEUTRON      - NEUTRON TYPE
RESI.         0                    : RESIST       - RESISTIVITY TYPE
RMC .OHMM     0.25                 : RMC          - RESISTIVITY OF MUD CAKE
RMF .OHMM     0.25                 : RMF          - RESISTIVITY OF MUD FILTRATE
SUFT.C        15                   : SUFT         - SURFACE TEMPERATURE
~A  DEPTH       GR     PHID     PHIN     RESD
# ...
  313.380   82.103    0.331    0.495    5.217
  313.630   85.291    0.322    0.474    5.725
  313.880   89.974    0.321    0.460    5.865
  314.130   93.825    0.300    0.465    5.736
  314.380   92.041    0.286    0.500    5.649
  314.630   89.692    0.288    0.516    5.624
  314.880   86.680    0.300    0.504    5.881
  315.130   85.240    0.294    0.484    6.191
  315.380   85.600    0.296    0.489    6.096
  315.630   91.789    0.302    0.498    5.630
  315.880   95.949    0.297    0.498    5.161
  316.130   96.525    0.280    0.507    4.501
  316.380   96.017    0.266    0.528    4.122
  316.630   92.746    0.272    0.514    4.094
  316.880   89.022    0.288    0.516    4.338
  317.130   87.564    0.300    0.507    5.931
  317.380   84.080    0.305    0.497    8.152
  317.630   80.039    0.301    0.479    9.733
  317.880   81.480    0.309    0.473   11.068
  318.130   85.094    0.318    0.465   10.767
  318.380   86.277    0.320    0.467    9.285
  318.630   88.099    0.313    0.464    7.741
  318.880   90.954    0.308    0.472    6.469
  319.130   94.187    0.309    0.476    5.563
  319.380   98.367    0.340    0.477    4.819
  319.630  102.827    0.322    0.486    4.378
  319.880  104.541    0.348    0.509    4.064
  320.130  104.179    0.355    0.541    3.792
  320.380  104.815    0.330    0.551    3.463
  320.630  106.423    0.316    0.574    3.263
  320.880  104.096    0.324    0.586    3.087
  321.130  101.804    0.337    0.603    3.064
  321.380  104.563    0.328    0.612    3.005
  321.630  106.278    0.320    0.611    3.095
  321.880  103.965    0.317    0.589    3.191
  322.130  102.928    0.339    0.591    3.252
  322.380  102.772    0.369    0.601    3.244
  322.630  103.377    0.395    0.609    3.370
  322.880  103.899    0.359    0.609    3.796
  323.130  100.455    0.349    0.601    4.149
  323.380   97.476    0.341    0.507    4.262
  323.630   96.460    0.324    0.493    3.830
  323.880   94.619    0.325    0.510    3.814
  324.130   94.493    0.380    0.537    3.951
  324.380   99.760    0.385    0.566    3.838
  324.630  102.970    0.330    0.599    3.567
  324.880  104.908    0.329    0.596    3.413
  325.130  102.125    0.357    0.561    3.381
  325.380   99.793    0.366    0.567    3.517
  325.630   97.429    0.421    0.586    3.744
  325.880   92.872    0.451    0.589    3.868
  326.130   93.116    0.426    0.576    3.916
  326.380   91.119    0.312    0.539    4.620
  326.630   88.583    0.297    0.511    5.074
  326.880   87.595    0.291    0.496    5.666
  327.130   87.405    0.276    0.502    5.980
  327.380   86.445    0.281    0.508    6.444
  327.630   87.526    0.283    0.494    6.850
  327.880   88.568    0.285    0.464    7.053
  328.130   88.884    0.292    0.458    6.901
  328.380   90.693    0.290    0.461    6.552
  328.630   93.604    0.277    0.477    5.862
  328.880   95.577    0.281    0.492    5.434
  329.130   96.580    0.313    0.510    4.895
  329.380   97.597    0.300    0.512    4.883
  329.630   98.602    0.242    0.504    5.297
  329.880   97.656    0.240    0.501    5.856
  330.130   95.843    0.246    0.465    6.617
  330.380   91.628    0.234    0.458    7.270
  330.630   90.257    0.244    0.463    7.574
  330.880   91.374    0.251    0.473    8.069
  331.130   92.008    0.254    0.465    8.219
  331.380   91.213    0.233    0.463    7.992
  331.630   93.856    0.241    0.465    7.757
  331.880   96.268    0.240    0.455    7.536
  332.130   95.572    0.232    0.451    7.120
  332.380   92.759    0.243    0.466    6.707
  332.630   91.369    0.256    0.491    6.168
  332.880   91.489    0.313    0.501    5.941
  333.130   92.623    0.287    0.483    5.597
  333.380   91.712    0.277    0.490    5.073
  333.630   90.766    0.320    0.507    5.063
  333.880   91.317    0.324    0.497    5.055
  334.130   92.841    0.325    0.494    5.162
  334.380   94.602    0.307    0.486    5.262
  334.630   97.744    0.319    0.475    5.332
  334.880  100.959    0.311    0.479    5.355
  335.130  102.418    0.304    0.489    5.366
  335.380  102.705    0.308    0.491    5.181
  335.630   99.127    0.282    0.500    4.837
  335.880   96.618    0.273    0.512    4.395
  336.130  101.118    0.338    0.540    4.182
  336.380  103.198    0.360    0.564    3.801
  336.630  104.310    0.377    0.589    3.463
  336.880  101.078    0.407    0.579    3.277
  337.130  100.689    0.438    0.598    3.184
  337.380   98.681    0.457    0.608    3.229
  337.630   95.502    0.398    0.580    3.445
  337.880   95.181    0.298    0.565    3.781
  338.130   93.841    0.277    0.558    4.280
  338.380   91.319    0.257    0.533    4.843
  338.630   92.642    0.296    0.507    5.369
  338.880   96.059    0.276    0.469    6.022
  339.130   97.118    0.251    0.480    6.437
  339.380   95.977    0.237    0.494    6.724
  339.630   95.412    0.243    0.491    7.087
  339.880   96.399    0.251    0.495    7.299
  340.130   95.402    0.254    0.494    7.419
  340.380   93.883    0.268    0.493    7.420
  340.630   90.180    0.272    0.497    7.426
  340.880   88.284    0.264    0.487    7.549
  341.130   86.063    0.232    0.472    8.015
  341.380   80.026    0.191    0.438    8.618
  341.630   72.458    0.081    0.343    9.916
  341.880   68.949    0.061    0.295   10.394
  342.130   85.482    0.058    0.287   10.402
  342.380   98.214    0.112    0.442    9.902
  342.630  102.262    0.210    0.478    9.210
  342.880  101.688    0.228    0.499    8.542
  343.130   97.959    0.218    0.483    7.620
  343.380   95.794    0.220    0.473    7.292
  343.630   94.579    0.236    0.479    7.061
  343.880   90.534    0.222    0.483    7.044
  344.130   94.227    0.225    0.471    7.043
  344.380   99.497    0.258    0.453    7.140
  344.630  102.427    0.252    0.452    7.181
  344.880  101.441    0.242    0.457    7.060
  345.130  101.081    0.231    0.460    6.438
  345.380  100.922    0.235    0.453    5.842
  345.630  101.984    0.279    0.467    5.103
  345.880  103.624    0.317    0.500    4.085
  346.130  105.253    0.355    0.552    3.354
  346.380  106.393    0.422    0.578    2.995
  346.630  105.176    0.416    0.587    2.465
  346.880  103.082    0.378    0.605    2.131
  347.130   98.973    0.422    0.613    2.071
  347.380   94.864    0.484    0.620    2.063
  347.630   94.757    0.550    0.620    2.102
  347.880   94.466    0.516    0.610    2.316
  348.130   92.677    0.439    0.575    2.904
  348.380   92.332    0.392    0.514    3.715
  348.630   92.571    0.269    0.455    4.787
  348.880   94.340    0.258    0.437    6.540
  349.130   95.335    0.257    0.436    7.683
  349.380   95.436    0.270    0.436    8.807
  349.630   94.717    0.263    0.424    9.619
  349.880   93.645    0.271    0.391   10.865
  350.130   89.854    0.305    0.390   12.352
  350.380   81.142    0.310    0.402   13.681
  350.630   74.098    0.205    0.411   14.494
  350.880   66.254    0.134    0.365   14.015
  351.130   62.483    0.075    0.256   13.175
  351.380   69.059    0.058    0.272   12.010
  351.630   79.910    0.176    0.371    9.511
  351.880   90.425    0.245    0.417    8.066
  352.130   97.706    0.279    0.449    7.094
  352.380   97.825    0.258    0.464    6.580
  352.630   97.192    0.268    0.472    6.378
  352.880   99.115    0.277    0.468    6.359
  353.130  100.342    0.272    0.466    6.500
  353.380  101.712    0.261    0.459    6.689
  353.630  103.090    0.250    0.434    7.063
  353.880  102.173    0.257    0.436    7.127
  354.130   99.986    0.269    0.432    6.839
  354.380   98.448    0.254    0.442    6.447
  354.630   98.519    0.254    0.448    6.375
  354.880  100.209    0.265    0.447    6.642
  355.130  101.220    0.253    0.454    6.883
  355.380  103.322    0.241    0.468    6.879
  355.630  102.876    0.222    0.485    6.881
  355.880  101.557    0.222    0.481    6.884
  356.130  100.545    0.237    0.466    6.888
  356.380  101.085    0.256    0.456    6.930
  356.630  103.545    0.251    0.436    7.158
