~VERSION INFORMATION
 VERS.                 2.0:   CWLS LOG ASCII STANDARD -VERSION 2.0
 WRAP.                  NO:   ONE LINE PER DEPTH STEP
~WELL INFORMATION BLOCK
#MNEM.UNIT           DATA                    DESCRIPTION OF MNEMONIC
#---------    -------------------            -------------------------------
# Generated from Intellog Unique Number	CW_70_72/WELL/529
NULL.         -999.25                        : NULL_VALUE
WELL.         CHIEFCO SCEPTRE SPURFIELD 06-0 : Well_name    - WELL              
LOC .         06-02-072-02W5                 : Location     - LOCATION          
UWI .         00/06-02-072-02W5/0            : Uwi          - UNIQUE WELL ID    
ENTR.         JAYE                           : Entered      - ENTERED BY        
SRVC.         SCHLUMBERGER                   : Scn          - SERVICE COMPANY   
DATE.         21 JAN 78                      : Date         - LOG DATE          
STRT.M        387.096                        : top_depth    - START DEPTH       
STOP.M        640.096                        : bot_depth    - STOP DEPTH        
STEP.M        0.25                           : increment    - STEP LENGTH       
~CURVE INFORMATION BLOCK
#MNEM UNIT       ERCB CURVE CODE    CURVE DESCRIPTION
#-----------   ------------------   ----------------------------------
DEPT.M        00 001 00 00         : DEPTH        - DEPTH                       
DPHI.V/V      00 890 00 00         : PHID         - DENSITY POROSITY (SANDSTONE)
NPHI.V/V      00 330 00 00         : PHIN         - NEUTRON POROSITY (SANDSTONE)
GR  .API      00 310 00 00         : GR           - GAMMA RAY                   
CALI.MM       00 280 01 00         : CAL          - CALIPER                     
ILD .OHMM     00 120 00 00         : RESD         - DEEP RESISTIVITY (DIL)      
~PARAMETER INFORMATION       
#MNEM.UNIT           DATA             DESCRIPTION OF MNEMONIC
#---------         -----------     ------------------------------
GL  .M        588.416              : gl           - GROUND LEVEL ELEVATION      
EREF.M        591.312              : kb           - ELEVATION OF DEPTH REFERENCE
DATM.M        588.416              : datum        - DATUM ELEVATION             
TDD .M        659.892              : tdd          - TOTAL DEPTH DRILLER         
RUN .         ONE                  : Run          - RUN NUMBER                  
ENG .         CONQUIST/DALY        : Engineer     - RECORDING ENGINEER          
WIT .         SIFERD               : Witness      - WITNESSED BY                
BASE.         EDM                  : Branch       - HOME BASE OF LOGGING UNIT   
MUD .         GEL CHEM             : Mud_type     - MUD TYPE                    
MATR.         SANDSTONE            : Logunit      - NEUTRON MATRIX              
TMAX.C        25.5556              : BHT          - MAXIMUM RECORDED TEMPERATURE
BHTD.M        660.197              : BHTDEP       - MAXIMUM RECORDED TEMPERATURE
RMT .C        18.8889              : MDTP         - TEMPERATURE OF MUD          
MUDD.KG/M     1128                 : MWT          - MUD DENSITY                 
NEUT.         1                    : NEUTRON      - NEUTRON TYPE                
RESI.         0                    : RESIST       - RESISTIVITY TYPE            
RM  .OHMM     6.55                 : RM           - RESISTIVITY OF MUD          
RMC .OHMM     0                    : RMC          - RESISTIVITY OF MUD CAKE     
RMF .OHMM     5.8                  : RMF          - RESISTIVITY OF MUD FILTRATE 
SUFT.C        0                    : SUFT         - SURFACE TEMPERATURE         
~A  DEPTH     PHID     PHIN       GR      CAL     RESD
# ...
  496.596    0.279    0.421   74.778  164.987    3.751
  496.846    0.284    0.435   75.537  165.004    4.028
  497.096    0.272    0.449   73.995  165.554    4.229
  497.346    0.262    0.454   71.455  167.582    4.186
  497.596    0.237    0.426   69.228  169.606    3.938
  497.846    0.260    0.413   68.247  171.525    3.740
  498.096    0.276    0.429   67.636  172.603    3.627
  498.346    0.254    0.433   68.584  172.622    3.651
  498.596    0.265    0.424   69.966  172.647    3.755
  498.846    0.262    0.415   71.971  172.459    3.890
  499.096    0.272    0.410   74.163  171.320    4.053
  499.346    0.258    0.406   76.105  168.392    4.135
  499.596    0.242    0.407   72.757  166.518    4.164
  499.846    0.262    0.405   69.845  167.276    4.233
  500.096    0.257    0.391   71.539  169.197    4.428
  500.346    0.197    0.375   73.420  170.907    4.965
  500.596    0.166    0.353   70.508  172.408    5.444
  500.846    0.133    0.315   66.288  172.636    5.598
  501.096    0.118    0.284   63.189  172.237    5.246
  501.346    0.106    0.320   65.194  170.048    4.761
  501.596    0.146    0.379   71.245  167.539    4.346
  501.846    0.229    0.421   74.931  166.089    3.989
  502.096    0.270    0.419   75.940  165.581    3.746
  502.346    0.248    0.404   77.510  164.867    3.544
  502.596    0.240    0.410   71.547  164.257    3.495
  502.846    0.231    0.401   70.253  163.860    3.724
  503.096    0.152    0.386   71.325  163.566    3.896
  503.346    0.090    0.363   72.646  163.270    4.097
  503.596    0.063    0.287   73.780  163.924    4.317
  503.846    0.114    0.311   72.921  166.161    4.464
  504.096    0.178    0.378   72.187  168.711    4.624
  504.346    0.205    0.365   73.135  170.841    4.701
  504.596    0.245    0.364   75.076  170.866    4.594
  504.846    0.273    0.383   75.650  170.362    4.362
  505.096    0.263    0.427   75.166  170.382    4.166
  505.346    0.247    0.440   73.934  170.617    3.964
  505.596    0.254    0.437   72.640  170.850    3.858
  505.846    0.251    0.434   71.907  171.189    3.777
  506.096    0.243    0.426   72.978  171.740    3.753
  506.346    0.234    0.412   73.739  172.604    3.744
  506.596    0.247    0.407   73.814  173.896    3.821
  506.846    0.246    0.413   73.704  174.651    3.913
  507.096    0.248    0.443   73.964  175.200    3.956
  507.346    0.258    0.428   75.597  175.648    3.946
  507.596    0.262    0.415   76.605  175.562    3.833
  507.846    0.236    0.408   74.690  175.162    3.593
  508.096    0.253    0.414   70.283  170.125    3.354
  508.346    0.255    0.436   67.870  166.355    3.027
  508.596    0.259    0.451   65.706  165.747    2.789
  508.846    0.272    0.460   64.347  165.877    2.669
  509.096    0.269    0.464   64.796  165.897    3.016
  509.346    0.132    0.356   67.610  166.234    4.204
  509.596    0.098    0.254   66.068  166.574    5.114
  509.846    0.064    0.216   63.218  166.700    6.094
  510.096    0.038    0.187   60.742  166.932    7.303
  510.346    0.018    0.170   59.884  166.848    9.036
  510.596    0.009    0.160   58.154  166.768   10.446
  510.846    0.014    0.159   58.603  166.788   11.939
  511.096    0.037    0.173   60.856  167.128   10.980
  511.346    0.079    0.207   64.294  167.783    8.796
  511.596    0.109    0.245   67.668  168.439    6.721
  511.846    0.136    0.287   70.670  169.095    5.146
  512.096    0.184    0.331   73.919  169.114    3.858
  512.346    0.235    0.378   76.608  164.289    3.365
  512.596    0.260    0.420   78.675  163.680    3.031
  512.846    0.260    0.443   76.697  163.809    2.852
  513.096    0.266    0.444   80.010  164.044    2.760
  513.346    0.275    0.435   80.086  164.276    2.717
  513.596    0.269    0.430   80.845  164.723    2.700
  513.846    0.255    0.426   82.787  164.845    2.713
  514.096    0.260    0.419   84.793  165.186    2.722
  514.346    0.261    0.410   80.947  165.523    2.731
  514.596    0.255    0.402   76.479  165.968    2.745
  514.846    0.261    0.428   74.688  166.199    2.754
  515.096    0.269    0.428   76.630  166.228    2.757
  515.346    0.271    0.420   77.951  166.037    2.756
  515.596    0.261    0.424   77.278  166.059    2.760
  515.846    0.249    0.449   75.861  166.189    2.748
  516.096    0.251    0.448   76.123  166.420    2.735
  516.346    0.265    0.440   76.571  166.862    2.744
  516.596    0.282    0.433   75.403  167.097    2.774
  516.846    0.263    0.446   74.482  167.332    2.836
  517.096    0.259    0.456   73.063  167.140    3.028
  517.346    0.253    0.447   70.339  166.531    3.240
  517.596    0.234    0.432   67.425  165.078    3.586
  517.846    0.203    0.403   66.381  163.730    3.666
  518.096    0.160    0.362   70.751  162.909    3.541
  518.346    0.220    0.370   74.437  162.297    3.281
  518.596    0.246    0.443   76.817  161.478    3.064
  518.846    0.265    0.466   77.015  161.605    2.855
  519.096    0.271    0.458   76.406  161.737    2.706
  519.346    0.265    0.435   76.233  161.544    2.634
  519.596    0.256    0.425   76.620  161.673    2.688
  519.846    0.269    0.424   78.875  162.124    2.864
  520.096    0.245    0.432   82.061  162.139    3.082
  520.346    0.234    0.437   76.970  162.168    3.457
  520.596    0.212    0.422   77.109  162.186    3.733
  520.846    0.180    0.385   75.129  162.419    3.994
  521.096    0.126    0.301   72.031  162.968    4.201
  521.346    0.164    0.334   76.526  163.939    4.262
  521.596    0.224    0.391   79.215  164.069    3.919
  521.846    0.193    0.444   79.168  164.409    3.571
  522.096    0.208    0.447   78.930  165.064    3.385
  522.346    0.233    0.439   79.069  165.503    3.307
  522.596    0.234    0.424   81.509  165.947    3.261
  522.846    0.197    0.407   79.344  166.498    3.241
  523.096    0.201    0.400   79.793  166.945    3.289
  523.346    0.227    0.430   84.723  167.492    3.375
  523.596    0.213    0.426   91.023  168.042    3.463
  523.846    0.176    0.412   93.277  169.334    3.521
  524.096    0.185    0.401   96.652  170.510    3.586
  524.346    0.175    0.406   98.346  171.799    3.645
  524.596    0.186    0.438   94.127  172.873    3.698
  524.846    0.200    0.436   94.452  173.847    3.760
  525.096    0.209    0.425   95.584  174.816    3.844
  525.346    0.205    0.436   95.847  175.576    3.922
  525.596    0.185    0.445   95.548  176.231    3.995
  525.846    0.166    0.441   96.309  177.098    4.054
  526.096    0.164    0.424   94.766  177.968    4.105
  526.346    0.173    0.416   93.847  178.194    4.173
  526.596    0.194    0.428   97.035  178.114    4.242
  526.846    0.186    0.444   99.287  178.133    4.321
  527.096    0.207    0.449   97.558  177.631    4.351
  527.346    0.182    0.443   95.579  177.549    4.398
  527.596    0.209    0.449   97.833  177.358    4.471
  527.846    0.181    0.437  100.399  177.066    4.519
  528.096    0.153    0.422  100.972  176.245    4.551
  528.346    0.141    0.395   96.939  174.687    4.557
  528.596    0.137    0.394   94.836  171.655    4.545
  528.846    0.154    0.409   96.593  170.303    4.534
  529.096    0.175    0.426   99.531  170.753    4.523
  529.346    0.200    0.438  102.345  171.932    4.504
  529.596    0.201    0.428  104.039  173.322    4.417
  529.846    0.185    0.417  103.244  174.819    4.347
  530.096    0.207    0.415  101.640  175.899    4.304
  530.346    0.207    0.437  100.905  176.447    4.260
  530.596    0.188    0.434   99.611  175.940    4.235
  530.846    0.175    0.424   96.076  174.071    4.232
  531.096    0.159    0.417   92.230  173.140    4.319
  531.346    0.160    0.421   86.829  173.797    4.533
  531.596    0.169    0.440   84.850  174.767    4.635
  531.846    0.132    0.427   88.722  175.738    4.685
  532.096    0.129    0.394   93.902  176.290    4.674
  532.346    0.143    0.393   97.463  176.416    4.627
  532.596    0.160    0.412   99.780  176.336    4.555
  532.846    0.170    0.422  101.784  176.040    4.450
