~VERSION INFORMATION
 VERS.                 2.0:   CWLS LOG ASCII STANDARD -VERSION 2.0
 WRAP.                  NO:   ONE LINE PER DEPTH STEP
~WELL INFORMATION BLOCK
#MNEM.UNIT           DATA                    DESCRIPTION OF MNEMONIC
#---------    -------------------            -------------------------------
# Generated from Intellog Unique Number	CX_WELLS/WELL/3164
LOC .         00/03-13-083-10W4/0            : Location     - LOCATION
UWI .         00/03-13-083-10W400            : Uwi          - UNIQUE WELL ID
ENTR.         DW                             : Entered      - ENTERED BY
SRVC.         SCHLUMBERGER                   : Scn          - SERVICE COMPANY
STRT.F        738.189                        : top_depth    - START DEPTH
STOP.F        1573.98                        : bot_depth    - STOP DEPTH
STEP.F        0.82                           : increment    - STEP LENGTH
 NULL. -999.2500:NULL Value
~CURVE INFORMATION BLOCK
#MNEM UNIT       ERCB CURVE CODE    CURVE DESCRIPTION
#-----------   ------------------   ----------------------------------
DEPT.F        00 001 00 00         : DEPTH        - DEPTH
NPHI.V/V      00 330 00 00         : PHIN         - NEUTRON POROSITY (SANDSTONE)
DPHI.V/V      00 890 00 00         : PHID         - DENSITY POROSITY (SANDSTONE)
GR  .API      00 310 00 00         : GR           - GAMMA RAY
ILD .OHMM     00 120 00 00         : RESD         - DEEP RESISTIVITY (DIL)
~PARAMETER INFORMATION
#MNEM.UNIT           DATA             DESCRIPTION OF MNEMONIC
#---------         -----------     ------------------------------
GL  .F        2341.54              : gl           - GROUND LEVEL ELEVATION
EREF.F        2354                 : kb           - ELEVATION OF DEPTH REFERENCE
DATM.F        2354                 : datum        - DATUM ELEVATION
TDD .F        1587.93              : tdd          - TOTAL DEPTH DRILLER
RUN .         ONE                  : Run          - RUN NUMBER
ENG .         BILL                 : Engineer     - RECORDING ENGINEER
WIT .         JIM                  : Witness      - WITNESSED BY
MUD .         GEL                  : Mud_type     - MUD TYPE
MATR.         SANDSTONE            : Logunit      - NEUTRON MATRIX
TMAX.F        69.8                 : BHT          - MAXIMUM RECORDED TEMPERATURE
BHTD.F        1587.93              : BHTDEP       - MAXIMUM RECORDED TEMPERATURE
MATR.         1                    : LOGUNIT      - NEUTRON MATRIX
RMT .F        77                   : MDTP         - TEMPERATURE OF MUD
NEUT.         1                    : NEUTRON      - NEUTRON TYPE
RESI.         0                    : RESIST       - RESISTIVITY TYPE
RMC .OHMM     0.25                 : RMC          - RESISTIVITY OF MUD CAKE
RMF .OHMM     0.25                 : RMF          - RESISTIVITY OF MUD FILTRATE
SUFT.F        59                   : SUFT         - SURFACE TEMPERATURE
~A  DEPTH     PHIN     PHID       GR     RESD
# ...
 1309.060    0.433    0.281   89.904    7.892
 1309.880    0.464    0.297   93.093    7.757
 1310.700    0.484    0.303   87.761    8.372
 1311.520    0.480    0.280   81.702    9.205
 1312.340    0.439    0.256   80.263    9.570
 1313.160    0.403    0.260   81.564    9.587
 1313.980    0.417    0.268   83.552    9.248
 1314.800    0.420    0.268   83.049    8.918
 1315.620    0.414    0.282   82.671    7.984
 1316.440    0.408    0.291   83.595    6.884
 1317.260    0.421    0.303   85.818    6.163
 1318.080    0.456    0.320   89.287    5.314
 1318.900    0.486    0.315   93.445    4.847
 1319.720    0.506    0.301   97.112    4.179
 1320.540    0.533    0.291   99.039    4.597
 1321.360    0.523    0.283   94.433    5.446
 1322.180    0.498    0.270   87.928    7.355
 1323.000    0.494    0.259   84.503    8.399
 1323.820    0.474    0.259   82.055    8.731
 1324.640    0.426    0.266   81.983    9.077
 1325.460    0.408    0.267   82.218    9.436
 1326.280    0.415    0.255   81.334    9.625
 1327.100    0.414    0.262   79.051   10.587
 1327.920    0.401    0.283   76.626   11.429
 1328.740    0.397    0.289   73.162   11.882
 1329.560    0.407    0.286   63.872   11.899
 1330.380    0.421    0.110   56.051   11.483
 1331.200    0.295    0.085   54.695   11.073
 1332.020    0.250    0.183   58.769   10.294
 1332.840    0.373    0.204   73.082    9.739
 1333.660    0.405    0.223   93.921    8.721
 1334.480    0.433    0.244   93.277    8.252
 1335.300    0.448    0.251   91.101    7.529
 1336.120    0.449    0.255   90.681    7.260
 1336.940    0.446    0.261   89.343    7.273
 1337.760    0.451    0.265   89.576    7.281
 1338.580    0.465    0.267   93.058    7.297
 1339.400    0.474    0.272   98.286    7.305
 1340.220    0.467    0.287  101.350    7.315
 1341.040    0.454    0.278   98.052    7.054
 1341.860    0.440    0.276   93.093    6.555
 1342.680    0.427    0.295   92.457    5.870
 1343.500    0.417    0.276   94.101    5.253
 1344.320    0.412    0.252   93.326    4.446
 1345.140    0.462    0.314   88.806    3.693
 1345.960    0.498    0.358   80.210    3.497
 1346.780    0.532    0.359   73.279    3.502
 1347.600    0.590    0.356   71.525    3.709
 1348.430    0.606    0.319   71.691    4.155
 1349.250    0.565    0.264   72.764    4.743
 1350.070    0.482    0.244   73.324    5.215
 1350.890    0.436    0.236   76.848    5.632
 1351.710    0.425    0.235   81.055    5.743
 1352.530    0.412    0.246   82.187    5.644
 1353.350    0.407    0.245   82.766    5.150
 1354.170    0.414    0.244   85.804    4.786
 1354.990    0.448    0.285   88.956    4.365
 1355.810    0.488    0.299   92.027    4.055
 1356.630    0.510    0.277   91.590    3.698
 1357.450    0.504    0.276   87.292    3.705
 1358.270    0.485    0.300   84.437    4.152
 1359.090    0.483    0.302   82.945    4.478
 1359.910    0.475    0.296   80.398    5.111
 1360.730    0.449    0.244   78.606    5.219
 1361.550    0.432    0.229   78.057    5.128
 1362.370    0.435    0.282   80.602    4.855
 1363.190    0.442    0.294   90.266    4.682
 1364.010    0.455    0.285  102.843    4.351
 1364.830    0.466    0.284  104.851    3.896
 1365.650    0.479    0.287  101.314    3.829
 1366.470    0.502    0.289   97.479    3.833
 1367.290    0.519    0.288   94.372    3.769
 1368.110    0.509    0.280   94.220    3.773
 1368.930    0.502    0.263   95.446    3.924
 1369.750    0.497    0.246   93.759    4.081
 1370.570    0.491    0.245   92.407    4.161
 1371.390    0.485    0.248   93.702    4.248
 1372.210    0.478    0.245   96.757    4.253
 1373.030    0.471    0.242   99.045    4.338
 1373.850    0.467    0.238   96.622    4.347
 1374.670    0.460    0.227   93.178    4.352
 1375.490    0.441    0.203   94.082    4.278
 1376.310    0.416    0.199   98.463    4.285
 1377.130    0.403    0.218  103.081    4.288
 1377.950    0.408    0.225  107.077    4.296
 1378.770    0.429    0.234  109.683    4.383
 1379.590    0.444    0.246  111.627    4.645
 1380.410    0.451    0.257  111.506    4.827
 1381.230    0.457    0.256  109.799    5.409
 1382.050    0.461    0.247   99.101    5.620
 1382.870    0.442    0.244   80.668    6.296
 1383.690    0.388    0.252   83.800    7.601
 1384.510    0.406    0.277   88.051    9.010
 1385.330    0.441    0.306   82.436   10.098
 1386.150    0.433    0.318   75.629   10.494
 1386.980    0.406    0.308   75.793   11.119
 1387.800    0.404    0.293   78.957   11.341
 1388.620    0.413    0.288   78.525   12.017
 1389.440    0.393    0.284   77.799   12.488
 1390.260    0.374    0.274   80.100   12.983
 1391.080    0.367    0.259   82.833   13.497
 1391.900    0.364    0.244   85.189   14.031
 1392.720    0.371    0.234   89.451   14.586
 1393.540    0.380    0.240   92.541   15.169
 1394.360    0.368    0.207   93.401   15.478
 1395.180    0.312    0.197   77.196   16.091
 1396.000    0.283    0.224   70.219   16.418
 1396.820    0.306    0.253   82.429   17.068
 1397.640    0.312    0.268   82.844   17.409
 1398.460    0.314    0.252   79.206   17.776
 1399.280    0.315    0.245   76.104   17.795
 1400.100    0.316    0.246   75.193   18.150
 1400.920    0.315    0.251   77.262   18.183
 1401.740    0.316    0.254   77.043   18.552
 1402.560    0.317    0.247   72.238   18.579
 1403.380    0.318    0.238   74.687   18.606
 1404.200    0.317    0.234   77.104   18.633
 1405.020    0.316    0.231   76.558   18.652
 1405.840    0.315    0.227   74.081   18.693
 1406.660    0.316    0.233   70.840   18.366
 1407.480    0.318    0.251   68.413   18.393
 1408.300    0.321    0.263   69.038   18.419
 1409.120    0.321    0.271   74.423   18.794
 1409.940    0.316    0.270   78.535   19.176
 1410.760    0.312    0.269   81.873   19.573
 1411.580    0.313    0.274   82.471   19.956
 1412.400    0.317    0.267   77.576   20.370
 1413.220    0.320    0.242   80.023   20.776
 1414.040    0.320    0.244   82.922   22.030
 1414.860    0.339    0.253   85.286   22.046
 1415.680    0.353    0.250   82.802   22.494
 1416.500    0.343    0.244   76.470   22.952
 1417.320    0.335    0.242   75.044   22.993
 1418.140    0.333    0.237   75.256   23.010
 1418.960    0.337    0.234   72.164   23.043
 1419.780    0.341    0.242   68.836   23.084
 1420.600    0.346    0.258   68.163   23.553
 1421.420    0.355    0.268   66.757   24.032
 1422.240    0.359    0.265   65.107   24.076
 1423.060    0.339    0.247   74.180   24.102
 1423.880    0.322    0.237   84.032   24.145
 1424.700    0.319    0.246   89.659   24.636
 1425.520    0.333    0.260   91.052   24.663
 1426.350    0.344    0.256   87.897   25.182
 1427.170    0.339    0.243   80.120   25.200
 1427.990    0.348    0.251   71.806   25.236
 1428.810    0.360    0.275   71.960   24.822
 1429.630    0.360    0.250   79.034   24.380
 1430.450    0.344    0.218   85.833   23.980
 1431.270    0.332    0.212   88.692   24.006
 1432.090    0.347    0.196   86.264   23.595
 1432.910    0.354    0.220   75.907   24.066
 1433.730    0.353    0.257   68.520   25.037
 1434.550    0.351    0.259   74.747   25.528
 1435.370    0.351    0.246   81.546   27.059
 1436.190    0.355    0.246   81.878   27.599
 1437.010    0.356    0.243   87.141   28.150
 1437.830    0.340    0.237   92.954   27.688
 1438.650    0.328    0.232   96.133   27.195
 1439.470    0.331    0.237   94.721   26.739
 1440.290    0.345    0.251   88.993   26.272
 1441.110    0.355    0.260   81.447   25.832
 1441.930    0.357    0.273   74.263   25.860
 1442.750    0.366    0.302   69.793   26.395
 1443.570    0.369    0.261   76.346   26.922
 1444.390    0.364    0.250   81.463   27.470
 1445.210    0.363    0.275   78.787   28.049
 1446.030    0.364    0.273   71.945   28.598
 1446.850    0.356    0.265   66.250   29.180
 1447.670    0.349    0.279   67.594   30.335
 1448.490    0.367    0.295   63.087   32.143
 1449.310    0.380    0.305   55.320   36.010
 1450.130    0.370    0.305   50.217   45.116
 1450.950    0.362    0.302   45.642   55.497
