~VERSION INFORMATION
 VERS.                 2.0:   CWLS LOG ASCII STANDARD -VERSION 2.0
 WRAP.                  NO:   ONE LINE PER DEPTH STEP
~WELL INFORMATION BLOCK
#MNEM.UNIT           DATA                    DESCRIPTION OF MNEMONIC
#---------    -------------------            -------------------------------
# Generated from Intellog Unique Number	CS_69_70/WELL/844
WELL.         ICG RESOURCES LTD.             : Well_name    - WELL
LOC .         00/07-31-069-12W4/0            : Location     - LOCATION
UWI .         00/07-31-069-12W4/0            : Uwi          - UNIQUE WELL ID
ENTR.         SP                             : Entered      - ENTERED BY
SRVC.         SCHLUMBERGER                   : Scn          - SERVICE COMPANY
STRT.M        270                            : top_depth    - START DEPTH
STOP.M        482                            : bot_depth    - STOP DEPTH
STEP.M        0.25                           : increment    - STEP LENGTH
 NULL. -999.2500:NULL Value
~CURVE INFORMATION BLOCK
#MNEM UNIT       ERCB CURVE CODE    CURVE DESCRIPTION
#-----------   ------------------   ----------------------------------
DEPT.M        00 001 00 00         : DEPTH        - DEPTH
ILD .OHMM     00 120 00 00         : RESD         - DEEP RESISTIVITY (DIL)
DPHI.V/V      00 890 00 00         : PHID         - DENSITY POROSITY (LIMESTONE)
NPHI.V/V      00 330 00 00         : PHIN         - NEUTRON POROSITY (LIMESTONE)
GR  .API      00 310 00 00         : GR           - GAMMA RAY
~PARAMETER INFORMATION
#MNEM.UNIT           DATA             DESCRIPTION OF MNEMONIC
#---------         -----------     ------------------------------
GL  .M        582                  : gl           - GROUND LEVEL ELEVATION
EREF.M        585.8                : kb           - ELEVATION OF DEPTH REFERENCE
DATM.M        582                  : datum        - DATUM ELEVATION
TDD .M        488                  : tdd          - TOTAL DEPTH DRILLER
RUN .         ONE                  : Run          - RUN NUMBER
ENG .         BILL                 : Engineer     - RECORDING ENGINEER
WIT .         JIM                  : Witness      - WITNESSED BY
MUD .         GEL                  : Mud_type     - MUD TYPE
MATR.         LIMESTONE            : Logunit      - NEUTRON MATRIX
TMAX.C        23                   : BHT          - MAXIMUM RECORDED TEMPERATURE
BHTD.M        488                  : BHTDEP       - MAXIMUM RECORDED TEMPERATURE
MATR.         1                    : LOGUNIT      - NEUTRON MATRIX
RMT .C        25                   : MDTP         - TEMPERATURE OF MUD
NEUT.         1                    : NEUTRON      - NEUTRON TYPE
RESI.         0                    : RESIST       - RESISTIVITY TYPE
RMC .OHMM     0.25                 : RMC          - RESISTIVITY OF MUD CAKE
RMF .OHMM     0.25                 : RMF          - RESISTIVITY OF MUD FILTRATE
SUFT.C        15                   : SUFT         - SURFACE TEMPERATURE
~A  DEPTH     RESD     PHID     PHIN       GR
# ...
  400.500    4.457    0.217    0.421  107.859
  400.750    4.602    0.207    0.428  101.340
  401.000    4.761    0.195    0.436   93.839
  401.250    4.869    0.188    0.425   89.763
  401.500    4.805    0.180    0.405   93.635
  401.750    4.671    0.177    0.392  100.259
  402.000    4.364    0.202    0.393  108.289
  402.250    3.971    0.201    0.416  113.444
  402.500    3.717    0.186    0.445  116.273
  402.750    3.447    0.218    0.485  111.158
  403.000    3.306    0.234    0.518  106.960
  403.250    3.154    0.248    0.479  104.779
  403.500    3.043    0.234    0.453  109.815
  403.750    2.941    0.228    0.446  112.095
  404.000    2.891    0.222    0.444  112.786
  404.250    2.832    0.227    0.451  112.317
  404.500    2.706    0.250    0.475  116.128
  404.750    2.385    0.264    0.494  120.673
  405.000    2.220    0.273    0.526  123.686
  405.250    2.121    0.274    0.514  120.960
  405.500    2.236    0.257    0.522  119.386
  405.750    2.416    0.249    0.494  118.551
  406.000    2.645    0.243    0.465  117.655
  406.250    2.885    0.233    0.451  111.807
  406.500    3.129    0.219    0.442  103.025
  406.750    3.393    0.216    0.437   96.134
  407.000    3.564    0.234    0.426   90.225
  407.250    3.778    0.239    0.414   86.454
  407.500    3.909    0.241    0.403   82.868
  407.750    4.059    0.240    0.397   81.177
  408.000    4.128    0.195    0.403   85.476
  408.250    4.199    0.164    0.393   90.019
  408.500    4.295    0.133    0.372   96.035
  408.750    4.477    0.164    0.348   98.191
  409.000    4.667    0.164    0.374   95.888
  409.250    4.819    0.150    0.355   96.946
  409.500    4.929    0.148    0.365   96.113
  409.750    4.947    0.144    0.356   98.945
  410.000    4.791    0.169    0.377  103.122
  410.250    4.536    0.193    0.408  106.504
  410.500    4.294    0.201    0.410  109.396
  410.750    4.221    0.197    0.403  109.415
  411.000    4.174    0.200    0.399  103.390
  411.250    4.150    0.211    0.407  101.875
  411.500    4.158    0.210    0.411   99.267
  411.750    4.245    0.205    0.411  101.734
  412.000    4.326    0.206    0.418  103.464
  412.250    4.483    0.200    0.418  100.061
  412.500    4.647    0.199    0.404   98.186
  412.750    4.816    0.197    0.404   96.925
  413.000    4.945    0.183    0.419   92.725
  413.250    5.106    0.165    0.429   91.155
  413.500    5.243    0.152    0.398   94.476
  413.750    5.282    0.139    0.356   99.755
  414.000    5.077    0.180    0.352  104.237
  414.250    4.843    0.198    0.368  107.741
  414.500    4.698    0.213    0.383  107.397
  414.750    4.628    0.190    0.377  105.276
  415.000    4.567    0.193    0.384  102.301
  415.250    4.515    0.197    0.395   99.999
  415.500    4.473    0.195    0.408  100.995
  415.750    4.473    0.194    0.411  104.377
  416.000    4.532    0.203    0.405  107.761
  416.250    4.618    0.209    0.418  109.918
  416.500    4.769    0.219    0.399  108.474
  416.750    4.905    0.223    0.377  102.563
  417.000    4.999    0.204    0.384   98.731
  417.250    5.046    0.174    0.394  103.704
  417.500    5.103    0.159    0.386  107.941
  417.750    5.113    0.176    0.394  103.926
  418.000    5.122    0.139    0.397   95.876
  418.250    5.161    0.106    0.396  101.216
  418.500    5.200    0.137    0.413  105.453
  418.750    5.190    0.170    0.396  105.534
  419.000    5.209    0.211    0.375  104.578
  419.250    5.189    0.230    0.361  107.041
  419.500    5.199    0.213    0.364  108.774
  419.750    5.229    0.204    0.360  109.956
  420.000    5.258    0.198    0.357  109.853
  420.250    5.288    0.188    0.363  107.674
  420.500    5.082    0.154    0.371  104.208
  420.750    4.624    0.119    0.374  100.867
  421.000    4.184    0.101    0.359   96.912
  421.250    3.445    0.146    0.347  102.129
  421.500    2.726    0.184    0.352  104.654
  421.750    2.485    0.224    0.389  101.680
  422.000    2.278    0.240    0.417  103.044
  422.250    2.169    0.237    0.442  105.024
  422.500    2.069    0.236    0.469  107.428
  422.750    2.069    0.234    0.436  108.793
  423.000    2.370    0.225    0.457  109.424
  423.250    2.624    0.215    0.475  109.197
  423.500    2.884    0.212    0.473  103.531
  423.750    3.110    0.210    0.433   99.946
  424.000    3.279    0.207    0.403  102.353
  424.250    3.385    0.209    0.383  104.509
  424.500    3.482    0.217    0.382  105.995
  424.750    3.555    0.162    0.398   97.764
  425.000    3.699    0.122    0.410   90.325
  425.250    4.150    0.113    0.389   83.621
  425.500    4.569    0.090    0.368   77.222
  425.750    5.215    0.066    0.345   77.305
  426.000    5.818    0.096    0.323   83.681
  426.250    6.552    0.128    0.314   85.904
  426.500    6.920    0.155    0.343   76.569
  426.750    7.463    0.072    0.336   71.637
  427.000    7.823    0.043    0.281   82.417
  427.250    6.803    0.073    0.276   92.523
  427.500    5.773    0.158    0.324   96.945
  427.750    4.917    0.192    0.363  102.161
  428.000    4.424    0.211    0.374  111.475
  428.250    4.063    0.208    0.381  116.383
  428.500    4.109    0.206    0.388  109.190
  428.750    4.365    0.204    0.395  100.529
  429.000    4.619    0.151    0.383  102.385
  429.250    4.716    0.135    0.369  108.211
  429.500    4.788    0.154    0.362  111.351
  429.750    4.842    0.185    0.358  114.120
  430.000    4.787    0.179    0.367  118.603
  430.250    4.108    0.178    0.376  119.664
  430.500    3.493    0.176    0.394  116.503
  430.750    3.269    0.169    0.416  116.584
  431.000    3.032    0.158    0.429  119.908
  431.250    2.936    0.163    0.436  121.454
  431.500    2.875    0.188    0.441  122.574
  431.750    2.875    0.208    0.430  122.599
  432.000    2.980    0.198    0.419  122.797
  432.250    3.124    0.191    0.427  122.636
  432.500    3.232    0.191    0.449  117.276
  432.750    3.244    0.185    0.445  111.550
  433.000    3.141    0.148    0.397  119.089
  433.250    3.002    0.175    0.389  125.100
  433.500    2.880    0.197    0.417  129.460
  433.750    2.826    0.213    0.451  132.902
  434.000    2.880    0.208    0.445  117.762
  434.250    3.219    0.197    0.482  104.639
  434.500    3.793    0.185    0.447   93.046
  434.750    4.757    0.181    0.380   87.868
  435.000    5.532    0.193    0.355   85.687
  435.250    6.000    0.204    0.340   82.651
  435.500    6.301    0.200    0.328   79.064
  435.750    6.544    0.179    0.317   74.439
  436.000    6.581    0.221    0.309   79.593
  436.250    6.277    0.254    0.302   96.302
  436.500    5.876    0.276    0.297  106.532
  436.750    5.521    0.233    0.298  108.996
  437.000    5.711    0.207    0.326  110.239
  437.250    6.629    0.179    0.343   92.898
  437.500    7.871    0.229    0.358   77.391
  437.750    9.417    0.262    0.316   66.775
  438.000   11.202    0.246    0.227   57.991
  438.250   13.151    0.134    0.214   52.142
  438.500   15.380    0.081    0.205   46.417
  438.750   18.262    0.060    0.195   44.296
  439.000   19.805    0.050    0.185   44.194
  439.250   20.068    0.038    0.190   47.699
  439.500   19.544    0.019    0.207   57.011
  439.750   20.410    0.059    0.225   69.379
  440.000   16.614    0.108    0.250   78.631
  440.250   13.272    0.160    0.294   82.869
  440.500   10.132    0.191    0.332   79.893
  440.750    8.048    0.190    0.318   78.324
  441.000    6.356    0.190    0.304   80.056
  441.250    5.333    0.212    0.312   76.408
  441.500    4.491    0.237    0.322   67.869
  441.750    3.898    0.256    0.331   77.671
  442.000    3.435    0.264    0.342   87.228
  442.250    2.877    0.272    0.355   88.899
  442.500    2.382    0.287    0.353   83.232
  442.750    2.067    0.283    0.350   88.388
  443.000    2.079    0.267    0.346   96.844
  443.250    2.196    0.252    0.354  102.550
  443.500    2.377    0.236    0.356  108.866
  443.750    2.597    0.216    0.350  113.962
