~VERSION INFORMATION
 VERS.                 2.0:   CWLS LOG ASCII STANDARD -VERSION 2.0
 WRAP.                  NO:   ONE LINE PER DEPTH STEP
~WELL INFORMATION BLOCK
#MNEM.UNIT           DATA                    DESCRIPTION OF MNEMONIC
#---------    -------------------            -------------------------------
# Generated from Intellog Unique Number	CW_76_78/WELL/637
WELL.         GULF POC DROWNED 07-23         : Well_name    - WELL
LOC .         00/07-23-076-22W4/0            : Location     - LOCATION
UWI .         00/07-23-076-22W4/0            : Uwi          - UNIQUE WELL ID
ENTR.         JAYE                           : Entered      - ENTERED BY
SRVC.         WESTERN ATLAS                  : Scn          - SERVICE COMPANY
DATE.         5 JAN 77                       : Date         - LOG DATE
STRT.M        435.864                        : top_depth    - START DEPTH
STOP.M        649.114                        : bot_depth    - STOP DEPTH
STEP.M        0.25                           : increment    - STEP LENGTH
 NULL. -999.2500:NULL Value
~CURVE INFORMATION BLOCK
#MNEM UNIT       ERCB CURVE CODE    CURVE DESCRIPTION
#-----------   ------------------   ----------------------------------
DEPT.M        00 001 00 00         : DEPTH        - DEPTH
ILD .OHMM     00 120 00 00         : RESD         - DEEP RESISTIVITY (DIL)
NPHI.V/V      00 330 00 00         : PHIN         - NEUTRON POROSITY (SANDSTONE)
DPHI.V/V      00 890 00 00         : PHID         - DENSITY POROSITY (SANDSTONE)
GR  .API      00 310 00 00         : GR           - GAMMA RAY
CALI.MM       00 280 01 00         : CAL          - CALIPER
~PARAMETER INFORMATION
#MNEM.UNIT           DATA             DESCRIPTION OF MNEMONIC
#---------         -----------     ------------------------------
GL  .M        749.198              : gl           - GROUND LEVEL ELEVATION
EREF.M        752.551              : kb           - ELEVATION OF DEPTH REFERENCE
DATM.M        749.198              : datum        - DATUM ELEVATION
TDD .M        647.7                : tdd          - TOTAL DEPTH DRILLER
RUN .         ONE                  : Run          - RUN NUMBER
ENG .         CROCKFORD            : Engineer     - RECORDING ENGINEER
WIT .         HUGHES               : Witness      - WITNESSED BY
BASE.         EDM                  : Branch       - HOME BASE OF LOGGING UNIT
MATR.         SANDSTONE            : Logunit      - NEUTRON MATRIX
TMAX.C        30.5556              : BHT          - MAXIMUM RECORDED TEMPERATURE
BHTD.M        648.31               : BHTDEP       - MAXIMUM RECORDED TEMPERATURE
RMT .C        14.4444              : MDTP         - TEMPERATURE OF MUD
MUDD.KG/M     1080                 : MWT          - MUD DENSITY
NEUT.         1                    : NEUTRON      - NEUTRON TYPE
RESI.         0                    : RESIST       - RESISTIVITY TYPE
RM  .OHMM     3.89                 : RM           - RESISTIVITY OF MUD
RMC .OHMM     0                    : RMC          - RESISTIVITY OF MUD CAKE
RMF .OHMM     5.84                 : RMF          - RESISTIVITY OF MUD FILTRATE
SUFT.C        -17.7778             : SUFT         - SURFACE TEMPERATURE
~A  DEPTH     RESD     PHIN     PHID       GR      CAL
# ...
  545.364    7.150    0.425    0.290   89.093  169.369
  545.614    7.082    0.454    0.294   88.741  168.265
  545.864    6.950    0.465    0.306   90.459  167.766
  546.114    6.822    0.445    0.291   94.549  166.764
  546.364    6.516    0.435    0.270   95.233  165.962
  546.614    6.169    0.431    0.275   95.977  165.367
  546.864    5.841    0.430    0.266   96.781  164.050
  547.114    5.630    0.427    0.255   98.377  163.145
  547.364    5.526    0.418    0.276  100.521  162.654
  547.614    5.375    0.418    0.269   97.675  162.576
  547.864    5.276    0.428    0.266  102.252  162.290
  548.114    5.131    0.438    0.256  104.882  162.518
  548.364    5.083    0.424    0.273  105.140  162.646
  548.614    5.033    0.427    0.282  104.363  162.977
  548.864    5.030    0.434    0.271  101.274  163.309
  549.114    5.072    0.432    0.262   98.427  163.434
  549.364    5.115    0.433    0.256   95.154  163.355
  549.614    5.492    0.433    0.267   92.004  163.068
  549.864    5.743    0.415    0.267   88.673  162.783
  550.114    6.393    0.396    0.247   87.164  162.394
  550.364    7.314    0.372    0.223   86.691  162.418
  550.614    8.071    0.392    0.196   87.557  162.855
  550.864    7.850    0.411    0.236   88.605  163.495
  551.114    7.432    0.421    0.270   90.688  164.651
  551.364    6.848    0.413    0.266   92.222  165.708
  551.614    6.368    0.417    0.269   94.427  166.346
  551.864    5.610    0.433    0.262   96.813  166.989
  552.114    4.941    0.449    0.245  100.357  167.526
  552.364    4.720    0.458    0.241   99.640  167.755
  552.614    4.634    0.449    0.244   99.410  167.372
  552.864    4.507    0.444    0.245  100.825  167.081
  553.114    4.463    0.443    0.243  101.567  166.693
  553.364    4.460    0.437    0.251  101.399  166.201
  553.614    4.417    0.430    0.244  101.656  165.918
  553.864    4.414    0.420    0.242  103.070  166.043
  554.114    4.451    0.437    0.233  106.004  166.476
  554.364    4.489    0.451    0.215  110.886  166.709
  554.614    4.526    0.445    0.243  112.847  167.451
  554.864    4.564    0.426    0.227  110.304  168.818
  555.114    4.602    0.440    0.225  108.006  170.179
  555.364    4.641    0.439    0.243  111.732  171.333
  555.614    4.679    0.423    0.240  117.405  172.386
  555.864    4.677    0.420    0.204  123.807  173.338
  556.114    4.673    0.418    0.198  126.864  174.184
  556.364    4.670    0.417    0.197  125.539  175.033
  556.614    4.709    0.413    0.208  122.510  175.468
  556.864    4.706    0.404    0.208  122.098  175.493
  557.114    4.703    0.433    0.187  122.963  175.309
  557.364    4.743    0.445    0.183  122.794  174.922
  557.614    4.739    0.421    0.185  122.200  175.253
  557.864    4.527    0.406    0.181  122.093  176.513
  558.114    4.210    0.410    0.195  123.992  177.875
  558.364    3.845    0.422    0.208  124.492  178.723
  558.614    3.387    0.427    0.195  121.525  179.265
  558.864    3.149    0.433    0.195  122.086  179.805
  559.114    3.292    0.426    0.193  125.265  180.132
  559.364    3.666    0.416    0.179  126.069  179.853
  559.614    4.588    0.399    0.191  125.961  179.664
  559.864    5.063    0.408    0.175  125.548  179.377
  560.114    5.152    0.417    0.192  123.859  179.612
  560.364    5.102    0.424    0.179  122.533  179.942
  560.614    5.098    0.426    0.190  122.426  180.273
  560.864    5.095    0.431    0.187  123.414  178.854
  561.114    5.184    0.434    0.207  118.559  173.828
  561.364    5.322    0.418    0.219  113.036  170.245
  561.614    5.465    0.412    0.203  107.634  169.856
  561.864    5.712    0.399    0.179  104.667  170.807
  562.114    5.919    0.370    0.162  105.654  171.655
  562.364    6.021    0.388    0.166  109.075  172.399
  562.614    5.804    0.391    0.211  113.531  171.702
  562.864    5.595    0.395    0.225  115.249  171.209
  563.114    5.443    0.403    0.207  115.506  170.616
  563.364    5.247    0.412    0.224  117.649  170.225
  563.614    5.149    0.416    0.213  118.149  169.944
  563.864    5.100    0.417    0.218  115.182  169.655
  564.114    4.968    0.418    0.197  114.161  169.472
  564.364    4.965    0.417    0.203  116.061  169.191
  564.614    4.961    0.412    0.189  118.935  168.900
  564.864    4.957    0.396    0.203  119.922  168.923
  565.114    4.953    0.386    0.196  120.301  169.359
  565.364    4.949    0.391    0.197  123.479  171.753
  565.614    4.945    0.416    0.189  126.719  173.219
  565.864    4.942    0.428    0.203  124.724  174.376
  566.114    4.938    0.431    0.192  121.634  175.222
  566.364    4.889    0.415    0.196  120.431  176.177
  566.614    4.930    0.409    0.166  118.254  176.813
  566.864    5.104    0.416    0.136  116.686  177.352
  567.114    5.147    0.428    0.200  121.810  177.478
  567.364    5.188    0.438    0.195  123.772  177.298
  567.614    5.184    0.439    0.193  122.203  176.498
  567.864    5.274    0.436    0.202  119.054  175.903
  568.114    5.317    0.429    0.206  116.268  175.924
  568.364    5.458    0.422    0.187  116.161  176.156
  568.614    5.602    0.420    0.183  116.782  176.279
  568.864    5.648    0.420    0.179  117.223  175.275
  569.114    5.693    0.417    0.178  117.602  171.483
  569.364    5.639    0.407    0.193  117.919  168.621
  569.614    5.484    0.393    0.206  119.212  168.130
  569.864    5.335    0.396    0.203  121.962  171.245
  570.114    5.096    0.405    0.187  124.472  174.565
  570.364    4.957    0.419    0.185  125.641  178.298
  570.614    4.866    0.423    0.202  126.324  181.622
  570.864    4.775    0.415    0.193  126.946  183.394
  571.114    4.729    0.422    0.207  122.640  182.903
  571.364    4.811    0.439    0.226  119.672  180.967
  571.614    4.982    0.406    0.239  121.511  176.559
  571.864    5.205    0.387    0.229  125.055  170.506
  572.114    5.538    0.403    0.179  126.954  166.818
  572.364    6.273    0.415    0.177  121.796  164.265
  572.614    7.043    0.409    0.178  115.725  164.392
  572.864    7.627    0.383    0.150  110.324  165.343
  573.114    7.969    0.355    0.122  105.530  166.293
  573.364    7.964    0.389    0.108  109.560  167.246
  573.614    7.747    0.387    0.158  114.441  168.091
  573.864    7.204    0.373    0.189  114.151  170.380
  574.114    6.823    0.380    0.159  116.964  173.907
  574.364    6.401    0.413    0.168  118.378  171.563
  574.614    6.116    0.427    0.210  117.539  168.392
  574.864    5.843    0.435    0.213  111.773  166.559
  575.114    5.736    0.435    0.221  110.205  165.143
  575.364    5.679    0.414    0.230  109.245  164.339
  575.614    5.726    0.390    0.235  107.252  163.745
  575.864    5.878    0.380    0.206  105.682  163.562
  576.114    6.197    0.381    0.173  103.566  163.791
  576.364    6.712    0.366    0.138   99.503  164.433
  576.614    7.335    0.346    0.136   97.996  165.279
  576.864    7.945    0.357    0.129  100.382  167.366
  577.114    8.680    0.371    0.104  103.864  169.656
  577.364    9.072    0.302    0.161  102.600  170.402
  577.614    9.479    0.269    0.139   91.601  170.835
  577.864    9.731    0.244    0.072   85.652  171.991
  578.114    9.550    0.301    0.054   93.028  171.709
  578.364    9.042    0.381    0.141  104.846  170.492
  578.614    8.639    0.390    0.173  113.256  168.660
  578.864    8.035    0.387    0.187  115.948  166.933
  579.114    7.341    0.386    0.198  115.658  165.514
  579.364    6.243    0.394    0.183  117.679  164.716
  579.614    5.911    0.412    0.177  125.664  165.562
  579.864    5.802    0.409    0.167  128.964  167.334
  580.114    5.794    0.411    0.174  126.361  168.907
  580.364    5.689    0.425    0.185  125.341  168.514
  580.614    5.633    0.420    0.168  124.016  167.406
  580.864    5.681    0.409    0.186  121.961  165.266
  581.114    5.883    0.403    0.200  117.897  163.538
  581.364    6.093    0.407    0.205  119.068  164.285
  581.614    6.364    0.410    0.196  118.899  165.747
