~VERSION INFORMATION
 VERS.                 2.0:   CWLS LOG ASCII STANDARD -VERSION 2.0
 WRAP.                  NO:   ONE LINE PER DEPTH STEP
~WELL INFORMATION BLOCK
#MNEM.UNIT           DATA                    DESCRIPTION OF MNEMONIC
#---------    -------------------            -------------------------------
# Generated from Intellog Unique Number	CS_73_76/WELL/957
WELL.         DOME PETROLEUM LIMITED         : Well_name    - WELL
LOC .         00/03-14-075-16W4/0            : Location     - LOCATION
UWI .         00/03-14-075-16W4/0            : Uwi          - UNIQUE WELL ID
ENTR.         SP                             : Entered      - ENTERED BY
SRVC.         SCHLUMBERGER                   : Scn          - SERVICE COMPANY
STRT.M        350                            : top_depth    - START DEPTH
STOP.M        555                            : bot_depth    - STOP DEPTH
STEP.M        0.25                           : increment    - STEP LENGTH
 NULL. -999.2500:NULL Value
~CURVE INFORMATION BLOCK
#MNEM UNIT       ERCB CURVE CODE    CURVE DESCRIPTION
#-----------   ------------------   ----------------------------------
DEPT.M        00 001 00 00         : DEPTH        - DEPTH
GR  .API      00 310 00 00         : GR           - GAMMA RAY
NPHI.V/V      00 330 00 00         : PHIN         - NEUTRON POROSITY (LIMESTONE)
DPHI.V/V      00 890 00 00         : PHID         - DENSITY POROSITY (LIMESTONE)
ILD .OHMM     00 120 00 00         : RESD         - DEEP RESISTIVITY (DIL)
~PARAMETER INFORMATION
#MNEM.UNIT           DATA             DESCRIPTION OF MNEMONIC
#---------         -----------     ------------------------------
GL  .M        715.4                : gl           - GROUND LEVEL ELEVATION
EREF.M        719.4                : kb           - ELEVATION OF DEPTH REFERENCE
DATM.M        715.4                : datum        - DATUM ELEVATION
TDD .M        555                  : tdd          - TOTAL DEPTH DRILLER
RUN .         ONE                  : Run          - RUN NUMBER
ENG .         BILL                 : Engineer     - RECORDING ENGINEER
WIT .         JIM                  : Witness      - WITNESSED BY
MUD .         GEL                  : Mud_type     - MUD TYPE
MATR.         LIMESTONE            : Logunit      - NEUTRON MATRIX
TMAX.C        24                   : BHT          - MAXIMUM RECORDED TEMPERATURE
BHTD.M        555                  : BHTDEP       - MAXIMUM RECORDED TEMPERATURE
MATR.         1                    : LOGUNIT      - NEUTRON MATRIX
RMT .C        25                   : MDTP         - TEMPERATURE OF MUD
NEUT.         1                    : NEUTRON      - NEUTRON TYPE
RESI.         0                    : RESIST       - RESISTIVITY TYPE
RMC .OHMM     0.25                 : RMC          - RESISTIVITY OF MUD CAKE
RMF .OHMM     0.25                 : RMF          - RESISTIVITY OF MUD FILTRATE
SUFT.C        15                   : SUFT         - SURFACE TEMPERATURE
~A  DEPTH       GR     PHIN     PHID     RESD
  350.000  110.527    0.529    0.268    2.333
  350.250  109.921    0.540    0.284    2.333
  350.500  109.315    0.552    0.298    2.291
  350.750  108.709    0.512    0.276    2.291
  351.000  106.889    0.488    0.262    2.249
  351.250  105.676    0.490    0.274    2.249
  351.500  105.070    0.506    0.282    2.249
  351.750  103.857    0.525    0.273    2.249
  352.000  102.037    0.532    0.274    2.249
  352.250  105.682    0.525    0.275    2.208
  352.500  103.862    0.531    0.239    2.207
  352.750  102.648    0.531    0.225    2.207
  353.000  101.435    0.542    0.284    2.167
  353.250  102.044    0.549    0.280    2.167
  353.500  104.475    0.534    0.275    2.167
  353.750  102.047    0.520    0.269    2.207
  354.000   97.797    0.526    0.260    2.420
  354.250   95.370    0.518    0.246    2.558
  354.500   98.408    0.520    0.247    2.804
  354.750  103.268    0.526    0.222    2.964
  355.000  106.913    0.503    0.223    3.019
  355.250  106.914    0.496    0.238    3.075
  355.500  107.523    0.521    0.214    3.075
  355.750  111.775    0.536    0.228    3.074
  356.000  112.384    0.502    0.221    3.190
  356.250  104.491    0.474    0.228    3.249
  356.500  103.278    0.451    0.223    3.371
  356.750  106.316    0.465    0.232    3.433
  357.000  108.746    0.483    0.218    3.497
  357.250  107.533    0.495    0.199    3.497
  357.500  106.320    0.500    0.183    3.433
  357.750  105.714    0.492    0.165    3.370
  358.000  105.716    0.498    0.167    3.189
  358.250  106.932    0.501    0.183    3.018
  358.500  110.577    0.503    0.218    2.855
  358.750  111.793    0.511    0.206    2.803
  359.000  106.329    0.498    0.191    2.855
  359.250  102.687    0.485    0.203    3.073
  359.500  103.296    0.483    0.206    3.189
  359.750  104.511    0.501    0.205    3.433
  360.000  107.549    0.512    0.223    3.496
  360.250  106.336    0.518    0.170    3.496
  360.500  100.872    0.508    0.138    3.496
  360.750   99.659    0.502    0.078    3.432
  361.000  101.483    0.514    0.210    3.308
  361.250  101.484    0.500    0.223    3.188
  361.500  100.271    0.496    0.232    3.073
  361.750  102.095    0.509    0.251    3.073
  362.000  102.096    0.500    0.238    3.073
  362.250  101.490    0.515    0.229    3.130
  362.500   99.062    0.523    0.238    3.130
  362.750   95.420    0.513    0.249    3.188
  363.000   96.029    0.496    0.246    3.307
  363.250   97.852    0.518    0.271    3.495
  363.500   86.315    0.524    0.329    3.904
  363.750   72.957    0.541    0.378    4.780
  364.000   65.670    0.567    0.475    6.302
  364.250   60.813    0.606    0.548    7.576
  364.500   55.349    0.671    0.535    8.618
  364.750   47.456    0.705    0.585    9.450
  365.000   42.599    0.701    0.320    9.986
  365.250   51.103    0.486    0.317   10.172
  365.500   57.784    0.455    0.323    9.986
  365.750   62.037    0.439    0.316    9.276
  366.000   62.645    0.425    0.300    8.777
  366.250   62.647    0.430    0.291    8.460
  366.500   60.827    0.425    0.299    8.305
  366.750   60.829    0.408    0.314    8.305
  367.000   64.474    0.405    0.304    8.459
  367.250   69.941    0.413    0.300    8.459
  367.500   75.408    0.411    0.296    8.616
  367.750   77.838    0.405    0.305    8.776
  368.000   75.411    0.416    0.291    8.776
  368.250   74.197    0.427    0.292    8.776
  368.500   74.806    0.434    0.306    8.939
  368.750   77.844    0.427    0.312    8.775
  369.000   80.882    0.434    0.303    8.775
  369.250   85.742    0.448    0.302    8.775
  369.500   94.245    0.459    0.287    8.615
  369.750   99.713    0.454    0.274    8.614
  370.000  100.321    0.437    0.275    8.614
  370.250   96.679    0.436    0.268    8.614
  370.500   95.466    0.430    0.281    8.937
  370.750   96.682    0.431    0.285    9.103
  371.000   99.720    0.421    0.293    9.272
  371.250  101.543    0.413    0.299    9.444
  371.500  104.581    0.403    0.282    9.620
  371.750  106.404    0.413    0.273    9.798
  372.000  108.835    0.411    0.268   10.166
  372.250  108.229    0.410    0.271   10.165
  372.500  101.550    0.417    0.273   10.354
  372.750   96.086    0.423    0.282   10.354
  373.000   90.016    0.413    0.281   10.354
  373.250   86.980    0.399    0.259   10.165
  373.500   83.338    0.385    0.242    9.979
  373.750   82.733    0.390    0.228    9.796
  374.000   82.733    0.404    0.212    9.617
  374.250   73.019    0.417    0.233    9.269
  374.500   67.554    0.397    0.221    9.100
  374.750   63.912    0.393    0.234    8.934
  375.000   63.914    0.405    0.263    8.933
  375.250   61.486    0.409    0.287    8.610
  375.500   57.843    0.410    0.306    8.298
  375.750   58.452    0.409    0.305    8.147
  376.000   63.919    0.417    0.310    7.430
  376.250   70.601    0.408    0.315    6.902
  376.500   83.963    0.396    0.299    6.652
  376.750   98.540    0.411    0.188    6.067
  377.000  109.472    0.450    0.105    5.432
  377.250  121.012    0.466    0.119    4.775
  377.500  126.479    0.483    0.158    4.435
  377.750  128.910    0.486    0.157    4.197
  378.000  128.911    0.489    0.174    3.971
  378.250  128.305    0.492    0.163    3.827
  378.500  130.129    0.498    0.193    3.757
  378.750  135.596    0.505    0.210    3.689
  379.000  136.812    0.504    0.193    3.621
  379.250  132.562    0.507    0.193    3.555
  379.500  128.313    0.518    0.186    3.490
  379.750  124.670    0.528    0.181    3.302
  380.000  124.065    0.522    0.213    3.125
  380.250  124.673    0.522    0.229    3.068
  380.500  128.318    0.524    0.242    3.125
  380.750  131.964    0.497    0.263    3.364
  381.000  121.034    0.449    0.241    4.196
  381.250  116.784    0.417    0.234    4.952
  381.500  118.608    0.435    0.235    5.845
  381.750  119.824    0.446    0.234    6.528
  382.000  121.647    0.448    0.245    7.157
  382.250  116.791    0.437    0.236    7.564
  382.500  113.756    0.449    0.228    7.704
  382.750  108.899    0.466    0.230    7.563
  383.000  103.435    0.472    0.245    7.290
  383.250  100.400    0.478    0.165    6.898
  383.500   96.757    0.470    0.064    6.527
  383.750   94.329    0.452    0.118    6.176
  384.000  101.619    0.452    0.179    5.952
  384.250  105.871    0.439    0.227    5.952
  384.500  102.229    0.422    0.236    6.407
  384.750   91.907    0.411    0.248    7.025
  385.000   86.442    0.428    0.270    7.702
  385.250   87.051    0.433    0.295    7.991
  385.500   92.519    0.435    0.295    8.445
  385.750   94.341    0.435    0.289    8.291
  386.000   97.987    0.435    0.283    7.991
  386.250  101.024    0.451    0.275    7.561
  386.500  108.314    0.476    0.266    7.154
  386.750  113.173    0.461    0.266    6.646
  387.000  119.248    0.435    0.259    6.525
  387.250  121.071    0.410    0.251    6.288
  387.500  125.324    0.418    0.252    6.288
  387.750  125.325    0.426    0.258    6.173
  388.000  111.966    0.440    0.266    6.173
  388.250  102.858    0.460    0.282    6.405
  388.500   90.714    0.456    0.299    6.524
  388.750   84.643    0.432    0.310    6.894
  389.000   75.535    0.429    0.327    7.153
  389.250   71.285    0.429    0.309    7.421
  389.500   73.716    0.420    0.313    7.988
  389.750   74.932    0.421    0.305    8.288
  390.000   76.148    0.440    0.318    8.442
  390.250   73.720    0.456    0.312    8.599
  390.500   71.900    0.455    0.299    8.758
  390.750   70.080    0.452    0.310    8.758
  391.000   68.259    0.463    0.315    8.921
  391.250   66.439    0.469    0.309    8.920
  391.500   66.441    0.469    0.318    8.757
  391.750   67.049    0.457    0.324    8.757
  392.000   66.443    0.447    0.351    8.757
  392.250   63.409    0.446    0.345    8.597
  392.500   62.803    0.455    0.346    8.597
  392.750   62.196    0.449    0.344    8.597
  393.000   61.591    0.463    0.328    8.440
  393.250   62.200    0.481    0.324    8.439
