~VERSION INFORMATION
 VERS.                 2.0:   CWLS LOG ASCII STANDARD -VERSION 2.0
 WRAP.                  NO:   ONE LINE PER DEPTH STEP
~WELL INFORMATION BLOCK
#MNEM.UNIT           DATA                    DESCRIPTION OF MNEMONIC
#---------    -------------------            -------------------------------
# Generated from Intellog Unique Number	CW_82_90/WELL/529
WELL.         ANDEX WABASCA 06-23            : Well_name    - WELL
LOC .         00/06-23-082-22W4/0            : Location     - LOCATION
UWI .         00/06-23-082-22W4/0            : Uwi          - UNIQUE WELL ID
ENTR.         JAYE                           : Entered      - ENTERED BY
SRVC.         SCHLUMBERGER                   : Scn          - SERVICE COMPANY
DATE.         30 JAN 74                      : Date         - LOG DATE
STRT.M        228.6                          : top_depth    - START DEPTH
STOP.M        435.85                         : bot_depth    - STOP DEPTH
STEP.M        0.25                           : increment    - STEP LENGTH
 NULL. -999.2500:NULL Value
~CURVE INFORMATION BLOCK
#MNEM UNIT       ERCB CURVE CODE    CURVE DESCRIPTION
#-----------   ------------------   ----------------------------------
DEPT.M        00 001 00 00         : DEPTH        - DEPTH
GR  .API      00 310 00 00         : GR           - GAMMA RAY
NPHI.V/V      00 330 00 00         : PHIN         - NEUTRON POROSITY (SANDSTONE)
DPHI.V/V      00 890 00 00         : PHID         - DENSITY POROSITY (SANDSTONE)
CALI.MM       00 280 01 00         : CAL          - CALIPER
ILD .OHMM     00 120 00 00         : RESD         - DEEP RESISTIVITY (DIL)
~PARAMETER INFORMATION
#MNEM.UNIT           DATA             DESCRIPTION OF MNEMONIC
#---------         -----------     ------------------------------
GL  .M        622.554              : gl           - GROUND LEVEL ELEVATION
EREF.M        626.364              : kb           - ELEVATION OF DEPTH REFERENCE
DATM.M        622.554              : datum        - DATUM ELEVATION
TDD .M        448.97               : tdd          - TOTAL DEPTH DRILLER
RUN .         ONE                  : Run          - RUN NUMBER
ENG .         HITCHNER             : Engineer     - RECORDING ENGINEER
WIT .         SAYERS               : Witness      - WITNESSED BY
BASE.         EDMONTON             : Branch       - HOME BASE OF LOGGING UNIT
MUD .         GEL CHEM             : Mud_type     - MUD TYPE
MATR.         SANDSTONE            : Logunit      - NEUTRON MATRIX
TMAX.C        21.6667              : BHT          - MAXIMUM RECORDED TEMPERATURE
BHTD.M        448.97               : BHTDEP       - MAXIMUM RECORDED TEMPERATURE
RMT .C        15                   : MDTP         - TEMPERATURE OF MUD
MUDD.KG/M     1000                 : MWT          - MUD DENSITY
NEUT.         1                    : NEUTRON      - NEUTRON TYPE
RESI.         0                    : RESIST       - RESISTIVITY TYPE
RM  .OHMM     7.42                 : RM           - RESISTIVITY OF MUD
RMC .OHMM     0.25                 : RMC          - RESISTIVITY OF MUD CAKE
RMF .OHMM     7.35                 : RMF          - RESISTIVITY OF MUD FILTRATE
SUFT.C        4                    : SUFT         - SURFACE TEMPERATURE
~A  DEPTH       GR     PHIN     PHID      CAL     RESD
# ...
  301.600   57.351    0.490    0.346  156.152   18.519
  301.850   50.416    0.470    0.343  154.017   19.754
  302.100   48.418    0.439    0.336  153.628   20.537
  302.350   48.433    0.434    0.333  153.240   20.810
  302.600   49.911    0.438    0.342  153.060   21.009
  302.850   49.253    0.456    0.347  153.088   20.864
  303.100   47.379    0.483    0.350  153.213   20.607
  303.350   47.392    0.500    0.351  153.752   20.577
  303.600   46.674    0.515    0.352  154.293   20.361
  303.850   46.749    0.507    0.352  153.803   20.146
  304.100   47.494    0.471    0.349  152.900   19.573
  304.350   48.971    0.452    0.355  148.910   18.910
  304.600   48.376    0.449    0.351  146.258   18.643
  304.850   53.022    0.466    0.347  153.806   18.211
  305.100   57.303    0.487    0.349  153.928   17.468
  305.350   65.666    0.499    0.350  152.101   16.450
  305.600   74.640    0.515    0.346  147.182   15.492
  305.850   58.380    0.531    0.358  143.502   14.995
  306.100   56.992    0.515    0.354  146.722   14.409
  306.350   57.921    0.495    0.347  150.559   14.415
  306.600   56.106    0.508    0.361  152.430   14.714
  306.850   52.464    0.483    0.353  151.632   14.882
  307.100   52.782    0.468    0.321  149.598   14.144
  307.350   54.076    0.473    0.316  149.107   13.175
  307.600   55.492    0.495    0.349  150.677   12.406
  307.850   56.663    0.513    0.338  150.703   11.620
  308.100   58.079    0.557    0.349  150.524   11.186
  308.350   57.181    0.557    0.350  150.753   10.828
  308.600   57.682    0.561    0.352  151.192   10.792
  308.850   59.466    0.557    0.360  151.532   11.138
  309.100   62.956    0.542    0.361  151.758   11.453
  309.350   67.231    0.538    0.354  151.986   11.626
  309.600   81.569    0.548    0.351  152.429   11.504
  309.850   95.236    0.541    0.350  152.552   11.829
  310.100   92.751    0.549    0.347  152.786   12.208
  310.350   84.597    0.553    0.340  153.020   12.880
  310.600   73.884    0.547    0.332  153.248   13.318
  310.850   67.010    0.519    0.326  153.475   13.544
  311.100   63.855    0.516    0.323  153.602   13.876
  311.350   63.259    0.529    0.327  154.147   13.604
  311.600   59.128    0.529    0.335  154.478   13.711
  311.850   60.362    0.532    0.346  154.715   13.765
  312.100   60.620    0.525    0.352  154.737   13.949
  312.350   61.608    0.517    0.344  154.246   14.082
  312.600   60.770    0.517    0.358  153.448   14.089
  312.850   59.997    0.512    0.354  153.061   14.018
  313.100   60.980    0.521    0.353  152.572   14.048
  313.350   59.837    0.552    0.355  152.182   14.107
  313.600   59.240    0.568    0.360  151.283   14.061
  313.850   58.583    0.577    0.362  150.790   14.039
  314.100   58.355    0.573    0.359  149.898   13.765
  314.350   58.612    0.573    0.354  149.608   13.423
  314.600   61.004    0.573    0.356  149.323   13.160
  314.850   63.028    0.572    0.352  149.141   12.738
  315.100   62.189    0.569    0.345  149.375   12.331
  315.350   61.845    0.558    0.365  150.015   12.002
  315.600   61.119    0.554    0.371  150.760   11.897
  315.850   59.246    0.553    0.362  151.611   11.835
  316.100   63.473    0.564    0.354  152.256   11.819
  316.350   64.148    0.568    0.353  152.793   11.867
  316.600   62.216    0.568    0.355  153.127   11.850
  316.850   62.774    0.574    0.357  152.841   11.878
  317.100   62.849    0.582    0.362  152.771   11.882
  317.350   61.705    0.599    0.372  152.900   11.821
  317.600   62.877    0.601    0.368  153.124   11.654
  317.850   63.625    0.581    0.363  153.256   11.681
  318.100   64.257    0.551    0.366  153.282   11.749
  318.350   64.504    0.527    0.370  153.304   11.797
  318.600   64.275    0.519    0.371  153.432   11.845
  318.850   64.048    0.549    0.380  153.042   11.785
  319.100   63.692    0.576    0.377  152.655   11.639
  319.350   66.023    0.576    0.371  153.090   11.350
  319.600   69.815    0.542    0.357  153.424   10.966
  319.850   73.792    0.522    0.346  153.761    9.757
  320.100   77.828    0.564    0.335  154.097    8.793
  320.350   85.034    0.597    0.321  154.221    7.983
  320.600   85.535    0.582    0.300  157.029    7.234
  320.850   86.525    0.556    0.275  158.698    6.726
  321.100   87.514    0.503    0.262  160.891    6.358
  321.350   87.954    0.508    0.253  161.634    6.143
  321.600   88.395    0.533    0.256  162.482    6.066
  321.850   83.289    0.547    0.252  162.507    6.113
  322.100   76.478    0.565    0.246  160.780    6.218
  322.350   71.371    0.588    0.247  153.804    6.266
  322.600   68.947    0.606    0.272  146.005    6.076
  322.850   72.198    0.494    0.272  143.764    5.670
  323.100   77.143    0.465    0.222  148.319    5.379
  323.350   87.640    0.505    0.163  152.980    5.197
  323.600   84.790    0.585    0.154  154.443    5.068
  323.850   86.755    0.630    0.236  155.294    4.878
  324.100   84.451    0.601    0.229  155.113    4.890
  324.350   81.356    0.574    0.226  155.550    5.225
  324.600   78.201    0.561    0.255  155.162    5.887
  324.850   71.754    0.549    0.269  152.410    6.794
  325.100   67.380    0.524    0.268  150.891    7.741
  325.350   69.649    0.491    0.253  152.148    8.581
  325.600   77.770    0.475    0.241  152.380    9.373
  325.850   83.756    0.547    0.239  152.509   10.071
  326.100   83.528    0.555    0.263  153.768    9.731
  326.350   91.964    0.528    0.269  149.263    9.180
  326.600   89.667    0.520    0.258  152.377    9.167
  326.850   85.331    0.526    0.260  154.051    9.137
  327.100   84.493    0.535    0.267  151.707    9.107
  327.350   85.697    0.515    0.262  150.909    9.062
  327.600   90.112    0.502    0.256  150.316    9.015
  327.850   90.743    0.524    0.257  149.518    8.904
  328.100   89.608    0.547    0.254  149.234    8.957
  328.350   88.487    0.567    0.252  150.084    9.027
  328.600   88.228    0.577    0.264  151.037    9.063
  328.850   87.390    0.517    0.279  151.882    9.252
  329.100   85.676    0.509    0.277  155.102    9.374
  329.350   83.087    0.525    0.259  156.359    9.711
  329.600   79.335    0.540    0.252  156.693    9.966
  329.850   79.664    0.505    0.268  154.660   10.381
  330.100   86.711    0.495    0.266  151.804   10.674
  330.350   89.088    0.500    0.269  149.973   10.581
  330.600   81.824    0.526    0.275  148.254    9.571
  330.850   72.230    0.535    0.269  151.260    9.129
  331.100   67.013    0.534    0.270  156.742    9.200
  331.350   62.965    0.510    0.272  156.562    9.357
  331.600   61.256    0.485    0.302  152.881    9.639
  331.850   60.714    0.486    0.334  149.815    9.857
  332.100   61.335    0.509    0.324  148.298   10.380
  332.350   63.124    0.509    0.311  147.912   10.851
  332.600   66.663    0.459    0.308  148.344   11.137
  332.850   68.160    0.445    0.280  149.608   11.122
  333.100   67.915    0.448    0.233  150.562   10.964
  333.350   68.828    0.459    0.224  150.995   10.790
  333.600   67.406    0.479    0.243  150.715   10.735
  333.850   66.572    0.499    0.266  150.633   10.602
  334.100   67.777    0.507    0.294  150.148   10.414
  334.350   69.278    0.513    0.279  149.965   10.323
  334.600   69.608    0.526    0.260  149.375   10.346
  334.850   68.765    0.523    0.266  148.985   10.407
  335.100   68.807    0.510    0.284  148.701   10.488
  335.350   69.724    0.503    0.294  148.940   10.492
  335.600   69.858    0.504    0.286  148.954   10.306
  335.850   71.762    0.508    0.264  148.674   10.049
  336.100   70.920    0.520    0.241  149.211    9.763
  336.350   71.848    0.510    0.264  149.860    9.195
  336.600   77.469    0.501    0.249  150.501    8.501
  336.850   84.920    0.537    0.231  151.758    7.832
  337.100   84.264    0.561    0.264  153.329    7.242
  337.350   78.913    0.579    0.285  153.351    6.933
  337.600   74.051    0.589    0.292  151.732    7.013
  337.850   70.347    0.540    0.283  149.798    7.290
