~VERSION INFORMATION
 VERS.                 2.0:   CWLS LOG ASCII STANDARD -VERSION 2.0
 WRAP.                  NO:   ONE LINE PER DEPTH STEP
~WELL INFORMATION BLOCK
#MNEM.UNIT           DATA                    DESCRIPTION OF MNEMONIC
#---------    -------------------            -------------------------------
# Generated from Intellog Unique Number	CW_76_78/WELL/288
WELL.         PRECAM ET AL MARTEN HILLS 05-2 : Well_name    - WELL
LOC .         00/05-23-076-01W5/0            : Location     - LOCATION
UWI .         00/05-23-076-01W5/0            : Uwi          - UNIQUE WELL ID
ENTR.         JAYE                           : Entered      - ENTERED BY
SRVC.         SCHLUMBERGER                   : Scn          - SERVICE COMPANY
DATE.         11 FEB 84                      : Date         - LOG DATE
STRT.M        575                            : top_depth    - START DEPTH
STOP.M        775                            : bot_depth    - STOP DEPTH
STEP.M        0.25                           : increment    - STEP LENGTH
 NULL. -999.2500:NULL Value
~CURVE INFORMATION BLOCK
#MNEM UNIT       ERCB CURVE CODE    CURVE DESCRIPTION
#-----------   ------------------   ----------------------------------
DEPT.M        00 001 00 00         : DEPTH        - DEPTH
ILD .OHMM     00 120 00 00         : RESD         - DEEP RESISTIVITY (DIL)
NPHI.V/V      00 330 00 00         : PHIN         - NEUTRON POROSITY (SANDSTONE)
DPHI.V/V      00 890 00 00         : PHID         - DENSITY POROSITY (SANDSTONE)
GR  .API      00 310 00 00         : GR           - GAMMA RAY
CALI.MM       00 280 01 00         : CAL          - CALIPER
~PARAMETER INFORMATION
#MNEM.UNIT           DATA             DESCRIPTION OF MNEMONIC
#---------         -----------     ------------------------------
GL  .M        862.83               : gl           - GROUND LEVEL ELEVATION
EREF.M        866.33               : kb           - ELEVATION OF DEPTH REFERENCE
DATM.M        862.83               : datum        - DATUM ELEVATION
TDD .M        776                  : tdd          - TOTAL DEPTH DRILLER
RUN .         ONE                  : Run          - RUN NUMBER
ENG .         ACKERMAN             : Engineer     - RECORDING ENGINEER
WIT .         KOCSIS               : Witness      - WITNESSED BY
BASE.         EDM                  : Branch       - HOME BASE OF LOGGING UNIT
MUD .         GEL CHEM             : Mud_type     - MUD TYPE
MATR.         SANDSTONE            : Logunit      - NEUTRON MATRIX
TMAX.C        32.2                 : BHT          - MAXIMUM RECORDED TEMPERATURE
BHTD.M        773                  : BHTDEP       - MAXIMUM RECORDED TEMPERATURE
RMT .C        22                   : MDTP         - TEMPERATURE OF MUD
MUDD.KG/M     9.5                  : MWT          - MUD DENSITY
NEUT.         1                    : NEUTRON      - NEUTRON TYPE
RESI.         0                    : RESIST       - RESISTIVITY TYPE
RM  .OHMM     4.377                : RM           - RESISTIVITY OF MUD
RMC .OHMM     0                    : RMC          - RESISTIVITY OF MUD CAKE
RMF .OHMM     5.828                : RMF          - RESISTIVITY OF MUD FILTRATE
SUFT.C        0                    : SUFT         - SURFACE TEMPERATURE
~A  DEPTH     RESD     PHIN     PHID       GR      CAL
# ...
  721.000    9.111    0.366    0.174   95.258  220.901
  721.250    9.443    0.378    0.195   98.833  221.474
  721.500    9.918    0.383    0.208   97.059  222.355
  721.750   10.455    0.382    0.162   95.721  223.544
  722.000   11.463    0.387   -0.001   99.235  223.897
  722.250   12.780    0.397    0.012   95.406  223.532
  722.500   15.414    0.302    0.054   85.165  222.741
  722.750   19.298    0.263    0.078   76.234  222.390
  723.000   25.555    0.226    0.101   69.231  222.120
  723.250   34.159    0.249    0.109   61.728  221.971
  723.500   49.203    0.288    0.085   55.223  221.496
  723.750   53.444    0.339    0.065   51.457  221.342
  724.000   50.737    0.360    0.071   56.153  221.075
  724.250   48.620    0.323    0.084   62.406  220.919
  724.500   47.740    0.270    0.067   65.359  220.654
  724.750   47.667    0.279    0.061   65.638  220.292
  725.000   48.769    0.312    0.068   65.046  220.028
  725.250   50.837    0.287    0.079   61.213  219.554
  725.500   54.092    0.237    0.094   60.374  219.815
  725.750   58.317    0.259    0.109   61.087  220.690
  726.000   59.662    0.335    0.111   59.498  221.466
  726.250   55.077    0.386    0.099   55.731  222.134
  726.500   50.087    0.415    0.105   59.058  222.705
  726.750   44.705    0.337    0.111   64.748  223.160
  727.000   39.017    0.287    0.113   70.819  223.319
  727.250   35.155    0.295    0.120   66.740  223.255
  727.500   33.187    0.305    0.125   66.271  223.206
  727.750   32.042    0.314    0.106   66.923  223.149
  728.000   31.225    0.318    0.110   69.007  223.410
  728.250   30.090    0.323    0.121   68.600  223.462
  728.500   28.727    0.332    0.171   68.317  223.195
  728.750   27.070    0.346    0.172   69.588  222.524
  729.000   25.175    0.349    0.150   75.782  221.112
  729.250   23.679    0.349    0.116   72.513  220.234
  729.500   22.777    0.352    0.086   71.171  219.656
  729.750   22.237    0.358    0.059   69.895  219.807
  730.000   21.469    0.354    0.092   67.061  219.864
  730.250   20.345    0.384    0.107   64.291  220.015
  730.500   19.243    0.410    0.142   63.200  220.369
  730.750   18.371    0.372    0.143   68.084  220.939
  731.000   17.054    0.350    0.131   71.723  221.289
  731.250   15.920    0.361    0.131   69.076  221.553
  731.500   14.505    0.328    0.138   70.910  221.802
  731.750   13.390    0.347    0.158   76.478  221.964
  732.000   12.268    0.377    0.165   78.123  221.702
  732.250   11.220    0.378    0.160   78.091  221.231
  732.500   10.396    0.362    0.157   82.976  220.552
  732.750    9.650    0.392    0.169   87.797  219.868
  733.000    9.145    0.404    0.172   86.643  219.301
  733.250    9.080    0.392    0.040   83.250  218.936
  733.500    8.999    0.392    0.048   85.271  218.569
  733.750    8.672    0.399    0.084   90.338  218.726
  734.000    8.218    0.388    0.124   94.975  219.082
  734.250    7.773    0.374    0.159   99.919  219.760
  734.500    7.297    0.400    0.154  104.244  220.844
  734.750    6.889    0.403    0.166  107.635  220.477
  735.000    6.751    0.394    0.159  105.050  219.176
  735.250    6.855    0.396    0.149  106.512  217.666
  735.500    7.159    0.405    0.149  112.327  216.057
  735.750    7.661    0.407    0.157  110.552  215.074
  736.000    8.494    0.380    0.155  103.237  214.290
  736.250    9.560    0.352    0.136  102.209  212.775
  736.500   10.678    0.347    0.116   99.561  212.724
  736.750   12.902    0.368    0.016   93.929  213.089
  737.000   16.004    0.356    0.001   81.573  213.031
  737.250   18.979    0.317   -0.003   67.785  212.865
  737.500   22.932    0.215    0.014   60.970  212.918
  737.750   25.143    0.214    0.054   65.480  212.967
  738.000   26.904    0.287    0.061   75.406  212.702
  738.250   27.887    0.306    0.030   81.284  212.230
  738.500   27.741    0.249    0.013   74.778  211.565
  738.750   26.635    0.222    0.060   69.208  211.095
  739.000   24.494    0.192    0.111   67.305  210.522
  739.250   21.619    0.201    0.145   68.518  210.255
  739.500   17.906    0.245    0.160   76.015  209.888
  739.750   14.665    0.305    0.171   89.736  209.627
  740.000   12.823    0.352    0.172   99.227  209.161
  740.250   12.106    0.373    0.172   97.698  208.587
  740.500   11.864    0.353    0.170   92.873  208.522
  740.750   11.650    0.349    0.169   92.090  208.264
  741.000   11.438    0.357    0.163   94.674  208.318
  741.250   11.105    0.368    0.157   94.016  208.158
  741.500   10.444    0.374    0.152   91.312  207.890
  741.750    9.642    0.373    0.145   91.279  207.532
  742.000    8.933    0.357    0.141   97.715  207.053
  742.250    8.185    0.356    0.122  103.345  206.693
  742.500    7.486    0.360    0.009  111.157  206.432
  742.750    7.574    0.376    0.025  114.671  205.856
  743.000    7.806    0.397    0.084  101.131  205.593
  743.250    8.198    0.416    0.120   90.023  205.329
  743.500    8.888    0.324    0.124   77.231  204.859
  743.750   10.249    0.313    0.073   82.861  204.808
  744.000   11.321    0.340    0.040   90.853  204.545
  744.250   12.114    0.371    0.033   91.633  204.386
  744.500   12.186    0.332    0.057   77.847  204.645
  744.750   11.441    0.294    0.124   70.345  205.309
  745.000   10.541    0.257    0.140   81.327  208.995
  745.250    9.217    0.325    0.124   87.643  214.955
  745.500    8.398    0.365    0.104   94.082  213.649
  745.750    8.048    0.396    0.083   96.287  212.352
  746.000    7.916    0.384    0.114   87.418  212.396
  746.250    7.980    0.367    0.132   81.661  212.643
  746.500    8.027    0.348    0.144   89.530  212.697
  746.750    7.721    0.367    0.152   93.728  213.062
  747.000    7.114    0.389    0.150   94.382  213.119
  747.250    6.894    0.384    0.132   94.037  213.273
  747.500    6.949    0.388    0.105   96.742  213.216
  747.750    6.991    0.399    0.142   96.396  213.258
  748.000    7.046    0.385    0.155   91.948  213.514
  748.250    7.128    0.347    0.157   89.921  213.769
  748.500    7.025    0.334    0.163   97.045  213.614
  748.750    6.859    0.374    0.186  101.744  213.354
  749.000    6.900    0.389    0.226   87.895  213.200
  749.250    7.315    0.352    0.250   67.201  212.517
  749.500    8.310    0.291    0.275   51.360  211.633
  749.750    9.282    0.219    0.316   42.925  210.751
  750.000   11.174    0.182    0.362   40.091  209.864
  750.250   15.189    0.166    0.374   37.943  208.974
  750.500   19.520    0.158    0.357   34.238  208.616
  750.750   17.986    0.161    0.327   33.894  208.352
  751.000   15.009    0.176    0.323   33.860  208.186
  751.250   11.535    0.193    0.325   34.444  208.036
  751.500    9.626    0.209    0.321   34.914  208.084
  751.750    8.354    0.231    0.313   35.315  207.921
  752.000    7.037    0.234    0.313   35.344  207.864
  752.250    6.508    0.238    0.312   36.123  208.327
  752.500    6.366    0.245    0.308   37.645  208.486
  752.750    6.356    0.247    0.307   38.421  208.430
  753.000    6.467    0.245    0.306   38.077  208.375
  753.250    6.482    0.241    0.304   36.425  208.314
  753.500    6.484    0.240    0.301   37.512  207.949
  753.750    6.272    0.248    0.290   41.089  207.690
  754.000    5.988    0.262    0.274   43.983  208.157
  754.250    5.685    0.277    0.253   45.380  209.034
  754.500    5.550    0.295    0.248   45.035  211.471
  754.750    5.679    0.315    0.247   45.936  212.762
  755.000    5.842    0.324    0.242   49.512  211.564
  755.250    6.022    0.350    0.242   54.207  210.574
  755.500    6.115    0.363    0.242   55.919  210.107
  755.750    6.175    0.363    0.243   57.194  210.148
  756.000    6.213    0.348    0.243   55.605  210.001
  756.250    6.215    0.346    0.243   54.203  210.251
  756.500    6.159    0.361    0.243   56.723  210.294
  756.750    6.081    0.369    0.256   60.734  210.355
  757.000    5.698    0.366    0.275   53.482  210.400
  757.250    5.096    0.360    0.287   44.174  210.657
