~VERSION INFORMATION
 VERS.                 2.0:   CWLS LOG ASCII STANDARD -VERSION 2.0
 WRAP.                  NO:   ONE LINE PER DEPTH STEP
~WELL INFORMATION BLOCK
#MNEM.UNIT           DATA                    DESCRIPTION OF MNEMONIC
#---------    -------------------            -------------------------------
# Generated from Intellog Unique Number	CS_71_72/WELL/810
WELL.         BVI ET AL CHARRON              : Well_name    - WELL
LOC .         00/07-12-071-15W4/0            : Location     - LOCATION
UWI .         00/07-12-071-15W4/0            : Uwi          - UNIQUE WELL ID
ENTR.         SP                             : Entered      - ENTERED BY
SRVC.         SCHLUMBERGER                   : Scn          - SERVICE COMPANY
STRT.M        305                            : top_depth    - START DEPTH
STOP.M        510                            : bot_depth    - STOP DEPTH
STEP.M        0.25                           : increment    - STEP LENGTH
 NULL. -999.2500:NULL Value
~CURVE INFORMATION BLOCK
#MNEM UNIT       ERCB CURVE CODE    CURVE DESCRIPTION
#-----------   ------------------   ----------------------------------
DEPT.M        00 001 00 00         : DEPTH        - DEPTH
ILD .OHMM     00 120 00 00         : RESD         - DEEP RESISTIVITY (DIL)
DPHI.V/V      00 890 00 00         : PHID         - DENSITY POROSITY (LIMESTONE)
NPHI.V/V      00 330 00 00         : PHIN         - NEUTRON POROSITY (LIMESTONE)
GR  .API      00 310 00 00         : GR           - GAMMA RAY
~PARAMETER INFORMATION
#MNEM.UNIT           DATA             DESCRIPTION OF MNEMONIC
#---------         -----------     ------------------------------
GL  .M        618.3                : gl           - GROUND LEVEL ELEVATION
EREF.M        621.8                : kb           - ELEVATION OF DEPTH REFERENCE
DATM.M        618.3                : datum        - DATUM ELEVATION
TDD .M        517                  : tdd          - TOTAL DEPTH DRILLER
RUN .         ONE                  : Run          - RUN NUMBER
ENG .         BILL                 : Engineer     - RECORDING ENGINEER
WIT .         JIM                  : Witness      - WITNESSED BY
MUD .         GEL                  : Mud_type     - MUD TYPE
MATR.         LIMESTONE            : Logunit      - NEUTRON MATRIX
TMAX.C        27                   : BHT          - MAXIMUM RECORDED TEMPERATURE
BHTD.M        517                  : BHTDEP       - MAXIMUM RECORDED TEMPERATURE
MATR.         1                    : LOGUNIT      - NEUTRON MATRIX
RMT .C        25                   : MDTP         - TEMPERATURE OF MUD
NEUT.         1                    : NEUTRON      - NEUTRON TYPE
RESI.         0                    : RESIST       - RESISTIVITY TYPE
RMC .OHMM     0.25                 : RMC          - RESISTIVITY OF MUD CAKE
RMF .OHMM     0.25                 : RMF          - RESISTIVITY OF MUD FILTRATE
SUFT.C        15                   : SUFT         - SURFACE TEMPERATURE
~A  DEPTH     RESD     PHID     PHIN       GR
# ...
  479.000   24.603    0.244    0.359   60.195
  479.250   25.881    0.237    0.361   59.959
  479.500   26.920    0.233    0.372   59.541
  479.750   27.429    0.223    0.377   58.942
  480.000   26.023    0.211    0.366   59.795
  480.250   22.688    0.190    0.354   60.947
  480.500   18.733    0.172    0.341   62.282
  480.750   13.845    0.155    0.334   60.594
  481.000   11.431    0.135    0.320   61.022
  481.250    9.948    0.117    0.304   66.165
  481.500    8.560    0.154    0.299   74.873
  481.750    7.662    0.181    0.337   85.516
  482.000    6.936    0.198    0.353   93.256
  482.250    6.568    0.193    0.351   98.761
  482.500    6.313    0.194    0.346  102.332
  482.750    6.069    0.196    0.341  106.024
  483.000    5.956    0.197    0.339  110.864
  483.250    6.114    0.197    0.357  116.309
  483.500    7.349    0.189    0.377  119.397
  483.750    8.718    0.182    0.394  120.611
  484.000   11.085    0.185    0.410  117.474
  484.250   13.324    0.191    0.427  112.463
  484.500   15.081    0.196    0.422   98.446
  484.750   16.627    0.211    0.413   85.579
  485.000   17.425    0.235    0.407   79.721
  485.250   16.656    0.266    0.410   75.738
  485.500   13.649    0.273    0.411   79.853
  485.750   11.878    0.256    0.400   83.789
  486.000   10.732    0.244    0.391   85.727
  486.250    9.881    0.233    0.381   87.484
  486.500    9.304    0.225    0.370   88.637
  486.750    8.944    0.216    0.352   88.643
  487.000    8.760    0.212    0.334   89.494
  487.250    8.678    0.205    0.325   92.340
  487.500    8.710    0.197    0.331   95.609
  487.750    8.710    0.188    0.343   93.378
  488.000    8.644    0.181    0.351   89.274
  488.250    8.372    0.188    0.338   86.560
  488.500    8.124    0.199    0.354   91.763
  488.750    7.927    0.205    0.375   97.751
  489.000    8.230    0.206    0.376  102.288
  489.250    9.315    0.206    0.371  100.602
  489.500   10.968    0.208    0.380   91.783
  489.750   12.578    0.212    0.387   76.619
  490.000   14.452    0.213    0.387   69.493
  490.250   15.491    0.192    0.369   70.405
  490.500   16.023    0.112    0.348   77.240
  490.750   15.902    0.082    0.324   82.866
  491.000   15.723    0.114    0.338   80.453
  491.250   15.575    0.155    0.363   76.228
  491.500   15.487    0.184    0.380   75.145
  491.750   15.198    0.210    0.389   79.018
  492.000   14.858    0.226    0.398   82.045
  492.250   13.835    0.245    0.419   76.309
  492.500   12.547    0.263    0.414   70.754
  492.750   11.748    0.262    0.330   68.463
  493.000   10.857    0.233    0.304   75.903
  493.250    9.324    0.207    0.304   96.576
  493.500    7.859    0.184    0.351  110.362
  493.750    6.380    0.157    0.387  117.075
  494.000    5.248    0.112    0.419  120.223
  494.250    4.619    0.117    0.445  122.283
  494.500    4.550    0.140    0.467  124.767
  494.750    4.724    0.142    0.487  125.195
  495.000    5.073    0.134    0.479  122.300
  495.250    5.407    0.128    0.464  119.707
  495.500    5.656    0.125    0.452  118.927
  495.750    5.839    0.118    0.448  120.260
  496.000    6.051    0.111    0.447  121.777
  496.250    6.413    0.108    0.428  122.507
  496.500    6.771    0.153    0.397  114.958
  496.750    7.004    0.175    0.373  106.684
  497.000    7.423    0.188    0.363   97.865
  497.250    7.606    0.197    0.349   97.205
  497.500    7.735    0.189    0.333  103.436
  497.750    7.764    0.182    0.323  110.754
  498.000    8.076    0.178    0.333  114.748
  498.250    8.575    0.178    0.343  116.203
  498.500    9.278    0.180    0.352  115.967
  498.750    9.871    0.193    0.379  107.633
  499.000   10.903    0.222    0.401   97.182
  499.250   11.819    0.214    0.375   92.050
  499.500   13.104    0.203    0.345   76.161
  499.750   14.366    0.246    0.358   60.452
  500.000   15.226    0.280    0.370   53.145
  500.250   16.077    0.301    0.364   51.035
  500.500   16.629    0.293    0.352   50.919
  500.750   16.722    0.280    0.346   55.276
  501.000   16.441    0.290    0.358   68.698
  501.250   13.963    0.284    0.350   82.484
  501.500   12.288    0.243    0.340   93.729
  501.750   11.103    0.207    0.333  102.378
  502.000   10.260    0.173    0.340  100.328
  502.250    9.698    0.139    0.337   99.367
  502.500    9.097    0.132    0.342  104.328
  502.750    8.696    0.165    0.352  109.409
  503.000    8.438    0.190    0.360  106.211
  503.250    8.281    0.199    0.379   99.146
  503.500    8.280    0.197    0.373  104.046
  503.750    8.218    0.194    0.360  111.304
  504.000    8.049    0.190    0.344  115.600
  504.250    7.637    0.185    0.360  117.539
  504.500    7.018    0.197    0.374  110.836
  504.750    6.497    0.213    0.370  102.260
  505.000    6.118    0.223    0.370  101.298
  505.250    5.707    0.208    0.373  102.149
  505.500    5.205    0.194    0.370   94.600
  505.750    4.957    0.217    0.368   85.903
  506.000    4.874    0.246    0.365   84.820
  506.250    4.901    0.232    0.362   91.171
  506.500    4.937    0.219    0.361  100.363
  506.750    4.993    0.206    0.368  107.560
  507.000    5.030    0.192    0.366  104.060
  507.250    5.040    0.208    0.351  101.587
  507.500    4.964    0.227    0.346   97.967
  507.750    4.844    0.246    0.367   73.374
  508.000    4.402    0.280    0.390   62.501
  508.250    3.759    0.288    0.405   54.710
  508.500    3.352    0.290    0.400   50.605
  508.750    3.063    0.290    0.384   48.797
  509.000    2.928    0.292    0.377   47.655
  509.250    2.841    0.295    0.375   47.661
  509.500    2.747    0.302    0.372   47.786
  509.750    2.630    0.318    0.370   48.094
  510.000    2.538    0.327    0.377   48.522
