~VERSION INFORMATION
 VERS.                 2.0:   CWLS LOG ASCII STANDARD -VERSION 2.0
 WRAP.                  NO:   ONE LINE PER DEPTH STEP
~WELL INFORMATION BLOCK
#MNEM.UNIT           DATA                    DESCRIPTION OF MNEMONIC
#---------    -------------------            -------------------------------
# Generated from Intellog Unique Number	CN_91_93/WELL/3225
WELL.         AMOCO CANADA PETROLEUM CO.LTD. : Well_name    - WELL
LOC .         00/06-35-092-19W4/0            : Location     - LOCATION
UWI .         00/06-35-092-19W4/0            : Uwi          - UNIQUE WELL ID
ENTR.         JOETTE                         : Entered      - ENTERED BY
SRVC.         SCHLUMBERGER                   : Scn          - SERVICE COMPANY
DATE.         04/14/92                       : Date         - LOG DATE
STRT.F        300                            : top_depth    - START DEPTH
STOP.F        879.888                        : bot_depth    - STOP DEPTH
STEP.F        0.82                           : increment    - STEP LENGTH
 NULL. -999.2500:NULL Value
~CURVE INFORMATION BLOCK
#MNEM UNIT       ERCB CURVE CODE    CURVE DESCRIPTION
#-----------   ------------------   ----------------------------------
DEPT.F        00 001 00 00         : DEPTH        - DEPTH
CALI.IN       00 280 01 00         : CAL          - CALIPER
GR  .API      00 310 00 00         : GR           - GAMMA RAY
NPHI.V/V      00 330 00 00         : PHIN         - NEUTRON POROSITY (SANDSTONE)
DPHI.V/V      00 890 00 00         : PHID         - DENSITY POROSITY (SANDSTONE)
ILD .OHMM     00 120 00 00         : RESD         - DEEP RESISTIVITY (DIL)
~PARAMETER INFORMATION
#MNEM.UNIT           DATA             DESCRIPTION OF MNEMONIC
#---------         -----------     ------------------------------
GL  .F        1707                 : gl           - GROUND LEVEL ELEVATION
EREF.F        1718                 : kb           - ELEVATION OF DEPTH REFERENCE
DATM.F        1718                 : datum        - DATUM ELEVATION
TDD .F        1331                 : tdd          - TOTAL DEPTH DRILLER
RUN .         ONE                  : Run          - RUN NUMBER
ENG .         JO                   : Engineer     - RECORDING ENGINEER
WIT .         TIM                  : Witness      - WITNESSED BY
MUD .         GEL                  : Mud_type     - MUD TYPE
MATR.         SANDSTONE            : Logunit      - NEUTRON MATRIX
TMAX.F        70                   : BHT          - MAXIMUM RECORDED TEMPERATURE
BHTD.F        331                  : BHTDEP       - MAXIMUM RECORDED TEMPERATURE
RMT .F        54                   : MDTP         - TEMPERATURE OF MUD
MUDD.LB/G     9.1                  : MWT          - MUD DENSITY
NEUT.         1                    : NEUTRON      - NEUTRON TYPE
RESI.         0                    : RESIST       - RESISTIVITY TYPE
RM  .OHMM     2.54                 : RM           - RESISTIVITY OF MUD
RMC .OHMM     2.54                 : RMC          - RESISTIVITY OF MUD CAKE
RMF .OHMM     2.54                 : RMF          - RESISTIVITY OF MUD FILTRATE
SUFT.F        39.2                 : SUFT         - SURFACE TEMPERATURE
~A  DEPTH      CAL       GR     PHIN     PHID     RESD
# ...
  539.501    8.809   85.034    0.527    0.251   10.234
  540.322    8.933   87.512    0.505    0.252   11.031
  541.142    9.015   91.232    0.509    0.237   10.623
  541.962    9.180   96.810    0.579    0.231    8.637
  542.782    9.304   94.947    0.628    0.245    6.157
  543.602    9.304   93.706    0.616    0.255    6.392
  544.423    9.221   92.464    0.619    0.268    7.428
  545.243    9.056   88.122    0.642    0.287   10.816
  546.063    8.849   79.439    0.644    0.289   11.442
  546.883    8.725   72.616    0.613    0.306   12.334
  547.703    8.683   68.273    0.585    0.300   10.812
  548.524    8.683   67.651    0.552    0.289   12.101
  549.344    8.600   67.649    0.516    0.298   12.098
  550.164    8.559   68.888    0.515    0.299   11.434
  550.984    8.559   75.087    0.487    0.283   11.010
  551.804    8.600   80.045    0.470    0.264   11.217
  552.625    8.600   81.284    0.505    0.239   10.210
  553.445    8.600   81.282    0.531    0.226    9.120
  554.265    8.641   85.001    0.520    0.207    8.301
  555.085    8.682   88.720    0.542    0.213    7.555
  555.906    8.724   90.578    0.575    0.214    7.554
  556.726    8.765   89.956    0.561    0.214    7.991
  557.546    8.847   86.853    0.531    0.207    9.462
  558.366    8.971   83.752    0.511    0.189   10.996
  559.186    9.012   80.029    0.480    0.162   13.021
  560.007    8.847   76.927    0.446    0.078   29.212
  560.827    8.682   62.664    0.397    0.111   26.589
  561.647    8.640   69.482    0.411    0.159   22.873
  562.467    8.723   71.961    0.428    0.107   30.892
  563.287    8.846   66.999    0.347    0.045   32.680
  564.108    8.929   59.556    0.269    0.019   30.884
  564.928    8.970   58.933    0.261    0.014   25.112
  565.748    8.970   61.412    0.310    0.028   15.403
  566.568    9.053   66.991    0.356    0.077   12.291
  567.388    9.135   73.190    0.426    0.109   10.183
  568.209    9.218   79.389    0.481    0.148    9.623
  569.029    9.135   83.108    0.498    0.202    9.443
  569.849    9.094   88.686    0.492    0.211    9.266
  570.669    8.969   89.305    0.464    0.213    9.092
  571.490    8.845   86.822    0.456    0.187    8.755
  572.310    8.804   86.820    0.449    0.179    8.591
  573.130    8.804   90.540    0.502    0.191    8.273
  573.950    8.886   94.878    0.535    0.203    7.967
  574.770    8.969   94.256    0.523    0.214    7.251
  575.591    9.010   92.394    0.499    0.209    6.599
  576.411    9.010   95.493    0.500    0.197    6.355
  577.231    9.010  101.072    0.567    0.207    6.120
  578.051    9.010  102.930    0.580    0.205    6.474
  578.871    9.010   99.828    0.584    0.178    7.811
  579.692    9.009   97.346    0.599    0.121    9.078
  580.512    9.009   89.903    0.602    0.061   10.159
  581.332    9.009   86.180    0.568    0.102   10.951
  582.152    9.009   81.838    0.479    0.142   12.028
  582.972    8.968   88.657    0.456    0.224   12.255
  583.793    8.967   92.996    0.428    0.218   12.024
  584.613    8.967   92.374    0.420    0.219   11.799
  585.433    8.926   92.372    0.406    0.217   11.798
  586.253    8.843   94.231    0.448    0.208   11.796
  587.073    8.843   96.709    0.451    0.208   12.245
  587.894    8.884   94.227    0.430    0.215   12.712
  588.714    8.967   90.505    0.411    0.219   12.952
  589.534    8.884   88.023    0.403    0.215   13.447
  590.354    8.718   86.160    0.397    0.217   13.960
  591.175    8.677   86.778    0.403    0.215   14.223
  591.995    8.842   87.397    0.434    0.197   13.956
  592.815    9.007   86.775    0.455    0.191   12.702
  593.635    9.173   85.533    0.407    0.152   11.780
  594.455    9.338   86.151    0.486    0.120   11.133
  595.276    9.462   88.629    0.498    0.172   10.924
  596.096    9.503   89.868    0.490    0.190   10.923
  596.916    9.503   89.865    0.490    0.189   11.555
  597.736    9.544   89.864    0.465    0.200   11.126
  598.556    9.503   90.482    0.496    0.205   10.514
  599.377    9.379   91.101    0.510    0.211   11.123
  600.197    9.296   90.478    0.483    0.197   15.895
  601.017    9.213   87.997    0.451    0.194   16.501
  601.837    9.089   84.274    0.394    0.172   16.498
  602.657    8.923   77.451    0.366    0.123   16.808
  603.478    8.840   76.209    0.345    0.078   17.451
  604.298    8.882   77.448    0.342    0.067   19.901
  605.118    8.923   81.787    0.389    0.129   20.662
  605.938    8.881   84.885    0.440    0.191   19.525
  606.759    8.799   89.224    0.433    0.224   18.803
  607.579    8.716   88.602    0.429    0.225   16.175
  608.399    8.674   87.980    0.440    0.223   14.448
  609.219    8.674   87.359    0.446    0.223   13.400
  610.039    8.757   87.356    0.434    0.231   12.427
  610.860    8.798   87.354    0.411    0.228   12.195
  611.680    8.839   87.973    0.418    0.203   12.900
  612.500    9.004   89.211    0.436    0.202   12.898
  613.320    9.087   91.690    0.444    0.202   12.189
  614.140    9.294   92.308    0.463    0.215   11.960
  614.961    9.376   94.166    0.471    0.208   11.959
  615.781    9.169   94.784    0.454    0.202   12.650
  616.601    9.086   96.023    0.429    0.205   13.133
  617.421    9.045   97.881    0.434    0.207   11.513
  618.241    9.004   94.159    0.401    0.162    7.904
  619.062    9.045   89.816    0.399    0.129    7.194
  619.882    9.086   89.194    0.453    0.121    6.928
  620.702    9.127   92.913    0.509    0.160    7.901
  621.522    9.168   92.291    0.521    0.150   10.086
  622.343    9.210   88.569    0.467    0.136   12.170
  623.163    9.292   84.846    0.415    0.096   12.633
  623.983    9.375   84.225    0.355    0.145   11.717
  624.803    9.375   88.563    0.434    0.173   11.498
  625.623    9.333   92.282    0.451    0.165   10.866
  626.444    9.209   87.320    0.448    0.155   11.934
  627.264    9.209   84.837    0.432    0.149   12.625
  628.084    9.126   84.835    0.460    0.170    7.458
  628.904    9.126   85.454    0.468    0.203    4.489
  629.724    9.085   89.793    0.481    0.223    4.086
  630.545    9.084   95.991    0.495    0.229    3.861
  631.365    9.043   99.090    0.528    0.221    4.241
  632.185    9.043   96.608    0.561    0.179    6.534
  633.005    9.084   88.545    0.489    0.130    9.694
  633.825    9.084   81.102    0.411    0.118   10.850
  634.646    9.084   76.140    0.358    0.091   14.932
  635.466    9.084   69.937    0.345    0.054   16.095
  636.286    9.084   77.376    0.354    0.150   15.793
  637.106    9.166   84.195    0.480    0.182   15.209
  637.927    9.290   89.154    0.487    0.180   14.105
  638.747    9.290   90.392    0.493    0.176   13.082
  639.567    9.124   92.871    0.504    0.197   12.597
  640.387    9.124   94.109    0.516    0.217   12.834
  641.207    9.207   95.968    0.504    0.177   13.577
  642.028    9.372   95.966    0.483    0.125   15.484
  642.848    9.455   83.562    0.441    0.084   17.658
  643.668    9.537   74.879    0.341    0.073   21.307
  644.488    9.248   71.157    0.278    0.077   23.403
  645.308    9.041   75.496    0.406    0.083   22.114
  646.129    8.917   82.315    0.434    0.108   21.298
  646.949    8.834   87.274    0.450    0.137   18.669
  647.769    8.792   91.612    0.437    0.170   15.468
  648.589    8.834   95.330    0.421    0.179   13.816
  649.409    8.834   96.569    0.415    0.188   12.814
  650.230    8.875   95.327    0.423    0.198   12.573
  651.050    8.875   92.845    0.436    0.196   12.810
  651.870    8.916   92.223    0.425    0.197   13.551
  652.690    8.916   90.981    0.411    0.208   14.068
  653.510    8.957   89.739    0.409    0.190   14.604
  654.331    8.998   88.497    0.425    0.176   14.602
  655.151    8.998   88.495    0.439    0.153   15.159
  655.971    9.039   89.734    0.444    0.161   15.739
  656.791    9.039   89.732    0.382    0.105   18.637
  657.612    8.998   87.870    0.317    0.051   21.255
  658.432    8.998   84.767    0.372    0.086   19.710
