~VERSION INFORMATION
 VERS.                 2.0:   CWLS LOG ASCII STANDARD -VERSION 2.0
 WRAP.                  NO:   ONE LINE PER DEPTH STEP
~WELL INFORMATION BLOCK
#MNEM.UNIT           DATA                    DESCRIPTION OF MNEMONIC
#---------    -------------------            -------------------------------
# Generated from Intellog Unique Number	CS_77_79/WELL/850
WELL.         CANADIAN WORLDWIDE ENERGY      : Well_name    - WELL
LOC .         00/04-13-077-05W4/0            : Location     - LOCATION
UWI .         00/04-13-077-05W4/0            : Uwi          - UNIQUE WELL ID
ENTR.         SP                             : Entered      - ENTERED BY
SRVC.         SCHLUMBERGER                   : Scn          - SERVICE COMPANY
STRT.M        165                            : top_depth    - START DEPTH
STOP.M        410                            : bot_depth    - STOP DEPTH
STEP.M        0.25                           : increment    - STEP LENGTH
 NULL. -999.2500:NULL Value
~CURVE INFORMATION BLOCK
#MNEM UNIT       ERCB CURVE CODE    CURVE DESCRIPTION
#-----------   ------------------   ----------------------------------
DEPT.M        00 001 00 00         : DEPTH        - DEPTH
ILD .OHMM     00 120 00 00         : RESD         - DEEP RESISTIVITY (DIL)
DPHI.V/V      00 890 00 00         : PHID         - DENSITY POROSITY (LIMESTONE)
NPHI.V/V      00 330 00 00         : PHIN         - NEUTRON POROSITY (LIMESTONE)
GR  .API      00 310 00 00         : GR           - GAMMA RAY
~PARAMETER INFORMATION
#MNEM.UNIT           DATA             DESCRIPTION OF MNEMONIC
#---------         -----------     ------------------------------
GL  .M        570.3                : gl           - GROUND LEVEL ELEVATION
EREF.M        573.3                : kb           - ELEVATION OF DEPTH REFERENCE
DATM.M        570.3                : datum        - DATUM ELEVATION
TDD .M        411.6                : tdd          - TOTAL DEPTH DRILLER
RUN .         ONE                  : Run          - RUN NUMBER
ENG .         BILL                 : Engineer     - RECORDING ENGINEER
WIT .         JIM                  : Witness      - WITNESSED BY
MUD .         GEL                  : Mud_type     - MUD TYPE
MATR.         LIMESTONE            : Logunit      - NEUTRON MATRIX
TMAX.C        20                   : BHT          - MAXIMUM RECORDED TEMPERATURE
BHTD.M        415                  : BHTDEP       - MAXIMUM RECORDED TEMPERATURE
MATR.         1                    : LOGUNIT      - NEUTRON MATRIX
RMT .C        25                   : MDTP         - TEMPERATURE OF MUD
NEUT.         1                    : NEUTRON      - NEUTRON TYPE
RESI.         0                    : RESIST       - RESISTIVITY TYPE
RMC .OHMM     0.25                 : RMC          - RESISTIVITY OF MUD CAKE
RMF .OHMM     0.25                 : RMF          - RESISTIVITY OF MUD FILTRATE
SUFT.C        15                   : SUFT         - SURFACE TEMPERATURE
~A  DEPTH     RESD     PHID     PHIN       GR
  165.000    2.808    0.280    0.542  104.464
  165.250    2.811    0.276    0.536  105.686
  165.500    2.922    0.273    0.533  107.521
  165.750    2.979    0.271    0.530  105.102
  166.000    2.983    0.260    0.526   99.650
  166.250    2.986    0.220    0.530   95.410
  166.500    3.103    0.182    0.527   92.997
  166.750    3.225    0.191    0.500   92.402
  167.000    3.352    0.223    0.490   98.490
  167.250    3.485    0.251    0.506  100.925
  167.500    3.487    0.257    0.518  107.010
  167.750    3.362    0.244    0.528  107.027
  168.000    3.365    0.239    0.546  106.429
  168.250    3.368    0.234    0.532  105.225
  168.500    3.372    0.235    0.528  104.632
  168.750    3.375    0.241    0.536  104.649
  169.000    3.379    0.244    0.534  104.658
  169.250    3.446    0.244    0.532  105.282
  169.500    3.517    0.244    0.529  105.896
  169.750    3.588    0.241    0.522  106.514
  170.000    3.590    0.237    0.512  106.533
  170.250    3.592    0.242    0.537  107.148
  170.500    3.529    0.243    0.551  109.592
  170.750    3.533    0.238    0.533  109.599
  171.000    3.538    0.230    0.501  107.185
  171.250    3.541    0.230    0.510  105.372
  171.500    3.545    0.235    0.530  102.348
  171.750    3.548    0.238    0.544  106.611
  172.000    3.484    0.231    0.534  108.449
  172.250    3.423    0.230    0.534  109.066
  172.500    3.364    0.227    0.533  109.077
  172.750    3.430    0.196    0.523   99.982
  173.000    3.632    0.052    0.385   92.705
  173.250    4.224    0.013    0.315   77.534
  173.500    6.156    0.025    0.300   41.107
  173.750    8.165    0.125    0.302   28.974
  174.000   13.068    0.169    0.313   25.348
  174.250   20.910    0.215    0.337   25.961
  174.500   22.991    0.239    0.355   33.870
  174.750   18.725    0.270    0.381   49.672
  175.000   15.827    0.301    0.429   75.801
  175.250   11.302    0.303    0.452   97.066
  175.500    7.773    0.260    0.451  108.013
  175.750    5.871    0.233    0.467  109.237
  176.000    5.057    0.224    0.491  107.428
  176.250    4.440    0.228    0.513  104.404
  176.500    4.201    0.242    0.505   90.449
  176.750    4.619    0.284    0.493   74.669
  177.000    5.474    0.311    0.471   63.750
  177.250    8.129    0.335    0.450   62.553
  177.500   11.192    0.329    0.425   64.989
  177.750   14.034    0.324    0.414   66.217
  178.000   16.328    0.318    0.405   62.585
  178.250   17.616    0.313    0.396   57.131
  178.500   19.007    0.306    0.393   57.147
  178.750   19.385    0.298    0.397   65.051
  179.000   19.407    0.304    0.414   74.784
  179.250   18.709    0.323    0.413   77.834
  179.500   16.733    0.313    0.403   80.881
  179.750   14.688    0.294    0.410   91.214
  180.000   12.892    0.246    0.432   95.477
  180.250   11.106    0.251    0.443   86.991
  180.500   10.122    0.275    0.454   78.499
  180.750   12.458    0.291    0.397   68.186
  181.000   13.440    0.291    0.398   70.023
  181.250   15.344    0.277    0.393   77.321
  181.500   15.948    0.261    0.389   80.977
  181.750   16.269    0.265    0.390   80.988
  182.000   16.283    0.290    0.400   79.179
  182.250   15.698    0.304    0.408   83.442
  182.500   14.578    0.290    0.399   92.566
  182.750   14.056    0.255    0.394   99.867
  183.000   13.553    0.171    0.386   99.877
  183.250   13.820    0.136    0.384   90.171
  183.500   14.915    0.103    0.378   82.290
  183.750   15.497    0.184    0.383   88.374
  184.000   16.111    0.248    0.394   98.714
  184.250   16.743    0.276    0.401   99.937
  184.500   16.755    0.267    0.404   95.700
  184.750   16.465    0.256    0.405   95.106
  185.000   16.480    0.232    0.404   97.544
  185.250   16.505    0.216    0.385  102.415
  185.500   16.515    0.226    0.374   93.932
  185.750   16.526    0.230    0.381   92.726
  186.000   16.550    0.221    0.387   92.129
  186.250   16.561    0.217    0.371   94.570
  186.500   16.273    0.221    0.368  103.088
  186.750   15.987    0.232    0.382  105.526
  187.000   15.704    0.280    0.389   97.035
  187.250   16.330    0.295    0.391   73.970
  187.500   16.970    0.291    0.393   58.801
  187.750   17.966    0.323    0.398   53.347
  188.000   18.666    0.333    0.402   50.931
  188.250   19.775    0.333    0.409   46.085
  188.500   20.161    0.331    0.422   49.742
  188.750   20.566    0.327    0.425   57.650
  189.000   19.096    0.290    0.432   73.452
  189.250   16.452    0.278    0.434   91.074
  189.500   14.172    0.258    0.438  102.624
  189.750   12.208    0.228    0.445  114.175
  190.000   10.130    0.210    0.433  117.832
  190.250    8.726    0.202    0.447  115.416
  190.500    8.413    0.207    0.450  103.889
  190.750    9.428    0.233    0.436   82.646
  191.000    9.794    0.251    0.356   73.546
  191.250   11.395    0.249    0.345   65.664
  191.500   12.296    0.229    0.365   79.646
  191.750   13.019    0.218    0.384   83.303
  192.000   14.046    0.270    0.396   72.990
  192.250   16.044    0.313    0.399   60.854
  192.500   16.981    0.322    0.391   53.580
  192.750   19.755    0.310    0.382   53.593
  193.000   22.976    0.301    0.384   60.286
  193.250   25.740    0.301    0.387   66.369
  193.500   28.300    0.302    0.377   76.101
  193.750   29.428    0.302    0.374   76.726
  194.000   28.896    0.293    0.381   76.735
  194.250   26.337    0.289    0.388   73.101
  194.500   24.001    0.304    0.390   68.253
  194.750   24.478    0.314    0.400   57.941
  195.000   24.503    0.316    0.385   55.527
  195.250   23.189    0.300    0.369   57.967
  195.500   20.739    0.288    0.373   78.018
  195.750   15.666    0.262    0.388   96.858
  196.000   12.755    0.236    0.400  107.804
  196.250   10.387    0.175    0.411  105.995
  196.500    9.827    0.149    0.425  102.363
  196.750    8.630    0.115    0.440  104.196
  197.000    8.316    0.136    0.463  116.356
  197.250    7.302    0.175    0.469  118.798
  197.500    7.038    0.193    0.478  118.206
  197.750    6.536    0.193    0.476  120.643
  198.000    5.958    0.193    0.476  124.297
  198.250    5.532    0.186    0.482  129.171
  198.500    5.233    0.181    0.495  131.612
  198.750    4.770    0.179    0.512  124.944
  199.000    4.431    0.189    0.527  118.881
  199.250    4.191    0.211    0.546  122.539
  199.500    4.040    0.230    0.560  129.229
  199.750    3.823    0.243    0.537  134.707
  200.000    3.974    0.267    0.512  128.041
  200.250    4.368    0.298    0.506  103.152
  200.500    5.178    0.350    0.495   70.978
  200.750    6.869    0.379    0.469   54.591
  201.000   10.389    0.365    0.444   48.530
  201.250   16.943    0.349    0.419   47.328
  201.500   22.056    0.341    0.403   46.736
  201.750   26.142    0.336    0.411   46.745
  202.000   29.288    0.329    0.419   47.978
  202.250   29.875    0.331    0.424   49.809
  202.500   30.474    0.331    0.423   54.683
  202.750   30.497    0.324    0.418   57.119
  203.000   29.403    0.317    0.422   60.779
  203.250   29.989    0.322    0.425   58.969
  203.500   31.177    0.324    0.414   55.945
  203.750   31.792    0.324    0.408   55.349
  204.000   32.430    0.323    0.395   57.181
  204.250   33.081    0.313    0.390   60.837
  204.500   33.744    0.313    0.402   65.100
  204.750   34.409    0.323    0.417   68.757
  205.000   35.101    0.337    0.439   71.204
  205.250   35.814    0.329    0.446   71.210
  205.500   35.831    0.327    0.433   68.795
  205.750   35.872    0.325    0.420   65.165
  206.000   35.910    0.322    0.414   60.316
  206.250   35.290    0.318    0.413   53.041
  206.500   34.662    0.323    0.405   46.371
  206.750   33.406    0.329    0.399   40.917
  207.000   31.615    0.318    0.391   45.794
  207.250   29.922    0.309    0.381   48.838
  207.500   28.836    0.301    0.373   57.355
  207.750   26.293    0.283    0.390   69.510
  208.000   25.348    0.266    0.409   78.025
  208.250   24.892    0.273    0.414   84.112
