~VERSION INFORMATION
 VERS.                 2.0:   CWLS LOG ASCII STANDARD -VERSION 2.0
 WRAP.                  NO:   ONE LINE PER DEPTH STEP
~WELL INFORMATION BLOCK
#MNEM.UNIT           DATA                    DESCRIPTION OF MNEMONIC
#---------    -------------------            -------------------------------
# Generated from Intellog Unique Number	CS_73_76/WELL/2241
WELL.         MAYNARD ENERGY INCORPORATE     : Well_name    - WELL
LOC .         00/07-21-076-09W4/0            : Location     - LOCATION
UWI .         00/07-21-076-09W4/0            : Uwi          - UNIQUE WELL ID
ENTR.         SP                             : Entered      - ENTERED BY
SRVC.         SCHLUMBERGER                   : Scn          - SERVICE COMPANY
STRT.M        290                            : top_depth    - START DEPTH
STOP.M        500                            : bot_depth    - STOP DEPTH
STEP.M        0.25                           : increment    - STEP LENGTH
 NULL. -999.2500:NULL Value
~CURVE INFORMATION BLOCK
#MNEM UNIT       ERCB CURVE CODE    CURVE DESCRIPTION
#-----------   ------------------   ----------------------------------
DEPT.M        00 001 00 00         : DEPTH        - DEPTH
ILD .OHMM     00 120 00 00         : RESD         - DEEP RESISTIVITY (DIL)
DPHI.V/V      00 890 00 00         : PHID         - DENSITY POROSITY (LIMESTONE)
NPHI.V/V      00 330 00 00         : PHIN         - NEUTRON POROSITY (LIMESTONE)
GR  .API      00 310 00 00         : GR           - GAMMA RAY
~PARAMETER INFORMATION
#MNEM.UNIT           DATA             DESCRIPTION OF MNEMONIC
#---------         -----------     ------------------------------
GL  .M        683.33               : gl           - GROUND LEVEL ELEVATION
EREF.M        686.74               : kb           - ELEVATION OF DEPTH REFERENCE
DATM.M        683.33               : datum        - DATUM ELEVATION
TDD .M        508                  : tdd          - TOTAL DEPTH DRILLER
RUN .         ONE                  : Run          - RUN NUMBER
ENG .         BILL                 : Engineer     - RECORDING ENGINEER
WIT .         JIM                  : Witness      - WITNESSED BY
MUD .         GEL                  : Mud_type     - MUD TYPE
MATR.         LIMESTONE            : Logunit      - NEUTRON MATRIX
TMAX.C        20                   : BHT          - MAXIMUM RECORDED TEMPERATURE
BHTD.M        508                  : BHTDEP       - MAXIMUM RECORDED TEMPERATURE
MATR.         1                    : LOGUNIT      - NEUTRON MATRIX
RMT .C        25                   : MDTP         - TEMPERATURE OF MUD
NEUT.         1                    : NEUTRON      - NEUTRON TYPE
RESI.         0                    : RESIST       - RESISTIVITY TYPE
RMC .OHMM     0.25                 : RMC          - RESISTIVITY OF MUD CAKE
RMF .OHMM     0.25                 : RMF          - RESISTIVITY OF MUD FILTRATE
SUFT.C        15                   : SUFT         - SURFACE TEMPERATURE
~A  DEPTH     RESD     PHID     PHIN       GR
# ...
  333.500   33.469    0.306    0.369   69.808
  333.750   33.469    0.306    0.372   68.596
  334.000   34.286    0.326    0.377   66.166
  334.250   35.102    0.344    0.381   66.785
  334.500   36.735    0.350    0.383   68.623
  334.750   36.735    0.343    0.387   69.856
  335.000   35.918    0.338    0.388   70.471
  335.250   35.102    0.347    0.393   71.087
  335.500   34.286    0.355    0.399   71.098
  335.750   34.286    0.361    0.406   70.496
  336.000   33.469    0.359    0.410   68.676
  336.250   31.020    0.361    0.412   68.684
  336.500   29.388    0.366    0.410   71.132
  336.750   27.755    0.370    0.400   74.191
  337.000   26.939    0.346    0.395   76.029
  337.250   26.939    0.339    0.390   76.646
  337.500   26.122    0.327    0.389   74.825
  337.750   25.306    0.315    0.385   76.054
  338.000   22.857    0.316    0.385   80.333
  338.250   22.041    0.320    0.387   83.999
  338.500   23.674    0.306    0.391   87.666
  338.750   35.102    0.310    0.396   89.502
  339.000   45.714    0.323    0.398   88.294
  339.250   44.082    0.341    0.398   86.470
  339.500   40.816    0.344    0.397   79.162
  339.750   44.898    0.336    0.395   72.463
  340.000   34.286    0.340    0.394   68.814
  340.250   22.041    0.347    0.395   66.387
  340.500   23.674    0.357    0.396   66.392
  340.750   24.490    0.363    0.397   65.796
  341.000   26.122    0.353    0.397   66.413
  341.250   26.122    0.351    0.397   67.029
  341.500   26.122    0.353    0.396   67.042
  341.750   26.939    0.352    0.394   67.659
  342.000   27.755    0.357    0.395   67.671
  342.250   27.755    0.361    0.401   67.679
  342.500   26.939    0.359    0.412   68.295
  342.750   25.306    0.364    0.418   68.911
  343.000   24.490    0.361    0.423   69.531
  343.250   24.490    0.351    0.425   68.930
  343.500   25.306    0.339    0.422   68.325
  343.750   25.306    0.328    0.411   67.726
  344.000   25.306    0.336    0.409   68.345
  344.250   24.490    0.343    0.408   70.181
  344.500   24.490    0.332    0.407   70.800
  344.750   25.306    0.334    0.413   69.591
  345.000   26.122    0.326    0.417   68.378
  345.250   27.755    0.312    0.418   66.559
  345.500   27.755    0.295    0.410   65.347
  345.750   27.755    0.295    0.406   64.748
  346.000   26.939    0.291    0.404   65.365
  346.250   26.939    0.314    0.403   65.985
  346.500   26.122    0.340    0.405   65.991
  346.750   25.306    0.351    0.408   64.780
  347.000   25.306    0.353    0.410   62.960
  347.250   24.490    0.344    0.414   63.580
  347.500   24.490    0.342    0.419   64.200
  347.750   25.306    0.329    0.420   64.816
  348.000   25.306    0.324    0.419   64.826
  348.250   25.306    0.322    0.419   64.836
  348.500   24.490    0.329    0.419   64.842
  348.750   23.674    0.337    0.418   64.243
  349.000   23.674    0.335    0.417   64.858
  349.250   24.490    0.342    0.415   67.308
  349.500   24.490    0.347    0.411   67.925
  349.750   24.490    0.345    0.403   67.933
  350.000   25.306    0.338    0.392   67.943
  350.250   26.122    0.327    0.388   65.511
  350.500   26.939    0.328    0.388   64.913
  350.750   26.939    0.331    0.388   67.360
  351.000   27.755    0.317    0.389   70.419
  351.250   28.571    0.306    0.395   71.647
  351.500   28.571    0.312    0.400   71.045
  351.750   28.571    0.315    0.403   69.834
  352.000   27.755    0.318    0.400   67.404
  352.250   27.755    0.322    0.398   65.588
  352.500   26.939    0.327    0.394   65.596
  352.750   27.755    0.334    0.390   65.606
  353.000   27.755    0.349    0.393   66.223
  353.250   28.571    0.356    0.394   66.837
  353.500   29.388    0.321    0.395   68.068
  353.750   29.388    0.316    0.395   67.466
  354.000   29.388    0.318    0.392   66.252
  354.250   29.388    0.327    0.390   63.825
  354.500   29.388    0.329    0.387   63.221
  354.750   29.388    0.321    0.359   63.231
  355.000   30.204    0.313    0.330   63.239
  355.250   31.837    0.254    0.316   62.027
  355.500   31.837    0.216    0.316   62.039
  355.750   30.204    0.201    0.329   63.876
  356.000   28.571    0.250    0.360   67.545
  356.250   26.939    0.273    0.382   69.382
  356.500   25.306    0.318    0.404   70.611
  356.750   24.490    0.343    0.416   71.229
  357.000   23.674    0.340    0.416   70.018
  357.250   23.674    0.325    0.412   68.804
  357.500   24.490    0.317    0.405   69.424
  357.750   24.490    0.318    0.400   70.657
  358.000   23.674    0.318    0.399   71.270
  358.250   20.879    0.317    0.399   73.721
  358.500   17.354    0.313    0.407   74.947
  358.750   15.468    0.297    0.414   78.006
  359.000   11.697    0.279    0.431   79.840
  359.250    7.106    0.258    0.440   84.730
  359.500    5.384    0.268    0.450   86.569
  359.750    4.236    0.278    0.462   88.405
  360.000    3.661    0.281    0.470   89.633
  360.250    3.333    0.272    0.473   91.473
  360.500    3.168    0.254    0.472   92.702
  360.750    3.085    0.248    0.465   92.707
  361.000    3.249    0.246    0.463   93.330
  361.250    3.494    0.248    0.464   93.335
  361.500    3.739    0.265    0.463   92.123
  361.750    4.066    0.270    0.458   90.912
  362.000    4.393    0.269    0.453   90.315
  362.250    4.557    0.279    0.452   90.322
  362.500    4.802    0.287    0.452   90.328
  362.750    4.965    0.292    0.452   89.733
  363.000    5.046    0.257    0.454   89.130
  363.250    5.046    0.241    0.455   87.918
  363.500    5.127    0.233    0.452   87.314
  363.750    5.208    0.241    0.449   86.104
  364.000    5.290    0.246    0.449   80.629
  364.250    5.289    0.241    0.450   81.854
  364.500    4.960    0.231    0.459   86.132
  364.750    4.632    0.226    0.465   90.406
  365.000    4.304    0.232    0.471   98.954
  365.250    3.975    0.225    0.475  104.451
  365.500    3.728    0.217    0.478  108.115
  365.750    3.482    0.210    0.482  109.956
  366.000    3.399    0.219    0.483  108.746
  366.250    3.316    0.230    0.486  107.534
  366.500    3.398    0.237    0.489  105.714
  366.750    3.397    0.244    0.492  105.112
  367.000    3.478    0.253    0.498  104.511
  367.250    3.642    0.262    0.478  103.910
  367.500    3.969    0.251    0.462  101.479
  367.750    4.706    0.238    0.455   98.438
  368.000    5.607    0.227    0.455   91.130
  368.250    6.754    0.233    0.455   86.872
  368.500    7.573    0.227    0.461   90.543
  368.750    7.326    0.216    0.470   93.599
  369.000    6.670    0.201    0.476   96.043
  369.250    6.013    0.198    0.482   99.099
  369.500    5.603    0.206    0.484  102.767
  369.750    4.946    0.207    0.474  104.605
  370.000    4.536    0.221    0.474  103.394
  370.250    4.289    0.228    0.478  104.017
  370.500    4.207    0.241    0.489  105.243
  370.750    3.878    0.245    0.498  106.469
  371.000    3.303    0.243    0.506  108.314
  371.250    2.893    0.249    0.515  108.930
  371.500    2.892    0.244    0.484  108.936
  371.750    3.056    0.247    0.473   99.797
  372.000    3.465    0.250    0.457   93.099
  372.250    4.284    0.258    0.445   88.838
  372.500    5.349    0.258    0.439   85.799
  372.750    6.987    0.251    0.433   85.198
  373.000    8.626    0.238    0.432   87.646
  373.250    9.855    0.229    0.434   89.484
  373.500    8.051    0.228    0.434   90.103
  373.750    7.968    0.244    0.434   89.503
  374.000    8.049    0.258    0.435   88.292
  374.250    8.212    0.268    0.438   87.692
  374.500    8.130    0.255    0.444   87.088
  374.750    7.965    0.240    0.451   88.930
  375.000    7.801    0.248    0.456   90.766
  375.250    7.800    0.250    0.456   92.604
  375.500    7.799    0.247    0.446   95.051
  375.750    7.881    0.229    0.431   95.058
  376.000    7.716    0.214    0.425   92.628
  376.250    7.715    0.217    0.422   87.150
  376.500    7.797    0.206    0.425   83.501
  376.750    8.124    0.204    0.426   83.507
