~VERSION INFORMATION
 VERS.                 2.0:   CWLS LOG ASCII STANDARD -VERSION 2.0
 WRAP.                  NO:   ONE LINE PER DEPTH STEP
~WELL INFORMATION BLOCK
#MNEM.UNIT           DATA                    DESCRIPTION OF MNEMONIC
#---------    -------------------            -------------------------------
# Generated from Intellog Unique Number	CW_76_78/WELL/222
WELL.         06-36-076-25W4                 : Well_name    - WELL
LOC .         00/06-36-076-25W4/0            : Location     - LOCATION
UWI .         00/06-36-076-25W4/0            : Uwi          - UNIQUE WELL ID
ENTR.         JJ                             : Entered      - ENTERED BY
SRVC.         SCHLUMBERGER                   : Scn          - SERVICE COMPANY
DATE.         9 MAR 71                       : Date         - LOG DATE
STRT.M        676.656                        : top_depth    - START DEPTH
STOP.M        804.656                        : bot_depth    - STOP DEPTH
STEP.M        0.25                           : increment    - STEP LENGTH
 NULL. -999.2500:NULL Value
~CURVE INFORMATION BLOCK
#MNEM UNIT       ERCB CURVE CODE    CURVE DESCRIPTION
#-----------   ------------------   ----------------------------------
DEPT.M        00 001 00 00         : DEPTH        - DEPTH
DELT.US/F     00 520 00 00         : DELT         - SONIC TRAVEL TIME
GR  .API      00 310 00 00         : GR           - GAMMA RAY
CALI.MM       00 280 01 00         : CAL          - CALIPER
ILD .OHMM     00 120 00 00         : RESD         - DEEP RESISTIVITY (DIL)
~PARAMETER INFORMATION
#MNEM.UNIT           DATA             DESCRIPTION OF MNEMONIC
#---------         -----------     ------------------------------
GL  .M        874.166              : gl           - GROUND LEVEL ELEVATION
EREF.M        878.19               : kb           - ELEVATION OF DEPTH REFERENCE
DATM.M        878.19               : datum        - DATUM ELEVATION
TDD .M        807.415              : tdd          - TOTAL DEPTH DRILLER
RUN .         ONE                  : Run          - RUN NUMBER
ENG .         BARBARICK            : Engineer     - RECORDING ENGINEER
WIT .         DEMOLINE & FISHER    : Witness      - WITNESSED BY
BASE.         D.C.                 : Branch       - HOME BASE OF LOGGING UNIT
MUD .         GEL                  : Mud_type     - MUD TYPE
MATR.         SANDSTONE            : Logunit      - NEUTRON MATRIX
TMAX.C        15.5556              : BHT          - MAXIMUM RECORDED TEMPERATURE
BHTD.M        806.501              : BHTDEP       - MAXIMUM RECORDED TEMPERATURE
RMT .C        15.5556              : MDTP         - TEMPERATURE OF MUD
MUDD.KG/M     1128                 : MWT          - MUD DENSITY
NEUT.         1                    : NEUTRON      - NEUTRON TYPE
RESI.         0                    : RESIST       - RESISTIVITY TYPE
RM  .OHMM     7.25                 : RM           - RESISTIVITY OF MUD
RMC .OHMM     0                    : RMC          - RESISTIVITY OF MUD CAKE
RMF .OHMM     7.54                 : RMF          - RESISTIVITY OF MUD FILTRATE
SUFT.C        5                    : SUFT         - SURFACE TEMPERATURE
~A  DEPTH     DELT       GR      CAL     RESD
# ...
  720.156  317.910   75.803  227.704   11.431
  720.406  303.589   72.907  228.617   10.671
  720.656  297.406   73.687  227.081    9.951
  720.906  314.728   77.541  220.341    9.330
  721.156  332.570   83.926  231.663    8.611
  721.406  350.868   90.010  234.719    7.868
  721.656  360.768   89.343  236.039    7.030
  721.906  363.700   90.244  235.830    6.945
  722.156  355.304   92.531  234.702    7.279
  722.406  343.457   87.647  231.635    8.231
  722.656  301.464   80.412  228.467    8.898
  722.906  281.153   72.272  225.604   10.070
  723.156  283.239   75.584  224.884   10.558
  723.406  324.521   77.509  222.123   10.733
  723.656  334.290   78.772  216.403    9.081
  723.906  341.259   82.083  222.623    8.675
  724.156  349.531   86.298  224.863    8.952
  724.406  341.525   86.958  224.858    9.540
  724.656  299.728   77.072  224.341   10.966
  724.906  282.606   71.283  224.335   12.951
  725.156  288.729   75.317  224.635   15.807
  725.406  298.499   75.133  224.835   18.088
  725.656  287.433   66.814  225.339   17.169
  725.906  271.093   60.061  225.743   15.040
  726.156  293.623   71.629  226.859   13.563
  726.406  322.925   78.556  227.467   11.690
  726.656  328.267   80.300  227.666    9.917
  726.906  335.757   82.828  227.558    8.638
  727.156  344.549   83.669  227.860    7.860
  727.406  338.953   81.737  227.752    7.876
  727.656  342.536   82.276  228.257    8.208
  727.906  345.339   84.382  228.557    8.460
  728.156  334.598   87.212  228.347    8.774
  728.406  324.900   87.691  227.424    9.290
  728.656  316.373   84.132  226.296    9.500
  728.906  321.975   77.861  224.556    9.616
  729.156  334.674   80.148  223.632    9.608
  729.406  331.682   78.156  222.707    9.350
  729.656  326.281   83.095  222.397    9.280
  729.906  328.497   87.732  221.778    9.199
  730.156  334.359   87.970  220.956    9.194
  730.406  333.711   85.617  220.544    9.327
  730.656  331.305   82.600  220.130    9.644
  730.906  332.805   82.416  219.512    9.934
  731.156  333.328   82.051  219.711   10.366
  731.406  328.903   79.396  221.849   10.880
  731.656  316.405   78.248  223.579   11.391
  731.906  302.865   76.738  223.063   11.963
  732.156  291.539   76.313  217.241   11.979
  732.406  304.108   76.551  216.419   11.734
  732.656  311.077   78.597  218.351   11.334
  732.906  316.418   78.835  221.102   11.129
  733.156  313.166   74.794  223.750   10.864
  733.406  318.703   76.297  223.132   10.701
  733.656  331.011   79.669  221.903   10.515
  733.906  342.863   81.112  220.673   10.295
  734.156  324.961   78.698  223.117   10.113
  734.406  314.742   79.840  224.438    9.811
  734.656  319.953   84.116  224.738    9.682
  734.906  331.675   77.905  224.121    9.399
  735.156  333.827   80.072  222.483    9.235
  735.406  343.661   82.118  220.640    9.488
  735.656  332.985   80.728  219.614   10.284
  735.906  314.888   77.651  219.712   10.594
  736.156  303.496   76.202  220.523   10.828
  736.406  301.025   75.114  223.476   10.984
  736.656  308.776   74.869  225.307   11.018
  736.906  321.084   75.168  226.323   10.990
  737.156  324.993   75.828  227.338   10.787
  737.406  316.336   75.583  228.455   10.445
  737.656  312.888   74.556  228.552   10.028
  737.906  317.579   73.468  228.445    9.821
  738.156  335.031   75.996  227.214    9.601
  738.406  323.118   77.620  226.800    9.492
  738.656  324.423   77.617  226.591    9.332
  738.906  331.067   81.591  226.178    9.222
  739.156  339.599   83.818  225.560    9.080
  739.406  345.461   81.404  224.534    8.994
  739.656  337.521   77.061  223.917    8.994
  739.906  322.223   75.491  221.053    9.068
  740.156  312.134   75.488  217.987    9.141
  740.406  319.363   76.269  215.226    9.236
  740.656  325.031   76.928  212.057    9.696
  740.906  323.536   78.130  210.419    9.901
  741.156  313.837   72.341  211.230   11.048
  741.406  298.344   67.939  218.470   12.814
  741.656  248.017   61.427  223.057   15.673
  741.906  231.157   53.168  226.113   21.111
  742.156  235.001   43.402  225.087   43.209
  742.406  225.303   48.219  223.142   46.425
  742.656  212.999   54.242  221.607   47.971
  742.906  219.708   60.206  221.397   47.864
  743.156  237.942   64.120  221.392   41.897
  743.406  256.500   67.793  221.692   27.403
  743.656  308.525   70.502  221.688   15.990
  743.906  330.079   73.392  226.886   11.851
  744.156  319.534   77.245  221.370   10.335
  744.406  301.111   73.747  218.406    9.653
  744.656  302.350   73.080  220.542    9.332
  744.906  305.543   73.982  224.109    9.606
  745.156  299.100   75.485  226.757   10.236
  745.406  298.777   78.193  227.058    9.855
  745.656  324.954   79.335  224.502    9.274
  745.906  336.937   81.683  226.435    8.656
  746.156  340.260   87.163  232.858    8.670
  746.406  345.536   90.716  233.772    8.999
  746.656  336.489   91.135  230.807   10.028
  746.906  323.340   86.973  224.985   13.064
  747.156  313.250   75.219  221.203   17.751
  747.406  280.959   63.946  223.749   22.476
  747.656  261.494   58.699  223.540   29.249
  747.906  268.594   59.781  220.065   32.126
  748.156  288.584   68.275  217.611   33.135
  748.406  299.330   66.825  214.136   33.865
  748.656  302.458   64.291  208.109   33.146
  748.906  277.459   62.841  213.206   29.046
  749.156  257.994   65.430  221.773   24.768
  749.406  256.629   73.141  223.910   20.888
  749.656  303.706   75.187  223.395   17.883
  749.906  309.113   74.280  223.390   14.917
  750.156  312.762   78.254  223.996   12.824
  750.406  314.978   83.192  224.808   11.332
  750.656  317.455   84.274  225.822   10.630
  750.906  320.257   83.789  227.348   10.106
  751.156  321.888   79.085  229.894    9.943
  751.406  323.257   80.528  233.459    9.978
  751.656  328.078   87.214  237.945   10.434
  751.906  324.695   91.309  237.429   10.864
  752.156  311.936   87.992  225.586   11.457
  752.406  288.044   79.370  223.029   11.888
  752.656  296.055   79.246  223.125   12.239
  752.906  303.936   77.555  224.142   12.674
  753.156  311.426   74.298  225.157   13.185
  753.406  297.951   71.101  226.068   13.477
  753.656  279.984   72.604  226.064   13.492
  753.906  294.311   76.519  225.957   13.311
  754.156  311.437   79.528  225.747   13.031
  754.406  316.778   78.380  225.333   12.788
  754.656  317.432   74.339  226.246   12.544
  754.906  309.166   69.636  228.078   12.360
  755.156  302.658   70.717  234.910   12.117
  755.406  310.930   76.138  235.619   11.873
  755.656  323.303   77.822  229.592   11.628
  755.906  328.319   77.277  223.363   11.285
  756.156  328.712   75.586  223.867   10.864
  756.406  321.227   74.920  225.086   10.558
  756.656  319.993   77.508  226.202   10.318
  756.906  319.149   81.362  226.198   10.152
  757.156  320.975   78.767  227.109   10.066
  757.406  317.787   81.476  227.820   10.003
  757.656  325.017   78.821  228.427   10.199
  757.906  337.976   81.591  229.544   10.432
  758.156  328.603   78.996  230.150   10.557
  758.406  317.342   79.655  229.736   10.542
  758.656  334.273   83.268  229.732   10.319
  758.906  348.014   90.376  229.727   10.112
  759.156  347.756   84.407  228.701   10.112
  759.406  339.620   70.482  227.981    9.671
  759.656  342.227   62.102  218.792    8.828
  759.906  353.819   58.483  222.561    7.490
  760.156  369.708   68.725  227.353    6.311
  760.406  406.563   70.048  219.898    6.173
  760.656  408.259   55.039  221.525    6.364
  760.906  406.894   34.002  224.990    7.034
  761.156  399.865   29.660  220.188    8.062
  761.406  368.615   30.742  216.814    8.793
  761.656  343.290   33.330  217.728    8.291
  761.906  339.647   36.039  219.150    7.411
  762.156  340.105   38.325  220.064    6.851
  762.406  337.569   39.468  219.446    6.826
  762.656  334.511   40.669  219.135    7.620
  762.906  331.193   41.691  217.292    8.768
  763.156  340.441   43.074  216.165    9.893
  763.406  354.964   44.035  215.139   11.420
