~VERSION INFORMATION
 VERS.                 2.0:   CWLS LOG ASCII STANDARD -VERSION 2.0
 WRAP.                  NO:   ONE LINE PER DEPTH STEP
~WELL INFORMATION BLOCK
#MNEM.UNIT           DATA                    DESCRIPTION OF MNEMONIC
#---------    -------------------            -------------------------------
# Generated from Intellog Unique Number	CS_73_76/WELL/618
WELL.         AMOCO AEC IPIATIK              : Well_name    - WELL
LOC .         00/06-07-073-06W4/0            : Location     - LOCATION
UWI .         00/06-07-073-06W4/0            : Uwi          - UNIQUE WELL ID
ENTR.         SP                             : Entered      - ENTERED BY
SRVC.         SCHLUMBERGER                   : Scn          - SERVICE COMPANY
STRT.M        330                            : top_depth    - START DEPTH
STOP.M        550                            : bot_depth    - STOP DEPTH
STEP.M        0.25                           : increment    - STEP LENGTH
 NULL. -999.2500:NULL Value
~CURVE INFORMATION BLOCK
#MNEM UNIT       ERCB CURVE CODE    CURVE DESCRIPTION
#-----------   ------------------   ----------------------------------
DEPT.M        00 001 00 00         : DEPTH        - DEPTH
ILD .OHMM     00 120 00 00         : RESD         - DEEP RESISTIVITY (DIL)
DPHI.V/V      00 890 00 00         : PHID         - DENSITY POROSITY (LIMESTONE)
NPHI.V/V      00 330 00 00         : PHIN         - NEUTRON POROSITY (LIMESTONE)
GR  .API      00 310 00 00         : GR           - GAMMA RAY
~PARAMETER INFORMATION
#MNEM.UNIT           DATA             DESCRIPTION OF MNEMONIC
#---------         -----------     ------------------------------
GL  .M        711.41               : gl           - GROUND LEVEL ELEVATION
EREF.M        716.11               : kb           - ELEVATION OF DEPTH REFERENCE
DATM.M        711.41               : datum        - DATUM ELEVATION
TDD .M        576                  : tdd          - TOTAL DEPTH DRILLER
RUN .         ONE                  : Run          - RUN NUMBER
ENG .         BILL                 : Engineer     - RECORDING ENGINEER
WIT .         JIM                  : Witness      - WITNESSED BY
MUD .         GEL                  : Mud_type     - MUD TYPE
MATR.         LIMESTONE            : Logunit      - NEUTRON MATRIX
TMAX.C        12                   : BHT          - MAXIMUM RECORDED TEMPERATURE
BHTD.M        576                  : BHTDEP       - MAXIMUM RECORDED TEMPERATURE
MATR.         1                    : LOGUNIT      - NEUTRON MATRIX
RMT .C        25                   : MDTP         - TEMPERATURE OF MUD
NEUT.         1                    : NEUTRON      - NEUTRON TYPE
RESI.         0                    : RESIST       - RESISTIVITY TYPE
RMC .OHMM     0.25                 : RMC          - RESISTIVITY OF MUD CAKE
RMF .OHMM     0.25                 : RMF          - RESISTIVITY OF MUD FILTRATE
SUFT.C        15                   : SUFT         - SURFACE TEMPERATURE
~A  DEPTH     RESD     PHID     PHIN       GR
  330.000    3.572    0.269    0.507  101.003
  330.250    3.780    0.273    0.501  102.200
  330.500    4.001    0.253    0.512  102.794
  330.750    4.155    0.232    0.527   98.549
  331.000    4.236    0.218    0.519   96.724
  331.250    4.318    0.232    0.527  100.944
  331.500    4.402    0.243    0.543   99.722
  331.750    4.404    0.249    0.552  101.522
  332.000    4.406    0.246    0.492  103.326
  332.250    4.328    0.227    0.513  104.528
  332.500    4.249    0.234    0.531  106.330
  332.750    4.331    0.248    0.544  105.106
  333.000    4.416    0.261    0.551  103.886
  333.250    4.502    0.248    0.536  108.107
  333.500    4.589    0.227    0.543  113.538
  333.750    4.767    0.246    0.548  115.949
  334.000    4.859    0.253    0.534  115.936
  334.250    5.046    0.250    0.505  114.107
  334.500    5.243    0.240    0.513  112.285
  334.750    5.345    0.236    0.533  109.247
  335.000    5.347    0.239    0.545  109.238
  335.250    5.349    0.249    0.516  112.855
  335.500    5.452    0.251    0.496  115.866
  335.750    5.665    0.239    0.491  115.857
  336.000    5.667    0.214    0.496  112.820
  336.250    5.670    0.197    0.505  109.783
  336.500    5.672    0.197    0.499  109.773
  336.750    5.675    0.204    0.495  106.132
  337.000    5.678    0.212    0.501  108.536
  337.250    5.681    0.216    0.501  111.551
  337.500    5.684    0.207    0.500  114.564
  337.750    5.795    0.207    0.511  104.876
  338.000    5.798    0.210    0.515  100.629
  338.250    5.693    0.189    0.522   98.803
  338.500    5.697    0.183    0.489  103.625
  338.750    5.807    0.214    0.490  105.433
  339.000    5.809    0.230    0.495  107.237
  339.250    6.149    0.204    0.503  106.015
  339.500    6.507    0.171    0.505  104.795
  339.750    7.148    0.163    0.465  106.596
  340.000    8.307    0.212    0.445  105.376
  340.250   10.022    0.237    0.441  103.548
  340.500   14.313    0.246    0.445   98.698
  340.750   16.019    0.262    0.437   96.873
  341.000   18.620    0.274    0.426   99.886
  341.250   19.704    0.299    0.424  111.364
  341.500   21.249    0.264    0.429  117.402
  341.750   21.256    0.243    0.433  119.206
  342.000   21.271    0.246    0.425  108.909
  342.250   20.883    0.260    0.430  102.851
  342.500   21.289    0.267    0.434   93.766
  342.750   22.956    0.269    0.384   81.052
  343.000   26.186    0.293    0.336   69.550
  343.250   28.233    0.314    0.264   59.258
  343.500   31.605    0.358    0.293   53.801
  343.750   34.726    0.345    0.309   50.160
  344.000   36.750    0.331    0.332   45.916
  344.250   37.462    0.322    0.347   42.881
  344.500   35.435    0.329    0.360   39.842
  344.750   32.293    0.319    0.370   42.252
  345.000   31.120    0.306    0.344   56.150
  345.250   29.432    0.298    0.366   64.002
  345.500   27.837    0.298    0.374   72.459
  345.750   25.843    0.302    0.387   77.285
  346.000   23.990    0.304    0.399   81.505
  346.250   22.691    0.297    0.409   85.124
  346.500   20.675    0.286    0.399   88.741
  346.750   19.196    0.269    0.389   91.149
  347.000   18.499    0.262    0.392   93.557
  347.250   17.826    0.256    0.400   98.381
  347.500   16.862    0.250    0.406  102.000
  347.750   15.657    0.244    0.414  105.617
  348.000   15.959    0.253    0.431  108.632
  348.250   16.890    0.273    0.444  101.361
  348.500   17.217    0.282    0.456   95.906
  348.750   17.884    0.278    0.430   94.681
  349.000   18.576    0.274    0.422   95.278
  349.250   18.934    0.270    0.437   92.242
  349.500   19.302    0.273    0.436   93.437
  349.750   19.311    0.272    0.418   95.244
  350.000   18.963    0.267    0.413   97.047
  350.250   16.958    0.278    0.419   92.195
  350.500   15.162    0.292    0.414   90.371
  350.750   12.819    0.258    0.397   94.590
  351.000   11.250    0.198    0.391   98.208
  351.250   10.250    0.157    0.396  101.825
  351.500   11.693    0.143    0.412   96.369
  351.750   12.844    0.161    0.427   83.656
  352.000   15.497    0.204    0.414   73.366
  352.250   18.697    0.252    0.404   61.256
  352.500   21.727    0.276    0.387   55.196
  352.750   24.322    0.286    0.377   51.556
  353.000   27.746    0.289    0.380   48.519
  353.250   29.918    0.288    0.384   47.904
  353.500   31.662    0.288    0.379   53.333
  353.750   32.276    0.298    0.368   56.349
  354.000   32.293    0.303    0.367   55.126
  354.250   32.310    0.308    0.366   50.883
  354.500   32.327    0.312    0.372   48.451
  354.750   32.346    0.309    0.377   53.274
  355.000   32.367    0.298    0.383   55.081
  355.250   32.380    0.292    0.382   57.489
  355.500   31.790    0.305    0.377   58.684
  355.750   31.808    0.313    0.385   58.068
  356.000   31.231    0.309    0.391   55.032
  356.250   29.540    0.308    0.382   53.813
  356.500   27.945    0.302    0.378   53.800
  356.750   26.932    0.302    0.377   50.765
  357.000   26.443    0.309    0.376   56.196
  357.250   24.093    0.308    0.383   60.418
  357.500   20.368    0.301    0.388   59.195
  357.750   16.280    0.291    0.389   56.162
  358.000   14.021    0.287    0.384   65.223
  358.250   11.633    0.281    0.370   89.404
  358.500    7.856    0.247    0.377  111.162
  358.750    6.163    0.233    0.422  120.828
  359.000    5.018    0.220    0.468  126.262
  359.250    4.163    0.212    0.518  126.855
  359.500    3.654    0.207    0.530  125.635
  359.750    3.329    0.214    0.526  120.178
  360.000    3.149    0.228    0.523  128.027
  360.250    3.150    0.225    0.513  132.250
  360.500    3.661    0.226    0.515  134.660
  360.750    4.417    0.235    0.521  127.994
  361.000    6.076    0.249    0.526  110.443
  361.250    7.194    0.267    0.437   96.522
  361.500    9.181    0.291    0.408   87.438
  361.750    9.017    0.285    0.410   91.054
  362.000    9.021    0.265    0.443   95.881
  362.250    8.859    0.248    0.451   95.264
  362.500    8.699    0.238    0.449   89.807
  362.750    8.383    0.225    0.460   88.589
  363.000    8.078    0.247    0.461   92.203
  363.250    7.640    0.257    0.450   94.009
  363.500    7.227    0.258    0.439   97.621
  363.750    7.367    0.250    0.435   99.429
  364.000    7.373    0.243    0.435  100.022
  364.250    7.515    0.248    0.443   93.959
  364.500    7.519    0.252    0.450   89.105
  364.750    7.664    0.255    0.445   87.890
  365.000    7.671    0.249    0.444   94.530
  365.250    7.820    0.244    0.436   99.962
  365.500    7.823    0.238    0.432  102.371
  365.750    7.826    0.240    0.432  101.148
  366.000    7.829    0.247    0.437   99.926
  366.250    7.689    0.258    0.437   98.708
  366.500    7.692    0.261    0.434   96.877
  366.750    7.697    0.268    0.427   95.660
  367.000    7.700    0.265    0.426   92.018
  367.250    7.704    0.274    0.443   90.794
  367.500    7.707    0.270    0.458   92.599
  367.750    7.712    0.265    0.470   94.400
  368.000    7.715    0.260    0.458   95.602
  368.250    7.867    0.256    0.448   94.381
  368.500    7.870    0.254    0.441   90.134
  368.750    8.023    0.257    0.439   97.382
  369.000    8.177    0.247    0.447  106.438
  369.250    8.984    0.233    0.462   97.358
  369.500   10.248    0.225    0.453   84.040
  369.750   11.473    0.264    0.433   70.722
  370.000   12.607    0.292    0.411   62.847
  370.250   12.848    0.328    0.397   63.440
  370.500   13.599    0.276    0.408   68.872
  370.750   14.664    0.250    0.422   71.886
  371.000   15.518    0.222    0.402   72.478
  371.250   16.119    0.207    0.407   69.439
  371.500   16.433    0.245    0.406   68.220
  371.750   16.440    0.269    0.411   69.418
  372.000   15.553    0.291    0.428   74.245
  372.250   14.711    0.309    0.434   80.883
  372.500   14.175    0.302    0.416   83.296
  372.750   12.916    0.278    0.407   88.121
  373.000   12.445    0.261    0.417   92.344
  373.250   11.340    0.250    0.414   95.961
