~VERSION INFORMATION
 VERS.                 2.0:   CWLS LOG ASCII STANDARD -VERSION 2.0
 WRAP.                  NO:   ONE LINE PER DEPTH STEP
~WELL INFORMATION BLOCK
#MNEM.UNIT           DATA                    DESCRIPTION OF MNEMONIC
#---------    -------------------            -------------------------------
# Generated from Intellog Unique Number	CW_73_75/WELL/2728
WELL.         ALLIED ET AL CALL 06-21        : Well_name    - WELL
LOC .         00/06-21-073-20W4/0            : Location     - LOCATION
UWI .         00/06-21-073-20W4/0            : Uwi          - UNIQUE WELL ID
ENTR.         JAYE                           : Entered      - ENTERED BY
SRVC.         SCHLUMBERGER                   : Scn          - SERVICE COMPANY
DATE.         22 JAN 74                      : Date         - LOG DATE
STRT.M        411.48                         : top_depth    - START DEPTH
STOP.M        615.73                         : bot_depth    - STOP DEPTH
STEP.M        0.25                           : increment    - STEP LENGTH
 NULL. -999.2500:NULL Value
~CURVE INFORMATION BLOCK
#MNEM UNIT       ERCB CURVE CODE    CURVE DESCRIPTION
#-----------   ------------------   ----------------------------------
DEPT.M        00 001 00 00         : DEPTH        - DEPTH
ILD .OHMM     00 120 00 00         : RESD         - DEEP RESISTIVITY (DIL)
NPHI.V/V      00 330 00 00         : PHIN         - NEUTRON POROSITY (SANDSTONE)
DPHI.V/V      00 890 00 00         : PHID         - DENSITY POROSITY (SANDSTONE)
GR  .API      00 310 00 00         : GR           - GAMMA RAY
CALI.MM       00 280 01 00         : CAL          - CALIPER
~PARAMETER INFORMATION
#MNEM.UNIT           DATA             DESCRIPTION OF MNEMONIC
#---------         -----------     ------------------------------
GL  .M        708.508              : gl           - GROUND LEVEL ELEVATION
EREF.M        711.556              : kb           - ELEVATION OF DEPTH REFERENCE
DATM.M        708.508              : datum        - DATUM ELEVATION
TDD .M        621.792              : tdd          - TOTAL DEPTH DRILLER
RUN .         ONE                  : Run          - RUN NUMBER
ENG .         CONNELLY             : Engineer     - RECORDING ENGINEER
WIT .         CONNELLY             : Witness      - WITNESSED BY
BASE.         EDM                  : Branch       - HOME BASE OF LOGGING UNIT
MUD .         CAUSTIC GEL          : Mud_type     - MUD TYPE
MATR.         SANDSTONE            : Logunit      - NEUTRON MATRIX
TMAX.C        21.1111              : BHT          - MAXIMUM RECORDED TEMPERATURE
BHTD.M        622.097              : BHTDEP       - MAXIMUM RECORDED TEMPERATURE
RMT .C        20                   : MDTP         - TEMPERATURE OF MUD
MUDD.KG/M     1140                 : MWT          - MUD DENSITY
NEUT.         1                    : NEUTRON      - NEUTRON TYPE
RESI.         0                    : RESIST       - RESISTIVITY TYPE
RM  .OHMM     2.83                 : RM           - RESISTIVITY OF MUD
RMC .OHMM     0                    : RMC          - RESISTIVITY OF MUD CAKE
RMF .OHMM     2.86                 : RMF          - RESISTIVITY OF MUD FILTRATE
SUFT.C        -17.7778             : SUFT         - SURFACE TEMPERATURE
~A  DEPTH     RESD     PHIN     PHID       GR      CAL
# ...
  557.480    4.735    0.446    0.185   89.031  169.617
  557.730    4.745    0.468    0.146   92.658  170.150
  557.980    4.757    0.508    0.211   95.917  170.371
  558.230    4.771    0.521    0.210   94.943  170.382
  558.480    4.779    0.505    0.205   92.497  170.185
  558.730    4.753    0.494    0.201   88.088  170.095
  558.980    4.723    0.426    0.197   88.095  170.004
  559.230    4.696    0.430    0.203   84.789  169.916
  559.480    4.667    0.441    0.218   86.883  169.925
  559.730    4.678    0.429    0.222   90.203  169.836
  559.980    4.689    0.412    0.221   95.733  170.058
  560.230    4.817    0.436    0.208   93.041  170.068
  560.480    5.141    0.452    0.210   95.073  170.290
  560.730    5.269    0.502    0.210   99.988  169.574
  560.980    5.439    0.512    0.206   94.904  167.820
  561.230    5.686    0.491    0.202   86.323  160.252
  561.480    6.009    0.462    0.196   81.238  158.497
  561.730    6.646    0.435    0.186   73.884  158.511
  561.980    7.831    0.436    0.200   70.640  159.042
  562.230   11.013    0.450    0.218   74.696  159.782
  562.480   13.414    0.457    0.206   68.017  160.835
  562.730   16.047    0.463    0.185   62.012  161.885
  562.980   13.906    0.379    0.148   55.271  163.769
  563.230   10.588    0.276    0.114   49.696  165.340
  563.480    8.798    0.232    0.065   56.207  165.975
  563.730    7.048    0.208    0.026   66.828  166.820
  563.980    6.080    0.226    0.040   74.443  167.354
  564.230    5.661    0.257    0.081   81.015  167.470
  564.480    5.475    0.368    0.116   84.336  167.689
  564.730    5.292    0.444    0.135   86.858  167.706
  564.980    5.263    0.431    0.163   88.093  167.718
  565.230    5.273    0.433    0.180   84.971  167.833
  565.480    5.246    0.466    0.192   87.433  167.844
  565.730    5.259    0.491    0.182   87.809  168.170
  565.980    5.267    0.480    0.171   87.817  168.184
  566.230    5.239    0.440    0.162   88.928  168.298
  566.480    5.212    0.363    0.187   92.310  168.520
  566.730    5.225    0.421    0.182   94.649  168.741
  566.980    5.234    0.432    0.172   96.129  168.856
  567.230    5.234    0.455    0.161   92.149  168.663
  567.480    5.296    0.453    0.147   89.150  168.570
  567.730    5.384    0.437    0.127   86.274  168.274
  567.980    5.358    0.420    0.110   86.772  168.286
  568.230    5.368    0.408    0.123   91.627  168.194
  568.480    5.339    0.428    0.171   93.230  167.895
  568.730    5.272    0.453    0.186   96.059  167.804
  568.980    5.244    0.467    0.192   95.760  167.611
  569.230    5.217    0.446    0.167   91.903  167.520
  569.480    5.188    0.420    0.156   92.401  167.324
  569.730    5.162    0.389    0.147   94.004  167.027
  569.980    5.170    0.370    0.166   96.220  167.143
  570.230    5.181    0.387    0.176   96.473  167.157
  570.480    5.076    0.391    0.188   93.475  167.275
  570.730    4.853    0.399    0.179   91.089  167.287
  570.980    4.706    0.415    0.129   88.888  167.298
  571.230    4.482    0.414    0.085   82.209  167.516
  571.480    4.259    0.358    0.062   88.474  167.842
  571.730    3.995    0.394    0.135   91.303  168.065
  571.980    3.459    0.448    0.157   92.477  167.867
  572.230    3.040    0.464    0.177   87.393  167.882
  572.480    2.619    0.456    0.201   84.762  167.790
  572.730    2.318    0.468    0.192   87.163  167.490
  572.980    2.131    0.455    0.167   91.649  167.190
  573.230    1.988    0.431    0.182   93.987  166.685
  573.480    1.959    0.426    0.199   95.283  165.970
  573.730    2.128    0.478    0.215   96.947  165.568
  573.980    2.334    0.547    0.232  101.126  164.956
  574.230    2.618    0.622    0.222   99.969  164.138
  574.480    2.981    0.601    0.213   99.792  163.426
  574.730    3.425    0.629    0.210   97.529  162.711
  574.980    3.828    0.637    0.213   90.666  162.310
  575.230    4.152    0.600    0.209   86.993  162.320
  575.480    4.356    0.617    0.217   83.074  162.852
  575.730    4.291    0.422    0.198   87.805  163.488
  575.980    4.183    0.386    0.126   93.457  164.437
  576.230    4.233    0.441    0.168   95.490  165.074
  576.480    4.636    0.435    0.185   96.602  165.397
  576.730    5.119    0.497    0.168   98.265  165.201
  576.980    5.208    0.536    0.177   95.880  163.867
  577.230    5.218    0.456    0.184   90.182  163.152
  577.480    5.229    0.397    0.169   81.724  162.851
  577.730    5.086    0.362    0.152   77.928  162.449
  577.980    4.978    0.378    0.148   79.223  162.357
  578.230    4.912    0.409    0.140   81.624  162.165
  578.480    4.925    0.415    0.095   79.240  161.968
  578.730    4.892    0.429    0.139   80.657  161.982
  578.980    4.864    0.471    0.131   85.145  161.893
  579.230    4.680    0.424    0.068   81.899  161.903
  579.480    4.458    0.418    0.008   83.809  161.813
  579.730    4.350    0.446    0.147   87.191  161.826
  579.980    4.243    0.446    0.185   87.567  161.736
  580.230    4.254    0.455    0.176   88.065  161.644
  580.480    4.226    0.451    0.184   89.728  161.449
  580.730    4.201    0.461    0.178   92.558  161.565
  580.980    4.169    0.478    0.159   95.388  161.576
  581.230    4.105    0.454    0.179   95.641  161.799
  581.480    4.075    0.450    0.167   93.195  161.811
  581.730    4.046    0.470    0.175   94.981  161.826
  581.980    3.980    0.455    0.171   90.327  161.527
  582.230    3.914    0.435    0.149   87.635  161.433
  582.480    3.848    0.410    0.120   90.772  161.446
  582.730    3.856    0.457    0.136   93.171  161.461
  582.980    3.792    0.499    0.180   95.388  161.473
  583.230    3.803    0.510    0.174   98.892  161.485
  583.480    3.811    0.460    0.164   97.366  161.497
  583.730    3.822    0.473    0.146   95.410  161.510
  583.980    3.875    0.475    0.155   94.620  161.524
  584.230    3.923    0.489    0.168   96.285  161.641
  584.480    3.973    0.516    0.192   98.623  161.550
  584.730    4.062    0.509    0.173  101.759  161.562
  584.980    4.152    0.491    0.157  101.767  161.577
  585.230    4.085    0.429    0.139   98.094  161.587
  585.480    3.824    0.401    0.129   98.653  161.599
  585.730    3.715    0.416    0.134  104.059  161.613
  585.980    3.572    0.447    0.171  108.240  161.626
  586.230    3.583    0.470    0.185  109.658  161.950
  586.480    3.631    0.495    0.155  107.457  162.067
  586.730    3.841    0.530    0.155  111.697  162.288
  586.980    4.006    0.581    0.170  111.521  162.302
  587.230    4.290    0.557    0.184  109.933  162.417
  587.480    4.732    0.570    0.169  104.174  162.637
  587.730    5.175    0.474    0.154   98.046  162.651
  587.980    5.265    0.417    0.162   94.251  162.561
  588.230    5.277    0.409    0.151   89.902  162.160
  588.480    5.405    0.411    0.131   81.075  161.859
  588.730    5.845    0.402    0.127   67.586  161.663
  588.980    6.483    0.342    0.156   66.490  161.365
  589.230    7.003    0.297    0.171   69.687  161.068
  589.480    7.366    0.309    0.240   66.996  160.871
  589.730    7.572    0.295    0.271   62.954  160.470
  589.980    7.075    0.256    0.298   62.962  160.169
  590.230    6.576    0.177    0.382   68.000  159.558
  590.480    6.157    0.152    0.372   72.854  159.051
  590.730    5.660    0.203    0.330   70.592  158.443
  590.980    5.280    0.247    0.298   73.912  157.938
  591.230    5.095    0.289    0.298   82.509  157.638
  591.480    5.069    0.293    0.287   93.069  157.442
  591.730    5.196    0.300    0.265  107.063  157.247
  591.980    5.716    0.317    0.230  118.237  157.051
  592.230    6.352    0.337    0.185  123.582  156.858
  592.480    6.990    0.358    0.168  121.933  156.768
  592.730    7.198    0.376    0.148  116.849  156.883
  592.980    7.405    0.393    0.137  106.427  158.038
  593.230    7.455    0.378    0.126   98.397  159.402
  593.480    7.544    0.288    0.097  113.497  162.530
  593.730    7.947    0.282    0.071  107.615  166.490
