~VERSION INFORMATION
 VERS.                 2.0:   CWLS LOG ASCII STANDARD -VERSION 2.0
 WRAP.                  NO:   ONE LINE PER DEPTH STEP
~WELL INFORMATION BLOCK
#MNEM.UNIT           DATA                    DESCRIPTION OF MNEMONIC
#---------    -------------------            -------------------------------
# Generated from Intellog Unique Number	CW_73_75/WELL/619
WELL.         HB AMOCO MARTIN HILLS 06-33    : Well_name    - WELL
LOC .         00/06-33-074-26W4/0            : Location     - LOCATION
UWI .         00/06-33-074-26W4/0            : Uwi          - UNIQUE WELL ID
ENTR.         JAYE                           : Entered      - ENTERED BY
SRVC.         SCHLUMBERGER                   : Scn          - SERVICE COMPANY
DATE.         9 FEB 77                       : Date         - LOG DATE
STRT.M        554.736                        : top_depth    - START DEPTH
STOP.M        771.236                        : bot_depth    - STOP DEPTH
STEP.M        0.25                           : increment    - STEP LENGTH
 NULL. -999.2500:NULL Value
~CURVE INFORMATION BLOCK
#MNEM UNIT       ERCB CURVE CODE    CURVE DESCRIPTION
#-----------   ------------------   ----------------------------------
DEPT.M        00 001 00 00         : DEPTH        - DEPTH
ILD .OHMM     00 120 00 00         : RESD         - DEEP RESISTIVITY (DIL)
NPHI.V/V      00 330 00 00         : PHIN         - NEUTRON POROSITY (SANDSTONE)
DPHI.V/V      00 890 00 00         : PHID         - DENSITY POROSITY (SANDSTONE)
GR  .API      00 310 00 00         : GR           - GAMMA RAY
CALI.MM       00 280 01 00         : CAL          - CALIPER
~PARAMETER INFORMATION
#MNEM.UNIT           DATA             DESCRIPTION OF MNEMONIC
#---------         -----------     ------------------------------
GL  .M        817.778              : gl           - GROUND LEVEL ELEVATION
EREF.M        820.826              : kb           - ELEVATION OF DEPTH REFERENCE
DATM.M        817.778              : datum        - DATUM ELEVATION
TDD .M        745.236              : tdd          - TOTAL DEPTH DRILLER
RUN .         ONE                  : Run          - RUN NUMBER
ENG .         PRICE                : Engineer     - RECORDING ENGINEER
WIT .         MAQUE                : Witness      - WITNESSED BY
BASE.         EDM                  : Branch       - HOME BASE OF LOGGING UNIT
MUD .         GEL CHEM             : Mud_type     - MUD TYPE
MATR.         SANDSTONE            : Logunit      - NEUTRON MATRIX
TMAX.C        25.5556              : BHT          - MAXIMUM RECORDED TEMPERATURE
BHTD.M        746.15               : BHTDEP       - MAXIMUM RECORDED TEMPERATURE
RMT .C        18.8889              : MDTP         - TEMPERATURE OF MUD
MUDD.KG/M     1170                 : MWT          - MUD DENSITY
NEUT.         1                    : NEUTRON      - NEUTRON TYPE
RESI.         0                    : RESIST       - RESISTIVITY TYPE
RM  .OHMM     4.49                 : RM           - RESISTIVITY OF MUD
RMC .OHMM     0                    : RMC          - RESISTIVITY OF MUD CAKE
RMF .OHMM     4.59                 : RMF          - RESISTIVITY OF MUD FILTRATE
SUFT.C        -17.7778             : SUFT         - SURFACE TEMPERATURE
~A  DEPTH     RESD     PHIN     PHID       GR      CAL
# ...
  627.736    3.999    0.481    0.217   97.448  140.034
  627.986    3.847    0.476    0.226   94.112  138.115
  628.236    3.687    0.481    0.219   92.185  136.824
  628.486    3.573    0.457    0.214   94.606  137.190
  628.736    3.494    0.436    0.217   97.947  138.699
  628.986    3.455    0.434    0.202  101.780  141.864
  629.236    3.460    0.459    0.148  109.898  146.283
  629.486    3.561    0.464    0.159  112.444  149.756
  629.736    3.781    0.452    0.176  111.376  151.783
  629.986    4.119    0.446    0.162  109.325  151.530
  630.236    4.341    0.452    0.162  108.253  150.966
  630.486    4.395    0.456    0.168  107.616  150.188
  630.736    4.394    0.452    0.178  107.892  149.410
  630.986    4.360    0.450    0.168  109.638  148.954
  631.236    4.287    0.453    0.151  110.529  148.905
  631.486    4.247    0.444    0.168  111.544  149.368
  631.736    4.276    0.448    0.172  114.516  150.669
  631.986    4.354    0.457    0.161  114.612  152.392
  632.236    4.432    0.469    0.162  111.396  153.999
  632.486    4.587    0.472    0.164  109.408  155.400
  632.736    4.773    0.466    0.155  113.790  155.664
  632.986    5.004    0.433    0.155  117.131  154.273
  633.236    5.198    0.402    0.174  112.079  152.252
  633.486    5.225    0.420    0.179  108.926  151.271
  633.736    5.184    0.427    0.159  105.528  151.222
  633.986    5.098    0.421    0.172  101.089  151.802
  634.236    4.949    0.414    0.176  100.570  152.270
  634.486    4.831    0.416    0.172  102.444  152.531
  634.736    4.786    0.422    0.159  103.515  151.964
  634.986    4.723    0.431    0.172  103.182  151.501
  635.236    4.611    0.424    0.162  104.132  149.996
  635.486    4.542    0.431    0.165  108.269  147.358
  635.736    4.345    0.429    0.166  110.447  146.685
  635.986    4.165    0.422    0.161  109.443  148.607
  636.236    4.044    0.421    0.159  108.615  149.705
  636.486    3.976    0.424    0.183  107.362  147.896
  636.736    3.924    0.422    0.209  105.617  146.077
  636.986    3.887    0.416    0.205  103.873  144.892
  637.236    3.857    0.437    0.194  102.009  144.116
  637.486    3.870    0.450    0.175  100.877  143.445
  637.736    3.854    0.438    0.190   99.989  142.875
  637.986    3.839    0.437    0.182   98.675  142.833
  638.236    3.837    0.454    0.170   97.603  144.234
  638.486    3.843    0.467    0.160   95.553  147.198
  638.736    3.884    0.460    0.196   89.091  147.039
  638.986    3.976    0.450    0.229   82.999  142.846
  639.236    4.175    0.445    0.258   79.660  142.489
  639.486    4.499    0.447    0.268   76.079  143.265
  639.736    4.909    0.464    0.271   75.317  139.900
  639.986    5.260    0.480    0.256   75.349  137.151
  640.236    5.345    0.463    0.235   69.928  138.247
  640.486    5.208    0.391    0.222   62.304  140.999
  640.736    4.956    0.379    0.200   62.580  141.372
  640.986    4.664    0.380    0.195   64.391  140.706
  641.236    4.382    0.400    0.172   64.241  140.335
  641.486    4.056    0.436    0.174   65.437  139.769
  641.736    3.769    0.476    0.219   69.696  138.794
  641.986    3.646    0.454    0.262   77.143  137.289
  642.236    3.638    0.448    0.270   79.628  134.754
  642.486    3.834    0.446    0.273   76.724  133.974
  642.736    4.176    0.439    0.258   73.998  134.554
  642.986    4.402    0.431    0.262   70.842  135.643
  643.236    4.474    0.423    0.257   67.320  137.777
  643.486    4.546    0.416    0.220   64.290  139.077
  643.736    4.528    0.401    0.197   66.959  139.855
  643.986    4.493    0.383    0.170   72.076  140.224
  644.236    4.500    0.406    0.154   74.744  140.379
  644.486    4.490    0.446    0.172   76.369  140.228
  644.736    4.455    0.430    0.233   80.753  139.971
  644.986    4.341    0.400    0.191   86.666  139.927
  645.236    4.192    0.422    0.171   94.724  141.640
  645.486    3.952    0.445    0.159   94.392  143.976
  645.736    3.767    0.465    0.206   90.318  143.620
  645.986    3.604    0.459    0.225   85.755  138.801
  646.236    3.493    0.444    0.234   86.035  136.572
  646.486    3.410    0.447    0.258   86.189  136.211
  646.736    3.353    0.455    0.236   86.102  137.724
  646.986    3.309    0.449    0.211   86.808  139.958
  647.236    3.254    0.434    0.194   89.534  141.876
  647.486    3.205    0.454    0.148   95.021  144.743
  647.736    3.152    0.469    0.148  102.404  146.658
  647.986    3.122    0.475    0.164  109.239  147.751
  648.236    3.104    0.481    0.172  107.987  148.221
  648.486    3.086    0.472    0.184  104.468  148.590
  648.736    3.085    0.460    0.202  102.787  148.331
  648.986    3.106    0.478    0.206  101.344  147.458
  649.236    3.157    0.489    0.216   94.576  145.123
  649.486    3.249    0.497    0.237   85.728  142.067
  649.736    3.443    0.495    0.255   81.960  140.777
  649.986    3.820    0.477    0.273   79.604  140.110
  650.236    4.411    0.450    0.254   77.614  140.470
  650.486    5.002    0.422    0.227   74.706  141.360
  650.736    5.641    0.375    0.208   71.981  140.373
  650.986    5.753    0.333    0.141   71.097  139.909
  651.236    5.425    0.252    0.093   74.436  140.175
  651.486    4.886    0.206   -0.016   79.556  141.371
  651.736    4.401    0.211   -0.027   79.228  143.091
  651.986    3.972    0.224    0.029   77.846  143.974
  652.236    3.617    0.248    0.137   77.206  142.472
  652.486    3.361    0.436    0.203   80.975  141.906
  652.736    3.245    0.445    0.232   83.214  140.409
  652.986    3.168    0.444    0.262   81.959  139.941
  653.236    3.132    0.449    0.271   89.587  139.173
  653.486    3.148    0.453    0.265   89.620  138.507
  653.736    3.187    0.460    0.252   85.185  137.944
  653.986    3.215    0.467    0.254   82.579  137.676
  654.236    3.238    0.450    0.279   79.855  137.735
  654.486    3.272    0.447    0.292   77.686  137.897
  654.736    3.313    0.454    0.292   76.002  138.158
  654.986    3.379    0.462    0.278   73.645  138.220
  655.236    3.434    0.456    0.266   71.654  138.470
  655.486    3.471    0.451    0.278   76.467  138.214
  655.736    3.501    0.453    0.285   78.525  137.442
  655.986    3.500    0.461    0.289   77.451  137.812
  656.236    3.499    0.468    0.289   75.834  138.173
  656.486    3.549    0.466    0.286   75.682  138.647
  656.736    3.680    0.462    0.282   76.693  139.326
  656.986    4.074    0.463    0.271   77.281  139.908
  657.236    4.907    0.451    0.261   76.699  140.374
  657.486    6.428    0.420    0.246   75.687  140.426
  657.736    8.001    0.357    0.221   71.678  140.381
  657.986    8.763    0.309    0.185   65.705  140.329
  658.236    8.277    0.228    0.144   64.576  140.385
  658.486    6.830    0.222    0.005   65.772  140.548
  658.736    5.153    0.246    0.006   65.681  140.599
  658.986    4.291    0.290    0.019   63.754  136.917
  659.236    3.894    0.330    0.061   66.789  133.966
  659.486    3.552    0.422    0.158   69.336  133.821
  659.736    3.307    0.433    0.245   70.532  134.392
  659.986    3.288    0.430    0.237   67.746  135.274
  660.236    3.347    0.421    0.238   67.533  135.743
  660.486    3.407    0.407    0.241   69.160  136.123
  660.736    3.431    0.397    0.230   67.108  135.967
  660.986    3.474    0.404    0.220   66.898  135.926
  661.236    3.524    0.403    0.214   70.115  135.968
  661.486    3.667    0.395    0.218   68.862  136.228
  661.736    3.893    0.414    0.233   67.854  136.704
  661.986    4.455    0.433    0.243   69.236  137.792
  662.236    5.061    0.442    0.248   66.019  138.790
  662.486    5.564    0.425    0.252   60.847  139.572
  662.736    5.896    0.410    0.243   59.530  140.041
  662.986    6.069    0.394    0.230   61.769  140.608
  663.236    5.775    0.363    0.201   59.042  141.392
  663.486    5.192    0.321    0.176   56.443  141.865
  663.736    4.618    0.285    0.148   57.640  142.754
  663.986    4.076    0.289    0.113   59.692  143.637
