~VERSION INFORMATION
 VERS.                 2.0:   CWLS LOG ASCII STANDARD -VERSION 2.0
 WRAP.                  NO:   ONE LINE PER DEPTH STEP
~WELL INFORMATION BLOCK
#MNEM.UNIT           DATA                    DESCRIPTION OF MNEMONIC
#---------    -------------------            -------------------------------
# Generated from Intellog Unique Number	CS_73_76/WELL/781
WELL.         MAYNARD ENERGY                 : Well_name    - WELL
LOC .         00/07-36-073-13W4/0            : Location     - LOCATION
UWI .         00/07-36-073-13W4/0            : Uwi          - UNIQUE WELL ID
ENTR.         SP                             : Entered      - ENTERED BY
SRVC.         SCHLUMBERGER                   : Scn          - SERVICE COMPANY
STRT.M        300                            : top_depth    - START DEPTH
STOP.M        525                            : bot_depth    - STOP DEPTH
STEP.M        0.25                           : increment    - STEP LENGTH
 NULL. -999.2500:NULL Value
~CURVE INFORMATION BLOCK
#MNEM UNIT       ERCB CURVE CODE    CURVE DESCRIPTION
#-----------   ------------------   ----------------------------------
DEPT.M        00 001 00 00         : DEPTH        - DEPTH
GR  .API      00 310 00 00         : GR           - GAMMA RAY
NPHI.V/V      00 330 00 00         : PHIN         - NEUTRON POROSITY (LIMESTONE)
DPHI.V/V      00 890 00 00         : PHID         - DENSITY POROSITY (LIMESTONE)
ILD .OHMM     00 120 00 00         : RESD         - DEEP RESISTIVITY (DIL)
~PARAMETER INFORMATION
#MNEM.UNIT           DATA             DESCRIPTION OF MNEMONIC
#---------         -----------     ------------------------------
GL  .M        662.29               : gl           - GROUND LEVEL ELEVATION
EREF.M        665.74               : kb           - ELEVATION OF DEPTH REFERENCE
DATM.M        662.29               : datum        - DATUM ELEVATION
TDD .M        540                  : tdd          - TOTAL DEPTH DRILLER
RUN .         ONE                  : Run          - RUN NUMBER
ENG .         BILL                 : Engineer     - RECORDING ENGINEER
WIT .         JIM                  : Witness      - WITNESSED BY
MUD .         GEL                  : Mud_type     - MUD TYPE
MATR.         LIMESTONE            : Logunit      - NEUTRON MATRIX
TMAX.C        21                   : BHT          - MAXIMUM RECORDED TEMPERATURE
BHTD.M        540                  : BHTDEP       - MAXIMUM RECORDED TEMPERATURE
MATR.         1                    : LOGUNIT      - NEUTRON MATRIX
RMT .C        25                   : MDTP         - TEMPERATURE OF MUD
NEUT.         1                    : NEUTRON      - NEUTRON TYPE
RESI.         0                    : RESIST       - RESISTIVITY TYPE
RMC .OHMM     0.25                 : RMC          - RESISTIVITY OF MUD CAKE
RMF .OHMM     0.25                 : RMF          - RESISTIVITY OF MUD FILTRATE
SUFT.C        15                   : SUFT         - SURFACE TEMPERATURE
~A  DEPTH       GR     PHIN     PHID     RESD
  300.000  120.732    0.579    0.212    2.927
  300.250  118.286    0.558    0.209    2.929
  300.500  115.232    0.547    0.207    3.174
  300.750  111.566    0.543    0.202    3.420
  301.000  112.779    0.528    0.209    3.583
  301.250  113.383    0.512    0.211    3.748
  301.500  111.549    0.500    0.203    3.911
  301.750  107.275    0.499    0.192    3.831
  302.000  104.219    0.499    0.187    3.752
  302.250  105.433    0.503    0.182    3.591
  302.500  108.475    0.513    0.200    3.430
  302.750  111.517    0.524    0.206    3.269
  303.000  112.731    0.537    0.216    3.270
  303.250  113.336    0.550    0.222    3.191
  303.500  111.500    0.557    0.228    3.192
  303.750  113.932    0.562    0.227    3.193
  304.000  112.707    0.562    0.224    3.276
  304.250  114.531    0.561    0.212    3.358
  304.500  113.305    0.561    0.200    3.441
  304.750  116.958    0.546    0.190    3.442
  305.000  121.219    0.545    0.193    3.363
  305.250  118.775    0.550    0.188    3.283
  305.500  117.549    0.549    0.200    3.284
  305.750  115.104    0.545    0.209    3.286
  306.000  113.269    0.541    0.203    3.369
  306.250  115.090    0.540    0.213    3.451
  306.500  114.476    0.538    0.205    3.534
  306.750  115.079    0.520    0.202    3.617
  307.000  113.244    0.502    0.206    3.618
  307.250  108.360    0.492    0.164    3.539
  307.500  105.306    0.487    0.170    3.540
  307.750  108.958    0.491    0.170    3.541
  308.000  109.561    0.493    0.160    3.705
  308.250  113.213    0.500    0.178    4.113
  308.500  109.549    0.496    0.191    4.683
  308.750   97.957    0.480    0.237    6.555
  309.000   85.756    0.434    0.274    9.077
  309.250   79.043    0.409    0.394   21.063
  309.500   72.940    0.352    0.429   24.402
  309.750   68.665    0.305    0.446   29.355
  310.000   64.390    0.281    0.431   32.714
  310.250   62.555    0.246    0.404   34.413
  310.500   60.110    0.232    0.397   33.706
  310.750   66.202    0.250    0.378   29.757
  311.000   72.293    0.277    0.365   24.992
  311.250   74.725    0.302    0.339   17.627
  311.500   75.939    0.331    0.307   12.588
  311.750   75.933    0.362    0.296   11.451
  312.000   76.536    0.383    0.295   10.152
  312.250   78.359    0.404    0.299    9.584
  312.500   79.573    0.417    0.301    9.097
  312.750   79.567    0.427    0.298    8.692
  313.000   80.780    0.426    0.290    8.369
  313.250   85.652    0.425    0.287    8.126
  313.500   91.743    0.431    0.276    7.965
  313.750   97.835    0.436    0.268    7.641
  314.000  102.098    0.441    0.251    7.318
  314.250  108.189    0.444    0.235    7.156
  314.500  112.452    0.452    0.224    6.995
  314.750  114.275    0.456    0.213    6.672
  315.000  113.047    0.454    0.211    6.592
  315.250  113.041    0.452    0.207    6.430
  315.500  113.037    0.451    0.200    6.188
  315.750  114.860    0.454    0.208    6.026
  316.000  116.072    0.459    0.202    6.272
  316.250  117.287    0.454    0.217    6.680
  316.500  116.670    0.451    0.230    7.006
  316.750  110.566    0.437    0.263    7.740
  317.000  103.243    0.434    0.283    8.066
  317.250  100.189    0.430    0.287    8.556
  317.500  103.230    0.432    0.274    9.045
  317.750  107.493    0.437    0.261    9.535
  318.000  112.975    0.436    0.254    9.698
  318.250  116.018    0.414    0.249   10.025
  318.500  111.134    0.399    0.244   10.189
  318.750  100.152    0.384    0.241   10.190
  319.000   89.780    0.378    0.235   10.110
  319.250   84.897    0.375    0.224    9.543
  319.500   79.403    0.393    0.217    8.813
  319.750   81.836    0.414    0.212    8.326
  320.000   84.878    0.426    0.208    8.083
  320.250   86.702    0.432    0.217    7.923
  320.500   81.208    0.432    0.232    7.924
  320.750   75.104    0.428    0.238    7.844
  321.000   71.439    0.424    0.240    7.520
  321.250   75.091    0.435    0.229    7.116
  321.500   78.744    0.447    0.215    6.954
  321.750   81.175    0.458    0.210    6.630
  322.000   81.172    0.466    0.218    6.144
  322.250   79.945    0.471    0.229    5.901
  322.500   83.597    0.461    0.233    5.659
  322.750   86.641    0.455    0.233    5.498
  323.000   91.513    0.442    0.235    5.499
  323.250   95.775    0.436    0.249    5.582
  323.500   93.330    0.431    0.260    5.746
  323.750   87.225    0.429    0.267    5.910
  324.000   82.952    0.434    0.264    5.993
  324.250   82.944    0.442    0.251    5.832
  324.500   85.987    0.444    0.243    5.752
  324.750   90.251    0.444    0.238    5.672
  325.000   95.122    0.445    0.239    5.430
  325.250   92.677    0.451    0.248    5.350
  325.500   90.842    0.457    0.241    5.189
  325.750   92.666    0.451    0.239    5.109
  326.000   96.318    0.449    0.233    4.948
  326.250   99.970    0.439    0.233    4.868
  326.500  102.402    0.434    0.233    4.788
  326.750   97.518    0.433    0.233    4.789
  327.000   96.903    0.441    0.236    4.791
  327.250   96.896    0.450    0.239    4.792
  327.500   97.500    0.457    0.232    4.875
  327.750   99.933    0.464    0.227    4.876
  328.000  100.537    0.461    0.217    5.121
  328.250  100.531    0.454    0.208    5.285
  328.500   96.257    0.445    0.222    5.694
  328.750   89.541    0.439    0.249    6.183
  329.000   87.097    0.434    0.273    7.079
  329.250   83.432    0.430    0.281    7.649
  329.500   81.598    0.428    0.289    8.219
  329.750   80.371    0.428    0.280    8.628
  330.000   77.317    0.427    0.281    7.898
  330.250   73.043    0.427    0.284    7.411
  330.500   69.988    0.433    0.282    6.843
  330.750   75.470    0.440    0.280    6.194
  331.000   93.755    0.455    0.253    5.627
  331.250  101.068    0.476    0.224    5.221
  331.500  112.038    0.489    0.206    4.735
  331.750  123.616    0.497    0.194    4.330
  332.000  130.318    0.501    0.187    4.250
  332.250  131.531    0.491    0.168    4.414
  332.500  132.135    0.480    0.143    4.741
  332.750  124.201    0.470    0.099    5.230
  333.000  118.098    0.461    0.073    5.720
  333.250  119.312    0.447    0.088    6.209
  333.500  120.525    0.439    0.106    6.698
  333.750  126.617    0.422    0.138    7.432
  334.000  122.953    0.415    0.198    7.839
  334.250  116.239    0.400    0.216    8.328
  334.500  115.622    0.400    0.227    8.736
  334.750  118.055    0.411    0.215    9.225
  335.000  119.878    0.418    0.232    9.146
  335.250  118.653    0.428    0.251    8.822
  335.500  114.379    0.433    0.257    8.498
  335.750  108.276    0.439    0.257    8.093
  336.000  100.951    0.448    0.242    7.607
  336.250  105.214    0.452    0.229    7.283
  336.500  113.134    0.466    0.219    7.203
  336.750  115.568    0.477    0.218    7.043
  337.000  113.731    0.465    0.231    7.044
  337.250  113.727    0.458    0.248    7.045
  337.500  118.599    0.457    0.237    7.128
  337.750  122.252    0.459    0.236    7.291
  338.000  121.634    0.454    0.245    7.781
  338.250  111.871    0.443    0.247    8.189
  338.500  103.329    0.434    0.255    8.516
  338.750   96.007    0.426    0.250    8.842
  339.000   88.073    0.423    0.246    9.006
  339.250   86.238    0.426    0.236    9.008
  339.500   86.232    0.426    0.230    9.009
  339.750   94.153    0.426    0.226    8.930
  340.000  102.683    0.423    0.222    8.768
  340.250  108.165    0.425    0.218    8.526
  340.500  113.038    0.431    0.233    8.284
  340.750  115.469    0.435    0.225    8.041
  341.000  116.684    0.444    0.212    7.717
  341.250  119.725    0.452    0.196    7.312
  341.500  123.378    0.457    0.192    6.988
  341.750  125.202    0.470    0.200    6.908
  342.000  127.026    0.480    0.209    7.153
  342.250  126.409    0.480    0.223    7.562
  342.500  125.184    0.480    0.222    7.807
  342.750  117.860    0.479    0.221    8.296
  343.000  111.756    0.473    0.228    8.623
  343.250  106.872    0.463    0.229    8.787
