~VERSION INFORMATION
 VERS.                 2.0:   CWLS LOG ASCII STANDARD -VERSION 2.0
 WRAP.                  NO:   ONE LINE PER DEPTH STEP
~WELL INFORMATION BLOCK
#MNEM.UNIT           DATA                    DESCRIPTION OF MNEMONIC
#---------    -------------------            -------------------------------
# Generated from Intellog Unique Number	CC_84_87/WELL/1053
NULL.         -999.25                        : NULL_VALUE
WELL.         PETROREP ET AL HOUSE           : Well_name    - WELL              
LOC .         04-20-084-15W4                 : Location     - LOCATION          
UWI .         00/04-20-084-15W400            : Uwi          - UNIQUE WELL ID    
ENTR.         JHS                            : Entered      - ENTERED BY        
SRVC.         COMPUTALOG                     : Scn          - SERVICE COMPANY   
DATE.         06 JAN 81                      : Date         - LOG DATE
STRT.M        85                             : top_depth    - START DEPTH       
STOP.M        262.001                        : bot_depth    - STOP DEPTH        
STEP.M        0.3                            : increment    - STEP LENGTH       
~CURVE INFORMATION BLOCK
#MNEM UNIT       ERCB CURVE CODE    CURVE DESCRIPTION
#-----------   ------------------   ----------------------------------
DEPT.M        00 001 00 00         : DEPTH        - DEPTH                       
DPHI.V/V      00 890 00 00         : PHID         - DENSITY POROSITY (LIMESTONE)
NPHI.V/V      00 330 00 00         : PHIN         - NEUTRON POROSITY (LIMESTONE)
GR  .API      00 310 00 00         : GR           - GAMMA RAY                   
ILD .OHMM     00 120 00 00         : RESD         - DEEP RESISTIVITY (DIL)      
~PARAMETER INFORMATION       
#MNEM.UNIT           DATA             DESCRIPTION OF MNEMONIC
#---------         -----------     ------------------------------
GL  .M        529.5                : gl           - GROUND LEVEL ELEVATION      
EREF.M        533.16               : kb           - ELEVATION OF DEPTH REFERENCE
DATM.M        533.16               : datum        - DATUM ELEVATION             
TDD .M        265                  : tdd          - TOTAL DEPTH DRILLER         
RUN .         ONE                  : Run          - RUN NUMBER                  
ENG .         BILL                 : Engineer     - RECORDING ENGINEER          
WIT .         JIM                  : Witness      - WITNESSED BY                
MUD .         GEL                  : Mud_type     - MUD TYPE                    
MATR.         LIMESTONE            : Logunit      - NEUTRON MATRIX              
TMAX.C        13                   : BHT          - MAXIMUM RECORDED TEMPERATURE
BHTD.M        265                  : BHTDEP       - MAXIMUM RECORDED TEMPERATURE
MATR.         1                    : LOGUNIT      - NEUTRON MATRIX              
RMT .C        25                   : MDTP         - TEMPERATURE OF MUD          
NEUT.         1                    : NEUTRON      - NEUTRON TYPE                
RESI.         0                    : RESIST       - RESISTIVITY TYPE            
RMC .OHMM     0.25                 : RMC          - RESISTIVITY OF MUD CAKE     
RMF .OHMM     0.25                 : RMF          - RESISTIVITY OF MUD FILTRATE 
SUFT.C        15                   : SUFT         - SURFACE TEMPERATURE         
~A  DEPTH     PHID     PHIN       GR     RESD
# ...
  189.401    0.034    0.333   85.645   20.866
  189.701    0.000    0.129   70.988   21.647
  190.001    0.034    0.118   70.355   19.714
  190.301    0.153    0.159   86.792   14.628
  190.601    0.212    0.212   89.205   11.266
  190.901    0.265    0.301   97.109   10.259
  191.201    0.268    0.379   89.160    9.879
  191.501    0.265    0.399   87.303    9.875
  191.801    0.265    0.391   93.379   10.056
  192.101    0.270    0.406  101.892   10.052
  192.401    0.270    0.434  107.354   10.236
  192.701    0.275    0.430  107.331   10.619
  193.001    0.275    0.407  107.915   10.814
  193.301    0.288    0.397   99.967   11.218
  193.601    0.297    0.433   92.627   12.307
  193.901    0.216    0.483   87.725   13.756
  194.201    0.177    0.268   89.532   13.496
  194.501    0.191    0.235   99.872   10.990
  194.801    0.235    0.284  112.653    9.644
  195.101    0.232    0.379  129.089    8.152
  195.401    0.245    0.399  120.531    7.563
  195.701    0.241    0.421  110.752    7.420
  196.001    0.248    0.427  113.775    7.416
  196.301    0.246    0.417  119.240    7.552
  196.601    0.237    0.430  119.216    7.549
  196.901    0.233    0.426  119.192    7.407
  197.201    0.219    0.424  121.609    7.401
  197.501    0.224    0.413  134.388    7.262
  197.801    0.217    0.432  141.679    7.125
  198.101    0.227    0.457  132.512    6.990
  198.401    0.260    0.454  125.171    6.987
  198.701    0.271    0.408  120.876    7.115
  199.001    0.271    0.382  126.949    7.520
  199.301    0.256    0.393  132.414    8.099
  199.601    0.245    0.404  118.371    8.884
  199.901    0.242    0.404  109.201    8.716
  200.201    0.248    0.386  110.392    8.239
  200.501    0.258    0.392  109.154    8.707
  200.801    0.258    0.392  110.351    9.376
  201.101    0.269    0.419  109.106   10.286
  201.401    0.270    0.472  104.206   10.671
  201.701    0.271    0.489  103.572   10.277
  202.001    0.263    0.461  112.694    9.359
  202.301    0.248    0.439  104.745    9.354
  202.601    0.249    0.443   93.747    9.526
  202.901    0.251    0.413  104.698    9.701
  203.201    0.249    0.402  109.550    9.340
  203.501    0.249    0.382  113.793    9.335
  203.801    0.253    0.403  116.210    9.333
  204.101    0.250    0.415  120.454    9.682
  204.401    0.245    0.430  113.723   10.426
  204.701    0.240    0.386  103.335   10.421
  205.001    0.246    0.414  106.966   10.415
  205.301    0.263    0.448  109.995   10.411
  205.601    0.258    0.433  106.310   10.025
  205.901    0.252    0.382  117.263   10.021
  206.201    0.251    0.375  121.507   10.592
  206.501    0.265    0.371  105.020   10.784
  206.801    0.262    0.350  105.607   10.778
  207.101    0.257    0.368  112.900   10.774
  207.401    0.248    0.397  109.828   10.571
  207.701    0.246    0.423  114.071   10.180
  208.001    0.233    0.413  115.874    9.988
  208.301    0.232    0.395  119.512    9.799
  208.601    0.237    0.412  120.708    9.437
  208.901    0.251    0.468  117.024    8.279
  209.201    0.256    0.471  122.488    7.264
  209.501    0.250    0.428  125.514    6.616
  209.801    0.241    0.401  123.049    6.254
  210.101    0.233    0.424  126.685    6.368
  210.401    0.232    0.483  125.442    7.251
  210.701    0.204    0.477  120.542    9.061
  211.001    0.204    0.455  113.812    9.941
  211.301    0.213    0.433  117.447    9.223
  211.601    0.226    0.437  117.418    8.093
  211.901    0.218    0.391  124.716    7.101
  212.201    0.212    0.354  136.274    6.836
  212.501    0.209    0.321  136.248    6.708
  212.801    0.204    0.328  138.665    6.958
  213.101    0.199    0.388  138.640    7.087
  213.401    0.196    0.403  131.912    7.351
  213.701    0.193    0.389  130.670    7.486
  214.001    0.197    0.364  133.693    7.483
  214.301    0.206    0.354  145.863    7.342
  214.601    0.212    0.356  151.936    7.070
  214.901    0.202    0.365  146.427    6.808
  215.201    0.202    0.405  139.083    7.063
  215.501    0.191    0.418  137.231    8.194
  215.801    0.185    0.401  137.207   10.240
  216.101    0.186    0.363  138.407   11.234
  216.401    0.209    0.343  146.308   11.227
  216.701    0.213    0.344  146.282   10.613
  217.001    0.211    0.335  140.765   10.221
  217.301    0.204    0.349  142.580   10.028
  217.601    0.201    0.374  137.678   10.211
  217.901    0.194    0.390  133.994    9.298
  218.201    0.194    0.361  137.629    8.790
  218.501    0.198    0.356  152.845    8.307
  218.801    0.206    0.335  146.116    8.461
  219.101    0.218    0.346  133.901   10.000
  219.401    0.229    0.345  125.948   10.569
  219.701    0.230    0.340  128.364   10.964
  220.001    0.231    0.349  141.147   11.373
  220.301    0.241    0.361  123.442   11.369
  220.601    0.251    0.357  106.348   11.579
  220.901    0.261    0.337  104.494   11.573
  221.201    0.248    0.321  108.739   11.354
  221.501    0.228    0.334  116.641   10.933
  221.801    0.222    0.408  117.835   10.529
  222.101    0.234    0.437  108.059   10.525
  222.401    0.239    0.441  106.203   10.716
  222.701    0.243    0.435  107.400   10.712
  223.001    0.246    0.399   97.013   11.112
  223.301    0.250    0.398   92.112   11.317
  223.601    0.255    0.369   94.526   11.102
  223.901    0.239    0.361  118.890   10.891
  224.201    0.227    0.360  112.161   10.686
  224.501    0.237    0.362  110.307   10.681
  224.801    0.251    0.384  113.332   10.677
  225.101    0.267    0.375  118.183   10.475
  225.401    0.269    0.396  121.208   10.469
  225.701    0.265    0.435  119.356   10.272
  226.001    0.258    0.476  109.578    9.530
  226.301    0.233    0.472  115.039    9.008
  226.601    0.211    0.454  125.383    8.204
  226.901    0.213    0.429  127.799    8.353
  227.201    0.226    0.404  128.994    8.995
  227.501    0.221    0.409  124.701    9.685
  227.801    0.214    0.427  117.966   10.049
  228.101    0.209    0.454  123.434   10.044
  228.401    0.214    0.466  124.630   10.039
  228.701    0.212    0.448  127.044    9.848
  229.001    0.209    0.414  123.973    9.485
  229.301    0.207    0.365  108.100    9.306
  229.601    0.213    0.365   98.928    8.796
  229.901    0.235    0.373  100.125    8.161
  230.201    0.264    0.365  112.906    7.715
  230.501    0.271    0.373  115.318    7.568
  230.801    0.272    0.386  124.443    7.288
  231.101    0.259    0.382  123.199    6.889
  231.401    0.244    0.359  126.224    6.512
  231.701    0.217    0.364  131.074    5.608
  232.001    0.222    0.361  150.562    4.830
  232.301    0.213    0.377  147.490    4.565
  232.602    0.199    0.387  145.639    4.479
  232.902    0.190    0.408  155.978    4.734
  233.202    0.183    0.403  152.905    5.595
  233.502    0.187    0.405  143.737    7.257
  233.802    0.174    0.412  126.642    9.771
  234.102    0.167    0.375  116.865   14.711
  234.402    0.119    0.341  117.452   19.080
  234.702    0.151    0.359  124.130   18.718
  235.002    0.175    0.380  131.427   17.695
  235.302    0.195    0.373  135.056   16.417
  235.602    0.191    0.335  137.476   14.950
  235.902    0.185    0.344  129.524   14.129
  236.202    0.193    0.357  111.212   13.865
  236.502    0.207    0.362   94.724   13.351
  236.802    0.237    0.332   79.461   13.852
  237.102    0.263    0.340   67.851   16.679
  237.402    0.273    0.376   65.999   21.236
  237.702    0.277    0.376   67.806   26.539
  238.002    0.283    0.349   68.999   31.366
  238.302    0.282    0.340   71.417   34.412
  238.602    0.272    0.358   67.126   35.039
  238.902    0.267    0.369   62.836   33.745
  239.202    0.262    0.390   64.029   31.892
  239.502    0.263    0.393   63.396   30.716
  239.802    0.267    0.371   68.251   27.454
  240.102    0.266    0.343   77.976   24.090
  240.402    0.265    0.320   81.617   19.989
  240.702    0.265    0.351   93.783   16.898
  241.002    0.273    0.391   96.811   14.019
  241.302    0.277    0.418   91.905   12.531
