~VERSION INFORMATION
 VERS.                 2.0:   CWLS LOG ASCII STANDARD -VERSION 2.0
 WRAP.                  NO:   ONE LINE PER DEPTH STEP
~WELL INFORMATION BLOCK
#MNEM.UNIT           DATA                    DESCRIPTION OF MNEMONIC
#---------    -------------------            -------------------------------
# Generated from Intellog Unique Number	CX_WELLS/WELL/2729
WELL.         05-14-080-12W4                 : Well_name    - WELL
LOC .         00/05-14-080-12W4/0            : Location     - LOCATION
UWI .         00/05-14-080-12W4/0            : Uwi          - UNIQUE WELL ID
ENTR.         T                              : Entered      - ENTERED BY
SRVC.         SCHLUMBERGER                   : Scn          - SERVICE COMPANY
STRT.M        260                            : top_depth    - START DEPTH
STOP.M        485                            : bot_depth    - STOP DEPTH
STEP.M        0.25                           : increment    - STEP LENGTH
 NULL. -999.2500:NULL Value
~CURVE INFORMATION BLOCK
#MNEM UNIT       ERCB CURVE CODE    CURVE DESCRIPTION
#-----------   ------------------   ----------------------------------
DEPT.M        00 001 00 00         : DEPTH        - DEPTH
GR  .API      00 310 00 00         : GR           - GAMMA RAY
NPHI.V/V      00 330 00 00         : PHIN         - NEUTRON POROSITY (SANDSTONE)
DPHI.V/V      00 890 00 00         : PHID         - DENSITY POROSITY (SANDSTONE)
ILD .OHMM     00 120 00 00         : RESD         - DEEP RESISTIVITY (DLL)
~PARAMETER INFORMATION
#MNEM.UNIT           DATA             DESCRIPTION OF MNEMONIC
#---------         -----------     ------------------------------
GL  .M        686                  : gl           - GROUND LEVEL ELEVATION
EREF.M        689.7                : kb           - ELEVATION OF DEPTH REFERENCE
DATM.M        689.7                : datum        - DATUM ELEVATION
TDD .M        495                  : tdd          - TOTAL DEPTH DRILLER
RUN .         ONE                  : Run          - RUN NUMBER
ENG .         BILL                 : Engineer     - RECORDING ENGINEER
WIT .         JIM                  : Witness      - WITNESSED BY
MUD .         GEL                  : Mud_type     - MUD TYPE
MATR.         SANDSTONE            : Logunit      - NEUTRON MATRIX
TMAX.C        0                    : BHT          - MAXIMUM RECORDED TEMPERATURE
BHTD.M        22                   : BHTDEP       - MAXIMUM RECORDED TEMPERATURE
MATR.         495                  : LOGUNIT      - NEUTRON MATRIX
RMT .C        1                    : MDTP         - TEMPERATURE OF MUD
NEUT.         17                   : NEUTRON      - NEUTRON TYPE
RESI.         1                    : RESIST       - RESISTIVITY TYPE
RMC .OHMM     4                    : RMC          - RESISTIVITY OF MUD CAKE
RMF .OHMM     3.9                  : RMF          - RESISTIVITY OF MUD FILTRATE
SUFT.C        3.8                  : SUFT         - SURFACE TEMPERATURE
SUFT.C        4                    : SUFT         - SURFACE TEMPERATURE
~A  DEPTH       GR     PHIN     PHID     RESD
# ...
  390.500   94.040    0.436    0.225    8.671
  390.750   94.091    0.443    0.237    8.367
  391.000   94.122    0.449    0.248    8.074
  391.250   94.758    0.451    0.248    7.791
  391.500   95.383    0.452    0.241    7.255
  391.750   97.219    0.451    0.232    6.998
  392.000   97.250    0.447    0.233    6.755
  392.250   96.706    0.445    0.232    6.642
  392.500   94.356    0.440    0.226    6.779
  392.750   86.067    0.416    0.217    7.039
  393.000   75.396    0.390    0.192    7.732
  393.250   71.262    0.392    0.177    8.175
  393.500   69.517    0.415    0.224    9.312
  393.750   70.748    0.420    0.233    9.677
  394.000   76.155    0.438    0.242    9.341
  394.250   80.371    0.450    0.254    8.850
  394.500   81.602    0.464    0.265    8.540
  394.750   81.058    0.472    0.275    7.952
  395.000   80.504    0.473    0.280    7.960
  395.250   80.534    0.462    0.278    7.824
  395.500   81.160    0.448    0.267    7.985
  395.750   82.391    0.448    0.262    7.990
  396.000   84.812    0.451    0.257    8.150
  396.250   87.233    0.450    0.256    8.161
  396.500   89.059    0.443    0.257    8.027
  396.750   90.895    0.441    0.258    7.889
  397.000   91.531    0.437    0.260    7.615
  397.250   90.966    0.436    0.261    7.353
  397.500   88.063    0.434    0.264    7.227
  397.750   86.903    0.443    0.267    7.237
  398.000   85.138    0.457    0.272    7.250
  398.250   82.809    0.462    0.278    7.394
  398.500   80.470    0.463    0.285    7.402
  398.750   79.310    0.464    0.287    7.417
  399.000   76.981    0.466    0.293    7.425
  399.250   76.417    0.467    0.298    7.297
  399.500   75.288    0.465    0.299    7.310
  399.750   75.318    0.454    0.298    7.320
  400.000   74.754    0.441    0.288    7.333
  400.250   73.020    0.428    0.271    7.340
  400.500   72.466    0.404    0.256    7.487
  400.750   71.911    0.371    0.211    8.068
  401.000   68.382    0.336    0.169    8.695
  401.250   66.032    0.317    0.085    9.200
  401.500   60.718    0.285    0.068    9.383
  401.750   63.139    0.275    0.102    9.747
  402.000   73.295    0.304    0.127    9.764
  402.250   74.526    0.371    0.199    9.254
  402.500   78.158    0.395    0.280    8.930
  402.750   79.973    0.441    0.295    8.012
  403.000   78.229    0.455    0.291    7.458
  403.250   76.485    0.479    0.286    7.197
  403.500   75.346    0.472    0.276    7.076
  403.750   75.366    0.457    0.257    7.083
  404.000   74.812    0.451    0.254    6.966
  404.250   76.668    0.456    0.279    6.974
  404.500   77.284    0.482    0.280    6.986
  404.750   79.110    0.477    0.284    6.993
  405.000   79.746    0.452    0.288    6.878
  405.250   80.381    0.438    0.286    6.885
  405.500   81.028    0.442    0.281    6.769
  405.750   81.663    0.449    0.278    6.778
  406.000   82.884    0.451    0.270    6.429
  406.250   84.720    0.446    0.266    6.203
  406.500   86.546    0.449    0.265    5.986
  406.750   88.382    0.452    0.262    5.471
  407.000   88.998    0.452    0.260    5.279
  407.250   90.824    0.452    0.255    5.098
  407.500   92.650    0.453    0.255    5.105
  407.750   93.286    0.454    0.255    5.020
  408.000   90.371    0.454    0.253    5.119
  408.250   89.202    0.452    0.254    5.219
  408.500   84.482    0.442    0.257    5.524
  408.750   79.763    0.435    0.254    5.632
  409.000   74.448    0.421    0.206    5.959
  409.250   70.323    0.384    0.164    6.305
  409.500   66.804    0.402    0.128    7.054
  409.750   70.415    0.425    0.158    7.325
  410.000   82.347    0.429    0.201    7.894
  410.250   85.373    0.439    0.214    7.761
  410.500   88.389    0.447    0.213    7.628
  410.750   89.620    0.444    0.211    7.363
  411.000   89.651    0.442    0.211    7.239
  411.250   89.127    0.442    0.211    7.252
  411.500   89.158    0.443    0.212    7.262
  411.750   89.773    0.444    0.211    7.269
  412.000   91.014    0.445    0.211    7.279
  412.250   92.235    0.448    0.208    7.289
  412.500   92.891    0.479    0.208    7.302
  412.750   92.922    0.484    0.206    7.179
  413.000   92.378    0.481    0.204    7.187
  413.250   92.408    0.473    0.203    6.944
  413.500   92.470    0.468    0.202    6.949
  413.750   93.095    0.464    0.202    6.835
  414.000   93.136    0.463    0.200    6.717
  414.250   93.762    0.459    0.200    6.717
  414.500   95.598    0.453    0.200    6.495
  414.750   98.019    0.446    0.207    6.500
  415.000   99.835    0.438    0.214    6.393
  415.250  102.871    0.437    0.222    6.287
  415.500  103.487    0.442    0.221    6.182
  415.750  103.527    0.448    0.219    5.967
  416.000  101.188    0.457    0.218    5.651
  416.250   99.444    0.468    0.225    5.260
  416.500   96.509    0.488    0.237    4.718
  416.750   94.765    0.512    0.252    4.154
  417.000   92.436    0.516    0.264    3.462
  417.250   91.871    0.538    0.270    2.939
  417.500   90.137    0.548    0.268    2.450
  417.750   88.978    0.574    0.261    2.197
  418.000   87.243    0.503    0.255    2.284
  418.250   86.679    0.490    0.247    2.554
  418.500   86.145    0.479    0.236    2.700
  418.750   85.570    0.467    0.219    3.075
  419.000   84.431    0.443    0.216    3.837
  419.250   84.462    0.432    0.213    5.062
  419.500   83.323    0.422    0.198    5.764
  419.750   82.769    0.415    0.181    6.327
  420.000   82.799    0.407    0.182    6.572
  420.250   84.040    0.406    0.193    6.344
  420.500   87.067    0.430    0.205    5.798
  420.750   88.277    0.437    0.212    5.299
  421.000   91.909    0.448    0.216    5.018
  421.250   93.724    0.469    0.210    4.671
  421.500   94.350    0.445    0.202    4.429
  421.750   92.616    0.437    0.189    4.432
  422.000   89.086    0.428    0.179    4.439
  422.250   86.142    0.417    0.185    4.610
  422.500   83.813    0.412    0.213    4.968
  422.750   85.033    0.442    0.221    5.257
  423.000   88.049    0.469    0.226    5.074
  423.250   91.065    0.481    0.224    4.639
  423.500   95.282    0.495    0.221    4.475
  423.750   97.703    0.503    0.213    4.167
  424.000   98.349    0.500    0.200    4.021
  424.250   97.795    0.491    0.178    3.880
  424.500   97.835    0.479    0.162    3.681
  424.750   97.281    0.462    0.160    3.684
  425.000   97.312    0.450    0.174    3.687
  425.250   97.353    0.456    0.185    3.903
  425.500   97.404    0.458    0.191    3.979
  425.750   97.434    0.457    0.192    4.290
  426.000   98.070    0.457    0.187    4.456
  426.250   99.311    0.459    0.183    4.461
  426.500  100.552    0.465    0.180    4.470
  426.750  102.368    0.467    0.177    4.473
  427.000  103.599    0.472    0.195    4.479
  427.250  106.030    0.474    0.217    4.569
  427.500  106.646    0.469    0.219    4.660
  427.750  106.707    0.464    0.220    4.841
  428.000  105.537    0.453    0.221    5.319
  428.250  103.198    0.433    0.222    5.521
  428.500  100.858    0.375    0.236    6.287
  428.750   97.339    0.349    0.262   10.333
  429.000   94.394    0.338    0.255   14.941
  429.250   88.485    0.348    0.241   17.013
  429.500   83.765    0.353    0.254   17.352
  429.750   81.415    0.343    0.267   16.756
  430.000   78.491    0.349    0.264   15.313
  430.250   76.747    0.359    0.260   13.990
  430.500   76.183    0.372    0.255   13.495
  430.750   78.603    0.390    0.251   13.027
  431.000   84.615    0.389    0.253   13.045
  431.250   84.071    0.382    0.252   13.067
  431.500   84.092    0.386    0.245   12.618
  431.750   85.918    0.394    0.229   12.176
  432.000   90.719    0.403    0.212   11.749
  432.250   97.305    0.412    0.206   10.941
  432.500  102.106    0.416    0.203   10.749
  432.750  104.537    0.417    0.204   10.764
  433.000  104.588    0.418    0.204   11.815
  433.250  104.619    0.418    0.206   13.453
  433.500  103.470    0.418    0.207   15.602
  433.750  102.905    0.413    0.209   17.448
