~VERSION INFORMATION
 VERS.                 2.0:   CWLS LOG ASCII STANDARD -VERSION 2.0
 WRAP.                  NO:   ONE LINE PER DEPTH STEP
~WELL INFORMATION BLOCK
#MNEM.UNIT           DATA                    DESCRIPTION OF MNEMONIC
#---------    -------------------            -------------------------------
# Generated from Intellog Unique Number	CS_73_76/WELL/1997
WELL.         06-31-076-12W4                 : Well_name    - WELL
LOC .         00/06-31-076-12W4/0            : Location     - LOCATION
UWI .         00/06-31-076-12W4/0            : Uwi          - UNIQUE WELL ID
ENTR.         SP                             : Entered      - ENTERED BY
SRVC.         SCHLUMBERGER                   : Scn          - SERVICE COMPANY
STRT.M        310.896                        : top_depth    - START DEPTH
STOP.M        545.396                        : bot_depth    - STOP DEPTH
STEP.M        0.25                           : increment    - STEP LENGTH
 NULL. -999.2500:NULL Value
~CURVE INFORMATION BLOCK
#MNEM UNIT       ERCB CURVE CODE    CURVE DESCRIPTION
#-----------   ------------------   ----------------------------------
DEPT.M        00 001 00 00         : DEPTH        - DEPTH
GR  .API      00 310 00 00         : GR           - GAMMA RAY
DPHI.V/V      00 890 00 00         : PHID         - DENSITY POROSITY (SANDSTONE)
NPHI.V/V      00 330 00 00         : PHIN         - NEUTRON POROSITY (SANDSTONE)
ILD .OHMM     00 120 00 00         : RESD         - DEEP RESISTIVITY (DIL)
~PARAMETER INFORMATION
#MNEM.UNIT           DATA             DESCRIPTION OF MNEMONIC
#---------         -----------     ------------------------------
GL  .M        698.998              : gl           - GROUND LEVEL ELEVATION
EREF.M        702.564              : kb           - ELEVATION OF DEPTH REFERENCE
DATM.M        698.998              : datum        - DATUM ELEVATION
TDD .M        547.726              : tdd          - TOTAL DEPTH DRILLER
RUN .         ONE                  : Run          - RUN NUMBER
ENG .         BILL                 : Engineer     - RECORDING ENGINEER
WIT .         JIM                  : Witness      - WITNESSED BY
MUD .         GEL                  : Mud_type     - MUD TYPE
MATR.         SANDSTONE            : Logunit      - NEUTRON MATRIX
TMAX.C        23.3333              : BHT          - MAXIMUM RECORDED TEMPERATURE
BHTD.M        547.726              : BHTDEP       - MAXIMUM RECORDED TEMPERATURE
MATR.         1                    : LOGUNIT      - NEUTRON MATRIX
RMT .C        25                   : MDTP         - TEMPERATURE OF MUD
NEUT.         1                    : NEUTRON      - NEUTRON TYPE
RESI.         0                    : RESIST       - RESISTIVITY TYPE
RMC .OHMM     0.25                 : RMC          - RESISTIVITY OF MUD CAKE
RMF .OHMM     0.25                 : RMF          - RESISTIVITY OF MUD FILTRATE
SUFT.C        15                   : SUFT         - SURFACE TEMPERATURE
~A  DEPTH       GR     PHID     PHIN     RESD
  310.896  104.401    0.248    0.583    3.541
  311.146  100.565    0.236    0.598    3.399
  311.396  104.210    0.240    0.598    3.479
  311.646  104.483    0.234    0.589    3.475
  311.896  104.994    0.227    0.593    3.408
  312.146  106.951    0.232    0.598    3.331
  312.396  107.387    0.228    0.601    3.235
  312.646  105.851    0.232    0.600    3.161
  312.896  105.035    0.237    0.600    3.166
  313.146  105.602    0.231    0.601    3.314
  313.396  104.450    0.238    0.601    3.404
  313.646  103.106    0.246    0.599    3.398
  313.896  102.871    0.245    0.591    3.339
  314.146  102.531    0.239    0.584    3.255
  314.396   98.387    0.247    0.578    3.158
  314.646   97.668    0.241    0.585    3.155
  314.896  100.651    0.244    0.594    3.251
  315.146   98.144    0.250    0.605    3.604
  315.396   94.621    0.241    0.601    4.628
  315.646   91.745    0.220    0.610    5.866
  315.896   87.190    0.183    0.589    7.983
  316.146   83.336    0.165    0.500    9.546
  316.396   84.661    0.119    0.402   10.381
  316.646   89.471    0.217    0.456   10.556
  316.896   86.761    0.273    0.456   10.545
  317.146   89.270    0.281    0.449   10.541
  317.396   90.446    0.267    0.476   10.674
  317.646   91.263    0.276    0.487   10.767
  317.896   91.648    0.287    0.476   11.110
  318.146   89.794    0.290    0.463   11.327
  318.396   85.842    0.306    0.447   11.593
  318.646   82.728    0.309    0.444   11.731
  318.896   84.591    0.312    0.457   11.989
  319.146   84.229    0.322    0.461   11.678
  319.396   83.241    0.328    0.478   10.468
  319.646   82.992    0.311    0.498    9.752
  319.896   84.460    0.300    0.504    8.890
  320.146   91.311    0.291    0.511    8.038
  320.396   93.443    0.295    0.531    7.677
  320.646   91.595    0.286    0.566    7.961
  320.896   90.203    0.286    0.571    8.758
  321.146   91.006    0.314    0.526    8.934
  321.396   95.531    0.289    0.500    8.765
  321.646  107.463    0.281    0.491    8.038
  321.896  110.858    0.268    0.480    7.048
  322.146  109.587    0.236    0.474    6.648
  322.396  107.895    0.226    0.504    6.298
  322.646  104.449    0.229    0.501    6.548
  322.896  101.328    0.232    0.512    7.533
  323.146   96.723    0.245    0.495    8.599
  323.396   94.489    0.276    0.471   10.107
  323.646   90.279    0.333    0.461   12.552
  323.896   88.395    0.346    0.454   13.668
  324.146   84.835    0.352    0.451   14.504
  324.396   87.834    0.344    0.484   14.368
  324.646   87.686    0.338    0.491   13.901
  324.896   91.999    0.332    0.481   13.046
  325.146   95.254    0.321    0.493   12.536
  325.396  102.093    0.313    0.485   12.054
  325.646  104.783    0.304    0.492   11.479
  325.896  103.105    0.300    0.502   11.762
  326.146   99.728    0.296    0.505   11.862
  326.396   94.671    0.287    0.488   12.280
  326.646   90.881    0.274    0.459   12.471
  326.896   83.097    0.264    0.403   12.051
  327.146   76.572    0.257    0.371   11.831
  327.396   77.926    0.247    0.406   11.556
  327.646   86.982    0.241    0.464   11.020
  327.896   85.353    0.242    0.511   10.778
  328.146   80.846    0.284    0.495   10.820
  328.396   78.062    0.285    0.456   10.651
  328.646   76.475    0.244    0.435   10.251
  328.896   81.457    0.235    0.438    9.206
  329.146   88.098    0.207    0.428    8.242
  329.396   91.552    0.176    0.415    7.566
  329.646   96.887    0.160    0.429    6.918
  329.896  103.645    0.172    0.446    6.379
  330.146  108.169    0.211    0.471    6.146
  330.396  112.168    0.209    0.500    5.770
  330.646  116.243    0.186    0.522    5.533
  330.896  121.060    0.178    0.550    5.309
  331.146  123.403    0.195    0.577    5.154
  331.396  126.730    0.205    0.570    5.204
  331.646  128.192    0.193    0.583    5.249
  331.896  124.531    0.193    0.579    5.191
  332.146  123.636    0.180    0.571    4.789
  332.396  126.128    0.160    0.588    4.520
  332.646  126.081    0.170    0.597    4.082
  332.896  127.448    0.179    0.602    3.773
  333.146  130.872    0.179    0.614    3.502
  333.396  134.027    0.176    0.615    3.295
  333.646  131.812    0.194    0.612    3.098
  333.896  130.805    0.206    0.613    3.019
  334.146  134.082    0.222    0.613    3.187
  334.396  133.922    0.229    0.608    3.700
  334.646  126.611    0.247    0.604    4.440
  334.896  122.688    0.251    0.587    5.403
  335.146  117.380    0.262    0.552    6.586
  335.396  117.322    0.274    0.522    7.601
  335.646  112.045    0.266    0.520    9.040
  335.896  108.568    0.260    0.531   10.125
  336.146  104.342    0.231    0.523   10.597
  336.396  101.098    0.217    0.514   10.884
  336.646   97.904    0.238    0.514   10.839
  336.896   95.726    0.274    0.528   11.520
  337.146   93.300    0.297    0.516   11.119
  337.396  102.491    0.287    0.520   10.344
  337.646  106.626    0.273    0.515    8.966
  337.896  113.855    0.261    0.535    8.107
  338.146  115.552    0.156    0.564    7.171
  338.396  118.736    0.117    0.597    6.502
  338.646  126.839    0.096    0.576    6.005
  338.896  124.705    0.194    0.570    6.226
  339.146  119.437    0.217    0.553    6.951
  339.396  115.141    0.236    0.529    8.367
  339.646  111.664    0.241    0.481    9.329
  339.896  107.523    0.246    0.455   10.206
  340.146  103.913    0.259    0.453   10.987
  340.396  101.278    0.265    0.485   10.986
  340.646   98.107    0.271    0.497   10.960
  340.896   95.690    0.287    0.472   10.793
  341.146  101.926    0.297    0.463   10.403
  341.396  108.280    0.293    0.477   10.007
  341.646  112.307    0.248    0.501    9.559
  341.896  118.002    0.260    0.530    9.250
  342.146  120.496    0.269    0.519    8.971
  342.396  120.479    0.273    0.482    9.275
  342.646  118.000    0.257    0.457    9.379
  342.896  112.743    0.248    0.488    9.993
  343.146  104.365    0.244    0.508   10.722
  343.396   96.734    0.259    0.518   11.406
  343.646   88.576    0.284    0.499   12.149
  343.896   82.437    0.298    0.492   12.801
  344.146   78.814    0.310    0.475   13.138
  344.396   77.557    0.301    0.460   12.563
  344.646   81.566    0.289    0.439   11.264
  344.896   84.104    0.285    0.424   10.104
  345.146   91.597    0.262    0.426    9.007
  345.396   99.116    0.238    0.445    8.028
  345.646  108.468    0.223    0.458    7.428
  345.896  115.910    0.215    0.495    6.848
  346.146  114.009    0.206    0.518    6.595
  346.396  113.781    0.198    0.522    6.203
  346.646  114.023    0.168    0.526    5.778
  346.896  116.854    0.152    0.525    5.654
  347.146  118.769    0.151    0.538    5.642
  347.396  114.988    0.235    0.566    5.990
  347.646  110.319    0.250    0.592    6.681
  347.896  105.728    0.267    0.585    6.750
  348.146  103.923    0.286    0.542    6.865
  348.396  107.846    0.271    0.586    6.501
  348.646  110.018    0.232    0.606    6.199
  348.896  111.137    0.250    0.600    6.076
  349.146  111.928    0.258    0.595    6.161
  349.396  111.151    0.271    0.606    6.505
  349.646  109.047    0.264    0.588    6.821
  349.896  106.077    0.254    0.584    7.479
  350.146  102.811    0.260    0.571    8.803
  350.396   99.674    0.260    0.541    9.871
  350.646   91.526    0.251    0.496   10.998
  350.896   82.213    0.284    0.474   11.677
  351.146   73.714    0.283    0.485   12.127
  351.396   66.194    0.308    0.460   12.334
  351.646   62.555    0.326    0.445   12.320
  351.896   66.327    0.329    0.486   12.314
  352.146   70.758    0.336    0.510   11.634
  352.396   72.431    0.328    0.526   11.083
  352.646   75.496    0.320    0.521   10.261
  352.896   87.571    0.303    0.489    9.585
  353.146   97.924    0.251    0.515    8.528
  353.396  101.985    0.228    0.535    7.708
  353.646  104.786    0.221    0.556    6.795
  353.896  105.278    0.198    0.569    6.427
  354.146  105.015    0.213    0.549    6.225
