~VERSION INFORMATION
 VERS.                 2.0:   CWLS LOG ASCII STANDARD -VERSION 2.0
 WRAP.                  NO:   ONE LINE PER DEPTH STEP
~WELL INFORMATION BLOCK
#MNEM.UNIT           DATA                    DESCRIPTION OF MNEMONIC
#---------    -------------------            -------------------------------
# Generated from Intellog Unique Number	CW_70_72/WELL/2898
NULL.         -999.25                        : NULL_VALUE
WELL.         SUN GAMBLER                    : Well_name    - WELL              
LOC .         06-07-070-20W4                 : Location     - LOCATION          
UWI .         00/06-07-070-20W4/0            : Uwi          - UNIQUE WELL ID    
ENTR.         MAX                            : Entered      - ENTERED BY        
SRVC.         SCHLUMBERGER                   : Scn          - SERVICE COMPANY   
DATE.         06 MAR 79                      : Date         - LOG DATE
STRT.M        380                            : top_depth    - START DEPTH       
STOP.M        550                            : bot_depth    - STOP DEPTH        
STEP.M        0.25                           : increment    - STEP LENGTH       
~CURVE INFORMATION BLOCK
#MNEM UNIT       ERCB CURVE CODE    CURVE DESCRIPTION
#-----------   ------------------   ----------------------------------
DEPT.M        00 001 00 00         : DEPTH        - DEPTH                       
ILD .OHMM     00 120 00 00         : RESD         - DEEP RESISTIVITY (DIL)      
NPHI.V/V      00 330 00 00         : PHIN         - NEUTRON POROSITY (SANDSTONE)
DPHI.V/V      00 890 00 00         : PHID         - DENSITY POROSITY (SANDSTONE)
CALI.MM       00 280 01 00         : CAL          - CALIPER                     
GR  .API      00 310 00 00         : GR           - GAMMA RAY                   
~PARAMETER INFORMATION       
#MNEM.UNIT           DATA             DESCRIPTION OF MNEMONIC
#---------         -----------     ------------------------------
GL  .M        634.1                : gl           - GROUND LEVEL ELEVATION      
EREF.M        637.7                : kb           - ELEVATION OF DEPTH REFERENCE
DATM.M        634.1                : datum        - DATUM ELEVATION             
TDD .M        576                  : tdd          - TOTAL DEPTH DRILLER         
RUN .         ONE                  : Run          - RUN NUMBER                  
ENG .         BILL                 : Engineer     - RECORDING ENGINEER          
WIT .         JIM                  : Witness      - WITNESSED BY                
MUD .         GEL                  : Mud_type     - MUD TYPE                    
MATR.         SANDSTONE            : Logunit      - NEUTRON MATRIX              
TMAX.C        26                   : BHT          - MAXIMUM RECORDED TEMPERATURE
BHTD.M        576                  : BHTDEP       - MAXIMUM RECORDED TEMPERATURE
RMT .C        14                   : MDTP         - TEMPERATURE OF MUD          
MUDD.KG/M     1100                 : MWT          - MUD DENSITY                 
NEUT.         1                    : NEUTRON      - NEUTRON TYPE                
RESI.         0                    : RESIST       - RESISTIVITY TYPE            
RM  .OHMM     3.6                  : RM           - RESISTIVITY OF MUD          
RMC .OHMM     0.25                 : RMC          - RESISTIVITY OF MUD CAKE     
RMF .OHMM     3.6                  : RMF          - RESISTIVITY OF MUD FILTRATE 
SUFT.C        -5                   : SUFT         - SURFACE TEMPERATURE         
~A  DEPTH     RESD     PHIN     PHID      CAL       GR
# ...
  489.500    3.753    0.440    0.229  160.596   86.358
  489.750    3.554    0.430    0.235  161.083   89.025
  490.000    3.216    0.454    0.229  163.548   93.474
  490.250    2.937    0.493    0.237  166.512   99.109
  490.500    2.756    0.492    0.237  167.494  103.556
  490.750    2.563    0.494    0.250  165.508  105.333
  491.000    2.340    0.506    0.232  165.007  105.032
  491.250    2.156    0.515    0.211  165.001  103.544
  491.500    2.235    0.527    0.197  165.982   99.978
  491.750    2.338    0.518    0.214  167.459   99.677
  492.000    2.491    0.514    0.216  168.937  104.126
  492.250    2.701    0.509    0.202  171.402  105.605
  492.500    3.011    0.503    0.197  172.385  104.118
  492.750    3.740    0.487    0.209  172.380   96.099
  493.000    3.948    0.457    0.214  170.394   94.017
  493.250    4.205    0.424    0.225  166.430   93.420
  493.500    4.320    0.417    0.221  164.939   90.744
  493.750    4.438    0.423    0.210  164.437   89.553
  494.000    4.477    0.428    0.205  164.926   88.362
  494.250    4.476    0.426    0.198  164.424   86.577
  494.500    4.515    0.423    0.188  163.427   85.386
  494.750    4.514    0.419    0.201  163.421   84.788
  495.000    4.595    0.414    0.213  163.413   84.784
  495.250    4.636    0.406    0.213  162.912   84.186
  495.500    4.677    0.401    0.204  162.905   82.698
  495.750    4.718    0.403    0.200  164.383   82.990
  496.000    4.847    0.416    0.194  165.861   86.548
  496.250    4.979    0.430    0.212  166.348   89.512
  496.500    4.977    0.440    0.218  165.845   89.509
  496.750    4.887    0.433    0.212  165.345   88.316
  497.000    4.712    0.430    0.207  164.843   88.610
  497.250    4.462    0.436    0.204  164.342   87.418
  497.500    4.380    0.428    0.202  163.841   85.632
  497.750    4.340    0.427    0.208  163.834   84.739
  498.000    4.338    0.430    0.211  164.816   84.141
  498.250    4.298    0.432    0.215  164.810   83.841
  498.500    4.297    0.434    0.216  164.801   83.540
  498.750    4.296    0.443    0.210  165.289   81.161
  499.000    4.373    0.417    0.199  165.777   76.705
  499.250    4.616    0.395    0.185  166.266   72.545
  499.500    4.917    0.361    0.166  165.765   75.806
  499.750    5.051    0.369    0.148  163.284   79.957
  500.000    3.994    0.416    0.244  161.291   90.013
  500.250    3.852    0.459    0.227  161.310   84.146
  500.500    4.073    0.367    0.152  161.831   72.394
  500.750    4.676    0.285    0.096  162.341   64.174
  501.000    5.831    0.268    0.125  164.331   57.427
  501.250    6.882    0.320    0.150  165.338   58.323
  501.500    7.144    0.342    0.167  165.368   62.751
  501.750    6.581    0.367    0.238  164.411   66.005
  502.000    4.399    0.394    0.250  162.480   65.727
  502.250    3.979    0.414    0.267  161.042   64.566
  502.500    3.438    0.415    0.279  161.059   65.172
  502.750    3.111    0.428    0.286  160.602   66.070
  503.000    3.028    0.412    0.298  160.622   64.616
  503.250    2.975    0.424    0.303  160.161   65.218
  503.500    2.975    0.428    0.298  160.191   66.999
  503.750    2.951    0.425    0.291  159.727   69.958
  504.000    2.953    0.414    0.290  159.747   74.092
  504.250    3.009    0.420    0.287  159.794   76.171
  504.500    3.211    0.433    0.275  159.810   75.300
  504.750    3.426    0.418    0.262  160.814   73.257
  505.000    3.757    0.382    0.228  162.311   70.332
  505.250    4.950    0.349    0.212  163.315   68.583
  505.500    5.429    0.327    0.129  164.815   65.953
  505.750    5.845    0.327    0.148  164.358   62.438
  506.000    5.957    0.353    0.161  163.398   62.456
  506.250    5.590    0.371    0.202  163.424   64.823
  506.500    4.488    0.403    0.219  164.921   71.604
  506.750    4.251    0.401    0.206  165.925   75.151
  507.000    4.254    0.397    0.202  166.445   82.815
  507.250    4.497    0.403    0.215  166.962   85.478
  507.500    4.710    0.417    0.209  167.972   90.204
  507.750    5.026    0.419    0.205  167.999   85.510
  508.000    5.314    0.413    0.194  168.512   84.055
  508.250    5.415    0.410    0.186  169.032   84.953
  508.500    5.519    0.408    0.193  169.059   84.677
  508.750    5.573    0.401    0.203  169.085   84.697
  509.000    5.576    0.398    0.204  169.602   87.062
  509.250    5.632    0.400    0.206  171.096   90.902
  509.500    5.635    0.406    0.210  173.083   89.153
  509.750    5.690    0.399    0.216  174.584   86.227
  510.000    5.690    0.394    0.216  171.182   84.482
  510.250    5.698    0.409    0.223  167.777   82.730
  510.500    5.700    0.420    0.229  165.839   81.275
  510.750    5.448    0.406    0.238  164.885   80.996
  511.000    5.255    0.396    0.215  163.935   82.193
  511.250    5.163    0.392    0.213  163.471   83.676
  511.500    5.166    0.397    0.209  163.007   85.166
  511.750    5.169    0.404    0.203  162.544   82.239
  512.000    5.316    0.393    0.203  162.570   78.139
  512.250    5.368    0.373    0.175  163.574   76.976
  512.500    5.038    0.383    0.176  166.051   84.053
  512.750    4.196    0.432    0.230  168.049   92.009
  513.000    3.593    0.493    0.248  169.052   99.967
  513.250    3.497    0.513    0.261  169.569   97.633
  513.500    3.374    0.502    0.265  170.086   97.059
  513.750    3.195    0.487    0.267  170.113   98.840
  514.000    3.025    0.485    0.265  169.645  100.328
  514.250    2.945    0.488    0.252  168.692  100.344
  514.500    3.001    0.495    0.253  167.741   99.772
  514.750    3.087    0.501    0.256  168.748   98.905
  515.000    3.204    0.491    0.247  169.265   97.449
  515.250    3.326    0.460    0.227  170.759   92.170
  515.500    3.648    0.450    0.208  172.749   90.715
  515.750    4.345    0.442    0.185  170.328   89.851
  516.000    4.765    0.449    0.155  169.374   88.394
  516.250    4.947    0.436    0.083  169.401   86.351
  516.500    5.041    0.404    0.066  169.917   86.073
  516.750    5.232    0.385    0.118  170.928   88.150
  517.000    5.236    0.399    0.174  171.438   91.695
  517.250    5.097    0.405    0.176  172.448   95.829
  517.500    5.053    0.429    0.160  174.435   98.492
  517.750    5.010    0.436    0.179  174.462   97.922
  518.000    5.013    0.428    0.193  172.037   92.349
  518.250    5.109    0.412    0.193  169.613   89.424
  518.500    5.303    0.403    0.190  168.662   90.030
  518.750    5.555    0.398    0.193  169.179   92.397
  519.000    5.508    0.415    0.189  169.205   93.295
  519.250    5.461    0.426    0.181  168.738   95.076
  519.500    5.316    0.415    0.189  168.281   98.623
  519.750    5.081    0.407    0.187  167.814   98.637
  520.000    4.856    0.408    0.183  166.857   97.771
  520.250    4.815    0.411    0.177  167.374   98.083
  520.500    4.862    0.407    0.169  169.851   99.862
  520.750    5.047    0.405    0.176  170.858  100.466
  521.000    5.287    0.402    0.178  170.395   99.305
  521.250    5.692    0.397    0.175  169.447   97.556
  521.500    6.129    0.397    0.191  169.470   91.395
  521.750    7.643    0.393    0.180  169.497   73.469
  522.000    8.229    0.370    0.144  167.566   69.072
  522.250   10.646    0.321    0.075  165.628   63.205
  522.500   13.771    0.258    0.095  166.155   63.516
  522.750   14.692    0.244    0.092  166.665   66.179
  523.000   14.173    0.261    0.102  166.688   73.842
  523.250   12.938    0.314    0.147  166.715   87.685
  523.500    9.832    0.370    0.185  167.728   94.174
  523.750    8.040    0.390    0.191  168.732   91.248
  524.000    7.207    0.396    0.189  167.291   87.440
  524.250    6.702    0.394    0.175  165.844   83.338
  524.500    6.405    0.404    0.150  165.873   84.531
  524.750    5.902    0.418    0.149  167.371   86.898
  525.000    5.640    0.420    0.150  167.397   89.855
  525.250    5.592    0.408    0.157  166.930   92.224
  525.500    5.544    0.400    0.159  166.957   93.713
  525.750    5.650    0.382    0.158  166.983   94.023
