~VERSION INFORMATION
 VERS.                 2.0:   CWLS LOG ASCII STANDARD -VERSION 2.0
 WRAP.                  NO:   ONE LINE PER DEPTH STEP
~WELL INFORMATION BLOCK
#MNEM.UNIT           DATA                    DESCRIPTION OF MNEMONIC
#---------    -------------------            -------------------------------
# Generated from Intellog Unique Number	CW_76_78/WELL/529
WELL.         CHIEFCO RR ET AL PELICAN 06-21 : Well_name    - WELL
LOC .         00/06-21-077-22W4/0            : Location     - LOCATION
UWI .         00/06-21-077-22W4/0            : Uwi          - UNIQUE WELL ID
ENTR.         jj                             : Entered      - ENTERED BY
SRVC.         SCHLUMBERGER                   : Scn          - SERVICE COMPANY
DATE.         24 FEB 1973                    : Date         - LOG DATE
STRT.M        377.952                        : top_depth    - START DEPTH
STOP.M        600.452                        : bot_depth    - STOP DEPTH
STEP.M        0.25                           : increment    - STEP LENGTH
 NULL. -999.2500:NULL Value
~CURVE INFORMATION BLOCK
#MNEM UNIT       ERCB CURVE CODE    CURVE DESCRIPTION
#-----------   ------------------   ----------------------------------
DEPT.M        00 001 00 00         : DEPTH        - DEPTH
ILD .OHMM     00 120 00 00         : RESD         - DEEP RESISTIVITY (DIL)
NPHI.V/V      00 330 00 00         : PHIN         - NEUTRON POROSITY (SANDSTONE)
DPHI.V/V      00 890 00 00         : PHID         - DENSITY POROSITY (SANDSTONE)
GR  .API      00 310 00 00         : GR           - GAMMA RAY
CALI.MM       00 280 01 00         : CAL          - CALIPER
~PARAMETER INFORMATION
#MNEM.UNIT           DATA             DESCRIPTION OF MNEMONIC
#---------         -----------     ------------------------------
GL  .M        701.954              : gl           - GROUND LEVEL ELEVATION
EREF.M        704.088              : kb           - ELEVATION OF DEPTH REFERENCE
DATM.M        701.954              : datum        - DATUM ELEVATION
TDD .M        601.066              : tdd          - TOTAL DEPTH DRILLER
RUN .         ONE                  : Run          - RUN NUMBER
ENG .         XXXXX                : Engineer     - RECORDING ENGINEER
WIT .         XXXXX                : Witness      - WITNESSED BY
BASE.         EDMONTON             : Branch       - HOME BASE OF LOGGING UNIT
MUD .         GEL CHEM             : Mud_type     - MUD TYPE
MATR.         SANDSTONE            : Logunit      - NEUTRON MATRIX
TMAX.C        20                   : BHT          - MAXIMUM RECORDED TEMPERATURE
BHTD.M        598.932              : BHTDEP       - MAXIMUM RECORDED TEMPERATURE
RMT .C        15.5556              : MDTP         - TEMPERATURE OF MUD
MUDD.KG/M     1080                 : MWT          - MUD DENSITY
NEUT.         1                    : NEUTRON      - NEUTRON TYPE
RESI.         0                    : RESIST       - RESISTIVITY TYPE
RM  .OHMM     3.57                 : RM           - RESISTIVITY OF MUD
RMC .OHMM     2.5                  : RMC          - RESISTIVITY OF MUD CAKE
RMF .OHMM     3.51                 : RMF          - RESISTIVITY OF MUD FILTRATE
SUFT.C        4.5                  : SUFT         - SURFACE TEMPERATURE
~A  DEPTH     RESD     PHIN     PHID       GR      CAL
# ...
  450.952    5.228    0.575    0.242  104.712  162.073
  451.202    5.525    0.559    0.232   98.411  161.874
  451.452    5.871    0.541    0.252   91.864  161.778
  451.702    6.407    0.529    0.275   88.011  161.784
  451.952    6.696    0.535    0.289   83.362  161.687
  452.202    6.932    0.531    0.303   82.448  161.177
  452.452    7.164    0.535    0.295   86.799  160.250
  452.702    7.280    0.546    0.276   85.518  158.185
  452.952    7.320    0.540    0.260   81.726  157.778
  453.202    7.195    0.534    0.276   83.751  158.303
  453.452    6.943    0.439    0.280   87.429  160.177
  453.702    6.952    0.433    0.290   89.148  161.634
  453.952    6.938    0.466    0.281   89.519  162.160
  454.202    6.858    0.522    0.271   88.605  159.887
  454.452    6.691    0.508    0.257   90.813  157.094
  454.702    6.460    0.493    0.222   94.491  154.925
  454.952    6.338    0.494    0.230   94.373  155.968
  455.202    6.299    0.507    0.228   93.582  158.880
  455.452    6.343    0.497    0.195   92.912  161.063
  455.702    6.474    0.487    0.176   92.304  163.457
  455.952    6.629    0.490    0.192   94.451  163.877
  456.202    6.854    0.490    0.210   97.333  163.676
  456.452    6.951    0.477    0.204   98.194  163.580
  456.702    7.038    0.477    0.184   99.116  163.068
  456.952    7.115    0.463    0.200   96.305  162.249
  457.202    7.125    0.462    0.186   91.595  161.217
  457.452    7.083    0.464    0.200   90.068  159.047
  457.702    7.013    0.465    0.210   91.236  156.256
  457.952    6.884    0.454    0.218   94.178  154.811
  458.202    6.730    0.444    0.201   94.980  155.338
  458.452    6.603    0.470    0.212   92.718  158.248
  458.702    6.539    0.498    0.211   90.212  160.742
  458.952    6.622    0.493    0.223   90.400  162.304
  459.202    6.833    0.469    0.205   89.302  162.210
  459.452    7.102    0.437    0.160   89.062  162.526
  459.702    7.381    0.408    0.147   90.719  163.158
  459.952    7.585    0.443    0.179   93.233  162.956
  460.202    7.887    0.460    0.199   91.952  162.651
  460.452    7.999    0.401    0.196   86.813  162.347
  460.702    7.951    0.320    0.176   80.695  162.255
  460.952    7.830    0.356    0.108   86.025  162.364
  461.202    7.431    0.403    0.111   96.193  162.162
  461.452    7.066    0.410    0.179   98.769  161.962
  461.702    6.706    0.412    0.192   97.427  161.968
  461.952    6.364    0.452    0.179   98.349  161.460
  462.202    6.050    0.493    0.187   97.374  161.050
  462.452    5.690    0.510    0.193   97.806  160.540
  462.702    5.499    0.516    0.180   98.300  161.169
  462.952    5.347    0.527    0.179   98.978  162.213
  463.202    5.265    0.543    0.186   97.880  163.256
  463.452    5.264    0.550    0.188  100.946  165.752
  463.702    5.322    0.528    0.193  101.440  165.862
  463.952    5.328    0.513    0.207   96.668  162.345
  464.202    5.325    0.515    0.218   91.040  154.370
  464.452    5.294    0.493    0.226   87.371  152.822
  464.702    5.187    0.441    0.203   91.048  155.420
  464.952    5.051    0.483    0.202   96.686  159.264
  465.202    4.892    0.525    0.201   99.445  162.278
  465.452    4.635    0.558    0.198   99.878  162.908
  465.702    4.407    0.542    0.191  102.331  162.810
  465.952    4.276    0.528    0.203  106.682  162.920
  466.202    4.218    0.541    0.210  105.400  162.514
  466.452    4.170    0.522    0.206  103.752  163.665
  466.702    4.192    0.536    0.184  101.491  164.602
  466.952    4.302    0.573    0.185  100.332  165.543
  467.202    4.413    0.551    0.213   98.561  165.964
  467.452    4.543    0.523    0.227   96.361  165.142
  467.702    4.767    0.538    0.236   92.630  161.416
  467.952    4.964    0.529    0.243   90.370  154.477
  468.202    5.119    0.548    0.229   89.639  150.130
  468.452    5.381    0.570    0.228   81.745  150.863
  468.702    5.709    0.559    0.237   80.586  156.262
  468.952    6.032    0.545    0.252   82.367  158.446
  469.202    6.619    0.562    0.246   83.166  157.936
  469.452    6.994    0.559    0.266   81.824  155.246
  469.702    7.364    0.562    0.277   78.338  149.344
  469.952    7.695    0.551    0.301   73.996  146.657
  470.202    7.941    0.569    0.297   73.081  143.554
  470.452    7.982    0.580    0.286   74.433  142.627
  470.702    7.892    0.581    0.271   74.498  145.123
  470.952    7.798    0.560    0.280   75.359  150.417
  471.202    7.638    0.514    0.300   73.405  156.748
  471.452    7.497    0.420    0.282   74.694  157.895
  471.702    7.356    0.368    0.244   79.046  154.586
  471.952    7.125    0.335    0.237   81.621  154.387
  472.202    6.797    0.364    0.263   80.034  155.636
  472.452    6.391    0.416    0.291   79.855  160.518
  472.702    6.178    0.430    0.290   78.879  157.415
  472.952    6.017    0.463    0.303   75.517  154.104
  473.202    6.003    0.446    0.296   75.336  153.384
  473.452    6.210    0.457    0.288   77.729  156.916
  473.702    6.276    0.469    0.311   78.407  159.517
  473.952    6.293    0.445    0.304   76.267  157.864
  474.202    6.223    0.422    0.281   79.885  156.627
  474.452    6.095    0.403    0.284   81.665  156.532
  474.702    5.937    0.361    0.261   81.729  155.398
  474.952    5.750    0.341    0.248   81.978  152.087
  475.202    5.507    0.468    0.238   83.086  151.057
  475.452    5.244    0.499    0.255   84.497  154.488
  475.702    4.986    0.518    0.271   84.379  157.085
  475.952    4.813    0.541    0.246   85.486  157.403
  476.202    4.846    0.542    0.269   87.632  153.577
  476.452    4.991    0.514    0.290   86.106  152.753
  476.702    5.226    0.446    0.279   81.947  152.242
  476.952    5.523    0.385    0.247   79.257  152.248
  477.202    5.836    0.351    0.174   73.629  153.603
  477.452    6.145    0.366    0.102   77.368  157.862
  477.702    5.877    0.439    0.127   82.515  160.877
  477.952    5.585    0.513    0.147   87.601  160.780
  478.202    5.043    0.531    0.212   89.626  156.846
  478.452    4.594    0.556    0.222   92.140  159.964
  478.702    4.116    0.547    0.211   94.042  161.215
  478.952    3.827    0.512    0.236   93.924  162.362
  479.202    3.797    0.501    0.218   94.235  161.022
  479.452    3.838    0.504    0.201   95.953  156.987
  479.702    3.976    0.518    0.229   97.855  153.989
  479.952    4.077    0.528    0.227   95.839  153.372
  480.202    4.190    0.538    0.207   93.578  153.587
  480.452    4.252    0.536    0.215   94.072  154.319
  480.702    4.282    0.520    0.223   95.852  154.640
  480.952    4.328    0.508    0.231   96.959  157.341
  481.202    4.375    0.504    0.220   97.330  159.215
  481.452    4.374    0.505    0.213   95.558  159.531
  481.702    4.324    0.516    0.206   94.278  158.399
  481.952    4.226    0.509    0.200   92.751  158.924
  482.202    4.226    0.490    0.198   89.694  158.000
  482.452    4.238    0.480    0.203   90.984  156.347
  482.702    4.302    0.479    0.205   93.253  156.043
  482.952    4.390    0.485    0.220   93.625  159.678
  483.202    4.485    0.489    0.225   95.466  159.063
  483.452    4.575    0.490    0.225   99.266  154.511
  483.702    4.676    0.475    0.222  101.046  153.065
  483.952    4.737    0.481    0.212  101.111  152.969
  484.202    4.699    0.493    0.208  103.259  155.362
  484.452    4.577    0.499    0.217  102.895  158.063
  484.702    4.433    0.504    0.220  103.267  162.323
  484.952    4.222    0.520    0.225  105.353  164.921
  485.202    4.046    0.522    0.207  106.581  166.171
  485.452    4.043    0.546    0.205  107.198  166.075
  485.702    4.132    0.547    0.208  104.814  164.630
  485.952    4.297    0.539    0.201  100.349  162.357
  486.202    4.416    0.524    0.232   95.456  160.291
  486.452    4.539    0.510    0.234   90.684  160.195
  486.702    4.622    0.499    0.229   95.892  160.928
  486.952    4.697    0.492    0.217  100.244  161.973
  487.202    4.668    0.486    0.198  101.902  163.223
