~VERSION INFORMATION
 VERS.                 2.0:   CWLS LOG ASCII STANDARD -VERSION 2.0
 WRAP.                  NO:   ONE LINE PER DEPTH STEP
~WELL INFORMATION BLOCK
#MNEM.UNIT           DATA                    DESCRIPTION OF MNEMONIC
#---------    -------------------            -------------------------------
# Generated from Intellog Unique Number	CS_71_72/WELL/840
WELL.         MAYNARD ET AL TWEEDIE          : Well_name    - WELL
LOC .         00/09-13-072-12W4/0            : Location     - LOCATION
UWI .         00/09-13-072-12W4/0            : Uwi          - UNIQUE WELL ID
ENTR.         SP                             : Entered      - ENTERED BY
SRVC.         SCHLUMBERGER                   : Scn          - SERVICE COMPANY
STRT.M        290                            : top_depth    - START DEPTH
STOP.M        525                            : bot_depth    - STOP DEPTH
STEP.M        0.25                           : increment    - STEP LENGTH
 NULL. -999.2500:NULL Value
~CURVE INFORMATION BLOCK
#MNEM UNIT       ERCB CURVE CODE    CURVE DESCRIPTION
#-----------   ------------------   ----------------------------------
DEPT.M        00 001 00 00         : DEPTH        - DEPTH
GR  .API      00 310 00 00         : GR           - GAMMA RAY
NPHI.V/V      00 330 00 00         : PHIN         - NEUTRON POROSITY (LIMESTONE)
DPHI.V/V      00 890 00 00         : PHID         - DENSITY POROSITY (LIMESTONE)
ILD .OHMM     00 120 00 00         : RESD         - DEEP RESISTIVITY (DIL)
~PARAMETER INFORMATION
#MNEM.UNIT           DATA             DESCRIPTION OF MNEMONIC
#---------         -----------     ------------------------------
GL  .M        639.4                : gl           - GROUND LEVEL ELEVATION
EREF.M        642.75               : kb           - ELEVATION OF DEPTH REFERENCE
DATM.M        639.4                : datum        - DATUM ELEVATION
TDD .M        540                  : tdd          - TOTAL DEPTH DRILLER
RUN .         ONE                  : Run          - RUN NUMBER
ENG .         BILL                 : Engineer     - RECORDING ENGINEER
WIT .         JIM                  : Witness      - WITNESSED BY
MUD .         GEL                  : Mud_type     - MUD TYPE
MATR.         LIMESTONE            : Logunit      - NEUTRON MATRIX
TMAX.C        10                   : BHT          - MAXIMUM RECORDED TEMPERATURE
BHTD.M        540                  : BHTDEP       - MAXIMUM RECORDED TEMPERATURE
MATR.         1                    : LOGUNIT      - NEUTRON MATRIX
RMT .C        25                   : MDTP         - TEMPERATURE OF MUD
NEUT.         1                    : NEUTRON      - NEUTRON TYPE
RESI.         0                    : RESIST       - RESISTIVITY TYPE
RMC .OHMM     0.25                 : RMC          - RESISTIVITY OF MUD CAKE
RMF .OHMM     0.25                 : RMF          - RESISTIVITY OF MUD FILTRATE
SUFT.C        15                   : SUFT         - SURFACE TEMPERATURE
~A  DEPTH       GR     PHIN     PHID     RESD
# ...
  420.500   86.083    0.456    0.336    5.972
  420.750   87.313    0.458    0.342    6.053
  421.000   87.324    0.459    0.342    6.133
  421.250   87.339    0.454    0.343    6.054
  421.500   83.742    0.450    0.344    5.974
  421.750   80.749    0.447    0.346    5.814
  422.000   81.974    0.449    0.350    5.493
  422.250   82.589    0.457    0.349    5.334
  422.500   78.991    0.463    0.345    5.334
  422.750   85.035    0.462    0.325    5.415
  423.000   89.269    0.455    0.312    5.496
  423.250   94.108    0.454    0.306    5.497
  423.500   96.530    0.465    0.303    5.337
  423.750   98.959    0.486    0.301    4.936
  424.000   98.979    0.490    0.298    4.696
  424.250   97.194    0.485    0.294    4.616
  424.500   96.602    0.484    0.295    4.537
  424.750   94.810    0.484    0.300    4.537
  425.000   93.626    0.472    0.300    4.618
  425.250   93.037    0.464    0.296    4.860
  425.500   93.053    0.462    0.292    5.021
  425.750   94.284    0.463    0.302    5.263
  426.000   94.294    0.470    0.335    5.424
  426.250   94.309    0.474    0.348    5.746
  426.500   89.509    0.475    0.355    5.827
  426.750   88.927    0.475    0.352    5.908
  427.000   88.946    0.476    0.342    6.069
  427.250   90.167    0.471    0.340    6.150
  427.500   90.783    0.463    0.338    6.151
  427.750   90.199    0.452    0.334    6.151
  428.000   89.019    0.448    0.330    6.233
  428.250   88.425    0.448    0.325    6.233
  428.500   86.634    0.442    0.318    6.234
  428.750   86.652    0.438    0.313    6.315
  429.000   87.272    0.434    0.308    6.315
  429.250   87.290    0.435    0.307    6.316
  429.500   87.304    0.440    0.310    6.317
  429.750   89.738    0.442    0.310    6.317
  430.000   90.350    0.438    0.307    6.319
  430.250   91.573    0.447    0.302    6.319
  430.500   93.398    0.448    0.299    6.320
  430.750   96.432    0.445    0.285    6.321
  431.000   97.648    0.445    0.279    6.241
  431.250   99.474    0.444    0.273    6.241
  431.500  100.093    0.436    0.259    6.242
  431.750  100.716    0.433    0.253    6.162
  432.000  101.934    0.432    0.250    6.083
  432.250  102.554    0.432    0.254    6.083
  432.500  103.179    0.431    0.256    5.923
  432.750  103.797    0.437    0.264    5.683
  433.000  105.021    0.444    0.275    5.443
  433.250  104.429    0.450    0.295    5.283
  433.500  103.246    0.460    0.309    5.123
  433.750  102.660    0.474    0.303    4.641
  434.000  102.677    0.491    0.296    4.401
  434.250  103.295    0.503    0.300    4.081
  434.500  104.519    0.511    0.312    3.920
  434.750  105.742    0.518    0.324    3.680
  435.000  106.357    0.511    0.316    3.842
  435.250  105.773    0.497    0.312    4.083
  435.500  102.176    0.475    0.306    4.405
  435.750   96.772    0.451    0.303    5.049
  436.000   93.174    0.430    0.297    5.290
  436.250   88.372    0.422    0.295    5.612
  436.500   84.774    0.434    0.297    5.372
  436.750   82.986    0.442    0.314    5.212
  437.000   82.399    0.452    0.326    4.972
  437.250   88.445    0.461    0.318    4.892
  437.500   91.469    0.464    0.300    4.812
  437.750   96.910    0.461    0.290    4.733
  438.000  101.144    0.454    0.271    4.733
  438.250  107.191    0.450    0.261    4.734
  438.500  109.007    0.443    0.251    5.056
  438.750  108.423    0.437    0.244    5.458
  439.000   98.802    0.429    0.218    5.860
  439.250   92.192    0.414    0.205    6.182
  439.500   87.994    0.403    0.204    6.183
  439.750   89.219    0.404    0.224    6.184
  440.000   92.249    0.421    0.238    6.264
  440.250   94.073    0.446    0.242    6.506
  440.500   95.892    0.459    0.246    6.989
  440.750   96.512    0.460    0.233    7.471
  441.000   94.721    0.431    0.224    7.954
  441.250   89.921    0.405    0.209    8.436
  441.500   84.517    0.376    0.195    8.437
  441.750   83.935    0.353    0.163    7.715
  442.000   86.964    0.371    0.192    6.591
  442.250   92.402    0.404    0.242    6.190
  442.500   97.838    0.423    0.264    5.870
  442.750  100.867    0.446    0.271    5.710
  443.000   98.475    0.457    0.272    5.630
  443.250   98.495    0.475    0.258    5.550
  443.500   99.110    0.486    0.259    5.631
  443.750   99.140    0.494    0.259    5.632
  444.000   99.150    0.485    0.258    5.633
  444.250  101.573    0.477    0.270    5.714
  444.500  105.207    0.470    0.278    5.714
  444.750  106.425    0.469    0.291    5.715
  445.000  104.639    0.469    0.301    5.716
  445.250  102.848    0.469    0.285    5.636
  445.500  100.454    0.468    0.282    5.556
  445.750  101.076    0.466    0.274    5.477
  446.000  101.093    0.463    0.269    5.478
  446.250   99.906    0.449    0.260    5.398
  446.500   97.511    0.438    0.216    5.399
  446.750   94.516    0.427    0.199    5.399
  447.000   93.934    0.421    0.214    5.239
  447.250   95.155    0.419    0.245    5.159
  447.500   98.184    0.420    0.267    4.999
  447.750  100.006    0.423    0.273    4.920
  448.000   95.204    0.421    0.246    4.920
  448.250   90.402    0.421    0.231    4.921
  448.500   89.214    0.431    0.232    4.922
  448.750   91.641    0.440    0.245    4.842
  449.000   94.672    0.456    0.263    4.763
  449.250   98.303    0.472    0.276    4.522
  449.500  103.740    0.477    0.283    4.121
  449.750  100.142    0.473    0.283    3.881
  450.000  101.368    0.490    0.285    3.560
  450.250  102.587    0.508    0.291    3.159
  450.500  103.812    0.528    0.292    2.919
  450.750  103.828    0.555    0.294    2.679
  451.000  103.246    0.562    0.292    2.438
  451.250  103.261    0.557    0.293    2.278
  451.500  102.679    0.562    0.298    2.199
  451.750  102.690    0.573    0.302    2.039
  452.000  106.329    0.581    0.298    1.959
  452.250  106.338    0.589    0.294    2.362
  452.500  105.753    0.544    0.288    2.603
  452.750  101.555    0.526    0.287    3.005
  453.000   98.565    0.500    0.293    3.408
  453.250   97.371    0.485    0.290    3.810
  453.500   94.978    0.476    0.287    4.052
  453.750   97.406    0.469    0.284    4.213
  454.000   97.426    0.461    0.274    4.294
  454.250  101.659    0.457    0.268    4.294
  454.500  102.879    0.454    0.263    4.295
  454.750   98.078    0.440    0.237    4.296
  455.000   90.871    0.413    0.199    4.457
  455.250   86.668    0.393    0.161    5.261
  455.500   81.261    0.365    0.133    5.824
  455.750   84.289    0.359    0.132    6.146
  456.000   92.141    0.382    0.134    6.387
  456.250   95.774    0.408    0.142    5.665
  456.500   95.187    0.427    0.231    5.024
  456.750   93.395    0.442    0.272    4.783
  457.000   92.210    0.449    0.285    4.382
  457.250   92.830    0.459    0.273    4.062
  457.500   95.257    0.467    0.251    3.741
  457.750  101.301    0.474    0.240    3.661
  458.000  103.727    0.490    0.239    3.582
  458.250  105.553    0.501    0.241    3.422
  458.500  105.568    0.510    0.264    3.342
  458.750  104.377    0.508    0.279    3.262
  459.000  102.587    0.525    0.286    3.183
  459.250  103.810    0.536    0.286    3.103
  459.500  106.838    0.544    0.282    3.024
  459.750  109.867    0.557    0.286    2.944
  460.000  111.693    0.567    0.292    2.944
  460.250  110.506    0.572    0.298    2.945
  460.500  108.110    0.577    0.299    2.946
  460.750  108.128    0.558    0.293    2.947
  461.000  110.556    0.538    0.283    2.947
  461.250  112.981    0.529    0.279    2.948
  461.500  113.005    0.520    0.282    2.948
  461.750  110.612    0.506    0.268    3.110
  462.000  107.611    0.494    0.264    3.111
  462.250  102.206    0.486    0.247    3.191
  462.500  106.448    0.480    0.242    3.353
  462.750  107.061    0.470    0.243    3.434
  463.000  111.297    0.464    0.268    3.434
  463.250  113.721    0.477    0.276    3.355
  463.500  114.344    0.489    0.278    3.275
  463.750  116.168    0.508    0.286    3.276
