~VERSION INFORMATION
 VERS.                 2.0:   CWLS LOG ASCII STANDARD -VERSION 2.0
 WRAP.                  NO:   ONE LINE PER DEPTH STEP
~WELL INFORMATION BLOCK
#MNEM.UNIT           DATA                    DESCRIPTION OF MNEMONIC
#---------    -------------------            -------------------------------
# Generated from Intellog Unique Number	CW_82_90/WELL/2588
WELL.         06-34-082-02W5                 : Well_name    - WELL
LOC .         00/06-34-082-02W5/0            : Location     - LOCATION
UWI .         00/06-34-082-02W5/0            : Uwi          - UNIQUE WELL ID
ENTR.         JJ                             : Entered      - ENTERED BY
SRVC.         SCHLUMBERGER                   : Scn          - SERVICE COMPANY
DATE.         3 FEB 77                       : Date         - LOG DATE
STRT.M        313.944                        : top_depth    - START DEPTH
STOP.M        441.944                        : bot_depth    - STOP DEPTH
STEP.M        0.25                           : increment    - STEP LENGTH
 NULL. -999.2500:NULL Value
~CURVE INFORMATION BLOCK
#MNEM UNIT       ERCB CURVE CODE    CURVE DESCRIPTION
#-----------   ------------------   ----------------------------------
DEPT.M        00 001 00 00         : DEPTH        - DEPTH
DELT.US/F     00 520 00 00         : DELT         - SONIC TRAVEL TIME
GR  .API      00 310 00 00         : GR           - GAMMA RAY
RHOB.KG/M3    00 350 00 00         : DENS         - BULK DENSITY
ILD .OHMM     00 120 00 00         : RESD         - DEEP RESISTIVITY (DIL)
~PARAMETER INFORMATION
#MNEM.UNIT           DATA             DESCRIPTION OF MNEMONIC
#---------         -----------     ------------------------------
GL  .M        584.85               : gl           - GROUND LEVEL ELEVATION
EREF.M        588.142              : kb           - ELEVATION OF DEPTH REFERENCE
DATM.M        588.142              : datum        - DATUM ELEVATION
TDD .M        441.655              : tdd          - TOTAL DEPTH DRILLER
RUN .         ONE                  : Run          - RUN NUMBER
ENG .         CROCKFORD            : Engineer     - RECORDING ENGINEER
WIT .         HUNTER               : Witness      - WITNESSED BY
BASE.         EDM                  : Branch       - HOME BASE OF LOGGING UNIT
MUD .         GEL CHEM             : Mud_type     - MUD TYPE
MATR.         LIMESTONE            : Logunit      - NEUTRON MATRIX
TMAX.C        30                   : BHT          - MAXIMUM RECORDED TEMPERATURE
BHTD.M        440.131              : BHTDEP       - MAXIMUM RECORDED TEMPERATURE
RMT .C        13.3333              : MDTP         - TEMPERATURE OF MUD
MUDD.KG/M     1140                 : MWT          - MUD DENSITY
NEUT.         1                    : NEUTRON      - NEUTRON TYPE
RESI.         0                    : RESIST       - RESISTIVITY TYPE
RM  .OHMM     3.36                 : RM           - RESISTIVITY OF MUD
RMC .OHMM     0                    : RMC          - RESISTIVITY OF MUD CAKE
RMF .OHMM     3.82                 : RMF          - RESISTIVITY OF MUD FILTRATE
SUFT.C        5                    : SUFT         - SURFACE TEMPERATURE
~A  DEPTH     DELT       GR     DENS     RESD
# ...
  400.944  284.889   72.620 2443.980   16.567
  401.194  313.991   76.610 2383.320   18.018
  401.444  271.560   73.176 2474.620   19.704
  401.694  270.012   72.478 2541.180   19.400
  401.944  295.506   80.240 2450.810   16.524
  402.194  358.078   86.722 2343.110   12.812
  402.444  382.515   89.190 2319.140   10.602
  402.694  384.187   90.564 2345.830    9.213
  402.944  383.950   95.346 2335.440    8.286
  403.194  382.601  105.115 2345.570    8.084
  403.444  383.491  106.245 2329.960    8.194
  403.694  376.891  103.721 2355.870    8.532
  403.944  366.480  101.688 2346.640    8.966
  404.194  368.807  101.782 2388.880    9.302
  404.444  371.925  102.606 2382.480    9.777
  404.694  374.970  102.820 2431.280   10.107
  404.944  374.207  103.219 2424.680   10.261
  405.194  367.943   99.908 2397.310   10.437
  405.444  352.420   90.933 2440.540   10.351
  405.694  361.965   94.435 2405.230   10.191
  405.944  374.788  101.040 2362.920   10.016
  406.194  383.221  107.709 2337.550    9.897
  406.444  371.103  108.834 2367.830    9.780
  406.694  356.174  103.515 2410.450    9.767
  406.944  353.579  100.872 2439.930    9.792
  407.194  383.533  109.850 2459.850    9.906
  407.444  381.659  113.537 2399.580    9.931
  407.694  371.844  113.757 2336.930    9.813
  407.944  371.415  115.122 2369.200    9.335
  408.194  374.528  120.570 2375.350    9.108
  408.444  374.820  114.155 2399.450    9.216
  408.694  344.656  106.948 2379.080    9.460
  408.944  327.035   98.040 2333.370    9.602
  409.194  327.521   93.144 2379.810   10.018
  409.444  337.984   90.986 2356.620   10.527
  409.694  342.280   90.594 2346.830   11.305
  409.944  328.792   93.790 2385.270   12.074
  410.194  294.299   88.469 2424.310   12.874
  410.444  279.691   84.184 2469.130   13.309
  410.694  301.445   82.089 2539.100   13.562
  410.944  339.274   84.926 2548.440   13.088
  411.194  367.197   86.657 2463.050   12.139
  411.444  365.586   84.624 2313.270   11.361
  411.694  349.864   83.079 2293.700   10.671
  411.944  335.979   80.309 2302.230   10.188
  412.194  323.017   73.405 2366.600   10.882
  412.444  339.450   71.621 2368.370   11.293
  412.694  359.759   73.476 2330.460   11.549
  412.944  372.915   75.635 2267.200   11.348
  413.194  367.760   78.713 2257.990   10.564
  413.444  318.895   77.530 2294.250   10.158
  413.694  285.846   75.492 2396.490    9.983
  413.944  262.119   72.973 2443.710   10.739
  414.194  228.085   70.085 2405.990   13.379
  414.444  206.263   64.764 2599.360   17.219
  414.694  246.194   68.754 2589.570   21.065
  414.944  323.597   74.566 2508.180   23.200
  415.194  342.524   79.406 2393.900   22.030
  415.444  345.835   82.544 2404.610   17.967
  415.694  352.298   86.171 2434.490   13.582
  415.944  348.190   90.099 2380.830   10.998
  416.194  324.398   87.149 2367.420   11.330
  416.444  308.610   77.814 2426.210   14.268
  416.694  288.162   72.373 2523.080   17.017
  416.944  240.154   69.358 2641.490   22.020
  417.194  204.943   65.071 2698.090   28.752
  417.444  204.177   62.733 2638.620   34.297
  417.694  224.751   68.425 2516.760   31.294
  417.944  257.070   77.098 2427.400   24.044
  418.194  298.382   87.172 2384.280   16.306
  418.444  334.305   94.816 2436.090   12.415
  418.694  333.413   99.957 2434.060   11.085
  418.944  278.910   95.185 2425.640   11.461
  419.194  241.401   80.311 2553.220   13.041
  419.444  225.417   71.036 2584.700   14.786
  419.694  214.158   63.099 2570.130   17.103
  419.944  220.094   61.124 2579.440   18.299
  420.194  240.396   75.699 2547.510   15.931
  420.444  311.632   86.449 2466.910   12.854
  420.694  332.666   92.499 2424.610   10.521
  420.944  341.884  102.697 2398.060    8.754
  421.194  342.102  103.584 2430.320    7.732
  421.444  334.591   98.808 2389.410    7.236
  421.694  331.138   98.236 2497.240    7.151
  421.944  344.100   98.634 2455.740    7.419
  422.194  346.228   98.117 2448.520    8.054
  422.444  304.650   93.647 2522.660    8.762
  422.694  310.058   86.014 2550.940    9.059
  422.944  346.777   89.151 2454.790    9.179
  423.194  359.014   98.012 2424.850    9.235
  423.444  357.729  103.156 2432.800    8.929
  423.694  353.817  106.290 2395.860    7.801
  423.944  348.795  103.586 2428.930    6.816
  424.194  347.120   95.892 2486.330    6.042
  424.444  355.148   99.576 2523.560    5.584
  424.694  356.625  105.145 2463.530    5.360
  424.944  350.549  105.243 2419.650    5.173
  425.194  340.605  101.564 2423.160    5.057
  425.444  356.256   98.675 2476.760    5.078
  425.694  369.804  101.755 2488.090    5.269
  425.944  379.350  106.778 2434.820    5.507
  426.194  356.604  106.756 2450.940    5.819
  426.444  340.093  104.288 2394.870    6.082
  426.694  332.577  100.548 2404.210    6.186
  426.944  340.680   98.525 2450.420    6.146
  427.194  350.089   95.538 2529.950    6.028
  427.444  356.683   93.442 2589.740    5.755
  427.694  361.963   92.233 2641.930    5.102
  427.944  369.145   98.365 2416.200    4.245
  428.194  364.315  101.856 2416.180    4.493
  428.444  353.320  105.347 2404.380    5.085
  428.694  346.586  101.487 2351.470    6.749
  428.944  343.137   46.446 2221.240    8.346
  429.194  344.415   42.582 2183.730   11.381
  429.444  349.689   40.192 2188.880   16.210
  429.694  350.511   37.802 2228.510   20.899
  429.944  346.801   34.231 2221.300   25.988
  430.194  343.943   29.190 2194.930   32.254
  430.444  345.681   25.620 2193.940   43.276
  430.694  352.207   22.931 2135.640   49.784
  430.944  355.576   21.129 2201.010   52.976
  431.194  354.883   19.617 2227.500   54.976
  431.444  353.540   18.702 2204.530   55.820
  431.694  352.773   19.542 2238.400   56.052
  431.944  353.664   19.500 2181.720   55.888
  432.194  357.432   19.173 2206.430   55.224
  432.444  356.144   19.135 2203.390   54.569
  432.694  351.978   19.681 2183.020   53.052
  432.944  347.675   20.820 2179.000   50.288
  433.194  345.669   22.835 2185.750   45.467
  433.444  348.191   25.155 2211.420   35.896
  433.694  347.831   31.880 2308.110   27.183
  433.944  345.033   40.664 2358.300   21.269
  434.194  342.966   48.565 2283.690   17.599
  434.444  343.910   51.174 2243.180   15.128
  434.694  350.237   50.837 2282.040   14.288
  434.944  346.661   48.149 2316.280   14.196
  435.194  341.048   45.176 2272.190   14.386
  435.444  338.842   41.899 2172.250   14.397
  435.694  343.994   38.921 2223.480   11.657
  435.944  338.839   27.706 2244.160   10.241
  436.194  331.124   22.371 2257.300   10.550
  436.444  327.408   18.805 2269.410   11.289
  436.694  326.259   16.116 2301.500   11.971
  436.944  325.763   18.431 2349.300   12.108
  437.194  325.794   33.394 2356.840   11.477
  437.444  325.879   39.526 2368.370   10.417
  437.694  325.711   48.608 2409.220    9.890
  437.944  325.486   55.922 2421.940    9.564
  438.194  325.182   62.353 2380.230    9.518
  438.444  325.347   64.080 2406.110    9.594
  438.694  325.299   61.097 2420.050    9.670
  438.944  325.075   58.110 2374.930    9.800
  439.194  324.579   57.190 2434.930    9.879
  439.444  324.017   56.270 2391.810    9.868
  439.694  323.524   56.228 2349.700    9.821
  439.944  325.324   56.191 2308.400    9.847
  440.194  327.060   56.442 2366.580    9.819
  440.444  327.475   56.993 2330.260    9.790
  440.694  326.979   57.548 2308.710    9.779
  440.944  326.820   56.918 2337.760    9.804
  441.194  326.912   54.523 2348.290    9.757
  441.444  327.140   52.423 2321.550    9.555
  441.694  327.560   51.214 2314.520    9.493
  441.944  327.783   49.995 2326.060    9.516
