~VERSION INFORMATION
 VERS.                 2.0:   CWLS LOG ASCII STANDARD -VERSION 2.0
 WRAP.                  NO:   ONE LINE PER DEPTH STEP
~WELL INFORMATION BLOCK
#MNEM.UNIT           DATA                    DESCRIPTION OF MNEMONIC
#---------    -------------------            -------------------------------
# Generated from Intellog Unique Number	CS_67_68/WELL/2179
WELL.         GLOBEL ARTIC ISLANDS           : Well_name    - WELL
LOC .         00/07-32-067-17W4/0            : Location     - LOCATION
UWI .         00/07-32-067-17W4/0            : Uwi          - UNIQUE WELL ID
ENTR.         SP                             : Entered      - ENTERED BY
SRVC.         SCHLUMBERGER                   : Scn          - SERVICE COMPANY
STRT.M        345                            : top_depth    - START DEPTH
STOP.M        550                            : bot_depth    - STOP DEPTH
STEP.M        0.25                           : increment    - STEP LENGTH
 NULL. -999.2500:NULL Value
~CURVE INFORMATION BLOCK
#MNEM UNIT       ERCB CURVE CODE    CURVE DESCRIPTION
#-----------   ------------------   ----------------------------------
DEPT.M        00 001 00 00         : DEPTH        - DEPTH
ILD .OHMM     00 120 00 00         : RESD         - DEEP RESISTIVITY (DIL)
DPHI.V/V      00 890 00 00         : PHID         - DENSITY POROSITY (LIMESTONE)
NPHI.V/V      00 330 00 00         : PHIN         - NEUTRON POROSITY (LIMESTONE)
GR  .API      00 310 00 00         : GR           - GAMMA RAY
CALI.MM       00 280 01 00         : CAL          - CALIPER
~PARAMETER INFORMATION
#MNEM.UNIT           DATA             DESCRIPTION OF MNEMONIC
#---------         -----------     ------------------------------
GL  .M        589.2                : gl           - GROUND LEVEL ELEVATION
EREF.M        593                  : kb           - ELEVATION OF DEPTH REFERENCE
DATM.M        593                  : datum        - DATUM ELEVATION
TDD .M        555                  : tdd          - TOTAL DEPTH DRILLER
RUN .         ONE                  : Run          - RUN NUMBER
ENG .         BILL                 : Engineer     - RECORDING ENGINEER
WIT .         JIM                  : Witness      - WITNESSED BY
MUD .         GEL                  : Mud_type     - MUD TYPE
MATR.         LIMESTONE            : Logunit      - NEUTRON MATRIX
TMAX.C        19                   : BHT          - MAXIMUM RECORDED TEMPERATURE
BHTD.M        553.5                : BHTDEP       - MAXIMUM RECORDED TEMPERATURE
MATR.         1                    : LOGUNIT      - NEUTRON MATRIX
RMT .C        25                   : MDTP         - TEMPERATURE OF MUD
NEUT.         1                    : NEUTRON      - NEUTRON TYPE
RESI.         0                    : RESIST       - RESISTIVITY TYPE
RMC .OHMM     0.25                 : RMC          - RESISTIVITY OF MUD CAKE
RMF .OHMM     0.25                 : RMF          - RESISTIVITY OF MUD FILTRATE
SUFT.C        15                   : SUFT         - SURFACE TEMPERATURE
~A  DEPTH     RESD     PHID     PHIN       GR      CAL
# ...
  491.000    3.667    0.107    0.415  101.486  160.567
  491.250    3.562    0.147    0.403  104.118  163.132
  491.500    3.473    0.166    0.407  105.355  164.177
  491.750    3.405    0.171    0.407  105.255  163.094
  492.000    3.363    0.163    0.410  104.604  162.923
  492.250    3.358    0.159    0.417  104.136  163.161
  492.500    3.287    0.163    0.424  102.270  161.267
  492.750    3.246    0.156    0.436  106.851  160.086
  493.000    3.206    0.149    0.452  109.242  160.824
  493.250    3.155    0.129    0.476  107.438  163.085
  493.500    3.099    0.121    0.438  110.134  163.320
  493.750    3.004    0.149    0.450  114.894  164.266
  494.000    2.945    0.160    0.461  117.771  164.806
  494.250    2.893    0.168    0.457  115.178  164.940
  494.500    2.847    0.169    0.452  114.344  164.365
  494.750    2.843    0.168    0.452  118.927  163.279
  495.000    2.829    0.181    0.452  121.741  161.897
  495.250    2.852    0.170    0.456  121.521  161.724
  495.500    2.934    0.164    0.463  121.779  162.264
  495.750    3.041    0.156    0.468  121.800  162.403
  496.000    3.187    0.139    0.468  119.510  162.734
  496.250    3.291    0.153    0.458  117.583  163.275
  496.500    3.385    0.165    0.465  116.141  163.512
  496.750    3.413    0.134    0.469  111.906  163.440
  497.000    3.352    0.111    0.476  110.404  163.573
  497.250    3.373    0.098    0.465  110.364  163.808
  497.500    3.483    0.115    0.461  110.200  163.839
  497.750    3.510    0.148    0.474  110.767  162.151
  498.000    3.487    0.156    0.488  114.677  158.735
  498.250    3.306    0.142    0.497  114.028  161.811
  498.500    3.158    0.133    0.412  111.191  164.580
  498.750    3.000    0.135    0.388  111.878  165.624
  499.000    2.909    0.135    0.384  115.607  165.555
  499.250    2.868    0.132    0.407  119.700  164.877
  499.500    3.160    0.149    0.461  122.152  163.491
  499.750    3.633    0.169    0.493  110.557  161.699
  500.000    4.169    0.155    0.469   99.208  160.719
  500.250    4.749    0.156    0.423   91.258  161.158
  500.500    5.213    0.165    0.372   83.861  161.293
  500.750    5.216    0.173    0.337   78.772  161.528
  501.000    4.992    0.159    0.320   76.055  161.661
  501.250    4.832    0.172    0.319   79.722  161.897
  501.500    4.834    0.162    0.338   87.708  161.824
  501.750    4.955    0.176    0.343   90.526  161.757
  502.000    5.349    0.159    0.340   91.030  162.704
  502.250    6.059    0.140    0.349   89.772  163.140
  502.500    7.475    0.130    0.349   85.231  162.769
  502.750    9.802    0.147    0.331   78.927  162.596
  503.000   12.226    0.168    0.312   70.555  163.236
  503.250   15.594    0.181    0.302   63.339  163.572
  503.500   22.062    0.173    0.313   57.825  163.707
  503.750   32.634    0.141    0.323   52.796  164.650
  504.000   37.243    0.123    0.255   45.640  163.266
  504.250   39.322    0.118    0.222   33.376  158.333
  504.500   39.568    0.107    0.193   22.877  156.335
  504.750   39.296    0.100    0.200   16.450  158.907
  505.000   39.248    0.114    0.203   12.822  160.252
  505.250   39.708    0.130    0.203   15.759  161.401
  505.500   40.398    0.111    0.202   16.994  162.347
  505.750   40.872    0.106    0.200   17.866  162.581
  506.000   41.510    0.112    0.215   18.616  162.712
  506.250   42.077    0.130    0.246   18.149  162.851
  506.500   42.651    0.144    0.274   17.015  162.578
  506.750   42.833    0.106    0.288   16.301  162.303
  507.000   42.781    0.079    0.301   15.834  161.226
  507.250   42.722    0.095    0.312   15.855  160.746
  507.500   42.906    0.067    0.320   16.420  159.871
  507.750   43.816    0.067    0.324   16.684  159.192
  508.000   44.413    0.078    0.326   16.646  158.716
  508.250   45.018    0.071    0.323   16.601  158.447
  508.500   45.633    0.068    0.314   16.686  158.680
  508.750   46.261    0.052    0.296   16.944  158.407
  509.000   46.799    0.035    0.276   17.210  157.629
  509.250   47.263    0.023    0.267   17.288  157.257
  509.500   47.028    0.049    0.275   17.125  156.782
  509.750   46.536    0.078    0.281   16.840  158.133
  510.000   45.793    0.098    0.288   16.494  158.367
  510.250   45.239    0.133    0.299   16.514  158.907
  510.500   45.170    0.145    0.309   15.620  162.182
  510.750   45.029    0.091    0.300   15.098  160.694
  511.000   44.724    0.106    0.288   14.872  157.180
  511.250   44.091    0.132    0.280   14.889  155.591
  511.500   43.308    0.107    0.275   14.910  161.298
  511.750   42.695    0.081    0.290   14.747  163.864
  512.000   42.091    0.069    0.298   14.460  163.192
  512.250   41.574    0.059    0.309   14.298  162.310
  512.500   41.137    0.063    0.302   13.890  161.428
  512.750   40.632    0.068    0.295   13.727  160.855
  513.000   40.656    0.045    0.293   13.505  160.683
  513.250   40.757    0.060    0.294   13.161  160.415
  513.500   41.158    0.071    0.292   12.879  160.145
  513.750   41.411    0.086    0.292   12.714  159.867
  514.000   41.358    0.100    0.311   12.670  159.697
  514.250   41.460    0.119    0.323   12.812  159.934
  514.500   41.715    0.126    0.332   13.986  160.373
  514.750   41.892    0.109    0.331   14.734  161.215
  515.000   42.228    0.125    0.327   15.427  161.855
  515.250   42.333    0.160    0.319   15.626  161.987
  515.500   42.361    0.122    0.314   15.828  162.427
  515.750   41.996    0.097    0.310   15.245  163.575
  516.000   40.264    0.094    0.308   14.834  164.926
  516.250   35.455    0.103    0.305   14.670  165.564
  516.500   31.390    0.080    0.307   16.331  165.192
  516.750   28.895    0.069    0.292   18.053  164.107
  517.000   26.452    0.054    0.278   19.289  160.189
  517.250   23.729    0.042    0.281   19.978  159.003
  517.500   22.005    0.047    0.294   20.362  160.049
  517.750   20.407    0.061    0.309   21.172  160.894
  518.000   22.236    0.072    0.325   21.312  161.538
  518.250   24.317    0.078    0.336   21.453  161.566
  518.500   26.643    0.083    0.338   26.946  161.600
  518.750   29.465    0.091    0.346   27.512  161.630
  519.000   32.283    0.095    0.364   26.985  161.664
  519.250   34.083    0.093    0.372   25.304  161.695
  519.500   35.003    0.103    0.362   23.011  161.832
  519.750   32.581    0.111    0.367   20.780  162.678
  520.000   30.382    0.110    0.374   19.218  163.214
  520.250   28.704    0.115    0.366   18.873  163.652
  520.500   27.472    0.128    0.354   18.832  163.886
  520.750   26.098    0.146    0.355   18.668  163.410
  521.000   24.294    0.146    0.360   18.506  162.029
  521.250   22.613    0.123    0.361   18.708  161.753
  521.500   20.133    0.116    0.360   19.700  161.177
  521.750   17.338    0.120    0.361   20.753  160.702
  522.000   15.813    0.104    0.360   22.110  161.039
  522.250   14.423    0.089    0.347   24.137  161.375
  522.500   13.154    0.071    0.326   26.405  161.409
  522.750   12.064    0.048    0.308   31.230  161.644
  523.000   11.273    0.032    0.296   38.180  162.894
  523.250   10.829    0.028    0.283   45.194  164.139
  523.500   10.895    0.015    0.273   48.253  165.491
  523.750   11.043    0.032    0.292   50.644  165.927
  524.000   11.446    0.041    0.312   50.845  164.751
  524.250   11.974    0.077    0.332   49.772  162.855
  524.500   12.902    0.099    0.354   48.089  161.565
  524.750   14.215    0.109    0.363   46.224  160.687
  525.000   15.488    0.124    0.357   43.383  160.620
  525.250   17.001    0.122    0.362   39.876  160.750
  525.500   18.083    0.129    0.373   36.915  161.087
  525.750   19.057    0.132    0.383   32.983  162.032
  526.000   19.463    0.126    0.388   30.267  163.485
  526.250   19.473    0.136    0.382   29.069  165.139
  526.500   18.361    0.111    0.384   29.818  166.998
  526.750   16.624    0.114    0.390   29.960  165.609
  527.000   15.417    0.123    0.390   29.372  163.511
  527.250   14.431    0.134    0.375   29.086  163.444
