~VERSION INFORMATION
 VERS.                 2.0:   CWLS LOG ASCII STANDARD -VERSION 2.0
 WRAP.                  NO:   ONE LINE PER DEPTH STEP
~WELL INFORMATION BLOCK
#MNEM.UNIT           DATA                    DESCRIPTION OF MNEMONIC
#---------    -------------------            -------------------------------
# Generated from Intellog Unique Number	CS_71_72/WELL/641
WELL.         MAYUNARD ET AL BEHAN           : Well_name    - WELL
LOC .         00/04-21-072-11W4/0            : Location     - LOCATION
UWI .         00/04-21-072-11W4/0            : Uwi          - UNIQUE WELL ID
ENTR.         SP                             : Entered      - ENTERED BY
SRVC.         SCHLUMBERGER                   : Scn          - SERVICE COMPANY
STRT.M        300                            : top_depth    - START DEPTH
STOP.M        522.5                          : bot_depth    - STOP DEPTH
STEP.M        0.25                           : increment    - STEP LENGTH
 NULL. -999.2500:NULL Value
~CURVE INFORMATION BLOCK
#MNEM UNIT       ERCB CURVE CODE    CURVE DESCRIPTION
#-----------   ------------------   ----------------------------------
DEPT.M        00 001 00 00         : DEPTH        - DEPTH
ILD .OHMM     00 120 00 00         : RESD         - DEEP RESISTIVITY (DIL)
DPHI.V/V      00 890 00 00         : PHID         - DENSITY POROSITY (LIMESTONE)
NPHI.V/V      00 330 00 00         : PHIN         - NEUTRON POROSITY (LIMESTONE)
GR  .API      00 310 00 00         : GR           - GAMMA RAY
~PARAMETER INFORMATION
#MNEM.UNIT           DATA             DESCRIPTION OF MNEMONIC
#---------         -----------     ------------------------------
GL  .M        645.8                : gl           - GROUND LEVEL ELEVATION
EREF.M        649.15               : kb           - ELEVATION OF DEPTH REFERENCE
DATM.M        645.8                : datum        - DATUM ELEVATION
TDD .M        530                  : tdd          - TOTAL DEPTH DRILLER
RUN .         ONE                  : Run          - RUN NUMBER
ENG .         BILL                 : Engineer     - RECORDING ENGINEER
WIT .         JIM                  : Witness      - WITNESSED BY
MUD .         GEL                  : Mud_type     - MUD TYPE
MATR.         LIMESTONE            : Logunit      - NEUTRON MATRIX
TMAX.C        29                   : BHT          - MAXIMUM RECORDED TEMPERATURE
BHTD.M        530                  : BHTDEP       - MAXIMUM RECORDED TEMPERATURE
MATR.         1                    : LOGUNIT      - NEUTRON MATRIX
RMT .C        25                   : MDTP         - TEMPERATURE OF MUD
NEUT.         1                    : NEUTRON      - NEUTRON TYPE
RESI.         0                    : RESIST       - RESISTIVITY TYPE
RMC .OHMM     0.25                 : RMC          - RESISTIVITY OF MUD CAKE
RMF .OHMM     0.25                 : RMF          - RESISTIVITY OF MUD FILTRATE
SUFT.C        15                   : SUFT         - SURFACE TEMPERATURE
~A  DEPTH     RESD     PHID     PHIN       GR
  300.000    2.410    0.212    0.558  106.028
  300.250    2.495    0.185    0.559  100.615
  300.500    2.579    0.180    0.554   92.798
  300.750    2.662    0.196    0.512   88.588
  301.000    2.667    0.181    0.512   94.621
  301.250    2.669    0.187    0.527  100.653
  301.500    2.755    0.168    0.533  102.470
  301.750    2.758    0.163    0.525   95.854
  302.000    2.761    0.181    0.512   90.441
  302.250    2.766    0.241    0.520  101.897
  302.500    2.770    0.247    0.534  107.929
  302.750    2.772    0.236    0.532  106.737
  303.000    2.857    0.222    0.545  103.132
  303.250    2.942    0.216    0.548  104.950
  303.500    2.945    0.213    0.532  106.162
  303.750    3.028    0.227    0.531  108.580
  304.000    3.031    0.232    0.531  106.182
  304.250    3.196    0.248    0.527  104.384
  304.500    3.199    0.242    0.515  103.789
  304.750    3.205    0.237    0.511  105.611
  305.000    3.207    0.233    0.534  106.221
  305.250    3.211    0.235    0.544  107.434
  305.500    3.216    0.234    0.543  108.647
  305.750    3.219    0.231    0.533  109.864
  306.000    3.141    0.243    0.528  111.075
  306.250    3.147    0.248    0.522  109.880
  306.500    3.069    0.239    0.521  105.071
  306.750    3.072    0.237    0.527  102.065
  307.000    3.076    0.238    0.537  100.270
  307.250    3.000    0.238    0.543  105.098
  307.500    3.002    0.234    0.528  111.135
  307.750    2.926    0.228    0.503  111.743
  308.000    2.930    0.229    0.492  108.138
  308.250    2.934    0.232    0.505  106.340
  308.500    2.937    0.204    0.515  104.542
  308.750    3.102    0.198    0.497   97.323
  309.000    3.427    0.226    0.438   91.909
  309.250    3.912    0.244    0.419   88.909
  309.500    5.040    0.301    0.421   88.314
  309.750    6.330    0.320    0.414   82.299
  310.000    7.699    0.337    0.372   73.875
  310.250    9.148    0.348    0.339   65.451
  310.500   11.320    0.357    0.315   60.037
  310.750   18.472    0.363    0.293   54.023
  311.000   19.521    0.356    0.323   54.637
  311.250   19.684    0.348    0.337   60.672
  311.500   18.724    0.343    0.349   64.899
  311.750   15.917    0.329    0.352   66.714
  312.000   13.912    0.315    0.362   69.135
  312.250   11.909    0.279    0.384   69.743
  312.500   10.546    0.268    0.406   70.960
  312.750    9.505    0.266    0.415   70.966
  313.000    8.546    0.264    0.421   67.363
  313.250    8.148    0.263    0.430   64.359
  313.500    8.232    0.260    0.421   64.368
  313.750    8.316    0.260    0.410   68.594
  314.000    8.482    0.271    0.426   72.219
  314.250    8.484    0.268    0.443   82.469
  314.500    8.409    0.265    0.455   89.709
  314.750    8.251    0.255    0.466   93.934
  315.000    8.093    0.244    0.462   93.944
  315.250    7.776    0.240    0.461   96.966
  315.500    7.458    0.235    0.466  103.003
  315.750    7.221    0.235    0.473  104.819
  316.000    7.146    0.242    0.462  105.427
  316.250    7.068    0.247    0.457  105.438
  316.500    6.911    0.252    0.449  106.053
  316.750    6.674    0.238    0.445  107.265
  317.000    6.356    0.224    0.455  110.286
  317.250    6.119    0.246    0.458  111.499
  317.500    5.881    0.256    0.462  110.910
  317.750    5.804    0.259    0.452  108.506
  318.000    5.888    0.272    0.446   97.069
  318.250    6.052    0.296    0.443   78.406
  318.500    6.217    0.283    0.429   70.581
  318.750    6.542    0.291    0.408   59.145
  319.000    6.867    0.302    0.397   51.924
  319.250    7.192    0.303    0.388   45.911
  319.500    7.356    0.299    0.395   47.127
  319.750    7.521    0.296    0.414   51.954
  320.000    7.444    0.305    0.420   54.975
  320.250    7.128    0.289    0.424   55.587
  320.500    6.810    0.277    0.433   61.620
  320.750    6.412    0.231    0.439   74.886
  321.000    6.095    0.217    0.444   79.711
  321.250    5.857    0.215    0.447   87.552
  321.500    5.700    0.239    0.444   85.758
  321.750    5.864    0.269    0.446   82.155
  322.000    6.271    0.292    0.453   81.557
  322.250    6.516    0.309    0.446   81.567
  322.500    6.841    0.319    0.441   82.181
  322.750    7.085    0.315    0.452   84.599
  323.000    7.249    0.310    0.457   86.417
  323.250    7.411    0.307    0.462   87.029
  323.500    7.576    0.298    0.462   87.040
  323.750    7.582    0.293    0.451   87.045
  324.000    7.584    0.284    0.450   86.452
  324.250    7.508    0.268    0.458   90.681
  324.500    7.431    0.260    0.460   93.704
  324.750    7.514    0.253    0.464   94.314
  325.000    7.599    0.256    0.457   94.925
  325.250    7.763    0.245    0.455   95.539
  325.500    7.846    0.245    0.459   96.149
  325.750    8.093    0.238    0.471   96.156
  326.000    8.176    0.227    0.477   94.964
  326.250    8.259    0.219    0.484   94.368
  326.500    8.263    0.215    0.493   91.369
  326.750    8.186    0.209    0.476   89.568
  327.000    8.431    0.206    0.467   87.168
  327.250    8.676    0.206    0.469   86.578
  327.500    8.921    0.216    0.464   87.789
  327.750    9.004    0.222    0.458   92.015
  328.000    8.767    0.223    0.472   92.629
  328.250    8.209    0.227    0.488   91.431
  328.500    7.811    0.230    0.495   98.069
  328.750    7.333    0.221    0.501  101.692
  329.000    6.936    0.219    0.502  101.704
  329.250    6.537    0.235    0.489   99.302
  329.500    6.060    0.219    0.481   97.503
  329.750    5.901    0.206    0.494  107.758
  330.000    5.343    0.196    0.510  110.776
  330.250    4.865    0.205    0.528  114.402
  330.500    4.547    0.213    0.507  116.217
  330.750    4.230    0.218    0.494  119.238
  331.000    3.992    0.203    0.503  122.863
  331.250    3.915    0.194    0.507  124.679
  331.500    4.240    0.207    0.493  125.893
  331.750    4.727    0.220    0.483  123.494
  332.000    5.051    0.229    0.486  119.288
  332.250    5.617    0.243    0.467  115.081
  332.500    6.183    0.258    0.455  111.476
  332.750    6.668    0.265    0.449  109.675
  333.000    7.234    0.275    0.450  106.673
  333.250    7.639    0.281    0.456  103.068
  333.500    7.966    0.295    0.460  100.065
  333.750    8.048    0.306    0.463   97.061
  334.000    8.134    0.277    0.465   94.661
  334.250    7.977    0.256    0.472   93.465
  334.500    7.820    0.246    0.475   97.694
  334.750    7.502    0.238    0.478  103.125
  335.000    7.185    0.242    0.472  105.543
  335.250    6.947    0.247    0.472  109.170
  335.500    6.869    0.252    0.475  109.782
  335.750    6.712    0.248    0.473  109.186
  336.000    6.957    0.243    0.463  103.774
  336.250    7.364    0.260    0.455   96.555
  336.500    7.608    0.265    0.450   92.948
  336.750    7.932    0.271    0.444   89.343
  337.000    8.339    0.265    0.453   97.188
  337.250    8.502    0.260    0.458   99.607
  337.500    8.586    0.250    0.459  100.818
  337.750    8.429    0.237    0.452  105.048
  338.000    8.193    0.222    0.449  106.260
  338.250    8.034    0.222    0.451  106.874
  338.500    7.717    0.228    0.463  106.278
  338.750    7.080    0.222    0.468  105.085
  339.000    6.761    0.219    0.458  104.491
  339.250    6.123    0.221    0.452  104.499
  339.500    5.964    0.225    0.462  103.305
  339.750    5.407    0.228    0.480  104.518
  340.000    5.089    0.220    0.508  102.722
  340.250    4.771    0.217    0.531  100.926
  340.500    4.855    0.221    0.543  100.931
  340.750    5.099    0.220    0.508  100.940
  341.000    5.586    0.211    0.498  100.952
  341.250    6.153    0.206    0.494  100.357
  341.500    6.477    0.204    0.489   99.165
  341.750    6.801    0.232    0.486   98.570
  342.000    7.369    0.243    0.480   96.776
  342.250    7.532    0.246    0.483   95.580
  342.500    7.777    0.249    0.495   95.585
  342.750    7.942    0.239    0.506   95.593
  343.000    8.025    0.229    0.500   98.015
  343.250    8.108    0.229    0.487   99.833
