~VERSION INFORMATION
 VERS.                 2.0:   CWLS LOG ASCII STANDARD -VERSION 2.0
 WRAP.                  NO:   ONE LINE PER DEPTH STEP
~WELL INFORMATION BLOCK
#MNEM.UNIT           DATA                    DESCRIPTION OF MNEMONIC
#---------    -------------------            -------------------------------
# Generated from Intellog Unique Number	CS_77_79/WELL/842
WELL.         DOME PETROLEUM LIMITED         : Well_name    - WELL
LOC .         00/02-25-077-10W4/0            : Location     - LOCATION
UWI .         00/02-25-077-10W4/0            : Uwi          - UNIQUE WELL ID
ENTR.         SP                             : Entered      - ENTERED BY
SRVC.         SCHLUMBERGER                   : Scn          - SERVICE COMPANY
STRT.M        190                            : top_depth    - START DEPTH
STOP.M        430                            : bot_depth    - STOP DEPTH
STEP.M        0.25                           : increment    - STEP LENGTH
 NULL. -999.2500:NULL Value
~CURVE INFORMATION BLOCK
#MNEM UNIT       ERCB CURVE CODE    CURVE DESCRIPTION
#-----------   ------------------   ----------------------------------
DEPT.M        00 001 00 00         : DEPTH        - DEPTH
GR  .API      00 310 00 00         : GR           - GAMMA RAY
DPHI.V/V      00 890 00 00         : PHID         - DENSITY POROSITY (LIMESTONE)
NPHI.V/V      00 330 00 00         : PHIN         - NEUTRON POROSITY (LIMESTONE)
ILD .OHMM     00 120 00 00         : RESD         - DEEP RESISTIVITY (DIL)
~PARAMETER INFORMATION
#MNEM.UNIT           DATA             DESCRIPTION OF MNEMONIC
#---------         -----------     ------------------------------
GL  .M        610.6                : gl           - GROUND LEVEL ELEVATION
EREF.M        614.26               : kb           - ELEVATION OF DEPTH REFERENCE
DATM.M        610.6                : datum        - DATUM ELEVATION
TDD .M        450.3                : tdd          - TOTAL DEPTH DRILLER
RUN .         ONE                  : Run          - RUN NUMBER
ENG .         BILL                 : Engineer     - RECORDING ENGINEER
WIT .         JIM                  : Witness      - WITNESSED BY
MUD .         GEL                  : Mud_type     - MUD TYPE
MATR.         LIMESTONE            : Logunit      - NEUTRON MATRIX
TMAX.C        22                   : BHT          - MAXIMUM RECORDED TEMPERATURE
BHTD.M        450.3                : BHTDEP       - MAXIMUM RECORDED TEMPERATURE
MATR.         1                    : LOGUNIT      - NEUTRON MATRIX
RMT .C        25                   : MDTP         - TEMPERATURE OF MUD
NEUT.         1                    : NEUTRON      - NEUTRON TYPE
RESI.         0                    : RESIST       - RESISTIVITY TYPE
RMC .OHMM     0.25                 : RMC          - RESISTIVITY OF MUD CAKE
RMF .OHMM     0.25                 : RMF          - RESISTIVITY OF MUD FILTRATE
SUFT.C        15                   : SUFT         - SURFACE TEMPERATURE
~A  DEPTH       GR     PHID     PHIN     RESD
  190.000   98.799    0.301    0.537    3.269
  190.250   97.591    0.296    0.540    3.203
  190.500   93.957    0.304    0.524    3.202
  190.750   95.810    0.313    0.511    3.198
  191.000   98.269    0.314    0.524    3.196
  191.250  103.790    0.313    0.545    3.193
  191.500  103.201    0.314    0.547    3.129
  191.750   98.954    0.317    0.547    3.127
  192.000   97.757    0.316    0.552    3.125
  192.250   99.611    0.314    0.556    3.122
  192.500  100.857    0.316    0.550    3.118
  192.750  102.705    0.321    0.547    3.117
  193.000  102.129    0.320    0.536    2.996
  193.250  100.923    0.312    0.513    2.936
  193.500   96.074    0.307    0.515    2.935
  193.750   94.269    0.301    0.541    2.932
  194.000   94.900    0.293    0.559    2.929
  194.250   99.195    0.285    0.576    2.927
  194.500   99.220    0.286    0.582    3.038
  194.750   99.242    0.287    0.566    3.152
  195.000   99.878    0.284    0.565    3.150
  195.250  102.950    0.287    0.570    3.148
  195.500  103.579    0.292    0.550    3.144
  195.750  101.170    0.293    0.545    3.083
  196.000   99.360    0.291    0.527    3.081
  196.250   97.553    0.282    0.515    3.198
  196.500   94.529    0.276    0.529    3.449
  196.750   95.770    0.271    0.515    3.790
  197.000   97.627    0.265    0.495    4.010
  197.250  100.088    0.240    0.487    4.163
  197.500  103.165    0.236    0.474    4.240
  197.750  101.969    0.243    0.472    4.318
  198.000   99.555    0.246    0.477    4.313
  198.250   97.133    0.248    0.490    4.311
  198.500   95.335    0.248    0.488    4.066
  198.750   98.401    0.251    0.487    3.987
  199.000  100.261    0.255    0.500    3.759
  199.250   99.671    0.256    0.504    3.685
  199.500   97.253    0.256    0.514    3.613
  199.750   97.277    0.251    0.521    3.540
  200.000   98.523    0.247    0.491    3.539
  200.250   99.764    0.244    0.497    3.604
  200.500   99.179    0.251    0.509    3.741
  200.750   99.203    0.250    0.518    3.810
  201.000  102.288    0.245    0.535    3.806
  201.250  104.742    0.242    0.546    3.802
  201.500  106.593    0.242    0.543    3.728
  201.750  102.961    0.242    0.533    3.724
  202.000   99.939    0.240    0.497    3.651
  202.250   98.128    0.241    0.481    3.648
  202.500   98.151    0.242    0.498    3.644
  202.750  101.841    0.247    0.514    3.712
  203.000  106.128    0.252    0.504    3.852
  203.250  103.715    0.238    0.498    4.075
  203.500  100.689    0.237    0.493    4.232
  203.750  100.102    0.243    0.483    4.652
  204.000   99.514    0.253    0.477    5.313
  204.250   95.268    0.271    0.468    6.185
  204.500   88.588    0.284    0.453    8.074
  204.750   83.124    0.295    0.437    9.954
  205.000   78.272    0.310    0.424   11.588
  205.250   74.028    0.314    0.400   12.494
  205.500   71.612    0.301    0.364   12.967
  205.750   72.855    0.301    0.366   12.958
  206.000   86.900    0.325    0.381   12.950
  206.250   97.289    0.383    0.431   12.450
  206.500   91.220    0.481    0.485   12.207
  206.750   80.876    0.530    0.557   11.739
  207.000   70.531    0.551    0.574   11.726
  207.250   57.750    0.493    0.437   12.644
  207.500   77.288    0.296    0.408   13.636
  207.750   74.267    0.308    0.381   14.706
  208.000   68.196    0.314    0.379   15.860
  208.250   65.169    0.318    0.382   16.463
  208.500   63.359    0.320    0.385   16.766
  208.750   61.551    0.320    0.387   16.752
  209.000   66.459    0.315    0.388   16.733
  209.250   70.753    0.304    0.391   16.722
  209.500   72.603    0.296    0.397   16.708
  209.750   72.016    0.294    0.399   17.015
  210.000   69.001    0.291    0.393   17.332
  210.250   68.403    0.275    0.383   17.647
  210.500   66.600    0.216    0.378   17.635
  210.750   64.799    0.201    0.379   17.620
  211.000   66.037    0.235    0.385   17.944
  211.250   63.623    0.292    0.394   20.106
  211.500   57.550    0.328    0.382   21.679
  211.750   61.844    0.332    0.374   21.665
  212.000   70.400    0.309    0.371   22.059
  212.250   72.253    0.303    0.382   21.622
  212.500   66.182    0.305    0.397   21.185
  212.750   63.160    0.310    0.423   20.775
  213.000   62.577    0.315    0.423   20.753
  213.250   65.643    0.317    0.409   20.744
  213.500   70.552    0.322    0.409   21.528
  213.750   70.574    0.330    0.413   21.505
  214.000   69.373    0.334    0.417   21.895
  214.250   76.106    0.335    0.420   21.886
  214.500   81.012    0.333    0.403   21.042
  214.750   82.862    0.330    0.397   20.631
  215.000   84.104    0.327    0.395   19.840
  215.250   89.008    0.314    0.396   19.818
  215.500   96.351    0.309    0.399   19.805
  215.750  100.029    0.299    0.404   19.413
  216.000  104.934    0.297    0.412   19.392
  216.250  110.446    0.296    0.427   19.009
  216.500  109.858    0.292    0.445   18.276
  216.750  105.612    0.288    0.445   17.922
  217.000   98.322    0.280    0.435   17.568
  217.250   95.295    0.273    0.435   17.220
  217.500   95.931    0.266    0.441   16.556
  217.750   96.560    0.256    0.455   15.032
  218.000  103.293    0.246    0.436   14.459
  218.250  102.709    0.237    0.419   13.377
  218.500   99.074    0.235    0.401   13.371
  218.750   93.001    0.243    0.385   13.101
  219.000   87.537    0.249    0.371   13.345
  219.250   83.289    0.243    0.355   13.856
  219.500   83.922    0.261    0.375   15.228
  219.750   84.556    0.406    0.409   15.811
  220.000   82.142    0.438    0.441   16.412
  220.250   74.243    0.425    0.469   17.700
  220.500   61.462    0.387    0.449   19.089
  220.750   54.777    0.360    0.441   20.587
  221.000   51.139    0.354    0.423   21.783
  221.250   59.095    0.345    0.405   22.607
  221.500   60.949    0.333    0.390   22.587
  221.750   64.629    0.320    0.379   22.572
  222.000   66.479    0.314    0.379   22.542
  222.250   65.289    0.313    0.384   22.533
  222.500   62.263    0.314    0.399   22.513
  222.750   63.501    0.318    0.401   22.063
  223.000   67.185    0.323    0.395   21.626
  223.250   71.482    0.324    0.383   21.607
  223.500   70.901    0.320    0.384   21.180
  223.750   70.309    0.319    0.394   20.761
  224.000   70.330    0.319    0.403   20.350
  224.250   72.182    0.320    0.395   19.943
  224.500   74.649    0.321    0.392   19.545
  224.750   77.111    0.326    0.396   19.162
  225.000   76.525    0.327    0.410   18.787
  225.250   75.942    0.323    0.415   17.721
  225.500   80.841    0.317    0.435   16.716
  225.750   83.307    0.316    0.448   16.082
  226.000   78.451    0.315    0.432   15.173
  226.250   78.479    0.294    0.424   13.776
  226.500   86.426    0.275    0.377   13.000
  226.750   92.546    0.235    0.391   11.360
  227.000   91.960    0.229    0.421    9.927
  227.250   88.324    0.246    0.433    9.191
  227.500   85.299    0.269    0.437    7.878
  227.750   95.079    0.290    0.452    7.436
  228.000  108.521    0.290    0.492    6.624
  228.250  115.248    0.263    0.515    6.016
  228.500  119.549    0.219    0.528    6.126
  228.750  122.012    0.176    0.503    6.735
  229.000  123.858    0.219    0.488    7.840
  229.250  124.490    0.254    0.471    9.303
  229.500  120.856    0.261    0.457   10.827
  229.750  113.564    0.266    0.436   11.679
  230.000  109.323    0.269    0.430   13.339
  230.250  106.297    0.277    0.429   13.581
  230.500  106.318    0.292    0.429   13.064
  230.750  107.567    0.300    0.418   12.563
  231.000  108.197    0.286    0.401   11.845
  231.250  108.830    0.266    0.411   11.393
  231.500  109.462    0.251    0.424   11.165
  231.750  108.882    0.255    0.430   11.161
  232.000  105.856    0.261    0.419   12.263
  232.250  100.392    0.269    0.388   12.733
  232.500   96.755    0.271    0.369   13.994
  232.750   93.731    0.263    0.361   14.529
  233.000   84.605    0.257    0.366   15.669
  233.250   74.872    0.271    0.378   16.269
