~VERSION INFORMATION
 VERS.                 2.0:   CWLS LOG ASCII STANDARD -VERSION 2.0
 WRAP.                  NO:   ONE LINE PER DEPTH STEP
~WELL INFORMATION BLOCK
#MNEM.UNIT           DATA                    DESCRIPTION OF MNEMONIC
#---------    -------------------            -------------------------------
# Generated from Intellog Unique Number	CS_67_68/WELL/799
WELL.         DOME PETROLEUM LIMITED         : Well_name    - WELL
LOC .         00/09-11-068-02W4/0            : Location     - LOCATION
UWI .         00/09-11-068-02W4/0            : Uwi          - UNIQUE WELL ID
ENTR.         SP                             : Entered      - ENTERED BY
SRVC.         SCHLUMBERGER                   : Scn          - SERVICE COMPANY
STRT.M        350                            : top_depth    - START DEPTH
STOP.M        605                            : bot_depth    - STOP DEPTH
STEP.M        0.25                           : increment    - STEP LENGTH
 NULL. -999.2500:NULL Value
~CURVE INFORMATION BLOCK
#MNEM UNIT       ERCB CURVE CODE    CURVE DESCRIPTION
#-----------   ------------------   ----------------------------------
DEPT.M        00 001 00 00         : DEPTH        - DEPTH
ILD .OHMM     00 120 00 00         : RESD         - DEEP RESISTIVITY (DIL)
DPHI.V/V      00 890 00 00         : PHID         - DENSITY POROSITY (LIMESTONE)
NPHI.V/V      00 330 00 00         : PHIN         - NEUTRON POROSITY (LIMESTONE)
GR  .API      00 310 00 00         : GR           - GAMMA RAY
~PARAMETER INFORMATION
#MNEM.UNIT           DATA             DESCRIPTION OF MNEMONIC
#---------         -----------     ------------------------------
GL  .M        681.9                : gl           - GROUND LEVEL ELEVATION
EREF.M        686                  : kb           - ELEVATION OF DEPTH REFERENCE
DATM.M        681.9                : datum        - DATUM ELEVATION
TDD .M        609                  : tdd          - TOTAL DEPTH DRILLER
RUN .         ONE                  : Run          - RUN NUMBER
ENG .         BILL                 : Engineer     - RECORDING ENGINEER
WIT .         JIM                  : Witness      - WITNESSED BY
MUD .         GEL                  : Mud_type     - MUD TYPE
MATR.         LIMESTONE            : Logunit      - NEUTRON MATRIX
TMAX.C        21.1                 : BHT          - MAXIMUM RECORDED TEMPERATURE
BHTD.M        609                  : BHTDEP       - MAXIMUM RECORDED TEMPERATURE
MATR.         1                    : LOGUNIT      - NEUTRON MATRIX
RMT .C        25                   : MDTP         - TEMPERATURE OF MUD
NEUT.         1                    : NEUTRON      - NEUTRON TYPE
RESI.         0                    : RESIST       - RESISTIVITY TYPE
RMC .OHMM     0.25                 : RMC          - RESISTIVITY OF MUD CAKE
RMF .OHMM     0.25                 : RMF          - RESISTIVITY OF MUD FILTRATE
SUFT.C        15                   : SUFT         - SURFACE TEMPERATURE
~A  DEPTH     RESD     PHID     PHIN       GR
# ...
  480.500    4.878    0.291    0.484   84.531
  480.750    5.058    0.281    0.475   90.972
  481.000    4.502    0.225    0.475   96.257
  481.250    4.052    0.202    0.483  100.627
  481.500    3.730    0.214    0.491  103.541
  481.750    3.538    0.226    0.503  106.330
  482.000    3.405    0.232    0.518  105.467
  482.250    3.277    0.235    0.532  104.485
  482.500    3.237    0.229    0.543  104.414
  482.750    3.210    0.244    0.545  104.466
  483.000    3.207    0.250    0.532   99.588
  483.250    3.221    0.261    0.523   80.167
  483.500    3.364    0.283    0.529   71.455
  483.750    3.995    0.307    0.510   64.995
  484.000    6.118    0.320    0.481   62.490
  484.250   10.113    0.343    0.464   63.636
  484.500   16.318    0.338    0.445   64.964
  484.750   23.247    0.319    0.435   63.435
  485.000   28.439    0.305    0.427   56.850
  485.250   31.058    0.307    0.419   54.774
  485.500   33.419    0.307    0.415   52.635
  485.750   34.710    0.304    0.430   55.668
  486.000   34.672    0.302    0.439   59.796
  486.250   33.434    0.302    0.429   63.256
  486.500   31.245    0.311    0.427   64.523
  486.750   30.357    0.341    0.453   64.940
  487.000   30.202    0.338    0.462   64.382
  487.250   30.338    0.331    0.462   63.825
  487.500   30.765    0.327    0.462   63.876
  487.750   31.013    0.329    0.467   65.083
  488.000   30.807    0.330    0.480   66.534
  488.250   30.662    0.335    0.480   68.533
  488.500   30.180    0.335    0.478   71.505
  488.750   29.421    0.335    0.485   72.652
  489.000   24.497    0.338    0.477   68.139
  489.250   17.126    0.327    0.471   72.936
  489.500   10.533    0.296    0.465   77.978
  489.750    6.406    0.265    0.470   81.315
  490.000    4.736    0.273    0.458   83.556
  490.250    3.950    0.271    0.442   87.258
  490.500    3.760    0.262    0.448   91.082
  490.750    3.742    0.253    0.470   92.778
  491.000    3.850    0.247    0.463   90.576
  491.250    4.113    0.251    0.454   87.160
  491.500    4.368    0.269    0.449   87.759
  491.750    4.753    0.286    0.439   85.680
  492.000    5.039    0.276    0.431   82.689
  492.250    5.263    0.262    0.437   83.285
  492.500    5.436    0.256    0.440   83.703
  492.750    5.583    0.242    0.444   81.929
  493.000    5.673    0.223    0.448   78.755
  493.250    5.655    0.239    0.461   81.117
  493.500    5.225    0.253    0.471   82.447
  493.750    4.617    0.262    0.481   83.472
  494.000    4.265    0.264    0.476   84.435
  494.250    4.098    0.262    0.483   85.401
  494.500    4.056    0.271    0.500   86.546
  494.750    4.159    0.274    0.495   86.597
  495.000    4.192    0.270    0.492   85.189
  495.250    4.188    0.265    0.500   81.528
  495.500    4.114    0.262    0.486   81.458
  495.750    4.057    0.260    0.474   85.159
  496.000    4.105    0.265    0.464   88.071
  496.250    4.264    0.267    0.471   89.827
  496.500    4.470    0.260    0.486   87.808
  496.750    4.774    0.256    0.503   85.791
  497.000    5.157    0.254    0.471   83.956
  497.250    5.579    0.260    0.444   84.978
  497.500    6.220    0.254    0.431   85.214
  497.750    6.656    0.244    0.433   85.813
  498.000    6.952    0.240    0.433   85.375
  498.250    7.127    0.237    0.432   82.143
  498.500    7.199    0.231    0.427   86.392
  498.750    7.023    0.226    0.417   90.581
  499.000    6.947    0.223    0.440   93.249
  499.250    6.625    0.256    0.465   85.511
  499.500    6.270    0.274    0.492   73.940
  499.750    7.148    0.288    0.515   66.750
  500.000    8.253    0.308    0.528   62.297
  500.250    9.372    0.276    0.489   60.218
  500.500   10.784    0.243    0.462   58.505
  500.750   11.559    0.268    0.445   59.835
  501.000   11.829    0.297    0.443   62.990
  501.250   11.301    0.317    0.456   66.326
  501.500   10.777    0.307    0.457   71.185
  501.750   10.220    0.303    0.445   75.617
  502.000    9.690    0.291    0.436   77.617
  502.250    9.004    0.270    0.445   80.224
  502.500    8.537    0.259    0.460   82.343
  502.750    8.081    0.263    0.466   80.204
  503.000    7.577    0.278    0.453   78.491
  503.250    5.989    0.263    0.440   83.409
  503.500    4.886    0.238    0.428   90.822
  503.750    4.481    0.218    0.469   95.379
  504.000    4.171    0.213    0.495  101.453
  504.250    3.783    0.230    0.488  104.061
  504.500    3.521    0.249    0.475  100.096
  504.750    3.181    0.263    0.473   92.540
  505.000    2.978    0.274    0.523   88.819
  505.250    2.762    0.283    0.545   87.531
  505.500    2.648    0.285    0.551   83.323
  505.750    2.534    0.283    0.539   85.686
  506.000    2.364    0.281    0.527   89.389
  506.250    2.258    0.283    0.532   86.762
  506.500    2.218    0.284    0.545   88.516
  506.750    2.287    0.280    0.550   90.029
  507.000    2.362    0.277    0.552   91.358
  507.250    2.440    0.273    0.537   91.957
  507.500    2.507    0.273    0.509   90.791
  507.750    2.565    0.279    0.492   88.287
  508.000    2.684    0.280    0.482   85.051
  508.250    2.788    0.273    0.478   88.693
  508.500    2.972    0.261    0.489   94.463
  508.750    3.288    0.250    0.499   95.246
  509.000    3.618    0.256    0.490   84.953
  509.250    4.224    0.270    0.448   76.424
  509.500    5.167    0.258    0.428   77.509
  509.750    5.989    0.242    0.445   78.834
  510.000    6.009    0.237    0.458   79.740
  510.250    6.012    0.235    0.447   81.191
  510.500    5.732    0.234    0.435   82.826
  510.750    5.366    0.225    0.454   85.128
  511.000    5.172    0.215    0.442   88.891
  511.250    4.788    0.213    0.472   90.708
  511.500    4.473    0.218    0.488   89.115
  511.750    4.057    0.224    0.503   84.116
  512.000    3.769    0.234    0.516   77.471
  512.250    3.581    0.291    0.497   74.482
  512.500    4.067    0.306    0.468   72.099
  512.750    4.549    0.317    0.451   72.394
  513.000    5.148    0.310    0.443   72.688
  513.250    5.528    0.297    0.439   72.131
  513.500    5.905    0.288    0.437   70.114
  513.750    6.076    0.284    0.443   67.425
  514.000    6.442    0.233    0.451   65.652
  514.250    6.972    0.195    0.442   64.547
  514.500    7.474    0.175    0.408   64.355
  514.750    7.820    0.237    0.354   65.197
  515.000    8.214    0.271    0.397   67.986
  515.250    8.436    0.256    0.416   70.715
  515.500    8.634    0.232    0.412   69.306
  515.750    8.785    0.208    0.409   64.733
  516.000    8.663    0.188    0.410   69.104
  516.250    8.431    0.231    0.405   73.597
  516.500    8.040    0.260    0.424   76.446
  516.750    7.683    0.283    0.445   77.290
  517.000    7.462    0.277    0.450   76.975
  517.250    7.182    0.270    0.437   77.210
  517.500    6.926    0.265    0.430   75.253
  517.750    6.777    0.264    0.429   80.475
  518.000    6.621    0.255    0.428   85.880
  518.250    6.577    0.256    0.431   88.368
  518.500    6.401    0.257    0.438   88.602
  518.750    6.127    0.242    0.437   89.321
  519.000    5.682    0.223    0.431   86.939
  519.250    5.633    0.214    0.412   77.984
  519.500    6.050    0.226    0.393   73.897
  519.750    6.785    0.235    0.383   74.131
  520.000    7.031    0.239    0.379   73.208
  520.250    7.739    0.245    0.386   72.225
  520.500    8.204    0.262    0.397   70.572
  520.750    8.488    0.278    0.417   66.121
  521.000    8.752    0.286    0.434   64.043
  521.250    8.693    0.281    0.439   63.423
  521.500    8.274    0.291    0.447   62.076
  521.750    8.040    0.263    0.448   56.529
  522.000    8.090    0.217    0.399   58.953
  522.250    8.249    0.118    0.404   61.012
  522.500    8.445    0.230    0.424   63.133
  522.750    8.447    0.261    0.418   66.529
  523.000    8.298    0.262    0.403   70.171
  523.250    6.960    0.254    0.403   73.144
  523.500    5.903    0.274    0.472   63.214
  523.750    5.985    0.302    0.453   62.962
