~VERSION INFORMATION
 VERS.                 2.0:   CWLS LOG ASCII STANDARD -VERSION 2.0
 WRAP.                  NO:   ONE LINE PER DEPTH STEP
~WELL INFORMATION BLOCK
#MNEM.UNIT           DATA                    DESCRIPTION OF MNEMONIC
#---------    -------------------            -------------------------------
# Generated from Intellog Unique Number	CS_67_68/WELL/2399
WELL.         CHIEFC0 DOME TWEEDIE           : Well_name    - WELL
LOC .         00/06-23-068-12W4/0            : Location     - LOCATION
UWI .         00/06-23-068-12W4/0            : Uwi          - UNIQUE WELL ID
ENTR.         TIM                            : Entered      - ENTERED BY
SRVC.         COMPUTALOG                     : Scn          - SERVICE COMPANY
STRT.M        275                            : top_depth    - START DEPTH
STOP.M        470                            : bot_depth    - STOP DEPTH
STEP.M        0.25                           : increment    - STEP LENGTH
 NULL. -999.2500:NULL Value
~CURVE INFORMATION BLOCK
#MNEM UNIT       ERCB CURVE CODE    CURVE DESCRIPTION
#-----------   ------------------   ----------------------------------
DEPT.M        00 001 00 00         : DEPTH        - DEPTH
GR  .API      00 310 00 00         : GR           - GAMMA RAY
CALI.MM       00 280 01 00         : CAL          - CALIPER
NPHI.V/V      00 330 00 00         : PHIN         - NEUTRON POROSITY (SANDSTONE)
DPHI.V/V      00 890 00 00         : PHID         - DENSITY POROSITY (SANDSTONE)
ILD .OHMM     00 120 00 00         : RESD         - DEEP RESISTIVITY (DIL)
~PARAMETER INFORMATION
#MNEM.UNIT           DATA             DESCRIPTION OF MNEMONIC
#---------         -----------     ------------------------------
GL  .M        591.38               : gl           - GROUND LEVEL ELEVATION
EREF.M        595.2                : kb           - ELEVATION OF DEPTH REFERENCE
DATM.M        595.2                : datum        - DATUM ELEVATION
TDD .M        471                  : tdd          - TOTAL DEPTH DRILLER
RUN .         ONE                  : Run          - RUN NUMBER
ENG .         BILL                 : Engineer     - RECORDING ENGINEER
WIT .         JIM                  : Witness      - WITNESSED BY
MUD .         GEL                  : Mud_type     - MUD TYPE
MATR.         SANDSTONE            : Logunit      - NEUTRON MATRIX
TMAX.C        26                   : BHT          - MAXIMUM RECORDED TEMPERATURE
BHTD.M        471                  : BHTDEP       - MAXIMUM RECORDED TEMPERATURE
MATR.         1                    : LOGUNIT      - NEUTRON MATRIX
RMT .C        20                   : MDTP         - TEMPERATURE OF MUD
NEUT.         1                    : NEUTRON      - NEUTRON TYPE
RESI.         0                    : RESIST       - RESISTIVITY TYPE
RMC .OHMM     1.6                  : RMC          - RESISTIVITY OF MUD CAKE
RMF .OHMM     1.1                  : RMF          - RESISTIVITY OF MUD FILTRATE
SUFT.C        5                    : SUFT         - SURFACE TEMPERATURE
~A  DEPTH       GR      CAL     PHIN     PHID     RESD
# ...
  311.500   96.045  157.348    0.428    0.282    3.194
  311.750   97.336  158.459    0.434    0.299    3.327
  312.000   98.024  158.601    0.436    0.314    3.543
  312.250   97.505  159.747    0.432    0.325    3.616
  312.500   93.952  159.889    0.421    0.335    3.697
  312.750   86.198  160.030    0.406    0.343    3.780
  313.000   74.225  159.167    0.394    0.349    3.861
  313.250   71.877  158.303    0.380    0.355    3.667
  313.500   70.153  157.440    0.367    0.361    3.413
  313.750   69.698  156.577    0.360    0.366    2.450
  314.000   69.138  155.713    0.366    0.363    2.371
  314.250   68.017  154.885    0.374    0.352    2.331
  314.500   66.896  155.027    0.381    0.339    2.256
  314.750   65.796  155.204    0.388    0.333    2.222
  315.000   65.299  155.274    0.398    0.331    2.228
  315.250   64.760  155.451    0.405    0.329    2.238
  315.500   64.824  155.593    0.412    0.336    2.248
  315.750   64.951  155.699    0.422    0.351    2.254
  316.000   64.994  155.840    0.428    0.367    2.259
  316.250   65.703  157.022    0.439    0.380    2.314
  316.500   66.369  157.199    0.451    0.370    2.318
  316.750   67.100  157.376    0.464    0.355    2.372
  317.000   67.184  157.482    0.468    0.347    2.383
  317.250   66.666  157.588    0.443    0.347    2.391
  317.500   65.545  156.795    0.411    0.344    2.353
  317.750   65.027  156.902    0.425    0.335    2.320
  318.000   64.531  155.069    0.440    0.327    2.326
  318.250   64.573  155.175    0.435    0.337    2.293
  318.500   65.261  155.281    0.430    0.346    2.259
  318.750   65.970  155.422    0.415    0.350    2.265
  319.000   65.452  155.670    0.401    0.341    2.235
  319.250   64.934  155.776    0.406    0.333    2.241
  319.500   65.622  155.953    0.418    0.334    2.207
  319.750   66.934  156.024    0.425    0.334    2.215
  320.000   67.621  155.196    0.425    0.334    2.181
  320.250   66.501  155.302    0.419    0.334    2.189
  320.500   64.798  155.443    0.411    0.334    2.199
  320.750   64.237  155.585    0.408    0.332    2.334
  321.000   63.116  155.726    0.411    0.331    2.619
  321.250   62.598  155.868    0.415    0.329    2.939
  321.500   62.704  156.115    0.416    0.329    3.299
  321.750   63.413  156.186    0.409    0.329    3.850
  322.000   64.662  156.363    0.412    0.329    4.238
  322.250   66.598  156.504    0.418    0.329    4.756
  322.500   68.492  156.646    0.427    0.322    5.546
  322.750   69.180  156.787    0.415    0.266    6.707
  323.000   66.250  156.929    0.391    0.200    8.270
  323.250   63.923  157.035    0.271    0.072    9.282
  323.500   60.993  157.247    0.204    0.018    8.653
  323.750   58.645  157.353    0.155    0.005    8.211
  324.000   55.758  157.530    0.129   -0.001    7.374
  324.250   53.991  157.636    0.116   -0.001    6.985
  324.500   51.665  156.844    0.113   -0.001    6.038
  324.750   49.359  156.985    0.116    0.003    5.219
  325.000   49.444  157.091    0.125    0.012    4.597
  325.250   51.359  156.228    0.137    0.030    4.045
  325.500   53.252  156.334    0.161    0.047    3.368
  325.750   55.728  155.471    0.212    0.073    2.909
  326.000   58.849  155.612    0.295    0.105    2.564
  326.250   60.118  154.784    0.362    0.129    2.391
  326.500   62.615  154.890    0.398    0.163    2.311
  326.750   65.111  155.103    0.403    0.336    2.272
  327.000   66.402  154.310    0.405    0.337    2.238
  327.250   65.345  154.381    0.406    0.339    2.246
  327.500   65.387  154.557    0.407    0.343    2.213
  327.750   64.869  154.664    0.408    0.348    2.222
  328.000   65.557  154.840    0.409    0.350    2.230
  328.250   67.472  154.911    0.410    0.348    2.242
  328.500   68.160  155.088    0.415    0.346    2.248
  328.750   68.224  155.230    0.422    0.337    2.258
  329.000   67.124  155.406    0.429    0.326    2.262
  329.250   67.812  155.548    0.435    0.312    2.272
  329.500   67.897  155.654    0.437    0.314    2.280
  329.750   66.151  155.866    0.434    0.325    2.288
  330.000   66.257  155.972    0.437    0.343    2.298
  330.250   66.966  156.149    0.444    0.359    2.304
  330.500   67.030  157.225    0.467    0.363    2.316
  330.750   67.718  157.402    0.487    0.362    2.322
  331.000   69.030  157.508    0.495    0.356    2.328
  331.250   70.321  158.690    0.491    0.344    2.339
  331.500   73.442  158.796    0.479    0.336    2.347
  331.750   75.335  160.013    0.467    0.327    2.353
  332.000   76.002  160.119    0.464    0.319    2.364
  332.250   76.690  160.296    0.471    0.311    2.372
  332.500   76.796  160.402    0.469    0.302    2.378
  332.750   76.881  160.614    0.456    0.299    2.389
  333.000   76.944  160.685    0.459    0.298    2.397
  333.250   76.469  160.826    0.469    0.300    2.363
  333.500   76.554  159.998    0.481    0.301    2.371
  333.750   76.639  160.105    0.490    0.302    2.380
  334.000   76.724  159.277    0.479    0.302    2.388
  334.250   76.787  158.413    0.467    0.302    2.395
  334.500   76.872  158.590    0.449    0.304    2.403
  334.750   76.978  157.727    0.442    0.308    2.414
  335.000   77.645  157.904    0.437    0.317    2.420
  335.250   77.730  156.969    0.427    0.328    2.431
  335.500   75.424  157.111    0.420    0.335    2.441
  335.750   76.736  157.288    0.410    0.329    2.448
  336.000   78.609  156.460    0.411    0.322    2.503
  336.250   82.311  156.530    0.420    0.278    2.512
  336.500   83.020  156.707    0.444    0.270    2.568
  336.750   80.693  155.844    0.443    0.272    2.625
  337.000   77.160  155.985    0.436    0.278    2.789
  337.250   74.834  155.122    0.439    0.287    2.905
  337.500   73.110  154.259    0.446    0.313    3.026
  337.750   71.989  154.400    0.446    0.329    3.211
  338.000   72.052  154.542    0.422    0.335    3.541
  338.250   72.137  153.784    0.407    0.341    3.764
  338.500   71.662  152.886    0.407    0.344    3.842
  338.750   71.101  152.992    0.403    0.331    3.932
  339.000   69.399  153.098    0.397    0.201    3.942
  339.250   67.051  152.305    0.368    0.116    3.811
  339.500   61.709  152.411    0.323    0.055    3.616
  339.750   56.971  151.548    0.288    0.021    3.432
  340.000   57.658  151.725    0.261    0.033    3.202
  340.250   60.155  151.831    0.273    0.090    3.090
  340.500   63.276  152.043    0.313    0.147    3.044
  340.750   66.978  152.149    0.378    0.197    2.945
  341.000   71.284  152.326    0.412    0.318    2.847
  341.250   70.163  152.397    0.440    0.313    2.805
  341.500   68.439  152.574    0.446    0.312    2.814
  341.750   70.935  152.680    0.430    0.320    2.770
  342.000   73.475  152.821    0.405    0.316    2.728
  342.250   73.559  152.963    0.416    0.310    2.694
  342.500   72.417  153.175    0.432    0.308    2.701
  342.750   73.126  153.281    0.432    0.306    2.659
  343.000   73.211  153.458    0.432    0.311    2.621
  343.250   72.693  153.635    0.429    0.317    2.582
  343.500   72.778  153.741    0.431    0.321    2.588
  343.750   73.487  153.847    0.436    0.323    2.646
  344.000   74.175  154.059    0.438    0.324    2.759
  344.250   75.466  154.166    0.439    0.327    2.821
  344.500   76.153  154.272    0.439    0.330    2.887
  344.750   75.614  154.449    0.438    0.333    2.954
  345.000   74.493  154.625    0.434    0.334    2.962
  345.250   72.769  153.762    0.426    0.333    2.915
  345.500   69.237  151.929    0.422    0.330    2.874
  345.750   66.952  150.995    0.421    0.324    2.729
  346.000   67.598  148.122    0.421    0.319    2.684
  346.250   69.491  147.329    0.419    0.317    2.502
  346.500   70.803  146.430    0.418    0.319    2.416
  346.750   72.094  146.536    0.421    0.326    2.338
  347.000   72.782  146.749    0.431    0.340    2.261
  347.250   73.491  146.819    0.460    0.367    2.267
  347.500   74.157  146.961    0.470    0.368    2.234
  347.750   74.242  148.107    0.476    0.352    2.203
