~VERSION INFORMATION
 VERS.                 2.0:   CWLS LOG ASCII STANDARD -VERSION 2.0
 WRAP.                  NO:   ONE LINE PER DEPTH STEP
~WELL INFORMATION BLOCK
#MNEM.UNIT           DATA                    DESCRIPTION OF MNEMONIC
#---------    -------------------            -------------------------------
# Generated from Intellog Unique Number	CW_76_78/WELL/619
WELL.         07-12-077-04W5                 : Well_name    - WELL
LOC .         00/07-12-077-04W5/0            : Location     - LOCATION
UWI .         00/07-12-077-04W5/0            : Uwi          - UNIQUE WELL ID
ENTR.         JAYE                           : Entered      - ENTERED BY
SRVC.         WESTERN ATLAS                  : Scn          - SERVICE COMPANY
STRT.M        435.864                        : top_depth    - START DEPTH
STOP.M        633.864                        : bot_depth    - STOP DEPTH
STEP.M        0.25                           : increment    - STEP LENGTH
 NULL. -999.2500:NULL Value
~CURVE INFORMATION BLOCK
#MNEM UNIT       ERCB CURVE CODE    CURVE DESCRIPTION
#-----------   ------------------   ----------------------------------
DEPT.M        00 001 00 00         : DEPTH        - DEPTH
ILD .OHMM     00 120 00 00         : RESD         - DEEP RESISTIVITY (DIL)
DPHI.V/V      00 890 00 00         : PHID         - DENSITY POROSITY (SANDSTONE)
NPHI.V/V      00 330 00 00         : PHIN         - NEUTRON POROSITY (SANDSTONE)
GR  .API      00 310 00 00         : GR           - GAMMA RAY
CALI.MM       00 280 01 00         : CAL          - CALIPER
~PARAMETER INFORMATION
#MNEM.UNIT           DATA             DESCRIPTION OF MNEMONIC
#---------         -----------     ------------------------------
GL  .M        719.938              : gl           - GROUND LEVEL ELEVATION
EREF.M        723.595              : kb           - ELEVATION OF DEPTH REFERENCE
DATM.M        719.938              : datum        - DATUM ELEVATION
TDD .M        694.944              : tdd          - TOTAL DEPTH DRILLER
RUN .         ONE                  : Run          - RUN NUMBER
ENG .         SKOWOEODKO           : Engineer     - RECORDING ENGINEER
WIT .         MIS/STEIDEL          : Witness      - WITNESSED BY
BASE.         EDM                  : Branch       - HOME BASE OF LOGGING UNIT
MUD .         GEL CHEM             : Mud_type     - MUD TYPE
MATR.         SANDSTONE            : Logunit      - NEUTRON MATRIX
TMAX.C        27.2222              : BHT          - MAXIMUM RECORDED TEMPERATURE
BHTD.M        695.858              : BHTDEP       - MAXIMUM RECORDED TEMPERATURE
RMT .C        15.5556              : MDTP         - TEMPERATURE OF MUD
MUDD.KG/M     0                    : MWT          - MUD DENSITY
NEUT.         1                    : NEUTRON      - NEUTRON TYPE
RESI.         0                    : RESIST       - RESISTIVITY TYPE
RM  .OHMM     3.35                 : RM           - RESISTIVITY OF MUD
RMC .OHMM     0                    : RMC          - RESISTIVITY OF MUD CAKE
RMF .OHMM     4.4                  : RMF          - RESISTIVITY OF MUD FILTRATE
SUFT.C        -17.7778             : SUFT         - SURFACE TEMPERATURE
~A  DEPTH     RESD     PHID     PHIN       GR      CAL
# ...
  545.364    3.860    0.302    0.427   83.891  165.002
  545.614    3.837    0.284    0.416   79.807  164.919
  545.864    3.827    0.241    0.402   77.070  165.045
  546.114    3.875    0.192    0.387   78.796  165.275
  546.364    4.077    0.184    0.382   80.828  165.503
  546.614    4.524    0.177    0.376   81.880  165.528
  546.864    5.160    0.143    0.341   82.383  165.655
  547.114    5.779    0.096    0.297   82.702  166.195
  547.364    6.641    0.084    0.268   81.311  167.359
  547.614    7.773    0.086    0.218   77.350  168.207
  547.864    8.981    0.060    0.200   73.450  168.230
  548.114   10.170    0.057    0.190   71.263  168.463
  548.364   11.368    0.054    0.193   70.848  167.865
  548.614   11.424    0.047    0.225   71.595  167.474
  548.864   10.434    0.134    0.264   72.832  166.875
  549.114    8.582    0.203    0.374   75.047  166.172
  549.364    6.956    0.242    0.415   77.873  165.677
  549.614    6.079    0.248    0.410   80.332  165.183
  549.864    5.254    0.249    0.426   81.447  164.899
  550.114    4.817    0.269    0.415   80.971  164.610
  550.364    4.480    0.270    0.411   80.802  164.324
  550.614    4.323    0.274    0.442   81.488  164.138
  550.864    4.250    0.280    0.452   81.379  164.057
  551.114    4.201    0.281    0.443   79.926  164.080
  551.364    4.198    0.271    0.430   79.206  164.105
  551.614    4.203    0.250    0.420   80.870  164.022
  551.864    4.185    0.240    0.432   83.574  164.046
  552.114    4.144    0.256    0.454   85.055  164.483
  552.364    4.081    0.266    0.468   85.436  164.505
  552.614    4.012    0.240    0.466   85.755  163.908
  552.864    3.987    0.244    0.460   86.135  163.622
  553.114    4.021    0.277    0.452   85.537  164.161
  553.364    4.124    0.294    0.442   83.351  165.012
  553.614    4.484    0.258    0.427   86.237  165.553
  553.864    4.904    0.251    0.406   86.985  165.993
  554.114    5.542    0.236    0.385   82.535  166.532
  554.364    6.452    0.179    0.351   81.570  167.179
  554.614    6.435    0.170    0.402   85.070  167.721
  554.864    5.877    0.218    0.438   91.381  168.153
  555.114    5.319    0.235    0.446   96.042  168.387
  555.364    4.957    0.243    0.439   92.082  167.995
  555.614    4.680    0.238    0.443   91.546  167.605
  555.864    4.450    0.214    0.451   92.843  167.114
  556.114    4.255    0.203    0.448   96.770  167.031
  556.364    4.153    0.227    0.441   98.863  166.845
  556.614    4.074    0.222    0.432   98.021  166.870
  556.864    4.049    0.162    0.420   93.203  166.998
  557.114    4.276    0.160    0.395   87.163  167.330
  557.364    4.676    0.141    0.367   85.342  167.868
  557.614    4.983    0.191    0.382   91.532  167.995
  557.864    4.980    0.221    0.434   97.293  167.917
  558.114    4.842    0.198    0.438  101.281  167.937
  558.364    4.672    0.186    0.445   98.115  167.857
  558.614    4.559    0.198    0.446   98.435  168.195
  558.864    4.465    0.178    0.440  101.811  168.732
  559.114    4.414    0.175    0.438  102.620  169.587
  559.364    4.426    0.185    0.443  101.594  170.333
  559.614    4.457    0.208    0.424  100.935  170.873
  559.864    4.495    0.199    0.420  101.990  171.415
  560.114    4.592    0.163    0.429  103.166  171.539
  560.364    4.691    0.156    0.416  105.136  171.563
  560.614    4.784    0.169    0.410  106.616  171.381
  560.864    4.978    0.184    0.418  105.161  170.885
  561.114    5.143    0.194    0.419   99.916  169.769
  561.364    5.541    0.219    0.409   91.736  168.034
  561.614    6.116    0.216    0.387   83.190  166.921
  561.864    7.171    0.203    0.363   77.945  166.317
  562.114    8.517    0.182    0.307   77.469  165.828
  562.364    8.701    0.161    0.311   85.066  165.951
  562.614    8.663    0.148    0.333   96.635  166.804
  562.864    8.345    0.172    0.365  100.562  167.968
  563.114    7.835    0.174    0.389  105.407  168.814
  563.364    7.104    0.162    0.388  105.542  169.667
  563.614    6.488    0.174    0.402  103.356  170.104
  563.864    5.959    0.175    0.401  104.043  170.335
  564.114    5.772    0.162    0.395  105.279  170.669
  564.364    5.622    0.153    0.387  106.454  170.901
  564.614    5.516    0.152    0.416  107.140  171.234
  564.864    5.502    0.151    0.422  108.255  171.461
  565.114    5.529    0.175    0.401  109.124  171.899
  565.364    5.576    0.150    0.392  108.466  172.131
  565.614    5.644    0.142    0.388  108.479  172.359
  565.864    5.693    0.130    0.383  107.820  171.971
  566.114    5.731    0.147    0.399  105.449  171.680
  566.364    5.749    0.171    0.398  105.524  171.394
  566.614    5.777    0.173    0.411  104.376  171.417
  566.864    5.805    0.164    0.409  102.126  171.132
  567.114    5.844    0.151    0.400  102.568  171.054
  567.364    5.883    0.144    0.398  105.089  171.073
  567.614    5.912    0.157    0.396  106.570  171.514
  567.864    5.941    0.163    0.391  107.746  171.741
  568.114    5.969    0.153    0.386  107.331  172.281
  568.364    5.977    0.143    0.383  104.044  172.721
  568.614    5.962    0.141    0.398  103.080  173.158
  568.864    5.948    0.148    0.417  104.988  173.492
  569.114    5.857    0.145    0.428  107.814  173.618
  569.364    5.726    0.150    0.431  111.620  173.536
  569.614    5.577    0.152    0.426  111.816  173.461
  569.864    5.422    0.154    0.418  110.669  173.068
  570.114    5.329    0.157    0.412  110.071  172.882
  570.364    5.286    0.178    0.408  111.186  172.489
  570.614    5.284    0.209    0.411  112.055  171.272
  570.864    5.320    0.170    0.411  110.540  170.155
  571.114    5.413    0.168    0.408  107.801  169.038
  571.364    5.481    0.176    0.397  110.444  167.821
  571.614    5.559    0.181    0.393  108.501  166.807
  571.864    5.700    0.164    0.398  101.544  166.312
  572.114    5.845    0.170    0.415  104.921  165.925
  572.364    6.070    0.177    0.416  107.075  165.635
  572.614    6.282    0.183    0.406  101.096  165.345
  572.864    6.610    0.147    0.394   94.873  165.163
  573.114    7.018    0.117    0.364   89.689  165.084
  573.364    7.976    0.086    0.316   83.649  165.007
  573.614    8.579    0.091    0.297   80.361  164.723
  573.864    8.797    0.181    0.325   85.694  164.633
  574.114    8.775    0.203    0.395   91.517  164.555
  574.364    8.485    0.200    0.403   92.509  164.372
  574.614    8.009    0.202    0.400   92.218  164.393
  574.864    7.744    0.196    0.394   91.619  164.212
  575.114    7.739    0.195    0.388   89.981  164.232
  575.364    7.791    0.193    0.387   88.040  164.257
  575.614    7.945    0.186    0.393   90.009  164.075
  575.864    8.117    0.198    0.389   89.656  163.787
  576.114    8.262    0.207    0.384   87.651  163.807
  576.364    8.349    0.220    0.382   85.525  163.624
  576.614    8.405    0.223    0.400   83.888  163.542
  576.864    8.399    0.202    0.386   85.981  163.466
  577.114    8.378    0.166    0.355   84.466  163.280
  577.364    8.312    0.149    0.332   82.951  163.201
  577.614    8.245    0.159    0.358   84.433  163.118
  577.864    8.270    0.196    0.382   87.993  162.934
  578.114    8.357    0.192    0.401   91.552  162.860
  578.364    8.554    0.181    0.375   91.077  162.876
  578.614    8.885    0.160    0.338   91.273  162.593
  578.864    9.468    0.121    0.316   94.406  162.514
  579.114   10.054    0.091    0.298   92.280  162.324
  579.364   10.974    0.105    0.316   89.299  162.246
  579.614   11.846    0.117    0.308   87.048  162.273
  579.864   12.578    0.124    0.312   84.433  162.294
  580.114   13.185    0.091    0.329   83.284  162.315
  580.364   13.347    0.068    0.307   77.673  162.336
  580.614   13.048    0.075    0.296   76.586  162.465
  580.864   11.984    0.104    0.296   80.209  162.384
  581.114   10.453    0.131    0.351   85.357  162.414
  581.364    9.460    0.154    0.376   90.263  162.434
  581.614    7.767    0.180    0.381   94.985  162.556
