~VERSION INFORMATION
 VERS.                 2.0:   CWLS LOG ASCII STANDARD -VERSION 2.0
 WRAP.                  NO:   ONE LINE PER DEPTH STEP
~WELL INFORMATION BLOCK
#MNEM.UNIT           DATA                    DESCRIPTION OF MNEMONIC
#---------    -------------------            -------------------------------
# Generated from Intellog Unique Number	CW_73_75/WELL/2730
WELL.         MANNVILLE ET AL MITSUE 07-21   : Well_name    - WELL
LOC .         00/07-21-073-02W5/0            : Location     - LOCATION
UWI .         00/07-21-073-02W5/0            : Uwi          - UNIQUE WELL ID
ENTR.         JAYE                           : Entered      - ENTERED BY
SRVC.         SCHLUMBERGER                   : Scn          - SERVICE COMPANY
DATE.         31 JULY 77                     : Date         - LOG DATE
STRT.M        381                            : top_depth    - START DEPTH
STOP.M        603.5                          : bot_depth    - STOP DEPTH
STEP.M        0.25                           : increment    - STEP LENGTH
 NULL. -999.2500:NULL Value
~CURVE INFORMATION BLOCK
#MNEM UNIT       ERCB CURVE CODE    CURVE DESCRIPTION
#-----------   ------------------   ----------------------------------
DEPT.M        00 001 00 00         : DEPTH        - DEPTH
DPHI.V/V      00 890 00 00         : PHID         - DENSITY POROSITY (SANDSTONE)
NPHI.V/V      00 330 00 00         : PHIN         - NEUTRON POROSITY (SANDSTONE)
GR  .API      00 310 00 00         : GR           - GAMMA RAY
CALI.MM       00 280 01 00         : CAL          - CALIPER
ILD .OHMM     00 120 00 00         : RESD         - DEEP RESISTIVITY (DLL)
~PARAMETER INFORMATION
#MNEM.UNIT           DATA             DESCRIPTION OF MNEMONIC
#---------         -----------     ------------------------------
GL  .M        615.086              : gl           - GROUND LEVEL ELEVATION
EREF.M        618.134              : kb           - ELEVATION OF DEPTH REFERENCE
DATM.M        615.086              : datum        - DATUM ELEVATION
TDD .M        612.648              : tdd          - TOTAL DEPTH DRILLER
RUN .         ONE                  : Run          - RUN NUMBER
ENG .         MACKAY               : Engineer     - RECORDING ENGINEER
WIT .         SPICER               : Witness      - WITNESSED BY
BASE.         EDM                  : Branch       - HOME BASE OF LOGGING UNIT
MUD .         GEL                  : Mud_type     - MUD TYPE
MATR.         SANDSTONE            : Logunit      - NEUTRON MATRIX
TMAX.C        27.2222              : BHT          - MAXIMUM RECORDED TEMPERATURE
BHTD.M        612.953              : BHTDEP       - MAXIMUM RECORDED TEMPERATURE
RMT .C        18.8889              : MDTP         - TEMPERATURE OF MUD
MUDD.KG/M     1128                 : MWT          - MUD DENSITY
NEUT.         1                    : NEUTRON      - NEUTRON TYPE
RESI.         1                    : RESIST       - RESISTIVITY TYPE
RM  .OHMM     5.1                  : RM           - RESISTIVITY OF MUD
RMC .OHMM     0                    : RMC          - RESISTIVITY OF MUD CAKE
RMF .OHMM     6.58                 : RMF          - RESISTIVITY OF MUD FILTRATE
SUFT.C        -17.7778             : SUFT         - SURFACE TEMPERATURE
~A  DEPTH     PHID     PHIN       GR      CAL     RESD
# ...
  417.500    0.257    0.420   78.916  158.506    3.534
  417.750    0.259    0.440   86.071  158.922    3.493
  418.000    0.251    0.437   88.682  159.550    3.459
  418.250    0.246    0.421   88.493  160.811    3.425
  418.500    0.274    0.456   88.428  162.808    3.411
  418.750    0.291    0.474   91.039  163.964    3.437
  419.000    0.286    0.464   95.705  164.802    3.509
  419.250    0.262    0.462   98.876  165.009    3.576
  419.500    0.263    0.465   99.371  165.004    3.617
  419.750    0.251    0.456  100.739  164.999    3.650
  420.000    0.228    0.449   97.375  164.785    3.678
  420.250    0.222    0.449   90.526  164.570    3.691
  420.500    0.262    0.429   85.544  164.144    3.683
  420.750    0.264    0.424   82.990  163.718    3.585
  421.000    0.251    0.458   85.352  163.608    3.358
  421.250    0.238    0.448   89.022  163.604    2.794
  421.500    0.247    0.447   93.812  165.391    2.443
  421.750    0.272    0.488   99.535  172.448    2.447
  422.000    0.296    0.558   93.807  181.718    2.667
  422.250    0.338    0.506   73.203  169.804    2.923
  422.500    0.327    0.460   61.375  162.318    3.322
  422.750    0.270    0.433   65.480  159.994    3.668
  423.000    0.289    0.433   68.713  160.516    3.789
  423.250    0.263    0.428   72.072  161.144    3.847
  423.500    0.246    0.402   79.538  162.510    3.737
  423.750    0.242    0.396   89.494  164.719    3.651
  424.000    0.263    0.420  100.819  166.402    3.644
  424.250    0.244    0.449  104.613  166.818    3.671
  424.500    0.235    0.462   92.536  165.971    3.719
  424.750    0.259    0.452   81.704  164.596    3.805
  425.000    0.275    0.431   81.016  163.749    3.900
  425.250    0.263    0.417   89.541  162.796    3.959
  425.500    0.245    0.426   85.244  162.264    3.928
  425.750    0.242    0.456   74.038  162.155    3.875
  426.000    0.286    0.464   66.629  161.834    3.757
  426.250    0.280    0.447   60.589  161.619    3.629
  426.500    0.279    0.433   61.520  161.403    3.580
  426.750    0.292    0.417   62.575  161.083    3.641
  427.000    0.294    0.437   59.897  161.079    3.754
  427.250    0.291    0.451   62.384  161.074    3.929
  427.500    0.294    0.438   65.804  161.175    4.169
  427.750    0.284    0.422   65.615  161.383    4.639
  428.000    0.269    0.436   64.056  162.220    5.292
  428.250    0.282    0.417   60.942  163.059    5.946
  428.500    0.274    0.370   57.454  163.793    6.810
  428.750    0.237    0.311   53.281  165.158    7.252
  429.000    0.195    0.286   52.718  165.576    6.742
  429.250    0.132    0.256   55.890  165.045    5.441
  429.500    0.141    0.305   59.000  164.407    4.483
  429.750    0.218    0.360   60.491  163.666    3.883
  430.000    0.248    0.400   61.235  162.713    3.645
  430.250    0.281    0.433   63.847  162.181    3.575
  430.500    0.294    0.453   68.947  161.861    3.500
  430.750    0.296    0.468   73.302  161.962    3.452
  431.000    0.287    0.477   69.627  161.957    3.458
  431.250    0.276    0.462   58.234  161.531    3.457
  431.500    0.262    0.428   56.987  161.316    3.450
  431.750    0.280    0.442   58.416  161.311    3.436
  432.000    0.277    0.447   59.409  161.307    3.415
  432.250    0.286    0.447   60.340  161.514    3.408
  432.500    0.264    0.433   62.889  161.720    3.375
  432.750    0.271    0.417   66.808  161.611    3.348
  433.000    0.306    0.404   69.482  161.817    3.335
  433.250    0.304    0.414   66.367  161.813    3.303
  433.500    0.296    0.420   68.232  161.809    3.270
  433.750    0.278    0.419   70.843  161.699    3.245
  434.000    0.270    0.427   70.280  161.905    3.176
  434.250    0.258    0.448   68.037  162.006    3.039
  434.500    0.268    0.451   66.852  162.002    2.975
  434.750    0.292    0.447   69.588  162.313    2.952
  435.000    0.299    0.447   73.445  162.309    2.940
  435.250    0.295    0.457   76.118  162.411    2.939
  435.500    0.285    0.440   73.813  162.511    2.938
  435.750    0.272    0.434   74.059  162.402    2.938
  436.000    0.275    0.433   79.845  163.135    2.942
  436.250    0.273    0.437   88.307  165.028    2.919
  436.500    0.261    0.457   94.466  168.290    2.864
  436.750    0.231    0.517   93.343  169.762    2.652
  437.000    0.292    0.483   93.154  165.752    2.433
  437.250    0.282    0.468   94.956  169.226    2.164
  437.500    0.267    0.493   97.568  177.442    2.218
  437.750    0.260    0.514   99.619  213.271    2.473
  438.000    0.334    0.526  100.052  200.409    2.806
  438.250    0.324    0.536  100.236  211.682    3.086
  438.500    0.313    0.543  100.420  222.427    3.281
  438.750    0.315    0.532  101.040  178.052    3.454
  439.000    0.299    0.471   97.863  162.029    3.608
  439.250    0.261    0.442   91.761  159.600    3.684
  439.500    0.234    0.446   86.966  161.598    3.762
  439.750    0.263    0.452   81.735  163.701    3.908
  440.000    0.271    0.455   80.052  164.962    4.090
  440.250    0.271    0.452   82.913  166.117    4.432
  440.500    0.237    0.448   88.014  167.588    4.811
  440.750    0.196    0.449   95.169  169.164    5.084
  441.000    0.178    0.457  100.457  169.898    5.201
  441.250    0.169    0.460  100.765  169.893    5.240
  441.500    0.202    0.468   98.086  169.152    5.199
  441.750    0.254    0.486   92.046  168.304    5.012
  442.000    0.302    0.546   85.758  168.194    4.695
  442.250    0.420    0.595   81.336  168.822    4.552
  442.500    0.404    0.606   84.259  170.399    4.774
  442.750    0.386    0.569   90.854  172.291    5.263
  443.000    0.324    0.556   97.510  174.711    5.605
  443.250    0.339    0.595   98.877  174.706    6.130
  443.500    0.302    0.544  101.302  172.173    6.667
  443.750    0.240    0.507   96.071  167.004    7.196
  444.000    0.264    0.484   89.160  161.941    7.334
  444.250    0.278    0.472   82.623  160.883    6.701
  444.500    0.297    0.471   85.732  161.089    6.636
  444.750    0.317    0.463   83.177  161.295    7.287
  445.000    0.301    0.453   84.171  161.501    7.940
  445.250    0.285    0.463   89.272  161.602    8.295
  445.500    0.288    0.468   90.576  161.703    8.262
  445.750    0.289    0.461   85.221  161.594    8.041
  446.000    0.283    0.467   75.758  161.485    7.827
  446.250    0.277    0.466   69.469  160.953    7.503
  446.500    0.277    0.453   72.703  160.738    7.096
  446.750    0.287    0.457   74.941  160.312    6.712
  447.000    0.298    0.453   73.071  159.570    6.372
  447.250    0.317    0.443   74.314  158.828    5.947
  447.500    0.316    0.466   75.494  158.296    5.539
  447.750    0.310    0.471   74.557  158.187    5.110
  448.000    0.302    0.457   73.497  158.181    4.796
  448.250    0.298    0.442   71.876  158.071    4.554
  448.500    0.299    0.435   75.048  157.856    4.416
  448.750    0.300    0.450   79.028  157.748    4.282
  449.000    0.310    0.488   78.341  157.532    4.128
  449.250    0.322    0.514   74.978  157.421    3.995
  449.500    0.330    0.530   76.095  157.523    3.911
  449.750    0.336    0.504   78.582  157.730    3.858
  450.000    0.309    0.475   81.132  157.831    3.842
  450.250    0.292    0.454   78.328  158.353    3.841
  450.500    0.304    0.441   76.209  158.771    3.818
  450.750    0.310    0.449   78.261  158.977    3.803
  451.000    0.290    0.468   80.499  159.183    3.773
  451.250    0.270    0.467   82.052  159.285    3.801
  451.500    0.291    0.459   82.796  159.807    3.808
  451.750    0.299    0.457   80.553  160.119    3.851
  452.000    0.276    0.470   79.057  160.220    3.954
  452.250    0.258    0.479   79.303  160.320    4.139
  452.500    0.279    0.461   78.616  160.210    4.375
  452.750    0.278    0.458   79.734  159.785    4.475
  453.000    0.269    0.461   85.955  159.570    4.491
  453.250    0.249    0.452   89.002  159.566    4.439
  453.500    0.230    0.428   87.195  160.404    4.379
  453.750    0.212    0.404   89.371  161.454    4.345
