~VERSION INFORMATION
 VERS.                 2.0:   CWLS LOG ASCII STANDARD -VERSION 2.0
 WRAP.                  NO:   ONE LINE PER DEPTH STEP
~WELL INFORMATION BLOCK
#MNEM.UNIT           DATA                    DESCRIPTION OF MNEMONIC
#---------    -------------------            -------------------------------
# Generated from Intellog Unique Number	CW_70_72/WELL/3005
NULL.         -999.25                        : NULL_VALUE
WELL.         GULF POC CALLS 06-03           : Well_name    - WELL              
LOC .         06-03-070-23W4                 : Location     - LOCATION          
UWI .         00/06-03-070-23W4/0            : Uwi          - UNIQUE WELL ID    
ENTR.         J                              : Entered      - ENTERED BY        
SRVC.         SCHLUMBERGER                   : Scn          - SERVICE COMPANY   
DATE.         9 JAN 75                       : Date         - LOG DATE          
STRT.M        396.24                         : top_depth    - START DEPTH       
STOP.M        579.24                         : bot_depth    - STOP DEPTH        
STEP.M        0.25                           : increment    - STEP LENGTH       
~CURVE INFORMATION BLOCK
#MNEM UNIT       ERCB CURVE CODE    CURVE DESCRIPTION
#-----------   ------------------   ----------------------------------
DEPT.M        00 001 00 00         : DEPTH        - DEPTH                       
ILD .OHMM     00 120 00 00         : RESD         - DEEP RESISTIVITY (DIL)      
CALI.MM       00 280 01 00         : CAL          - CALIPER                     
GR  .API      00 310 00 00         : GR           - GAMMA RAY                   
NPHI.V/V      00 330 00 00         : PHIN         - NEUTRON POROSITY (SANDSTONE)
DPHI.V/V      00 890 00 00         : PHID         - DENSITY POROSITY (SANDSTONE)
~PARAMETER INFORMATION       
#MNEM.UNIT           DATA             DESCRIPTION OF MNEMONIC
#---------         -----------     ------------------------------
GL  .M        626.577              : gl           - GROUND LEVEL ELEVATION      
EREF.M        629.839              : kb           - ELEVATION OF DEPTH REFERENCE
DATM.M        626.577              : datum        - DATUM ELEVATION             
TDD .M        606.552              : tdd          - TOTAL DEPTH DRILLER         
RUN .         ONE                  : Run          - RUN NUMBER                  
ENG .         STRUKY               : Engineer     - RECORDING ENGINEER          
WIT .         CURBA                : Witness      - WITNESSED BY                
BASE.         EDMONTON             : Branch       - HOME BASE OF LOGGING UNIT   
MUD .         RCL & DX 301         : Mud_type     - MUD TYPE                    
MATR.         SANDSTONE            : Logunit      - NEUTRON MATRIX              
TMAX.C        26.1111              : BHT          - MAXIMUM RECORDED TEMPERATURE
BHTD.M        595.579              : BHTDEP       - MAXIMUM RECORDED TEMPERATURE
RMT .C        21.1111              : MDTP         - TEMPERATURE OF MUD          
MUDD.KG/M     1020                 : MWT          - MUD DENSITY                 
NEUT.         1                    : NEUTRON      - NEUTRON TYPE                
RESI.         0                    : RESIST       - RESISTIVITY TYPE            
RM  .OHMM     2.5                  : RM           - RESISTIVITY OF MUD          
RMC .OHMM     2.5                  : RMC          - RESISTIVITY OF MUD CAKE     
RMF .OHMM     1.7                  : RMF          - RESISTIVITY OF MUD FILTRATE 
SUFT.C        -17.7778             : SUFT         - SURFACE TEMPERATURE         
~A  DEPTH     RESD      CAL       GR     PHIN     PHID
# ...
  505.740    5.250  156.311   83.642    0.466    0.294
  505.990    5.799  154.712   82.628    0.443    0.321
  506.240    6.611  153.527   83.668    0.423    0.330
  506.490    7.384  152.860   84.886    0.419    0.332
  506.740    8.370  152.521   84.437    0.410    0.284
  506.990    9.350  152.068   82.746    0.390    0.202
  507.240    9.865  151.514   77.899    0.350    0.180
  507.490    9.923  151.798   72.182    0.344    0.196
  507.740    8.616  151.763   73.525    0.371    0.219
  507.990    7.093  151.763   82.610    0.366    0.223
  508.240    5.882  151.763   89.715    0.351    0.214
  508.490    5.024  151.875   98.555    0.356    0.232
  508.740    4.197  151.431  104.915    0.404    0.256
  508.990    3.951  151.303  101.305    0.451    0.295
  509.240    3.881  150.101   99.304    0.461    0.306
  509.490    3.896  149.776   96.933    0.471    0.302
  509.740    3.912  149.219   95.306    0.463    0.286
  509.990    3.971  150.026  101.726    0.470    0.273
  510.240    4.054  151.987  106.233    0.453    0.275
  510.490    4.146  153.007  106.708    0.440    0.269
  510.740    4.240  153.917  105.575    0.434    0.266
  510.990    4.296  154.836  105.188    0.440    0.255
  511.240    4.330  154.836  107.523    0.453    0.260
  511.490    4.371  156.235  107.072    0.472    0.258
  511.740    4.373  155.575   98.196    0.486    0.252
  511.990    4.398  155.575   97.808    0.457    0.240
  512.240    4.548  152.987  104.168    0.439    0.229
  512.490    4.843  152.652  108.174    0.448    0.254
  512.740    5.119  152.208  104.008    0.454    0.261
  512.990    5.563  151.760   96.435    0.461    0.257
  513.240    6.090  151.191   92.762    0.451    0.270
  513.490    6.654  151.487   89.834    0.429    0.285
  513.740    6.944  152.609   92.478    0.408    0.277
  513.990    6.745  154.361   97.601    0.438    0.261
  514.240    6.200  155.897  106.192    0.426    0.254
  514.490    5.616  157.342  109.021    0.434    0.253
  514.740    5.287  157.942  107.271    0.444    0.247
  514.990    4.968  157.942  107.809    0.454    0.246
  515.240    4.817  158.921  108.907    0.445    0.249
  515.490    4.749  158.896  103.065    0.442    0.251
  515.740    4.724  158.864  101.499    0.443    0.244
  515.990    4.640  158.838  102.534    0.443    0.241
  516.240    4.548  159.014  105.113    0.437    0.245
  516.490    4.426  158.251  105.783    0.424    0.253
  516.740    4.284  157.381  105.453    0.422    0.255
  516.990    4.177  156.725  104.259    0.427    0.257
  517.240    4.072  156.376  100.833    0.430    0.266
  517.490    4.021  156.244  100.445    0.438    0.256
  517.740    3.964  156.527  104.205    0.452    0.252
  517.990    3.965  156.604  101.089    0.462    0.252
  518.240    3.981  156.676   95.995    0.470    0.256
  518.490    4.026  156.852   91.455    0.472    0.240
  518.740    4.164  156.715   91.995    0.470    0.253
  518.990    4.401  156.481   93.649    0.463    0.262
  519.240    4.845  155.705   91.584    0.450    0.273
  519.490    5.313  154.837   87.663    0.456    0.270
  519.740    5.956  153.762   81.886    0.467    0.273
  519.990    6.902  152.366   75.492    0.463    0.283
  520.240    8.689  151.715   68.413    0.415    0.289
  520.490   12.906  150.209   64.246    0.322    0.270
  520.740   17.231  149.342   63.109    0.319    0.270
  520.990   21.533  148.473   63.712    0.341    0.289
  521.240   19.540  147.916   65.120    0.366    0.300
  521.490   15.677  147.569   67.949    0.388    0.315
  521.740   12.788  147.547   67.808    0.403    0.324
  521.990   11.145  147.620   66.677    0.419    0.313
  522.240    9.929  147.904   68.516    0.426    0.308
  522.490    8.944  149.237   72.212    0.431    0.314
  522.740    7.867  151.197   74.675    0.437    0.331
  522.990    7.366  153.579   75.772    0.443    0.336
  523.240    7.450  154.804   71.665    0.450    0.325
  523.490    7.889  152.567   71.896    0.453    0.316
  523.740    8.526  151.074   72.497    0.438    0.326
  523.990    8.719  149.364   71.551    0.424    0.325
  524.240    8.224  148.389   71.528    0.429    0.328
  524.490    7.672  147.316   74.546    0.441    0.334
  524.740    7.276  145.290   77.377    0.453    0.337
  524.990    6.990  144.213   79.155    0.444    0.333
  525.240    6.727  145.541   78.148    0.429    0.328
  525.490    6.381  146.877   75.466    0.437    0.327
  525.740    6.074  148.107   78.730    0.449    0.328
  525.990    5.824  144.931   81.932    0.462    0.331
  526.240    5.826  146.991   81.914    0.466    0.340
  526.490    5.980  150.217   78.988    0.471    0.342
  526.740    6.252  153.958   75.067    0.433    0.330
  526.990    6.465  153.923   73.873    0.405    0.302
  527.240    6.396  153.687   76.763    0.385    0.282
  527.490    6.122  153.131   82.380    0.402    0.279
  527.740    5.700  152.053   87.320    0.411    0.284
  527.990    5.230  151.607   95.291    0.420    0.298
  528.240    4.747  152.307  104.621    0.426    0.308
  528.490    4.213  154.903  108.384    0.438    0.299
  528.740    3.692  159.170  109.170    0.458    0.283
  528.990    3.464  161.338  106.367    0.480    0.273
  529.240    3.377  162.467  108.330    0.494    0.266
  529.490    3.347  163.267  114.876    0.487    0.257
  529.740    3.360  163.241  120.247    0.465    0.248
  529.990    3.539  163.210  124.749    0.461    0.262
  530.240    3.755  163.285  124.793    0.478    0.261
  530.490    3.948  162.836  116.786    0.481    0.247
  530.740    4.037  161.865  115.841    0.458    0.224
  530.990    4.076  164.346  118.856    0.442    0.211
  531.240    4.018  165.577  120.324    0.480    0.244
  531.490    3.909  164.705  119.439    0.502    0.257
  531.740    3.763  163.514  114.713    0.531    0.253
  531.990    3.743  163.073  107.761    0.491    0.227
  532.240    3.950  162.309   99.752    0.454    0.203
  532.490    4.339  161.224   95.648    0.426    0.213
  532.740    5.029  160.572   94.266    0.375    0.204
  532.990    5.515  160.012   95.302    0.346    0.182
  533.240    6.149  160.715   99.308    0.368    0.194
  533.490    6.464  161.527  103.255    0.395    0.208
  533.740    6.222  159.925  106.951    0.402    0.224
  533.990    5.564  158.215  108.855    0.414    0.244
  534.240    5.286  158.395  110.692    0.439    0.246
  534.490    5.154  161.404  109.806    0.467    0.232
  534.740    5.080  160.849  109.543    0.476    0.218
  534.990    5.045  154.319  112.374    0.463    0.199
  535.240    5.037  157.538  116.506    0.477    0.215
  535.490    5.039  159.917  118.839    0.484    0.234
  535.740    5.050  158.210  114.487    0.476    0.226
  535.990    5.108  162.268  110.195    0.463    0.218
  536.240    5.253  162.031  107.703    0.456    0.207
  536.490    5.323  162.513  105.764    0.443    0.205
  536.740    5.344  162.906  110.268    0.449    0.203
  536.990    5.317  163.086  116.876    0.434    0.196
  537.240    5.098  163.274  120.758    0.404    0.190
  537.490    4.889  163.554  120.803    0.422    0.215
  537.740    4.723  163.315  120.539    0.445    0.240
  537.990    4.647  163.181  121.571    0.446    0.231
  538.240    4.683  162.417  119.324    0.436    0.234
  538.490    4.763  161.234  112.617    0.437    0.223
  538.740    5.119  158.257  109.009    0.426    0.210
  538.990    5.562  157.078  107.193    0.427    0.211
  539.240    5.880  156.733  104.821    0.428    0.215
  539.490    6.079  157.332  102.266    0.421    0.183
  539.740    6.149  159.193   98.096    0.412    0.159
  539.990    6.106  161.782  103.900    0.405    0.207
  540.240    5.975  163.110  105.123    0.412    0.224
  540.490    5.814  163.820  104.915    0.426    0.209
  540.740    5.658  165.144  107.193    0.434    0.220
  540.990    5.507  165.748  112.995    0.420    0.211
  541.240    5.409  166.138  118.861    0.416    0.212
  541.490    5.370  166.314  120.515    0.424    0.214
  541.740    5.343  166.078  120.063    0.434    0.192
  541.990    5.364  164.789  117.072    0.444    0.190
