~VERSION INFORMATION
 VERS.                 2.0:   CWLS LOG ASCII STANDARD -VERSION 2.0
 WRAP.                  NO:   ONE LINE PER DEPTH STEP
~WELL INFORMATION BLOCK
#MNEM.UNIT           DATA                    DESCRIPTION OF MNEMONIC
#---------    -------------------            -------------------------------
# Generated from Intellog Unique Number	CW_76_78/WELL/637
WELL.         GULF POC DROWNED 07-23         : Well_name    - WELL
LOC .         00/07-23-076-22W4/0            : Location     - LOCATION
UWI .         00/07-23-076-22W4/0            : Uwi          - UNIQUE WELL ID
ENTR.         JAYE                           : Entered      - ENTERED BY
SRVC.         WESTERN ATLAS                  : Scn          - SERVICE COMPANY
DATE.         5 JAN 77                       : Date         - LOG DATE
STRT.M        435.864                        : top_depth    - START DEPTH
STOP.M        649.114                        : bot_depth    - STOP DEPTH
STEP.M        0.25                           : increment    - STEP LENGTH
 NULL. -999.2500:NULL Value
~CURVE INFORMATION BLOCK
#MNEM UNIT       ERCB CURVE CODE    CURVE DESCRIPTION
#-----------   ------------------   ----------------------------------
DEPT.M        00 001 00 00         : DEPTH        - DEPTH
ILD .OHMM     00 120 00 00         : RESD         - DEEP RESISTIVITY (DIL)
NPHI.V/V      00 330 00 00         : PHIN         - NEUTRON POROSITY (SANDSTONE)
DPHI.V/V      00 890 00 00         : PHID         - DENSITY POROSITY (SANDSTONE)
GR  .API      00 310 00 00         : GR           - GAMMA RAY
CALI.MM       00 280 01 00         : CAL          - CALIPER
~PARAMETER INFORMATION
#MNEM.UNIT           DATA             DESCRIPTION OF MNEMONIC
#---------         -----------     ------------------------------
GL  .M        749.198              : gl           - GROUND LEVEL ELEVATION
EREF.M        752.551              : kb           - ELEVATION OF DEPTH REFERENCE
DATM.M        749.198              : datum        - DATUM ELEVATION
TDD .M        647.7                : tdd          - TOTAL DEPTH DRILLER
RUN .         ONE                  : Run          - RUN NUMBER
ENG .         CROCKFORD            : Engineer     - RECORDING ENGINEER
WIT .         HUGHES               : Witness      - WITNESSED BY
BASE.         EDM                  : Branch       - HOME BASE OF LOGGING UNIT
MATR.         SANDSTONE            : Logunit      - NEUTRON MATRIX
TMAX.C        30.5556              : BHT          - MAXIMUM RECORDED TEMPERATURE
BHTD.M        648.31               : BHTDEP       - MAXIMUM RECORDED TEMPERATURE
RMT .C        14.4444              : MDTP         - TEMPERATURE OF MUD
MUDD.KG/M     1080                 : MWT          - MUD DENSITY
NEUT.         1                    : NEUTRON      - NEUTRON TYPE
RESI.         0                    : RESIST       - RESISTIVITY TYPE
RM  .OHMM     3.89                 : RM           - RESISTIVITY OF MUD
RMC .OHMM     0                    : RMC          - RESISTIVITY OF MUD CAKE
RMF .OHMM     5.84                 : RMF          - RESISTIVITY OF MUD FILTRATE
SUFT.C        -17.7778             : SUFT         - SURFACE TEMPERATURE
~A  DEPTH     RESD     PHIN     PHID       GR      CAL
# ...
  508.864   12.599    0.143   -0.024   61.099  179.152
  509.114    9.437    0.193    0.040   64.033  179.486
  509.364    7.395    0.325    0.108   76.095  179.303
  509.614    5.794    0.370    0.164   89.617  177.262
  509.864    5.104    0.410    0.216  100.401  170.382
  510.114    5.054    0.445    0.216  107.777  171.539
  510.364    5.332    0.450    0.213  111.928  180.527
  510.614    5.186    0.440    0.234  110.664  184.052
  510.864    4.447    0.423    0.249  105.445  173.257
  511.114    3.331    0.412    0.243  101.991  167.100
  511.364    2.219    0.407    0.234  102.735  165.786
  511.614    2.198    0.408    0.217  107.616  167.867
  511.864    1.971    0.433    0.193  113.289  172.013
  512.114    2.117    0.444    0.175  118.597  175.538
  512.364    2.422    0.442    0.185  118.489  180.200
  512.614    3.087    0.436    0.178  115.398  183.211
  512.864    4.006    0.425    0.195  113.222  182.305
  513.114    4.794    0.416    0.190  112.506  181.299
  513.364    4.704    0.414    0.200  113.250  180.807
  513.614    4.576    0.421    0.193  115.758  180.526
  513.864    4.491    0.429    0.197  115.408  180.029
  514.114    4.449    0.436    0.189  118.098  179.641
  514.364    4.405    0.426    0.203  120.363  179.663
  514.614    4.442    0.424    0.217  115.692  180.411
  514.864    4.519    0.433    0.213  112.420  181.257
  515.114    4.725    0.420    0.209  111.642  181.901
  515.364    4.984    0.406    0.223  113.483  182.229
  515.614    5.164    0.381    0.290  115.138  175.660
  515.864    5.254    0.382    0.307  112.658  168.472
  516.114    5.297    0.391    0.314  104.639  166.743
  516.364    5.295    0.359    0.330   94.491  167.898
  516.614    5.290    0.360    0.350   85.925  169.261
  516.864    5.383    0.401    0.318   84.844  169.800
  517.114    5.527    0.432    0.303   87.292  169.823
  517.364    5.624    0.426    0.305   84.568  169.540
  517.614    5.671    0.411    0.297   82.330  169.148
  517.864    5.823    0.420    0.302   80.154  168.657
  518.114    5.924    0.430    0.305   78.768  167.857
  518.364    6.027    0.428    0.284   78.599  166.746
  518.614    6.133    0.443    0.296   78.918  166.256
  518.864    6.240    0.435    0.306   79.235  166.484
  519.114    6.408    0.426    0.308   79.372  167.030
  519.364    6.819    0.423    0.278   82.791  167.252
  519.614    7.129    0.427    0.281   84.327  167.482
  519.864    7.519    0.433    0.299   84.280  167.503
  520.114    7.932    0.433    0.290   85.511  167.738
  520.364    8.145    0.414    0.253   86.924  168.071
  520.614    8.213    0.379    0.233   87.972  168.812
  520.864    7.916    0.350    0.208   81.963  169.556
  521.114    7.562    0.400    0.190   78.385  170.506
  521.364    7.224    0.435    0.286   78.948  171.045
  521.614    6.902    0.424    0.288   80.238  171.379
  521.864    6.593    0.424    0.280   81.591  171.505
  522.114    6.356    0.440    0.288   86.047  172.046
  522.364    6.071    0.450    0.298   87.461  172.585
  522.614    5.800    0.437    0.307   86.866  172.504
  522.864    5.694    0.430    0.301   84.384  172.117
  523.114    5.488    0.426    0.284   81.781  171.523
  523.364    5.435    0.420    0.281   82.221  171.025
  523.614    5.431    0.428    0.292   84.912  170.949
  523.864    5.428    0.420    0.292   85.474  170.972
  524.114    5.424    0.411    0.284   84.819  171.200
  524.364    5.372    0.412    0.277   85.137  171.018
  524.614    5.368    0.407    0.262   86.489  170.836
  524.864    5.317    0.405    0.259   89.484  170.757
  525.114    5.264    0.400    0.279   90.228  170.569
  525.364    5.168    0.399    0.281   88.842  170.081
  525.614    5.072    0.408    0.275   89.830  170.103
  525.864    4.978    0.404    0.259   92.094  170.022
  526.114    4.975    0.398    0.244   92.352  170.155
  526.364    4.971    0.401    0.247   91.879  170.379
  526.614    4.968    0.445    0.254   91.771  170.612
  526.864    4.877    0.456    0.252   94.341  170.739
  527.114    4.743    0.454    0.239   95.146  170.965
  527.364    4.613    0.447    0.250   95.281  170.882
  527.614    4.447    0.431    0.254  100.405  170.807
  527.864    4.287    0.442    0.251  106.504  170.519
  528.114    4.170    0.453    0.227  113.516  170.231
  528.364    3.984    0.446    0.227  117.971  169.952
  528.614    3.840    0.451    0.230  118.046  170.278
  528.864    3.735    0.460    0.234  115.808  175.247
  529.114    3.666    0.457    0.228  114.239  179.082
  529.364    3.631    0.497    0.242  111.454  181.475
  529.614    3.661    0.512    0.250  109.339  184.489
  529.864    3.725    0.495    0.239  107.588  186.055
  530.114    3.825    0.480    0.258  106.264  180.824
  530.364    3.927    0.468    0.256  105.912  177.345
  530.614    3.996    0.458    0.262  104.769  174.690
  530.864    4.065    0.452    0.254  106.852  172.756
  531.114    4.099    0.463    0.232  110.760  174.222
  531.364    4.096    0.461    0.241  109.679  176.820
  531.614    4.021    0.455    0.225  112.431  178.908
  531.864    3.911    0.454    0.215  115.304  179.649
  532.114    3.873    0.456    0.214  118.604  180.188
  532.364    3.941    0.428    0.210  117.279  180.316
  532.614    4.083    0.418    0.199  113.825  179.615
  532.864    4.230    0.421    0.242  110.188  177.063
  533.114    4.304    0.432    0.263  106.550  174.922
  533.364    4.301    0.425    0.246  109.972  175.152
  533.614    4.298    0.417    0.223  110.168  177.753
  533.864    4.295    0.440    0.228  110.303  179.320
  534.114    4.254    0.458    0.224  113.542  179.140
  534.364    4.175    0.465    0.229  120.370  178.543
  534.614    4.061    0.455    0.223  120.324  179.390
  534.864    3.950    0.444    0.204  119.728  181.476
  535.114    3.876    0.431    0.190  118.100  184.386
  535.364    3.839    0.424    0.212  115.193  187.600
  535.614    3.871    0.430    0.217  113.138  190.201
  535.864    4.047    0.435    0.216  112.300  189.810
  536.114    4.231    0.426    0.234  111.646  183.961
  536.364    4.710    0.414    0.254  110.988  171.313
  536.614    4.925    0.397    0.257  107.717  169.067
  536.864    5.289    0.407    0.232   99.272  169.606
  537.114    5.942    0.396    0.242   97.888  169.635
  537.364    6.983    0.376    0.265   97.718  169.549
  537.614    8.134    0.360    0.300   95.054  170.398
  537.864    8.976    0.360    0.318   95.312  170.524
  538.114    9.468    0.372    0.311   96.907  169.831
  538.364    9.127    0.384    0.290   99.356  169.438
  538.614    8.639    0.397    0.276  101.073  169.671
  538.864    8.329    0.407    0.263   98.896  169.898
  539.114    7.885    0.423    0.250   95.199  170.542
  539.364    7.809    0.432    0.260   93.325  170.768
  539.614    7.946    0.427    0.266   92.609  170.589
  539.864    8.611    0.384    0.259   90.981  170.302
  540.114    9.674    0.347    0.244   88.743  170.734
  540.364   11.371    0.280    0.217   83.767  171.787
  540.614   14.234    0.180    0.148   81.225  174.284
  540.864   20.213    0.123    0.088   75.337  175.749
  541.114   28.188    0.100    0.048   69.388  177.114
  541.364   30.549    0.093   -0.023   64.959  178.577
  541.614   29.182    0.097   -0.041   64.547  179.839
  541.864   26.893    0.112   -0.003   66.692  179.140
  542.114   23.691    0.137    0.027   70.782  177.000
  542.364   18.731    0.156    0.059   75.115  176.198
  542.614   12.147    0.208    0.131   78.841  177.458
  542.864    9.957    0.419    0.215   84.513  177.996
  543.114    8.536    0.418    0.291   91.403  176.062
  543.364    7.452    0.405    0.276   93.364  172.582
  543.614    6.745    0.412    0.257   94.899  170.648
  543.864    6.049    0.433    0.249   97.042  170.468
  544.114    5.938    0.432    0.263   96.448  170.594
  544.364    6.151    0.448    0.273   93.906  170.620
  544.614    6.725    0.449    0.270   90.633  170.329
  544.864    6.907    0.445    0.268   90.282  170.250
  545.114    7.155    0.425    0.271   89.688  169.659
