~VERSION INFORMATION
 VERS.                 2.0:   CWLS LOG ASCII STANDARD -VERSION 2.0
 WRAP.                  NO:   ONE LINE PER DEPTH STEP
~WELL INFORMATION BLOCK
#MNEM.UNIT           DATA                    DESCRIPTION OF MNEMONIC
#---------    -------------------            -------------------------------
# Generated from Intellog Unique Number	CW_70_72/WELL/928
NULL.         -999.25                        : NULL_VALUE
WELL.         SUNDANCE MCMORAN SMITH 07-30   : Well_name    - WELL              
LOC .         07-30-072-24W4                 : Location     - LOCATION          
UWI .         00/07-30-072-24W4/0            : Uwi          - UNIQUE WELL ID    
ENTR.         JAYE                           : Entered      - ENTERED BY        
SRVC.         SCHLUMBERGER                   : Scn          - SERVICE COMPANY   
DATE.         17 JAN 75                      : Date         - LOG DATE          
STRT.M        411.48                         : top_depth    - START DEPTH       
STOP.M        624.73                         : bot_depth    - STOP DEPTH        
STEP.M        0.25                           : increment    - STEP LENGTH       
~CURVE INFORMATION BLOCK
#MNEM UNIT       ERCB CURVE CODE    CURVE DESCRIPTION
#-----------   ------------------   ----------------------------------
DEPT.M        00 001 00 00         : DEPTH        - DEPTH                       
DPHI.V/V      00 890 00 00         : PHID         - DENSITY POROSITY (SANDSTONE)
NPHI.V/V      00 330 00 00         : PHIN         - NEUTRON POROSITY (SANDSTONE)
GR  .API      00 310 00 00         : GR           - GAMMA RAY                   
CALI.MM       00 280 01 00         : CAL          - CALIPER                     
ILD .OHMM     00 120 00 00         : RESD         - DEEP RESISTIVITY (DIL)      
~PARAMETER INFORMATION       
#MNEM.UNIT           DATA             DESCRIPTION OF MNEMONIC
#---------         -----------     ------------------------------
GL  .M        633.984              : gl           - GROUND LEVEL ELEVATION      
EREF.M        642.518              : kb           - ELEVATION OF DEPTH REFERENCE
DATM.M        633.984              : datum        - DATUM ELEVATION             
TDD .M        624.84               : tdd          - TOTAL DEPTH DRILLER         
RUN .         ONE                  : Run          - RUN NUMBER                  
ENG .         JENSEN               : Engineer     - RECORDING ENGINEER          
WIT .         COPLAND/RUDD         : Witness      - WITNESSED BY                
BASE.         EDM                  : Branch       - HOME BASE OF LOGGING UNIT   
MUD .         GEL CHEM             : Mud_type     - MUD TYPE                    
MATR.         SANDSTONE            : Logunit      - NEUTRON MATRIX              
TMAX.C        25.5556              : BHT          - MAXIMUM RECORDED TEMPERATURE
BHTD.M        624.84               : BHTDEP       - MAXIMUM RECORDED TEMPERATURE
RMT .C        15.5556              : MDTP         - TEMPERATURE OF MUD          
MUDD.KG/M     1104                 : MWT          - MUD DENSITY                 
NEUT.         1                    : NEUTRON      - NEUTRON TYPE                
RESI.         0                    : RESIST       - RESISTIVITY TYPE            
RM  .OHMM     7.26                 : RM           - RESISTIVITY OF MUD          
RMC .OHMM     0                    : RMC          - RESISTIVITY OF MUD CAKE     
RMF .OHMM     8.24                 : RMF          - RESISTIVITY OF MUD FILTRATE 
SUFT.C        0                    : SUFT         - SURFACE TEMPERATURE         
~A  DEPTH     PHID     PHIN       GR      CAL     RESD
# ...
  484.480    0.223    0.400   64.827  175.301   15.093
  484.730    0.252    0.396   67.696  175.137   13.690
  484.980    0.254    0.401   71.928  175.065   12.034
  485.230    0.253    0.408   75.169  174.482   10.677
  485.480    0.241    0.415   77.111  174.416    9.231
  485.730    0.215    0.410   77.011  174.565    8.025
  485.980    0.203    0.384   76.417  174.608    7.401
  486.230    0.170    0.361   77.987  175.064    7.174
  486.480    0.197    0.382   81.289  176.057    7.162
  486.730    0.189    0.391   83.173  176.410    7.150
  486.980    0.189    0.383   83.441  176.868    7.059
  487.230    0.191    0.398   84.953  178.166    6.982
  487.480    0.183    0.399   85.844  180.093    6.856
  487.730    0.163    0.384   86.177  181.076    6.794
  487.980    0.188    0.370   86.201  181.534    6.683
  488.230    0.186    0.383   85.049  181.794    6.574
  488.480    0.194    0.397   83.777  182.146    6.539
  488.730    0.191    0.389   84.047  182.501    6.528
  488.980    0.187    0.382   85.494  182.651    6.529
  489.230    0.205    0.381   86.077  182.483    6.627
  489.480    0.185    0.379   86.721  182.728    6.739
  489.730    0.194    0.385   88.228  183.094    6.827
  489.980    0.190    0.390   90.852  182.820    6.879
  490.230    0.182    0.397   89.513  182.647    6.905
  490.480    0.188    0.402   89.601  182.061    6.906
  490.730    0.199    0.402   87.958  180.742    6.856
  490.980    0.208    0.395   86.123  181.411    6.770
  491.230    0.196    0.386   83.366  184.490    6.671
  491.480    0.187    0.382   81.968  185.789    6.660
  491.730    0.199    0.377   80.694  186.354    6.810
  491.980    0.189    0.370   80.842  187.438    7.292
  492.230    0.170    0.382   81.552  188.426    7.982
  492.480    0.174    0.391   82.624  188.674    8.803
  492.730    0.164    0.377   83.636  187.882    9.530
  492.980    0.140    0.384   83.847  185.618   10.186
  493.230    0.217    0.391   81.397  179.695   10.590
  493.480    0.216    0.353   72.269  176.692   10.417
  493.730    0.242    0.317   63.882  176.213    9.696
  493.980    0.265    0.349   62.855  176.568    8.860
  494.230    0.269    0.353   64.055  177.026    7.977
  494.480    0.218    0.337   67.296  177.801    7.130
  494.730    0.219    0.346   68.681  178.271    6.624
  494.980    0.241    0.366   72.354  178.420    6.326
  495.230    0.259    0.403   76.584  178.452    6.132
  495.480    0.228    0.390   80.321  178.390    5.977
  495.730    0.222    0.396   81.894  178.852    5.956
  495.980    0.218    0.404   81.791  178.901    5.968
  496.230    0.204    0.406   81.323  179.558    6.057
  496.480    0.214    0.395   83.265  180.864    6.182
  496.730    0.233    0.399   86.320  181.532    6.368
  496.980    0.227    0.410   90.117  181.360    6.572
  497.230    0.233    0.418   90.388  180.040    6.934
  497.480    0.264    0.427   84.291  177.991    7.195
  497.730    0.285    0.433   78.129  176.154    7.591
  497.980    0.303    0.430   73.020  175.766    7.965
  498.230    0.274    0.419   70.758  175.707    8.040
  498.480    0.242    0.362   68.495  175.639    7.679
  498.730    0.210    0.333   65.425  176.107    7.161
  498.980    0.220    0.327   65.823  176.989    6.555
  499.230    0.250    0.359   67.640  177.338    5.990
  499.480    0.277    0.387   68.222  177.906    5.648
  499.730    0.292    0.395   68.246  178.475    5.871
  499.980    0.286    0.402   68.022  178.722    6.511
  500.230    0.265    0.414   69.036  178.970    7.659
  500.480    0.255    0.408   71.534  178.905    8.877
  500.730    0.239    0.365   69.024  179.900   10.064
  500.980    0.228    0.330   65.833  180.352   10.560
  501.230    0.218    0.293   63.755  181.237   10.818
  501.480    0.170    0.259   61.614  183.786    8.981
  501.730    0.117    0.233   57.185  184.456    7.694
  501.980    0.102    0.334   55.727  182.194    6.979
  502.230    0.176    0.370   55.877  179.517    6.544
  502.480    0.263    0.416   56.765  176.735    6.473
  502.730    0.295    0.445   58.213  175.824    6.545
  502.980    0.295    0.422   59.846  174.609    6.718
  503.230    0.284    0.405   62.716  174.447    6.984
  503.480    0.273    0.391   65.894  174.281    7.221
  503.730    0.260    0.395   70.494  174.223    7.452
  503.980    0.249    0.390   69.652  173.947    7.818
  504.230    0.250    0.374   66.030  173.773    8.219
  504.480    0.253    0.350   65.808  173.920    8.592
  504.730    0.244    0.356   66.819  174.170    9.200
  504.980    0.227    0.355   68.578  174.317    9.905
  505.230    0.215    0.349   70.023  174.469   10.684
  505.480    0.203    0.337   72.521  174.503   10.111
  505.730    0.193    0.310   74.464  175.069    8.987
  505.980    0.185    0.299   73.376  175.324    8.182
  506.230    0.177    0.313   70.929  176.205    7.573
  506.480    0.166    0.327   71.755  177.082    7.141
  506.730    0.177    0.354   75.243  178.065    7.024
  506.980    0.171    0.379   79.721  180.830    7.025
  507.230    0.162    0.401   83.889  183.070    7.052
  507.480    0.169    0.417   86.325  183.850    7.079
  507.730    0.171    0.421   87.463  183.886    7.093
  507.980    0.174    0.405   89.097  182.566    7.200
  508.230    0.177    0.388   90.852  180.930    7.267
  508.480    0.188    0.376   87.909  179.509    7.445
  508.730    0.201    0.388   88.000  179.864    7.571
  508.980    0.180    0.406   90.245  183.364    7.741
  509.230    0.182    0.401   94.662  184.767    7.915
  509.480    0.182    0.398   97.160  184.909    8.019
  509.730    0.165    0.404   95.577  185.057    8.140
  509.980    0.169    0.397   91.890  185.201    8.201
  510.230    0.187    0.382   89.750  185.247    8.278
  510.480    0.174    0.375   88.356  185.284    8.264
  510.730    0.168    0.398   88.071  185.435    8.115
  510.980    0.177    0.419   88.277  185.053    7.982
  511.230    0.179    0.408   89.788  181.744    7.852
  511.480    0.209    0.399   87.028  180.007    7.738
  511.730    0.200    0.373   87.795  182.777    7.612
  511.980    0.165    0.393   92.458  185.327    7.571
  512.230    0.159    0.419   96.134  187.258    7.544
  512.480    0.150    0.419   97.579  187.299    7.518
  512.730    0.136    0.405   98.530  187.649    7.409
  512.980    0.160    0.393   97.629  187.800    7.221
  513.230    0.186    0.406   92.704  187.629    6.846
  513.480    0.208    0.385   89.081  187.053    6.325
  513.730    0.204    0.369   90.036  186.770    6.086
  513.980    0.195    0.386   93.149  186.293    5.976
  514.230    0.184    0.407   97.752  186.228    6.133
  514.480    0.175    0.402   96.847  185.743    6.376
  514.730    0.182    0.414   92.915  185.783    6.544
  514.980    0.191    0.409   90.035  185.825    6.728
  515.230    0.180    0.401   89.252  185.873    7.125
  515.480    0.171    0.394   89.586  185.807    7.714
  515.730    0.173    0.389   91.404  185.846    8.491
  515.980    0.183    0.402   93.655  185.887    9.381
  516.230    0.176    0.404   89.661  184.987   10.156
  516.480    0.195    0.394   83.007  181.262   10.775
  516.730    0.211    0.389   78.885  179.519   11.432
  516.980    0.225    0.376   73.220  178.629   12.150
  517.230    0.231    0.352   75.040  178.454   13.082
  517.480    0.229    0.362   77.536  179.016   14.480
  517.730    0.219    0.391   78.182  179.894   15.851
  517.980    0.216    0.365   76.783  180.885   17.130
  518.230    0.206    0.354   73.900  181.977   17.007
  518.480    0.197    0.360   68.173  182.847   15.713
  518.730    0.171    0.321   60.527  184.045   14.044
  518.980    0.079    0.297   63.212  185.032   12.483
  519.230    0.120    0.355   70.225  185.173   11.116
  519.480    0.176    0.377   76.374  185.423   10.195
  519.730    0.202    0.402   81.597  185.468    9.471
  519.980    0.204    0.366   84.895  185.507    8.767
  520.230    0.207    0.377   88.446  185.345    8.115
  520.480    0.223    0.384   89.830  185.591    7.637
  520.730    0.209    0.389   87.566  186.371    7.214
