~VERSION INFORMATION
 VERS.                 2.0:   CWLS LOG ASCII STANDARD -VERSION 2.0
 WRAP.                  NO:   ONE LINE PER DEPTH STEP
~WELL INFORMATION BLOCK
#MNEM.UNIT           DATA                    DESCRIPTION OF MNEMONIC
#---------    -------------------            -------------------------------
# Generated from Intellog Unique Number	CW_73_75/WELL/879
WELL.         CHEVRON ET AL DROWNED 07-36    : Well_name    - WELL
LOC .         00/07-36-075-23W4/0            : Location     - LOCATION
UWI .         00/07-36-075-23W4/0            : Uwi          - UNIQUE WELL ID
ENTR.         JAYE                           : Entered      - ENTERED BY
SRVC.         SCHLUMBERGER                   : Scn          - SERVICE COMPANY
DATE.         22 JAN 85                      : Date         - LOG DATE
STRT.M        411.48                         : top_depth    - START DEPTH
STOP.M        618.73                         : bot_depth    - STOP DEPTH
STEP.M        0.25                           : increment    - STEP LENGTH
 NULL. -999.2500:NULL Value
~CURVE INFORMATION BLOCK
#MNEM UNIT       ERCB CURVE CODE    CURVE DESCRIPTION
#-----------   ------------------   ----------------------------------
DEPT.M        00 001 00 00         : DEPTH        - DEPTH
ILD .OHMM     00 120 00 00         : RESD         - DEEP RESISTIVITY (DIL)
DPHI.V/V      00 890 00 00         : PHID         - DENSITY POROSITY (SANDSTONE)
NPHI.V/V      00 330 00 00         : PHIN         - NEUTRON POROSITY (SANDSTONE)
GR  .API      00 310 00 00         : GR           - GAMMA RAY
CALI.MM       00 280 01 00         : CAL          - CALIPER
~PARAMETER INFORMATION
#MNEM.UNIT           DATA             DESCRIPTION OF MNEMONIC
#---------         -----------     ------------------------------
GL  .M        678.058              : gl           - GROUND LEVEL ELEVATION
EREF.M        681.106              : kb           - ELEVATION OF DEPTH REFERENCE
DATM.M        678.058              : datum        - DATUM ELEVATION
TDD .M        626.974              : tdd          - TOTAL DEPTH DRILLER
RUN .         ONE                  : Run          - RUN NUMBER
MATR.         SANDSTONE            : Logunit      - NEUTRON MATRIX
TMAX.C        60                   : BHT          - MAXIMUM RECORDED TEMPERATURE
BHTD.M        627.583              : BHTDEP       - MAXIMUM RECORDED TEMPERATURE
RMT .C        11.1111              : MDTP         - TEMPERATURE OF MUD
MUDD.KG/M     0                    : MWT          - MUD DENSITY
NEUT.         1                    : NEUTRON      - NEUTRON TYPE
RESI.         0                    : RESIST       - RESISTIVITY TYPE
RM  .OHMM     0                    : RM           - RESISTIVITY OF MUD
RMC .OHMM     0                    : RMC          - RESISTIVITY OF MUD CAKE
RMF .OHMM     9.02                 : RMF          - RESISTIVITY OF MUD FILTRATE
SUFT.C        -17.7778             : SUFT         - SURFACE TEMPERATURE
~A  DEPTH     RESD     PHID     PHIN       GR      CAL
# ...
  520.980    7.976    0.242    0.316   85.616  203.591
  521.230    7.443    0.236    0.356   90.959  203.163
  521.480    7.310    0.235    0.356   94.710  202.546
  521.730    7.298    0.222    0.339   97.752  202.210
  521.980    7.246    0.208    0.366   93.912  202.286
  522.230    7.208    0.183    0.369   89.889  203.652
  522.480    7.157    0.153    0.354   85.398  205.217
  522.730    6.952    0.121    0.325   83.206  206.385
  522.980    6.840    0.128    0.309   90.015  207.055
  523.230    6.657    0.186    0.356   99.123  207.921
  523.480    6.454    0.207    0.378  104.642  208.690
  523.730    6.293    0.197    0.368   98.677  209.168
  523.980    6.169    0.200    0.364   92.186  209.539
  524.230    6.058    0.191    0.364   95.408  210.009
  524.480    5.983    0.179    0.366  101.280  209.983
  524.730    5.940    0.170    0.379  101.736  209.751
  524.980    5.898    0.164    0.370  101.717  209.823
  525.230    5.964    0.157    0.362  101.934  209.892
  525.480    6.244    0.165    0.364  102.390  210.058
  525.730    6.454    0.168    0.384  104.376  210.028
  525.980    6.550    0.169    0.387  107.299  209.815
  526.230    6.587    0.181    0.380  105.164  209.483
  526.480    6.552    0.173    0.391  102.088  209.256
  526.730    6.565    0.174    0.403  105.131  208.820
  526.980    6.615    0.196    0.384  102.288  208.308
  527.230    6.726    0.200    0.375   99.799  207.876
  527.480    6.851    0.183    0.372   98.547  207.752
  527.730    6.953    0.168    0.350   98.176  207.908
  527.980    7.018    0.177    0.364   98.044  208.387
  528.230    7.032    0.178    0.369   97.847  208.658
  528.480    7.098    0.185    0.372   97.655  209.323
  528.730    7.138    0.178    0.393   99.170  209.902
  528.980    7.179    0.167    0.383   99.743  209.958
  529.230    7.167    0.158    0.367   97.072  209.432
  529.480    7.077    0.150    0.351   97.825  208.819
  529.730    6.938    0.151    0.341   99.983  208.480
  529.980    6.914    0.167    0.344   99.142  208.454
  530.230    6.941    0.171    0.377   96.831  208.229
  530.480    7.213    0.179    0.368   97.580  208.398
  530.730    7.621    0.199    0.361   98.977  208.373
  530.980    8.140    0.198    0.356  101.253  208.736
  531.230    8.261    0.187    0.367  100.470  208.607
  531.480    8.128    0.167    0.379   95.508  208.676
  531.730    7.954    0.149    0.367   90.076  208.959
  531.980    7.698    0.125    0.305   83.524  209.323
  532.230    7.356    0.092    0.272   77.561  209.787
  532.480    7.120    0.129    0.298   85.846  210.478
  532.730    6.967    0.169    0.358   93.543  211.338
  532.980    6.805    0.182    0.363   99.589  212.101
  533.230    6.634    0.168    0.361  101.399  212.573
  533.480    6.551    0.158    0.386  102.558  212.252
  533.730    6.469    0.157    0.380  105.427  211.914
  533.980    6.458    0.164    0.374  108.294  211.082
  534.230    6.507    0.162    0.374  106.275  210.457
  534.480    6.556    0.157    0.391  107.325  209.943
  534.730    6.557    0.150    0.385  108.186  209.317
  534.980    6.487    0.137    0.373  106.822  208.697
  535.230    6.394    0.123    0.370  105.502  208.550
  535.480    6.349    0.152    0.379  105.488  208.227
  535.730    6.304    0.178    0.377  106.652  208.297
  535.980    6.294    0.185    0.410  107.751  208.661
  536.230    6.318    0.175    0.407  108.734  209.153
  536.480    6.389    0.179    0.387  104.658  209.606
  536.730    6.520    0.189    0.374  100.396  210.078
  536.980    6.617    0.171    0.371  101.206  210.346
  537.230    6.691    0.159    0.379  102.484  210.016
  537.480    6.729    0.179    0.387  103.231  209.110
  537.730    6.742    0.184    0.371  103.098  208.381
  537.980    6.744    0.175    0.357  102.963  207.452
  538.230    6.720    0.158    0.356  101.417  206.418
  538.480    6.697    0.163    0.384   97.865  205.903
  538.730    6.699    0.170    0.376   95.847  205.858
  538.980    6.737    0.180    0.353   95.420  206.139
  539.230    6.750    0.189    0.368   96.171  206.799
  539.480    6.776    0.176    0.384   97.976  208.077
  539.730    6.802    0.177    0.398   98.842  208.954
  539.980    7.005    0.167    0.380   98.768  209.130
  540.230    7.401    0.146    0.364   99.516  208.489
  540.480    7.691    0.166    0.355  102.442  208.260
  540.730    8.082    0.183    0.349  101.425  207.842
  540.980    8.430    0.186    0.344   94.755  207.705
  541.230    8.809    0.184    0.342   91.675  207.967
  541.480    9.239    0.192    0.344   89.659  208.055
  541.730    9.690    0.183    0.348   86.402  208.317
  541.980   10.237    0.165    0.339   82.029  208.679
  542.230   10.816    0.160    0.326   80.482  209.056
  542.480   11.037    0.154    0.329   81.936  209.539
  542.730   10.262    0.142    0.347   81.803  209.901
  542.980    9.082    0.100    0.340   74.663  210.263
  543.230    8.112    0.072    0.264   68.404  210.531
  543.480    7.114    0.052    0.251   74.041  210.510
  543.730    6.542    0.118    0.286   82.737  210.575
  543.980    6.127    0.163    0.338   92.727  211.065
  544.230    5.963    0.158    0.364  101.545  211.612
  544.480    6.231    0.151    0.379  105.060  212.695
  544.730    6.865    0.150    0.366  106.747  213.758
  544.980    7.803    0.149    0.354  108.620  214.624
  545.230    8.519    0.148    0.360  110.545  215.586
  545.480    9.403    0.157    0.363  113.410  216.562
  545.730   10.154    0.176    0.339  105.625  217.225
  545.980   10.630    0.132    0.309   99.778  211.520
  546.230   10.848    0.104    0.293   95.108  208.804
  546.480   10.930    0.103    0.290   96.392  208.182
  546.730   10.832    0.141    0.299   99.725  208.438
  546.980   10.580    0.146    0.305  102.241  209.213
  547.230   10.372    0.135    0.304   99.044  210.187
  547.480   10.243    0.125    0.300   98.264  211.049
  547.730   10.263    0.135    0.297   98.893  211.915
  547.980   10.322    0.141    0.294  103.294  212.698
  548.230   10.456    0.148    0.289  106.518  213.262
  548.480   10.690    0.136    0.301  107.850  213.627
  548.730   11.049    0.124    0.304  106.421  213.799
  548.980   11.255    0.117    0.297  100.105  213.871
  549.230   11.676    0.112    0.287   97.556  214.242
  549.480   11.784    0.116    0.291   96.249  214.308
  549.730   11.765    0.109    0.298   94.697  214.583
  549.980   11.222    0.092    0.293   92.033  214.660
  550.230   10.665    0.064    0.278   90.130  214.521
  550.480    9.934    0.066    0.293   90.469  214.617
  550.730    9.270    0.070    0.285   90.452  214.682
  550.980    8.478    0.077    0.256   88.788  214.751
  551.230    7.614    0.129    0.343   91.593  215.020
  551.480    6.951    0.161    0.379   96.641  214.889
  551.730    6.679    0.150    0.393   99.748  214.757
  551.980    6.717    0.138    0.393   99.256  214.732
  552.230    6.867    0.140    0.382   99.123  214.500
  552.480    7.020    0.150    0.376   99.046  214.469
  552.730    7.204    0.151    0.378   99.150  214.142
  552.980    7.324    0.145    0.375   99.661  213.919
  553.230    7.392    0.141    0.368  101.236  213.613
  553.480    7.448    0.140    0.364  103.747  213.360
  553.730    7.532    0.135    0.358   99.257  213.138
  553.980    7.686    0.136    0.347   93.705  213.500
  554.230    7.772    0.154    0.346   96.104  214.194
  554.480    7.731    0.142    0.348   96.206  214.669
  554.730    7.579    0.158    0.361   96.716  214.817
  554.980    7.497    0.143    0.357   99.348  215.097
  555.230    7.513    0.158    0.351  101.040  215.449
  555.480    7.625    0.166    0.351  102.672  215.722
  555.730    7.795    0.160    0.369  102.892  216.394
  555.980    7.969    0.150    0.361  103.169  216.665
  556.230    8.073    0.138    0.351  104.329  216.938
  556.480    8.075    0.118    0.349  103.959  216.805
  556.730    8.018    0.109    0.344  104.708  217.176
  556.980    7.946    0.137    0.336  106.695  217.446
  557.230    7.747    0.141    0.333  107.558  218.016
