~VERSION INFORMATION
 VERS.                 2.0:   CWLS LOG ASCII STANDARD -VERSION 2.0
 WRAP.                  NO:   ONE LINE PER DEPTH STEP
~WELL INFORMATION BLOCK
#MNEM.UNIT           DATA                    DESCRIPTION OF MNEMONIC
#---------    -------------------            -------------------------------
# Generated from Intellog Unique Number	CS_67_68/WELL/954
WELL.         NOVALTA TWEEDIE                : Well_name    - WELL
LOC .         00/05-04-068-11W4/0            : Location     - LOCATION
UWI .         00/05-04-068-11W4/0            : Uwi          - UNIQUE WELL ID
ENTR.         T                              : Entered      - ENTERED BY
SRVC.         SCHLUMBERGER                   : Scn          - SERVICE COMPANY
STRT.M        300                            : top_depth    - START DEPTH
STOP.M        515                            : bot_depth    - STOP DEPTH
STEP.M        0.25                           : increment    - STEP LENGTH
 NULL. -999.2500:NULL Value
~CURVE INFORMATION BLOCK
#MNEM UNIT       ERCB CURVE CODE    CURVE DESCRIPTION
#-----------   ------------------   ----------------------------------
DEPT.M        00 001 00 00         : DEPTH        - DEPTH
GR  .API      00 310 00 00         : GR           - GAMMA RAY
CALI.MM       00 280 01 00         : CAL          - CALIPER
NPHI.V/V      00 330 00 00         : PHIN         - NEUTRON POROSITY (SANDSTONE)
DPHI.V/V      00 890 00 00         : PHID         - DENSITY POROSITY (SANDSTONE)
ILD .OHMM     00 120 00 00         : RESD         - DEEP RESISTIVITY (DLL)
~PARAMETER INFORMATION
#MNEM.UNIT           DATA             DESCRIPTION OF MNEMONIC
#---------         -----------     ------------------------------
GL  .M        613.7                : gl           - GROUND LEVEL ELEVATION
EREF.M        617                  : kb           - ELEVATION OF DEPTH REFERENCE
DATM.M        617                  : datum        - DATUM ELEVATION
TDD .M        515                  : tdd          - TOTAL DEPTH DRILLER
RUN .         ONE                  : Run          - RUN NUMBER
ENG .         BILL                 : Engineer     - RECORDING ENGINEER
WIT .         JIM                  : Witness      - WITNESSED BY
MUD .         GEL                  : Mud_type     - MUD TYPE
MATR.         SANDSTONE            : Logunit      - NEUTRON MATRIX
TMAX.C        5                    : BHT          - MAXIMUM RECORDED TEMPERATURE
BHTD.M        25                   : BHTDEP       - MAXIMUM RECORDED TEMPERATURE
RMT .C        515                  : MDTP         - TEMPERATURE OF MUD
MUDD.KG/M     17                   : MWT          - MUD DENSITY
NEUT.         1100                 : NEUTRON      - NEUTRON TYPE
RESI.         1                    : RESIST       - RESISTIVITY TYPE
RM  .OHMM     0                    : RM           - RESISTIVITY OF MUD
RMC .OHMM     2.6                  : RMC          - RESISTIVITY OF MUD CAKE
RMF .OHMM     2.6                  : RMF          - RESISTIVITY OF MUD FILTRATE
SUFT.C        2.7                  : SUFT         - SURFACE TEMPERATURE
SUFT.C        15                   : SUFT         - SURFACE TEMPERATURE
~A  DEPTH       GR      CAL     PHIN     PHID     RESD
# ...
  336.500   58.541  156.027    0.478    0.373    2.823
  336.750   59.136  156.030    0.466    0.384    2.878
  337.000   60.905  156.034    0.456    0.382    2.882
  337.250   62.675  156.039    0.470    0.378    2.888
  337.500   61.514  156.041    0.461    0.370    2.839
  337.750   60.939  156.045    0.449    0.358    2.843
  338.000   60.951  155.066    0.445    0.354    2.846
  338.250   62.137  155.069    0.439    0.343    2.799
  338.500   62.151  154.091    0.436    0.334    2.803
  338.750   61.579  153.110    0.430    0.329    2.913
  339.000   60.999  153.116    0.427    0.319    2.971
  339.250   59.252  152.135    0.432    0.307    2.975
  339.500   58.091  152.138    0.444    0.305    3.034
  339.750   59.274  152.143    0.453    0.347    3.038
  340.000   63.974  152.145    0.463    0.390    2.934
  340.250   68.674  152.151    0.468    0.409    2.885
  340.500   75.133  152.153    0.461    0.422    2.784
  340.750   73.975  152.159    0.447    0.419    2.689
  341.000   71.053  152.162    0.437    0.381    2.692
  341.250   66.964  153.148    0.439    0.383    2.745
  341.500   67.562  154.135    0.450    0.397    2.749
  341.750   71.675  155.122    0.511    0.407    2.856
  342.000   76.962  150.210    0.476    0.365    2.861
  342.250   82.248  151.197    0.445    0.338    2.814
  342.500   84.017  152.183    0.452    0.337    2.817
  342.750   85.201  154.153    0.463    0.351    2.772
  343.000   85.212  156.124    0.469    0.369    2.775
  343.250   82.879  157.110    0.460    0.381    2.727
  343.500   82.893  158.098    0.452    0.380    2.733
  343.750   84.660  159.085    0.457    0.376    2.736
  344.000   84.088  160.072    0.461    0.370    2.739
  344.250   84.686  160.077    0.461    0.374    2.744
  344.500   87.044  160.080    0.458    0.370    2.748
  344.750   88.225  161.065    0.457    0.368    2.751
  345.000   89.408  161.069    0.452    0.373    2.705
  345.250   85.906  161.073    0.449    0.375    2.659
  345.500   83.573  161.076    0.445    0.379    2.665
  345.750   81.237  161.080    0.441    0.377    2.668
  346.000   78.906  161.086    0.442    0.376    2.772
  346.250   77.743  162.072    0.444    0.373    2.827
  346.500   75.410  162.074    0.446    0.365    2.830
  346.750   73.663  163.063    0.446    0.360    2.834
  347.000   73.088  163.067    0.443    0.358    2.838
  347.250   76.030  163.071    0.441    0.354    2.843
  347.500   82.491  163.073    0.446    0.352    2.899
  347.750   80.158  163.077    0.445    0.354    2.958
  348.000   76.653  163.081    0.437    0.356    3.016
  348.250   73.150  164.068    0.442    0.339    3.191
  348.500   71.989  165.056    0.444    0.324    3.315
  348.750   70.242  165.058    0.435    0.280    3.444
  349.000   69.665  166.046    0.421    0.255    3.577
  349.250   69.676  166.050    0.402    0.244    3.717
  349.500   71.448  166.053    0.415    0.257    3.933
  349.750   73.804  166.057    0.432    0.289    4.010
  350.000   76.160  166.062    0.454    0.318    3.944
  350.250   77.929  166.064    0.470    0.346    3.671
  350.500   78.530  166.068    0.474    0.372    3.416
  350.750   78.541  166.072    0.475    0.389    3.066
  351.000   79.138  165.093    0.470    0.401    2.905
  351.250   80.325  165.095    0.463    0.402    3.131
  351.500   80.330  164.116    0.456    0.397    3.374
  351.750   80.342  163.136    0.445    0.391    3.636
  352.000   78.597  161.174    0.433    0.384    3.989
  352.250   76.853  160.195    0.415    0.358    4.460
  352.500   76.273  160.199    0.404    0.338    4.466
  352.750   75.698  161.186    0.419    0.329    4.313
  353.000   75.709  162.172    0.433    0.338    4.087
  353.250   76.898  163.160    0.447    0.351    4.169
  353.500   77.490  164.146    0.438    0.373    4.330
  353.750   79.266  165.133    0.417    0.359    4.259
  354.000   79.860  166.121    0.428    0.342    4.111
  354.250   80.460  167.107    0.451    0.345    3.970
  354.500   81.055  167.111    0.441    0.356    3.901
  354.750   81.066  167.114    0.427    0.355    3.698
  355.000   79.908  167.119    0.422    0.349    3.636
  355.250   78.161  167.121    0.441    0.345    3.450
  355.500   78.175  167.127    0.451    0.340    3.453
  355.750   78.767  167.130    0.447    0.339    3.458
  356.000   79.956  166.150    0.440    0.339    3.528
  356.250   81.137  165.171    0.431    0.336    3.598
  356.500   81.734  164.193    0.422    0.333    3.602
  356.750   79.987  164.195    0.421    0.339    3.673
  357.000   77.654  164.200    0.430    0.344    3.748
  357.250   76.493  164.202    0.435    0.345    3.752
  357.500   75.335  163.224    0.441    0.345    3.827
  357.750   74.760  163.226    0.448    0.343    3.832
  358.000   74.772  163.231    0.453    0.340    3.909
  358.250   74.200  163.234    0.447    0.339    4.064
  358.500   73.622  163.239    0.430    0.337    4.142
  358.750   72.461  163.243    0.424    0.335    4.384
  359.000   71.889  162.263    0.422    0.332    4.470
  359.250   71.895  162.268    0.416    0.326    4.818
  359.500   72.495  162.270    0.411    0.327    5.097
  359.750   73.090  162.275    0.406    0.332    5.294
  360.000   74.862  162.278    0.412    0.333    5.398
  360.250   74.879  162.281    0.435    0.326    5.509
  360.500   74.299  161.301    0.432    0.322    5.517
  360.750   71.966  161.305    0.423    0.321    5.327
  361.000   70.805  160.326    0.417    0.321    5.237
  361.250   71.988  160.331    0.420    0.323    5.055
  361.500   72.586  160.333    0.425    0.324    4.882
  361.750   72.011  160.338    0.427    0.325    4.798
  362.000   72.022  160.342    0.443    0.329    4.550
  362.250   75.550  160.345    0.452    0.330    4.391
  362.500   79.081  159.366    0.460    0.333    4.241
  362.750   81.442  159.368    0.448    0.334    4.021
  363.000   82.034  158.390    0.437    0.337    3.951
  363.250   82.631  158.393    0.431    0.340    3.815
  363.500   83.229  158.396    0.424    0.342    3.684
  363.750   84.415  158.402    0.421    0.346    3.622
  364.000   86.184  157.420    0.428    0.348    3.561
  364.250   86.196  157.426    0.439    0.348    3.502
  364.500   83.274  157.429    0.451    0.344    3.507
  364.750   76.252  157.434    0.446    0.335    3.512
  365.000   69.233  157.436    0.440    0.334    3.516
  365.250   68.072  157.441    0.433    0.337    3.522
  365.500   70.425  157.443    0.425    0.341    3.528
  365.750   78.642  157.447    0.427    0.324    3.534
  366.000   89.205  158.435    0.444    0.296    3.537
  366.250   90.389  158.438    0.454    0.278    3.481
  366.500   88.642  159.424    0.454    0.248    3.483
  366.750   87.484  161.394    0.464    0.258    3.489
  367.000   86.906  163.366    0.464    0.265    3.493
  367.250   85.748  165.337    0.452    0.273    3.564
  367.500   83.415  165.339    0.441    0.284    3.635
  367.750   80.493  166.326    0.433    0.303    3.640
  368.000   75.230  165.347    0.423    0.321    3.579
  368.250   74.072  165.351    0.420    0.333    3.455
  368.500   71.739  164.371    0.427    0.332    3.399
  368.750   75.850  164.375    0.419    0.324    3.402
  369.000   77.625  163.396    0.411    0.320    3.407
  369.250   78.808  163.398    0.419    0.320    3.412
  369.500   79.403  163.403    0.422    0.321    3.418
  369.750   81.175  162.423    0.431    0.325    3.489
  370.000   80.014  162.428    0.456    0.329    3.491
  370.250   79.437  162.431    0.478    0.331    3.626
  370.500   81.212  162.434    0.476    0.332    3.767
  370.750   82.390  162.438    0.462    0.328    3.771
  371.000   82.987  162.444    0.437    0.322    3.708
  371.250   82.413  162.447    0.419    0.315    3.582
  371.500   81.252  162.449    0.417    0.315    3.586
  371.750   80.091  162.455    0.412    0.322    3.525
  372.000   81.863  162.456    0.408    0.315    3.595
  372.250   85.977  163.445    0.407    0.306    3.736
  372.500   83.644  163.448    0.407    0.300    3.881
  372.750   78.381  163.451    0.403    0.304    4.032
