~VERSION INFORMATION
 VERS.                 2.0:   CWLS LOG ASCII STANDARD -VERSION 2.0
 WRAP.                  NO:   ONE LINE PER DEPTH STEP
~WELL INFORMATION BLOCK
#MNEM.UNIT           DATA                    DESCRIPTION OF MNEMONIC
#---------    -------------------            -------------------------------
# Generated from Intellog Unique Number	CS_73_76/WELL/591
WELL.         BOW VALLLEY INDUSTRIES         : Well_name    - WELL
LOC .         00/02-29-073-15W4/0            : Location     - LOCATION
UWI .         00/02-29-073-15W4/0            : Uwi          - UNIQUE WELL ID
ENTR.         SP                             : Entered      - ENTERED BY
SRVC.         SCHLUMBERGER                   : Scn          - SERVICE COMPANY
STRT.M        270                            : top_depth    - START DEPTH
STOP.M        480                            : bot_depth    - STOP DEPTH
STEP.M        0.25                           : increment    - STEP LENGTH
 NULL. -999.2500:NULL Value
~CURVE INFORMATION BLOCK
#MNEM UNIT       ERCB CURVE CODE    CURVE DESCRIPTION
#-----------   ------------------   ----------------------------------
DEPT.M        00 001 00 00         : DEPTH        - DEPTH
ILD .OHMM     00 120 00 00         : RESD         - DEEP RESISTIVITY (DIL)
DPHI.V/V      00 890 00 00         : PHID         - DENSITY POROSITY (LIMESTONE)
NPHI.V/V      00 330 00 00         : PHIN         - NEUTRON POROSITY (LIMESTONE)
GR  .API      00 310 00 00         : GR           - GAMMA RAY
~PARAMETER INFORMATION
#MNEM.UNIT           DATA             DESCRIPTION OF MNEMONIC
#---------         -----------     ------------------------------
GL  .M        613                  : gl           - GROUND LEVEL ELEVATION
EREF.M        616.57               : kb           - ELEVATION OF DEPTH REFERENCE
DATM.M        613                  : datum        - DATUM ELEVATION
TDD .M        490.2                : tdd          - TOTAL DEPTH DRILLER
RUN .         ONE                  : Run          - RUN NUMBER
ENG .         BILL                 : Engineer     - RECORDING ENGINEER
WIT .         JIM                  : Witness      - WITNESSED BY
MUD .         GEL                  : Mud_type     - MUD TYPE
MATR.         LIMESTONE            : Logunit      - NEUTRON MATRIX
TMAX.C        24                   : BHT          - MAXIMUM RECORDED TEMPERATURE
BHTD.M        490.2                : BHTDEP       - MAXIMUM RECORDED TEMPERATURE
MATR.         1                    : LOGUNIT      - NEUTRON MATRIX
RMT .C        25                   : MDTP         - TEMPERATURE OF MUD
NEUT.         1                    : NEUTRON      - NEUTRON TYPE
RESI.         0                    : RESIST       - RESISTIVITY TYPE
RMC .OHMM     0.25                 : RMC          - RESISTIVITY OF MUD CAKE
RMF .OHMM     0.25                 : RMF          - RESISTIVITY OF MUD FILTRATE
SUFT.C        15                   : SUFT         - SURFACE TEMPERATURE
~A  DEPTH     RESD     PHID     PHIN       GR
# ...
  400.500    6.913    0.255    0.344   51.429
  400.750    6.917    0.231    0.322   55.086
  401.000    6.665    0.262    0.301   56.309
  401.250    6.188    0.305    0.338   55.712
  401.500    5.853    0.339    0.357   56.330
  401.750    5.640    0.365    0.378   54.522
  402.000    5.541    0.367    0.410   54.529
  402.250    5.543    0.368    0.419   55.149
  402.500    5.649    0.373    0.414   54.549
  402.750    5.979    0.374    0.399   54.557
  403.000    6.328    0.349    0.401   53.358
  403.250    7.084    0.283    0.328   51.542
  403.500    7.496    0.111    0.257   47.906
  403.750    8.083    0.017    0.220   44.275
  404.000    8.397    0.030    0.204   48.537
  404.250    8.401    0.214    0.286   57.050
  404.500    8.405    0.263    0.387   60.703
  404.750    7.515    0.308    0.443   59.499
  405.000    6.236    0.331    0.464   58.899
  405.250    6.009    0.351    0.484   58.913
  405.500    5.902    0.361    0.458   58.919
  405.750    5.905    0.350    0.422   59.538
  406.000    5.907    0.336    0.424   60.764
  406.250    5.910    0.346    0.399   59.556
  406.500    5.913    0.359    0.377   54.103
  406.750    5.918    0.342    0.361   55.934
  407.000    5.920    0.330    0.380   58.373
  407.250    5.922    0.325    0.391   57.776
  407.500    5.815    0.341    0.390   54.752
  407.750    5.819    0.353    0.394   52.332
  408.000    5.932    0.345    0.391   54.770
  408.250    5.716    0.337    0.397   59.644
  408.500    5.720    0.327    0.414   61.472
  408.750    5.722    0.332    0.424   61.480
  409.000    5.834    0.335    0.438   59.668
  409.250    5.836    0.325    0.452   59.679
  409.500    5.950    0.319    0.427   62.121
  409.750    5.952    0.325    0.419   62.130
  410.000    5.956    0.327    0.402   57.891
  410.250    5.959    0.321    0.392   57.898
  410.500    6.075    0.319    0.403   61.554
  410.750    6.077    0.325    0.409   63.383
  411.000    6.081    0.329    0.411   62.786
  411.250    6.084    0.336    0.431   61.581
  411.500    6.087    0.327    0.448   62.202
  411.750    6.090    0.326    0.410   62.211
  412.000    6.094    0.328    0.391   61.612
  412.250    6.097    0.317    0.423   62.838
  412.500    6.099    0.295    0.435   64.064
  412.750    6.104    0.288    0.415   67.718
  413.000    5.992    0.276    0.407   71.978
  413.250    5.884    0.266    0.398   77.453
  413.500    5.566    0.272    0.409   82.928
  413.750    5.465    0.281    0.439   81.724
  414.000    5.572    0.268    0.432   82.949
  414.250    5.788    0.255    0.420   86.603
  414.500    5.900    0.244    0.423   86.005
  414.750    5.902    0.246    0.389   89.051
  415.000    5.907    0.250    0.392   82.991
  415.250    5.908    0.249    0.385   78.750
  415.500    5.802    0.251    0.414   82.402
  415.750    5.698    0.258    0.440   86.057
  416.000    5.700    0.257    0.415   86.676
  416.250    5.597    0.245    0.431   86.683
  416.500    5.496    0.244    0.416   83.049
  416.750    5.499    0.251    0.398   79.418
  417.000    5.503    0.262    0.391   78.821
  417.250    5.403    0.270    0.387   79.436
  417.500    5.305    0.284    0.397   83.698
  417.750    5.209    0.297    0.416   84.922
  418.000    4.927    0.319    0.444   85.539
  418.250    4.574    0.318    0.426   90.410
  418.500    4.326    0.281    0.416   88.596
  418.750    4.169    0.311    0.439   86.177
  419.000    4.497    0.361    0.467   87.403
  419.250    4.848    0.387    0.485   87.416
  419.500    5.326    0.411    0.463   84.389
  419.750    6.427    0.329    0.478   78.930
  420.000    7.610    0.289    0.427   71.047
  420.250    8.844    0.275    0.404   67.412
  420.500    9.899    0.208    0.380   64.991
  420.750   11.082    0.125    0.344   63.182
  421.000   12.407    0.091    0.318   62.584
  421.250   13.129    0.080    0.291   63.807
  421.500   13.136    0.077    0.271   64.424
  421.750   11.316    0.085    0.258   63.223
  422.000   10.118    0.112    0.265   63.837
  422.250    8.555    0.149    0.271   66.886
  422.500    7.649    0.178    0.298   68.109
  422.750    6.969    0.199    0.348   65.692
  423.000    6.592    0.217    0.402   64.486
  423.250    6.236    0.260    0.430   70.572
  423.500    6.122    0.263    0.429   73.616
  423.750    6.012    0.271    0.408   76.055
  424.000    5.903    0.275    0.405   73.638
  424.250    5.906    0.282    0.397   73.038
  424.500    6.134    0.267    0.394   75.480
  424.750    6.867    0.264    0.421   76.095
  425.000    9.100    0.276    0.443   69.427
  425.250   10.186    0.259    0.392   60.330
  425.500   10.982    0.041    0.353   53.655
  425.750   11.408    0.024    0.251   46.376
  426.000   10.996    0.092    0.226   55.501
  426.250   10.595    0.124    0.300   66.443
  426.500    9.300    0.151    0.332   75.562
  426.750    8.473    0.172    0.346   81.642
  427.000    8.014    0.194    0.359   86.510
  427.250    7.724    0.238    0.370   84.700
  427.500    7.583    0.248    0.386   82.890
  427.750    7.447    0.238    0.395   79.863
  428.000    7.178    0.195    0.393   77.440
  428.250    7.049    0.213    0.380   83.525
  428.500    7.051    0.257    0.420   84.141
  428.750    6.926    0.396    0.432   83.544
  429.000    6.929    0.379    0.425   85.378
  429.250    6.931    0.377    0.434   87.210
  429.500    7.066    0.387    0.421   87.220
  429.750    7.339    0.343    0.407   88.446
  430.000    7.623    0.294    0.388   87.846
  430.250    7.921    0.271    0.407   90.893
  430.500    8.074    0.309    0.415   93.333
  430.750    8.077    0.381    0.398   92.735
  431.000    8.080    0.432    0.363   88.496
  431.250    8.086    0.447    0.392   87.897
  431.500    7.938    0.429    0.415   87.306
  431.750    7.509    0.386    0.408   86.705
  432.000    7.103    0.365    0.462   85.500
  432.250    6.844    0.360    0.492   83.686
  432.500    6.849    0.458    0.453   79.444
  432.750    6.852    0.569    0.432   74.596
  433.000    6.985    0.491    0.464   72.176
  433.250    6.731    0.414    0.482   77.047
  433.500    6.367    0.335    0.436   83.133
  433.750    5.693    0.351    0.373   86.175
  434.000    4.383    0.335    0.405   86.796
  434.250    3.016    0.322    0.435   85.589
  434.500    2.696    0.310    0.448   83.777
  434.750    2.457    0.341    0.476   80.753
  435.000    2.281    0.366    0.512   83.193
  435.250    2.282    0.362    0.505   85.024
  435.500    2.241    0.351    0.483   87.461
  435.750    2.285    0.346    0.516   92.331
  436.000    2.285    0.350    0.552   90.519
  436.250    2.607    0.340    0.572   88.098
  436.500    2.918    0.328    0.542   90.540
  436.750    3.521    0.320    0.520   89.941
  437.000    4.169    0.335    0.482   87.523
  437.250    5.221    0.334    0.464   81.460
  437.500    6.664    0.324    0.445   76.612
  437.750    7.322    0.326    0.443   73.586
  438.000    7.749    0.410    0.433   72.381
  438.250    7.609    0.369    0.416   71.176
  438.500    7.472    0.344    0.438   72.399
  438.750    8.056    0.573    0.391   74.233
  439.000    9.189    0.591    0.449   73.026
  439.250   11.088    0.587    0.478   71.822
  439.500   12.181    0.379    0.325   62.724
  439.750   13.383    0.303    0.280   58.482
  440.000   12.659    0.074    0.245   62.747
  440.250   10.307    0.089    0.223   65.182
  440.500    7.644    0.080    0.212   69.444
  440.750    6.343    0.171    0.281   73.097
  441.000    5.671    0.338    0.331   73.110
  441.250    4.795    0.457    0.418   72.511
  441.500    4.369    0.517    0.570   74.953
  441.750    4.132    0.473    0.596   78.001
  442.000    3.908    0.442    0.534   82.264
  442.250    3.767    0.427    0.532   86.522
  442.500    3.698    0.411    0.500   89.565
  442.750    3.499    0.378    0.463   90.185
  443.000    3.435    0.325    0.435   88.371
  443.250    3.373    0.304    0.480   90.206
  443.500    3.375    0.310    0.516   92.648
  443.750    3.440    0.326    0.510   92.653
