~VERSION INFORMATION
 VERS.                 2.0:   CWLS LOG ASCII STANDARD -VERSION 2.0
 WRAP.                  NO:   ONE LINE PER DEPTH STEP
~WELL INFORMATION BLOCK
#MNEM.UNIT           DATA                    DESCRIPTION OF MNEMONIC
#---------    -------------------            -------------------------------
# Generated from Intellog Unique Number	CS_69_70/WELL/854
WELL.         HUSKY OIL OPERATIONS           : Well_name    - WELL
LOC .         00/08-32-069-06W4/0            : Location     - LOCATION
UWI .         00/08-32-069-06W4/0            : Uwi          - UNIQUE WELL ID
ENTR.         SP                             : Entered      - ENTERED BY
SRVC.         SCHLUMBERGER                   : Scn          - SERVICE COMPANY
STRT.M        330                            : top_depth    - START DEPTH
STOP.M        570                            : bot_depth    - STOP DEPTH
STEP.M        0.25                           : increment    - STEP LENGTH
 NULL. -999.2500:NULL Value
~CURVE INFORMATION BLOCK
#MNEM UNIT       ERCB CURVE CODE    CURVE DESCRIPTION
#-----------   ------------------   ----------------------------------
DEPT.M        00 001 00 00         : DEPTH        - DEPTH
ILD .OHMM     00 120 00 00         : RESD         - DEEP RESISTIVITY (DIL)
DPHI.V/V      00 890 00 00         : PHID         - DENSITY POROSITY (LIMESTONE)
NPHI.V/V      00 330 00 00         : PHIN         - NEUTRON POROSITY (LIMESTONE)
GR  .API      00 310 00 00         : GR           - GAMMA RAY
~PARAMETER INFORMATION
#MNEM.UNIT           DATA             DESCRIPTION OF MNEMONIC
#---------         -----------     ------------------------------
GL  .M        685.1                : gl           - GROUND LEVEL ELEVATION
EREF.M        688.8                : kb           - ELEVATION OF DEPTH REFERENCE
DATM.M        685.1                : datum        - DATUM ELEVATION
TDD .M        575                  : tdd          - TOTAL DEPTH DRILLER
RUN .         ONE                  : Run          - RUN NUMBER
ENG .         BILL                 : Engineer     - RECORDING ENGINEER
WIT .         JIM                  : Witness      - WITNESSED BY
MUD .         GEL                  : Mud_type     - MUD TYPE
MATR.         LIMESTONE            : Logunit      - NEUTRON MATRIX
TMAX.C        25                   : BHT          - MAXIMUM RECORDED TEMPERATURE
BHTD.M        575                  : BHTDEP       - MAXIMUM RECORDED TEMPERATURE
MATR.         1                    : LOGUNIT      - NEUTRON MATRIX
RMT .C        25                   : MDTP         - TEMPERATURE OF MUD
NEUT.         1                    : NEUTRON      - NEUTRON TYPE
RESI.         0                    : RESIST       - RESISTIVITY TYPE
RMC .OHMM     0.25                 : RMC          - RESISTIVITY OF MUD CAKE
RMF .OHMM     0.25                 : RMF          - RESISTIVITY OF MUD FILTRATE
SUFT.C        15                   : SUFT         - SURFACE TEMPERATURE
~A  DEPTH     RESD     PHID     PHIN       GR
# ...
  417.000    4.398    0.348    0.412   61.641
  417.250    4.341    0.345    0.417   65.404
  417.500    4.261    0.344    0.424   69.773
  417.750    4.205    0.344    0.410   72.078
  418.000    4.119    0.338    0.404   74.200
  418.250    4.081    0.333    0.430   74.072
  418.500    4.074    0.332    0.453   66.956
  418.750    4.082    0.345    0.436   61.237
  419.000    4.082    0.354    0.429   61.839
  419.250    4.082    0.356    0.430   61.286
  419.500    4.098    0.344    0.436   57.877
  419.750    4.082    0.346    0.444   56.048
  420.000    3.977    0.351    0.441   59.202
  420.250    3.759    0.348    0.443   63.208
  420.500    3.567    0.336    0.447   69.524
  420.750    3.359    0.319    0.461   78.391
  421.000    3.163    0.305    0.472   88.475
  421.250    2.990    0.299    0.466   97.829
  421.500    2.805    0.303    0.452  102.868
  421.750    2.687    0.308    0.452  104.989
  422.000    2.554    0.309    0.480  110.332
  422.250    2.424    0.305    0.508  120.658
  422.500    2.326    0.304    0.502  130.073
  422.750    2.265    0.310    0.515  133.958
  423.000    2.253    0.319    0.538  125.807
  423.250    2.253    0.328    0.536  107.386
  423.500    2.253    0.312    0.511  101.485
  423.750    2.402    0.294    0.514   99.169
  424.000    2.604    0.282    0.530   97.827
  424.250    2.755    0.279    0.513  100.252
  424.500    2.844    0.273    0.498  102.434
  424.750    2.893    0.267    0.501  104.008
  425.000    2.904    0.261    0.513  104.124
  425.250    2.915    0.256    0.507  104.240
  425.500    2.943    0.255    0.508  102.047
  425.750    2.987    0.257    0.512   98.029
  426.000    3.027    0.264    0.495   99.908
  426.250    3.085    0.268    0.487  102.941
  426.500    3.114    0.267    0.479  104.940
  426.750    3.143    0.267    0.481  104.935
  427.000    3.173    0.270    0.493   98.001
  427.250    3.191    0.273    0.482  100.000
  427.500    3.192    0.273    0.473  103.095
  427.750    3.156    0.270    0.476  104.912
  428.000    3.074    0.263    0.488   99.072
  428.250    2.989    0.254    0.497   97.121
  428.500    2.890    0.247    0.509  100.761
  428.750    2.572    0.245    0.520  105.010
  429.000    2.409    0.251    0.524  109.927
  429.250    2.294    0.255    0.519  112.171
  429.500    2.226    0.255    0.522  113.016
  429.750    2.157    0.258    0.534  105.475
  430.000    2.125    0.261    0.542  108.204
  430.250    2.121    0.259    0.552  108.745
  430.500    2.153    0.258    0.563  105.579
  430.750    2.194    0.258    0.560  104.114
  431.000    2.223    0.260    0.548  103.561
  431.250    2.361    0.265    0.536  102.948
  431.500    2.652    0.268    0.538  100.086
  431.750    3.129    0.266    0.555   95.704
  432.000    3.636    0.261    0.552   92.660
  432.250    4.101    0.256    0.482   89.007
  432.500    4.496    0.249    0.446   87.664
  432.750    4.713    0.246    0.459   87.963
  433.000    4.857    0.244    0.453   90.692
  433.250    4.903    0.241    0.436   92.995
  433.500    4.922    0.238    0.433   92.139
  433.750    4.940    0.244    0.441   87.939
  434.000    4.978    0.241    0.451   86.779
  434.250    4.969    0.235    0.452   88.171
  434.500    4.950    0.231    0.435   91.204
  434.750    4.886    0.228    0.418   94.966
  435.000    4.786    0.228    0.426   97.028
  435.250    4.576    0.235    0.447   99.149
  435.500    4.366    0.246    0.457   99.751
  435.750    4.158    0.256    0.471   97.497
  436.000    3.953    0.262    0.488   99.982
  436.250    3.751    0.252    0.501  100.889
  436.500    3.592    0.255    0.485   99.728
  436.750    3.415    0.259    0.482   96.015
  437.000    3.265    0.263    0.474   97.529
  437.250    3.115    0.260    0.469  101.595
  437.500    2.923    0.249    0.479  102.865
  437.750    2.799    0.236    0.492  102.496
  438.000    2.706    0.226    0.504  101.639
  438.250    2.863    0.226    0.487  102.180
  438.500    2.996    0.238    0.466  100.594
  438.750    3.104    0.246    0.463   94.692
  439.000    3.116    0.243    0.454   91.830
  439.250    3.024    0.243    0.442   96.080
  439.500    2.913    0.245    0.458  103.853
  439.750    2.816    0.246    0.488  107.920
  440.000    2.728    0.247    0.509  107.671
  440.250    2.723    0.258    0.494  103.045
  440.500    2.881    0.271    0.519  100.062
  440.750    3.141    0.274    0.534   96.531
  441.000    3.373    0.274    0.501   93.183
  441.250    3.562    0.268    0.456   93.177
  441.500    3.741    0.265    0.437   95.177
  441.750    3.762    0.266    0.454   97.237
  442.000    3.720    0.266    0.476   97.049
  442.250    3.679    0.265    0.470   94.734
  442.500    3.597    0.265    0.445   91.568
  442.750    3.524    0.271    0.444   86.518
  443.000    3.524    0.274    0.456   79.036
  443.250    3.856    0.272    0.475   71.798
  443.500    4.759    0.276    0.490   64.256
  443.750    7.497    0.241    0.457   57.260
  444.000   10.106    0.040    0.275   48.989
  444.250   11.143    0.016    0.222   47.038
  444.500   10.875   -0.007    0.184   54.205
  444.750    9.482   -0.006    0.177   62.646
  445.000    6.930    0.049    0.268   67.625
  445.250    4.483    0.129    0.358   71.995
  445.500    3.640    0.293    0.452   76.183
  445.750    3.358    0.325    0.453   78.487
  446.000    3.314    0.337    0.446   73.862
  446.250    3.333    0.341    0.446   69.541
  446.500    3.358    0.339    0.455   72.331
  446.750    3.409    0.338    0.458   74.575
  447.000    3.500    0.337    0.453   76.635
  447.250    3.683    0.330    0.453   79.851
  447.500    3.853    0.321    0.458   83.431
  447.750    4.030    0.307    0.457   86.403
  448.000    4.115    0.299    0.463   91.016
  448.250    4.177    0.295    0.442   95.569
  448.500    4.209    0.279    0.420   99.332
  448.750    4.233    0.269    0.437   98.901
  449.000    4.217    0.264    0.453   90.629
  449.250    4.218    0.265    0.460   87.828
  449.500    4.194    0.268    0.445   86.545
  449.750    4.109    0.278    0.419   84.595
  450.000    3.980    0.285    0.405   80.760
  450.250    3.891    0.293    0.412   74.494
  450.500    3.826    0.297    0.422   72.787
  450.750    3.791    0.306    0.428   76.792
  451.000    3.770    0.313    0.436   80.312
  451.250    3.770    0.302    0.430   82.373
  451.500    3.791    0.286    0.433   84.068
  451.750    3.792    0.273    0.441   86.676
  452.000    3.827    0.262    0.444   88.919
  452.250    3.900    0.254    0.443   88.913
  452.500    3.959    0.251    0.451   90.671
  452.750    3.997    0.249    0.444   93.339
  453.000    3.960    0.245    0.448   95.218
  453.250    3.757    0.245    0.453   96.427
  453.500    3.376    0.256    0.442   98.549
  453.750    2.911    0.272    0.457  101.156
  454.000    2.586    0.282    0.477  103.035
  454.250    2.408    0.289    0.512  103.211
  454.500    2.226    0.283    0.532  103.206
  454.750    2.112    0.274    0.548  104.051
  455.000    2.034    0.283    0.563  105.686
  455.250    2.004    0.298    0.540  107.382
  455.500    2.012    0.304    0.521  108.774
  455.750    2.046    0.292    0.512  106.520
  456.000    2.077    0.286    0.516  101.652
  456.250    2.077    0.287    0.529   98.182
  456.500    2.077    0.295    0.522  100.789
  456.750    2.074    0.301    0.527  102.971
  457.000    2.081    0.305    0.554  100.718
  457.250    2.117    0.306    0.586   98.341
  457.500    2.161    0.294    0.559   98.456
  457.750    2.248    0.288    0.536   98.816
  458.000    2.313    0.280    0.531   97.899
  458.250    2.406    0.274    0.539   93.152
  458.500    2.708    0.284    0.538   89.135
  458.750    3.037    0.293    0.507   86.759
  459.000    3.516    0.279    0.496   83.593
  459.250    4.203    0.269    0.505   77.144
  459.500    4.921    0.252    0.496   72.885
  459.750    5.581    0.208    0.380   74.397
  460.000    5.741    0.150    0.330   78.343
  460.250    5.366    0.182    0.382   83.806
