~VERSION INFORMATION
 VERS.                 2.0:   CWLS LOG ASCII STANDARD -VERSION 2.0
 WRAP.                  NO:   ONE LINE PER DEPTH STEP
~WELL INFORMATION BLOCK
#MNEM.UNIT           DATA                    DESCRIPTION OF MNEMONIC
#---------    -------------------            -------------------------------
# Generated from Intellog Unique Number	CS_69_70/WELL/819
NULL.         -999.25                        : NULL_VALUE
WELL.         AEC OIL AND GAS COMPANY        : Well_name    - WELL              
LOC .         00/07-14-070-05W4/0            : Location     - LOCATION          
UWI .         00/07-14-070-05W4/0            : Uwi          - UNIQUE WELL ID    
ENTR.         SP                             : Entered      - ENTERED BY        
SRVC.         SCHLUMBERGER                   : Scn          - SERVICE COMPANY   
STRT.M        300                            : top_depth    - START DEPTH       
STOP.M        535                            : bot_depth    - STOP DEPTH        
STEP.M        0.25                           : increment    - STEP LENGTH       
~CURVE INFORMATION BLOCK
#MNEM UNIT       ERCB CURVE CODE    CURVE DESCRIPTION
#-----------   ------------------   ----------------------------------
DEPT.M        00 001 00 00         : DEPTH        - DEPTH                       
ILD .OHMM     00 120 00 00         : RESD         - DEEP RESISTIVITY (DIL)      
DPHI.V/V      00 890 00 00         : PHID         - DENSITY POROSITY (LIMESTONE)
NPHI.V/V      00 330 00 00         : PHIN         - NEUTRON POROSITY (LIMESTONE)
GR  .API      00 310 00 00         : GR           - GAMMA RAY                   
~PARAMETER INFORMATION       
#MNEM.UNIT           DATA             DESCRIPTION OF MNEMONIC
#---------         -----------     ------------------------------
GL  .M        676.5                : gl           - GROUND LEVEL ELEVATION      
EREF.M        680.4                : kb           - ELEVATION OF DEPTH REFERENCE
DATM.M        676.5                : datum        - DATUM ELEVATION             
TDD .M        547                  : tdd          - TOTAL DEPTH DRILLER         
RUN .         ONE                  : Run          - RUN NUMBER                  
ENG .         BILL                 : Engineer     - RECORDING ENGINEER          
WIT .         JIM                  : Witness      - WITNESSED BY                
MUD .         GEL                  : Mud_type     - MUD TYPE                    
MATR.         LIMESTONE            : Logunit      - NEUTRON MATRIX              
TMAX.C        28                   : BHT          - MAXIMUM RECORDED TEMPERATURE
BHTD.M        547                  : BHTDEP       - MAXIMUM RECORDED TEMPERATURE
MATR.         1                    : LOGUNIT      - NEUTRON MATRIX              
RMT .C        25                   : MDTP         - TEMPERATURE OF MUD          
NEUT.         1                    : NEUTRON      - NEUTRON TYPE                
RESI.         0                    : RESIST       - RESISTIVITY TYPE            
RMC .OHMM     0.25                 : RMC          - RESISTIVITY OF MUD CAKE     
RMF .OHMM     0.25                 : RMF          - RESISTIVITY OF MUD FILTRATE 
SUFT.C        15                   : SUFT         - SURFACE TEMPERATURE         
~A  DEPTH     RESD     PHID     PHIN       GR
# ...
  387.000    5.206    0.335    0.412   80.758
  387.250    5.306    0.330    0.412   83.778
  387.500    5.308    0.331    0.399   83.166
  387.750    5.210    0.331    0.395   77.715
  388.000    5.115    0.334    0.394   75.292
  388.250    4.928    0.340    0.396   70.446
  388.500    4.748    0.344    0.397   67.418
  388.750    4.660    0.348    0.400   71.644
  389.000    4.575    0.352    0.406   74.663
  389.250    4.576    0.353    0.410   78.286
  389.500    4.665    0.352    0.412   78.885
  389.750    4.754    0.344    0.418   79.483
  390.000    5.032    0.322    0.417   81.894
  390.250    5.226    0.304    0.401   83.101
  390.500    5.532    0.312    0.415   84.909
  390.750    5.855    0.358    0.462   83.692
  391.000    5.968    0.385    0.503   81.268
  391.250    6.083    0.379    0.458   74.609
  391.500    6.085    0.322    0.438   68.554
  391.750    5.862    0.304    0.436   66.129
  392.000    5.648    0.327    0.447   64.309
  392.250    5.544    0.339    0.461   60.673
  392.500    5.442    0.352    0.455   63.690
  392.750    5.547    0.338    0.431   65.501
  393.000    5.549    0.324    0.449   67.914
  393.250    5.763    0.328    0.461   69.117
  393.500    6.101    0.322    0.454   73.345
  393.750    6.218    0.309    0.436   77.572
  394.000    6.220    0.283    0.420   78.777
  394.250    5.992    0.269    0.420   78.770
  394.500    5.455    0.264    0.420   84.206
  394.750    5.061    0.265    0.428   90.248
  395.000    4.696    0.288    0.437   93.871
  395.250    4.609    0.303    0.464   85.398
  395.500    4.611    0.306    0.485   76.924
  395.750    4.700    0.324    0.461   70.870
  396.000    4.790    0.332    0.442   71.470
  396.250    5.070    0.313    0.454   74.488
  396.500    5.266    0.310    0.469   73.877
  396.750    5.368    0.308    0.460   72.057
  397.000    5.370    0.300    0.461   76.887
  397.250    5.371    0.295    0.466   79.303
  397.500    5.274    0.297    0.476   82.321
  397.750    5.177    0.300    0.492   78.683
  398.000    5.178    0.302    0.512   77.471
  398.250    5.180    0.306    0.518   73.835
  398.500    5.181    0.311    0.457   72.015
  398.750    5.086    0.313    0.436   77.451
  399.000    4.544    0.309    0.440   87.123
  399.250    3.984    0.301    0.451   93.770
  399.500    3.560    0.289    0.502   97.997
  399.750    3.241    0.289    0.527   99.200
  400.000    2.951    0.306    0.541   99.196
  400.250    2.843    0.312    0.528   99.793
  400.500    2.844    0.318    0.523  100.392
  400.750    3.307    0.305    0.538   99.176
  401.000    3.634    0.290    0.552   96.752
  401.250    4.307    0.272    0.558   91.302
  401.500    4.915    0.262    0.569   87.063
  401.750    5.201    0.262    0.475   82.217
  402.000    5.610    0.268    0.464   84.026
  402.250    5.827    0.262    0.475   87.043
  402.500    6.167    0.260    0.476   87.038
  402.750    6.286    0.261    0.473   85.217
  403.000    6.530    0.267    0.472   85.212
  403.250    6.531    0.274    0.469   82.785
  403.500    6.534    0.285    0.468   80.360
  403.750    6.916    0.284    0.468   81.565
  404.000    7.049    0.271    0.474   83.373
  404.250    7.185    0.266    0.469   88.811
  404.500    6.542    0.259    0.448   93.642
  404.750    5.123    0.252    0.432   90.006
  405.000    3.792    0.268    0.447   88.793
  405.250    3.142    0.277    0.464   91.204
  405.500    2.508    0.262    0.494   91.805
  405.750    2.655    0.255    0.478   92.404
  406.000    2.917    0.251    0.482   92.397
  406.250    3.522    0.249    0.499   89.972
  406.500    4.334    0.249    0.488   87.545
  406.750    4.675    0.256    0.495   90.565
  407.000    4.947    0.261    0.512   94.790
  407.250    4.949    0.266    0.517   95.996
  407.500    4.679    0.269    0.526   92.964
  407.750    4.260    0.271    0.513   90.541
  408.000    3.879    0.271    0.491   88.721
  408.250    3.666    0.261    0.483   96.574
  408.500    3.215    0.244    0.487   98.989
  408.750    2.873    0.231    0.511  101.402
  409.000    2.567    0.236    0.529  102.000
  409.250    2.381    0.242    0.507  101.995
  409.500    2.718    0.240    0.499  104.408
  409.750    2.822    0.234    0.498  106.217
  410.000    3.044    0.229    0.499  105.002
  410.250    3.346    0.227    0.492  101.971
  410.500    3.475    0.227    0.485  100.757
  410.750    3.542    0.239    0.479  103.774
  411.000    3.543    0.249    0.509  104.978
  411.250    3.544    0.241    0.516  103.156
  411.500    3.479    0.237    0.522  101.337
  411.750    3.352    0.244    0.544  101.935
  412.000    3.353    0.255    0.538  103.138
  412.250    3.354    0.264    0.527  101.317
  412.500    3.418    0.275    0.515   98.287
  412.750    3.618    0.282    0.537   95.259
  413.000    3.758    0.292    0.559   87.387
  413.250    3.759    0.292    0.532   84.358
  413.500    3.690    0.297    0.494   81.935
  413.750    3.692    0.292    0.466   80.111
  414.000    3.692    0.293    0.453   80.108
  414.250    3.908    0.298    0.457   82.520
  414.500    4.137    0.313    0.486   83.725
  414.750    4.378    0.329    0.506   84.323
  415.000    4.812    0.334    0.500   84.921
  415.250    5.093    0.336    0.497   84.311
  415.500    5.703    0.334    0.481   83.096
  415.750    6.508    0.331    0.472   80.671
  416.000    7.712    0.293    0.464   78.245
  416.250    8.317    0.205    0.402   70.376
  416.500    8.803    0.192    0.366   61.297
  416.750    8.973    0.231    0.352   64.921
  417.000    8.170    0.269    0.413   70.963
  417.250    7.030    0.229    0.456   73.376
  417.500    6.901    0.203    0.450   75.184
  417.750    7.443    0.226    0.445   71.548
  418.000    7.587    0.283    0.399   69.125
  418.250    7.589    0.322    0.369   66.699
  418.500    7.591    0.350    0.372   65.483
  418.750    7.738    0.329    0.425   66.687
  419.000    6.914    0.333    0.456   69.100
  419.250    6.414    0.334    0.453   69.699
  419.500    6.179    0.317    0.444   68.481
  419.750    6.067    0.311    0.452   66.662
  420.000    5.955    0.313    0.458   67.262
  420.250    5.956    0.330    0.460   72.091
  420.500    5.848    0.318    0.466   73.297
  420.750    5.850    0.302    0.471   74.502
  421.000    5.851    0.312    0.482   78.125
  421.250    5.853    0.326    0.497   82.955
  421.500    5.855    0.332    0.479   84.766
  421.750    5.856    0.316    0.476   87.178
  422.000    5.858    0.300    0.463   89.592
  422.250    5.860    0.291    0.422   88.980
  422.500    5.861    0.279    0.411   88.370
  422.750    5.864    0.279    0.436   90.178
  423.000    5.977    0.277    0.455   91.382
  423.250    6.092    0.272    0.444   89.560
  423.500    6.210    0.268    0.438   86.529
  423.750    6.451    0.272    0.435   84.711
  424.000    6.575    0.275    0.432   81.681
  424.250    6.576    0.231    0.420   78.046
  424.500    6.335    0.200    0.402   76.226
  424.750    5.152    0.179    0.393   79.848
  425.000    3.960    0.201    0.457   83.471
  425.250    3.344    0.235    0.511   86.489
  425.500    3.102    0.280    0.525   89.507
  425.750    2.824    0.276    0.544   93.734
  426.000    2.524    0.273    0.556   96.149
  426.250    2.386    0.277    0.567   99.166
  426.500    2.213    0.280    0.584   96.135
  426.750    2.132    0.278    0.582   94.920
  427.000    2.054    0.278    0.560   91.889
  427.250    2.094    0.281    0.549   88.859
  427.500    2.134    0.293    0.541   88.854
  427.750    2.217    0.300    0.538   91.872
  428.000    2.346    0.310    0.555   93.681
  428.250    2.484    0.293    0.557   93.672
  428.500    2.580    0.267    0.556   93.669
  428.750    2.580    0.262    0.568   93.663
  429.000    2.630    0.267    0.541   95.471
  429.250    2.681    0.272    0.524   97.884
  429.500    2.732    0.284    0.527   97.878
  429.750    3.362    0.290    0.544   96.663
  430.000    4.631    0.294    0.522   88.792
  430.250    6.261    0.299    0.437   86.973
