~VERSION INFORMATION
 VERS.                 2.0:   CWLS LOG ASCII STANDARD -VERSION 2.0
 WRAP.                  NO:   ONE LINE PER DEPTH STEP
~WELL INFORMATION BLOCK
#MNEM.UNIT           DATA                    DESCRIPTION OF MNEMONIC
#---------    -------------------            -------------------------------
# Generated from Intellog Unique Number	CS_77_79/WELL/3268
WELL.         LOGAN RESOURCES LTD.           : Well_name    - WELL
LOC .         00/02-18-077-13W4/0            : Location     - LOCATION
UWI .         00/02-18-077-13W4/0            : Uwi          - UNIQUE WELL ID
ENTR.         JOETTE                         : Entered      - ENTERED BY
SRVC.         SCHLUMBERGER                   : Scn          - SERVICE COMPANY
DATE.         08/26/92                       : Date         - LOG DATE
STRT.M        295                            : top_depth    - START DEPTH
STOP.M        532                            : bot_depth    - STOP DEPTH
STEP.M        0.25                           : increment    - STEP LENGTH
 NULL. -999.2500:NULL Value
~CURVE INFORMATION BLOCK
#MNEM UNIT       ERCB CURVE CODE    CURVE DESCRIPTION
#-----------   ------------------   ----------------------------------
DEPT.M        00 001 00 00         : DEPTH        - DEPTH
ILD .OHMM     00 120 00 00         : RESD         - DEEP RESISTIVITY (DIL)
DPHI.V/V      00 890 00 00         : PHID         - DENSITY POROSITY (SANDSTONE)
NPHI.V/V      00 330 00 00         : PHIN         - NEUTRON POROSITY (SANDSTONE)
GR  .API      00 310 00 00         : GR           - GAMMA RAY
~PARAMETER INFORMATION
#MNEM.UNIT           DATA             DESCRIPTION OF MNEMONIC
#---------         -----------     ------------------------------
GL  .M        686.57               : gl           - GROUND LEVEL ELEVATION
EREF.M        690.17               : kb           - ELEVATION OF DEPTH REFERENCE
DATM.M        690.17               : datum        - DATUM ELEVATION
TDD .M        541                  : tdd          - TOTAL DEPTH DRILLER
RUN .         ONE                  : Run          - RUN NUMBER
ENG .         BILL                 : Engineer     - RECORDING ENGINEER
WIT .         JIM                  : Witness      - WITNESSED BY
MUD .         GEL                  : Mud_type     - MUD TYPE
MATR.         SANDSTONE            : Logunit      - NEUTRON MATRIX
TMAX.C        27                   : BHT          - MAXIMUM RECORDED TEMPERATURE
BHTD.M        541                  : BHTDEP       - MAXIMUM RECORDED TEMPERATURE
RMT .C        16                   : MDTP         - TEMPERATURE OF MUD
MUDD.KG/M     1190                 : MWT          - MUD DENSITY
NEUT.         1                    : NEUTRON      - NEUTRON TYPE
RESI.         0                    : RESIST       - RESISTIVITY TYPE
RM  .OHMM     4.25                 : RM           - RESISTIVITY OF MUD
RMC .OHMM     4.25                 : RMC          - RESISTIVITY OF MUD CAKE
RMF .OHMM     4.5                  : RMF          - RESISTIVITY OF MUD FILTRATE
SUFT.C        4                    : SUFT         - SURFACE TEMPERATURE
~A  DEPTH     RESD     PHID     PHIN       GR
  295.000    3.138    0.173    0.398  102.588
  295.250    2.977    0.153    0.409   99.659
  295.500    2.981    0.153    0.405  106.911
  295.750    3.097    0.155    0.400  106.367
  296.000    3.343    0.221    0.407  101.026
  296.250    3.410    0.210    0.411  105.879
  296.500    3.545    0.217    0.385  105.935
  296.750    3.551    0.228    0.394  103.606
  297.000    3.557    0.234    0.426  107.845
  297.250    3.498    0.227    0.427  112.112
  297.500    3.317    0.218    0.415  107.357
  297.750    3.201    0.215    0.405  105.015
  298.000    3.148    0.226    0.405  100.887
  298.250    3.334    0.232    0.392   99.144
  298.500    3.529    0.226    0.396  101.599
  298.750    3.737    0.223    0.405  108.850
  299.000    3.886    0.224    0.395  108.905
  299.250    4.039    0.224    0.401   96.370
  299.500    4.122    0.224    0.395   95.226
  299.750    4.129    0.229    0.425  107.274
  300.000    4.215    0.227    0.437  109.129
  300.250    4.221    0.212    0.363   94.794
  300.500    4.230    0.185    0.388  101.446
  300.750    4.237    0.143    0.411  103.900
  301.000    4.243    0.237    0.424  112.964
  301.250    4.494    0.246    0.425  126.211
  301.500    4.938    0.244    0.400  119.671
  301.750    5.422    0.252    0.389  112.532
  302.000    7.866    0.278    0.390  109.004
  302.250   10.394    0.305    0.393  112.044
  302.500   10.799    0.319    0.372  115.097
  302.750   11.034    0.250    0.345   95.966
  303.000   11.049    0.190    0.340   82.217
  303.250   10.861    0.177    0.331   79.275
  303.500   10.110    0.244    0.324   78.731
  303.750    9.756    0.255    0.333   96.789
  304.000    8.756    0.206    0.342   99.243
  304.250    8.450    0.200    0.348   96.901
  304.500    8.306    0.195    0.347  101.767
  304.750    8.022    0.211    0.339   98.811
  305.000    7.464    0.228    0.348   97.082
  305.250    7.203    0.238    0.351  100.136
  305.500    6.954    0.232    0.347  112.783
  305.750    6.839    0.228    0.379  108.043
  306.000    6.851    0.237    0.388  109.312
  306.250    7.254    0.264    0.383  102.158
  306.500    7.824    0.274    0.355   91.421
  306.750    8.136    0.276    0.354   89.093
  307.000    8.302    0.267    0.353   86.736
  307.250    8.168    0.248    0.345   89.190
  307.500    7.882    0.238    0.348   96.441
  307.750    7.334    0.227    0.352  111.515
  308.000    6.954    0.221    0.363  111.557
  308.250    6.960    0.210    0.362  109.214
  308.500    7.373    0.209    0.359  100.876
  308.750    8.255    0.211    0.369   83.529
  309.000    8.899    0.252    0.383   76.990
  309.250    9.781    0.282    0.376   84.241
  309.500   10.366    0.319    0.359   82.498
  309.750   10.573    0.318    0.335   83.753
  310.000   10.779    0.314    0.333   89.219
  310.250   11.205    0.310    0.336   94.671
  310.500   11.646    0.307    0.343  100.123
  310.750   11.890    0.314    0.357   95.382
  311.000   11.911    0.320    0.358   91.241
  311.250   11.931    0.317    0.360   93.096
  311.500   11.953    0.313    0.368   95.550
  311.750   11.973    0.310    0.364   93.807
  312.000   11.775    0.300    0.354  100.472
  312.250   11.580    0.279    0.364  101.741
  312.500   11.185    0.236    0.342  102.996
  312.750   11.199    0.229    0.333   97.642
  313.000   10.812    0.205    0.325   90.502
  313.250   10.443    0.183    0.319   83.977
  313.500   10.265    0.180    0.325   81.020
  313.750    9.915    0.186    0.338   67.871
  314.000    9.746    0.198    0.347   62.544
  314.250    9.410    0.217    0.346   65.584
  314.500    9.088    0.224    0.346   72.250
  314.750    8.774    0.248    0.349   75.917
  315.000    8.160    0.227    0.339   77.158
  315.250    7.734    0.195    0.339   79.612
  315.500    6.811    0.203    0.351  100.668
  315.750    6.337    0.210    0.362   98.925
  316.000    5.896    0.209    0.368   97.182
  316.250    5.586    0.210    0.397  115.840
  316.500    5.202    0.204    0.369  118.908
  316.750    5.114    0.188    0.375  120.149
  317.000    5.315    0.194    0.390  124.402
  317.250    5.421    0.211    0.403  126.870
  317.500    5.847    0.211    0.418  125.727
  317.750    6.081    0.183    0.430  129.980
  318.000    6.202    0.172    0.397  121.042
  318.250    6.216    0.122    0.381  110.890
  318.500    6.004    0.120    0.366  109.747
  318.750    5.481    0.190    0.403  124.207
  319.000    5.098    0.187    0.419  129.074
  319.250    4.571    0.197    0.410  138.723
  319.500    3.950    0.209    0.426  130.970
  319.750    3.677    0.210    0.426  126.229
  320.000    3.820    0.211    0.426  135.293
  320.250    4.277    0.213    0.433  141.958
  320.500    4.787    0.220    0.438  142.014
  320.750    5.875    0.235    0.387  145.654
  321.000    8.523    0.261    0.374  119.313
  321.250    9.538    0.274    0.363  106.192
  321.500   10.283    0.269    0.357  108.046
  321.750   10.688    0.256    0.351  111.100
  322.000   10.139    0.236    0.352  116.552
  322.250    9.780    0.250    0.366  119.007
  322.500    8.773    0.280    0.361  109.455
  322.750    8.014    0.289    0.376  100.517
  323.000    7.320    0.204    0.387   93.377
  323.250    7.195    0.141    0.372  109.037
  323.500    7.076    0.016    0.379  115.688
  323.750    7.642    0.072    0.392  101.953
  324.000    8.084    0.166    0.399   89.403
  324.250    8.556    0.221    0.371  112.858
  324.500    9.232    0.252    0.343  136.326
  324.750    9.780    0.248    0.339  118.979
  325.000    9.975    0.253    0.336  114.824
  325.250    9.997    0.264    0.337  106.485
  325.500   10.010    0.276    0.356  122.159
  325.750    9.844    0.284    0.359  109.010
  326.000    9.685    0.296    0.360  104.854
  326.250    9.347    0.303    0.368   91.719
  326.500    8.862    0.258    0.361   99.570
  326.750    8.556    0.231    0.352  106.249
  327.000    8.260    0.223    0.354  109.289
  327.250    8.127    0.229    0.383  112.343
  327.500    8.286    0.253    0.375  118.394
  327.750    8.612    0.258    0.359  135.267
  328.000    8.952    0.257    0.383  119.120
  328.250    9.483    0.255    0.386  113.765
  328.500    9.677    0.259    0.384  112.022
  328.750    9.698    0.274    0.368   92.891
  329.000    9.711    0.248    0.358   77.343
  329.250    9.741    0.201    0.348   79.198
  329.500    9.749    0.181    0.352   78.054
  329.750    9.762    0.233    0.364   79.923
  330.000    9.425    0.292    0.359   75.182
  330.250    9.268    0.312    0.338   75.238
  330.500    8.952    0.309    0.338   81.303
  330.750    8.800    0.294    0.341   83.744
  331.000    8.499    0.280    0.336   87.997
  331.250    8.059    0.272    0.342   94.063
  331.500    7.918    0.265    0.351  105.511
  331.750    7.368    0.258    0.363  119.372
  332.000    6.983    0.246    0.369  114.631
  332.250    6.500    0.203    0.370  118.298
  332.500    6.392    0.191    0.373  123.137
  332.750    6.403    0.189    0.375  127.989
  333.000    6.534    0.194    0.379  125.047
  333.250    6.668    0.200    0.390  122.705
  333.500    6.807    0.212    0.399  126.372
  333.750    6.940    0.227    0.399  119.818
  334.000    7.492    0.242    0.392  100.101
  334.250    7.641    0.234    0.395  100.757
  334.500    7.797    0.234    0.400   98.400
  334.750    7.814    0.247    0.398  102.054
  335.000    7.541    0.262    0.390  114.115
  335.250    6.891    0.254    0.379  118.968
  335.500    7.029    0.228    0.378  109.430
  335.750    7.729    0.239    0.382  115.496
  336.000    8.332    0.253    0.378  111.940
  336.250    8.819    0.286    0.379  104.801
  336.500    8.838    0.293    0.366  101.273
  336.750    8.529    0.309    0.375   95.305
  337.000    7.794    0.327    0.375   69.578
  337.250    6.985    0.318    0.381   63.038
  337.500    6.264    0.289    0.387   70.889
  337.750    5.721    0.280    0.375   85.935
  338.000    5.529    0.270    0.382  101.594
  338.250    5.747    0.265    0.396  109.445
