~VERSION INFORMATION
 VERS.                 2.0:   CWLS LOG ASCII STANDARD -VERSION 2.0
 WRAP.                  NO:   ONE LINE PER DEPTH STEP
~WELL INFORMATION BLOCK
#MNEM.UNIT           DATA                    DESCRIPTION OF MNEMONIC
#---------    -------------------            -------------------------------
# Generated from Intellog Unique Number	CW_70_72/WELL/875
NULL.         -999.25                        : NULL_VALUE
WELL.         PETROREP ET AL SMITH 07-06     : Well_name    - WELL              
LOC .         07-06-072-25W4                 : Location     - LOCATION          
UWI .         00/07-06-072-25W4/0            : Uwi          - UNIQUE WELL ID    
ENTR.         JAYE                           : Entered      - ENTERED BY        
SRVC.         SCHLUMBERGER                   : Scn          - SERVICE COMPANY   
DATE.         24 NOV 77                      : Date         - LOG DATE          
STRT.M        393.192                        : top_depth    - START DEPTH       
STOP.M        618.692                        : bot_depth    - STOP DEPTH        
STEP.M        0.25                           : increment    - STEP LENGTH       
~CURVE INFORMATION BLOCK
#MNEM UNIT       ERCB CURVE CODE    CURVE DESCRIPTION
#-----------   ------------------   ----------------------------------
DEPT.M        00 001 00 00         : DEPTH        - DEPTH                       
DPHI.V/V      00 890 00 00         : PHID         - DENSITY POROSITY (SANDSTONE)
NPHI.V/V      00 330 00 00         : PHIN         - NEUTRON POROSITY (SANDSTONE)
GR  .API      00 310 00 00         : GR           - GAMMA RAY                   
CALI.MM       00 280 01 00         : CAL          - CALIPER                     
ILD .OHMM     00 120 00 00         : RESD         - DEEP RESISTIVITY (DIL)      
~PARAMETER INFORMATION       
#MNEM.UNIT           DATA             DESCRIPTION OF MNEMONIC
#---------         -----------     ------------------------------
GL  .M        582.473              : gl           - GROUND LEVEL ELEVATION      
EREF.M        586.13               : kb           - ELEVATION OF DEPTH REFERENCE
DATM.M        582.473              : datum        - DATUM ELEVATION             
TDD .M        621.792              : tdd          - TOTAL DEPTH DRILLER         
RUN .         ONE                  : Run          - RUN NUMBER                  
ENG .         KUBICA/RIVOLLIER     : Engineer     - RECORDING ENGINEER          
WIT .         HERB                 : Witness      - WITNESSED BY                
BASE.         EDM                  : Branch       - HOME BASE OF LOGGING UNIT   
MUD .         GEL                  : Mud_type     - MUD TYPE                    
MATR.         SANDSTONE            : Logunit      - NEUTRON MATRIX              
TMAX.C        27.7778              : BHT          - MAXIMUM RECORDED TEMPERATURE
BHTD.M        621.487              : BHTDEP       - MAXIMUM RECORDED TEMPERATURE
RMT .C        13.3333              : MDTP         - TEMPERATURE OF MUD          
MUDD.KG/M     1164                 : MWT          - MUD DENSITY                 
NEUT.         1                    : NEUTRON      - NEUTRON TYPE                
RESI.         0                    : RESIST       - RESISTIVITY TYPE            
RM  .OHMM     3.86                 : RM           - RESISTIVITY OF MUD          
RMC .OHMM     0                    : RMC          - RESISTIVITY OF MUD CAKE     
RMF .OHMM     3.1                  : RMF          - RESISTIVITY OF MUD FILTRATE 
SUFT.C        0                    : SUFT         - SURFACE TEMPERATURE         
~A  DEPTH     PHID     PHIN       GR      CAL     RESD
  393.192    0.239    0.511   80.857  177.451    2.445
  393.442    0.243    0.521   82.689  180.983    2.344
  393.692    0.262    0.530   82.720  182.814    2.414
  393.942    0.278    0.484   79.267  184.975    2.704
  394.192    0.268    0.454   72.953  173.120    3.052
  394.442    0.256    0.427   65.953  165.382    3.362
  394.692    0.262    0.411   60.324  160.055    3.845
  394.942    0.261    0.405   57.489  155.158    4.188
  395.192    0.243    0.401   55.217  156.046    4.587
  395.442    0.241    0.399   53.568  157.260    4.777
  395.692    0.211    0.389   55.590  158.360    4.818
  395.942    0.202    0.397   59.225  158.726    4.751
  396.192    0.243    0.408   61.865  159.199    4.566
  396.442    0.265    0.421   61.273  159.566    4.393
  396.692    0.275    0.430   60.868  159.401    4.127
  396.942    0.254    0.434   63.072  158.714    3.979
  397.192    0.234    0.437   67.396  158.654    3.810
  397.442    0.205    0.445   71.527  159.969    3.673
  397.692    0.159    0.453   78.026  162.442    3.555
  397.942    0.201    0.466   87.136  165.648    3.416
  398.192    0.217    0.479   92.577  170.545    3.376
  398.442    0.233    0.476   89.871  172.491    3.385
  398.692    0.245    0.476   84.989  171.801    3.492
  398.942    0.262    0.453   77.053  164.796    3.790
  399.192    0.274    0.446   64.582  159.165    3.990
  399.442    0.291    0.431   55.653  157.002    4.203
  399.692    0.296    0.403   59.044  157.047    4.303
  399.942    0.274    0.413   68.900  158.363    4.349
  400.192    0.240    0.442   75.458  160.304    4.353
  400.442    0.214    0.465   83.697  164.463    4.159
  400.692    0.271    0.467   80.430  170.302    3.885
  400.942    0.259    0.449   76.791  161.507    3.642
  401.192    0.239    0.459   79.805  163.564    3.252
  401.442    0.273    0.511   80.954  169.608    2.872
  401.692    0.276    0.505   77.439  184.510    2.859
  401.942    0.269    0.454   73.673  188.669    2.983
  402.192    0.287    0.435   66.736  176.503    3.317
  402.442    0.294    0.406   61.478  163.177    3.668
  402.692    0.272    0.410   62.441  158.592    3.876
  402.942    0.270    0.445   71.427  160.115    3.801
  403.192    0.241    0.473   78.238  164.591    3.338
  403.442    0.240    0.504   81.376  172.537    2.997
  403.692    0.267    0.510   85.697  187.225    2.794
  403.942    0.260    0.499   88.524  202.126    2.841
  404.192    0.263    0.478   85.941  190.166    2.991
  404.442    0.251    0.458   81.060  180.739    3.233
  404.692    0.237    0.452   76.237  166.888    3.576
  404.942    0.219    0.447   70.544  158.618    3.895
  405.192    0.185    0.426   69.328  156.358    4.163
  405.442    0.183    0.424   72.593  156.607    4.433
  405.692    0.226    0.435   79.153  157.716    4.712
  405.942    0.221    0.437   83.536  159.354    4.468
  406.192    0.215    0.422   82.817  161.080    4.309
  406.442    0.220    0.404   74.202  163.021    4.234
  406.692    0.219    0.405   72.987  164.863    4.271
  406.942    0.216    0.414   75.129  167.337    4.340
  407.192    0.205    0.426   77.837  168.122    4.337
  407.442    0.220    0.431   76.746  167.009    4.302
  407.692    0.234    0.417   71.923  159.586    4.218
  407.942    0.241    0.403   67.412  156.686    3.845
  408.192    0.254    0.391   61.097  155.260    3.551
  408.442    0.268    0.381   50.676  154.151    3.250
  408.692    0.292    0.370   42.557  154.198    2.996
  408.942    0.300    0.348   39.788  154.777    2.767
  409.192    0.293    0.361   45.667  155.782    2.694
  409.442    0.287    0.365   50.547  156.247    2.769
  409.692    0.271    0.361   55.426  156.292    2.904
  409.942    0.244    0.353   62.236  157.610    3.105
  410.192    0.243    0.346   66.680  158.401    3.270
  410.442    0.257    0.343   64.223  158.344    3.373
  410.692    0.270    0.351   58.715  157.551    3.247
  410.942    0.283    0.366   52.960  156.647    3.084
  411.192    0.286    0.361   49.070  155.855    2.947
  411.442    0.280    0.363   50.908  155.486    2.862
  411.692    0.274    0.380   51.927  154.910    2.776
  411.942    0.288    0.385   47.851  154.858    2.717
  412.192    0.298    0.379   43.343  154.894    2.655
  412.442    0.307    0.372   39.576  154.732    2.618
  412.692    0.302    0.368   38.986  155.002    2.611
  412.942    0.291    0.353   43.927  154.840    2.596
  413.192    0.290    0.357   52.106  154.682    2.608
  413.442    0.273    0.379   62.148  154.409    2.621
  413.692    0.265    0.397   68.272  154.243    2.658
  413.942    0.259    0.414   74.895  153.880    2.716
  414.192    0.251    0.395   74.052  153.726    2.872
  414.442    0.250    0.378   80.055  153.660    2.984
  414.692    0.235    0.374   82.445  153.815    3.131
  414.942    0.221    0.398   82.165  154.294    3.279
  415.192    0.208    0.391   84.376  154.751    3.428
  415.442    0.203    0.389   87.135  156.073    3.542
  415.692    0.201    0.389   92.144  158.437    3.674
  415.942    0.185    0.399   94.722  164.169    3.834
  416.192    0.198    0.405   93.816  165.485    4.022
  416.442    0.203    0.401   91.796  166.060    4.235
  416.692    0.185    0.394   91.387  166.845    4.444
  416.942    0.195    0.382   91.483  167.849    4.592
  417.192    0.205    0.374   92.696  168.321    4.615
  417.442    0.219    0.423   95.894  169.100    4.279
  417.692    0.195    0.474  100.959  172.526    3.729
  417.942    0.203    0.518  102.356  183.523    3.225
  418.192    0.208    0.549   95.793  188.211    2.859
  418.442    0.179    0.525   90.846  182.574    2.529
  418.692    0.177    0.521   96.288  182.202    2.349
  418.942    0.193    0.513  100.859  189.413    2.419
  419.192    0.220    0.492  101.508  189.458    2.582
  419.442    0.217    0.435  100.605  179.295    2.724
  419.692    0.213    0.428   99.517  170.919    2.858
  419.942    0.183    0.438   97.555  169.389    2.975
  420.192    0.204    0.445   94.660  170.600    3.216
  420.442    0.215    0.447   89.092  168.967    3.419
  420.692    0.229    0.449   81.595  166.481    3.581
  420.942    0.254    0.446   73.040  164.007    3.638
  421.192    0.272    0.435   66.665  161.949    3.649
  421.442    0.280    0.431   64.703  160.210    3.620
  421.692    0.272    0.434   63.552  158.260    3.603
  421.942    0.257    0.426   62.210  156.622    3.580
  422.192    0.288    0.413   60.064  155.193    3.524
  422.442    0.313    0.401   56.986  151.664    3.449
  422.692    0.300    0.413   54.588  148.769    3.358
  422.942    0.291    0.423   53.311  147.340    3.256
  423.192    0.292    0.422   57.507  146.759    3.199
  423.442    0.298    0.411   61.767  146.403    3.228
  423.692    0.278    0.398   67.891  146.961    3.354
  423.942    0.261    0.389   74.761  148.800    3.626
  424.192    0.241    0.381   78.524  153.065    3.921
  424.442    0.229    0.394   80.418  156.698    4.191
  424.692    0.223    0.407   81.689  158.745    4.396
  424.942    0.213    0.419   81.909  159.638    4.527
  425.192    0.225    0.432   79.511  156.741    4.407
  425.442    0.256    0.450   71.515  153.841    4.155
  425.692    0.269    0.453   66.197  148.831    3.852
  425.942    0.291    0.439   59.818  144.776    3.551
  426.192    0.321    0.416   53.939  143.883    3.348
  426.442    0.335    0.400   52.354  143.405    3.199
  426.692    0.325    0.408   54.311  143.347    3.113
  426.942    0.308    0.422   57.636  143.606    3.094
  427.192    0.302    0.428   61.022  144.707    3.069
  427.442    0.293    0.418   66.343  147.180    3.083
  427.692    0.275    0.414   70.037  150.286    3.193
  427.942    0.252    0.429   77.407  151.810    3.331
  428.192    0.235    0.456   79.430  151.754    3.482
  428.442    0.212    0.442   73.426  153.386    3.653
  428.692    0.204    0.396   70.466  156.594    3.847
  428.942    0.229    0.424   73.795  159.698    3.873
  429.192    0.245    0.435   79.979  160.489    3.834
  429.442    0.244    0.445   86.165  160.848    3.810
