~VERSION INFORMATION
 VERS.                 2.0:   CWLS LOG ASCII STANDARD -VERSION 2.0
 WRAP.                  NO:   ONE LINE PER DEPTH STEP
~WELL INFORMATION BLOCK
#MNEM.UNIT           DATA                    DESCRIPTION OF MNEMONIC
#---------    -------------------            -------------------------------
# Generated from Intellog Unique Number	CS_69_70/WELL/844
WELL.         ICG RESOURCES LTD.             : Well_name    - WELL
LOC .         00/07-31-069-12W4/0            : Location     - LOCATION
UWI .         00/07-31-069-12W4/0            : Uwi          - UNIQUE WELL ID
ENTR.         SP                             : Entered      - ENTERED BY
SRVC.         SCHLUMBERGER                   : Scn          - SERVICE COMPANY
STRT.M        270                            : top_depth    - START DEPTH
STOP.M        482                            : bot_depth    - STOP DEPTH
STEP.M        0.25                           : increment    - STEP LENGTH
 NULL. -999.2500:NULL Value
~CURVE INFORMATION BLOCK
#MNEM UNIT       ERCB CURVE CODE    CURVE DESCRIPTION
#-----------   ------------------   ----------------------------------
DEPT.M        00 001 00 00         : DEPTH        - DEPTH
ILD .OHMM     00 120 00 00         : RESD         - DEEP RESISTIVITY (DIL)
DPHI.V/V      00 890 00 00         : PHID         - DENSITY POROSITY (LIMESTONE)
NPHI.V/V      00 330 00 00         : PHIN         - NEUTRON POROSITY (LIMESTONE)
GR  .API      00 310 00 00         : GR           - GAMMA RAY
~PARAMETER INFORMATION
#MNEM.UNIT           DATA             DESCRIPTION OF MNEMONIC
#---------         -----------     ------------------------------
GL  .M        582                  : gl           - GROUND LEVEL ELEVATION
EREF.M        585.8                : kb           - ELEVATION OF DEPTH REFERENCE
DATM.M        582                  : datum        - DATUM ELEVATION
TDD .M        488                  : tdd          - TOTAL DEPTH DRILLER
RUN .         ONE                  : Run          - RUN NUMBER
ENG .         BILL                 : Engineer     - RECORDING ENGINEER
WIT .         JIM                  : Witness      - WITNESSED BY
MUD .         GEL                  : Mud_type     - MUD TYPE
MATR.         LIMESTONE            : Logunit      - NEUTRON MATRIX
TMAX.C        23                   : BHT          - MAXIMUM RECORDED TEMPERATURE
BHTD.M        488                  : BHTDEP       - MAXIMUM RECORDED TEMPERATURE
MATR.         1                    : LOGUNIT      - NEUTRON MATRIX
RMT .C        25                   : MDTP         - TEMPERATURE OF MUD
NEUT.         1                    : NEUTRON      - NEUTRON TYPE
RESI.         0                    : RESIST       - RESISTIVITY TYPE
RMC .OHMM     0.25                 : RMC          - RESISTIVITY OF MUD CAKE
RMF .OHMM     0.25                 : RMF          - RESISTIVITY OF MUD FILTRATE
SUFT.C        15                   : SUFT         - SURFACE TEMPERATURE
~A  DEPTH     RESD     PHID     PHIN       GR
# ...
  313.500    3.554    0.331    0.432  101.548
  313.750    3.508    0.330    0.419  106.886
  314.000    3.488    0.329    0.419  112.472
  314.250    3.488    0.326    0.432  116.525
  314.500    3.494    0.325    0.438  118.868
  314.750    3.527    0.323    0.440  118.215
  315.000    3.567    0.332    0.426  116.584
  315.250    3.621    0.348    0.411  112.875
  315.500    3.676    0.316    0.437  115.402
  315.750    3.704    0.255    0.492  116.156
  316.000    3.655    0.253    0.511  107.006
  316.250    3.313    0.258    0.491   95.656
  316.500    3.149    0.300    0.459   85.650
  316.750    2.898    0.340    0.433   75.339
  317.000    2.865    0.366    0.429   68.145
  317.250    2.849    0.390    0.436   73.424
  317.500    2.843    0.365    0.420   80.905
  317.750    2.897    0.337    0.402   85.876
  318.000    3.003    0.316    0.404   90.724
  318.250    3.124    0.288    0.409   95.085
  318.500    3.337    0.260    0.399   94.307
  318.750    3.552    0.255    0.380   93.473
  319.000    3.716    0.253    0.369   95.206
  319.250    3.852    0.244    0.380   96.387
  319.500    3.903    0.263    0.392   96.102
  319.750    3.932    0.289    0.405   94.472
  320.000    3.917    0.298    0.422   93.633
  320.250    3.851    0.288    0.435   95.365
  320.500    3.984    0.291    0.451   99.059
  320.750    3.962    0.292    0.456  101.458
  321.000    3.902    0.291    0.447  103.618
  321.250    3.880    0.291    0.441  103.027
  321.500    3.851    0.290    0.438  102.373
  321.750    3.829    0.288    0.437  101.416
  322.000    3.800    0.283    0.429   97.158
  322.250    3.814    0.279    0.434   94.364
  322.500    3.821    0.274    0.437   94.143
  322.750    3.879    0.270    0.433   92.209
  323.000    3.938    0.272    0.430   91.552
  323.250    3.990    0.273    0.429   93.712
  323.500    4.059    0.257    0.424   95.075
  323.750    4.120    0.246    0.431   97.300
  324.000    4.151    0.242    0.439  102.575
  324.250    4.167    0.236    0.444  107.304
  324.500    4.206    0.224    0.442  110.257
  324.750    4.262    0.217    0.445  113.822
  325.000    4.343    0.242    0.454  108.709
  325.250    4.442    0.260    0.458  105.305
  325.500    4.510    0.262    0.438  103.490
  325.750    4.561    0.265    0.431  102.897
  326.000    4.613    0.272    0.425  100.350
  326.250    4.630    0.269    0.415  102.082
  326.500    4.604    0.257    0.423  104.979
  326.750    4.526    0.248    0.429  108.480
  327.000    4.433    0.250    0.426  112.595
  327.250    4.358    0.264    0.437  102.468
  327.500    4.301    0.277    0.445   94.116
  327.750    4.268    0.276    0.421   89.980
  328.000    4.188    0.283    0.398   88.896
  328.250    4.133    0.294    0.392   88.550
  328.500    4.064    0.305    0.414   88.571
  328.750    4.025    0.319    0.432   87.674
  329.000    4.033    0.316    0.430   85.310
  329.250    4.048    0.305    0.417   84.289
  329.500    4.063    0.302    0.423   87.184
  329.750    4.117    0.295    0.412   90.444
  330.000    4.171    0.281    0.416   92.480
  330.250    4.259    0.271    0.426   93.662
  330.500    4.365    0.273    0.432   93.193
  330.750    4.473    0.285    0.404   91.623
  331.000    4.627    0.288    0.379   89.137
  331.250    4.751    0.278    0.366   93.925
  331.500    4.887    0.253    0.356  100.121
  331.750    4.999    0.229    0.360  104.297
  332.000    5.133    0.215    0.363  107.740
  332.250    5.201    0.211    0.369  101.282
  332.500    5.280    0.221    0.396   95.065
  332.750    5.431    0.208    0.408  111.715
  333.000    5.482    0.208    0.408  110.267
  333.250    5.513    0.210    0.404  110.959
  333.500    5.524    0.195    0.401  116.175
  333.750    5.513    0.190    0.422  121.269
  334.000    5.471    0.229    0.443  107.962
  334.250    5.318    0.262    0.430   92.515
  334.500    5.045    0.289    0.411   75.298
  334.750    4.695    0.313    0.389   73.056
  335.000    4.264    0.325    0.379   74.605
  335.250    3.880    0.328    0.395   74.627
  335.500    3.666    0.331    0.390   73.298
  335.750    3.464    0.333    0.397   70.386
  336.000    3.323    0.329    0.414   67.103
  336.250    3.176    0.320    0.410   64.862
  336.500    3.128    0.322    0.408   68.978
  336.750    3.128    0.336    0.402   70.771
  337.000    3.158    0.342    0.398   71.951
  337.250    3.194    0.345    0.403   73.074
  337.500    3.267    0.334    0.399   71.564
  337.750    3.304    0.324    0.388   71.584
  338.000    3.348    0.319    0.381   75.949
  338.250    3.341    0.323    0.411   78.226
  338.500    3.310    0.333    0.431   80.447
  338.750    3.291    0.332    0.424   77.108
  339.000    3.285    0.323    0.413   76.819
  339.250    3.291    0.319    0.400   79.896
  339.500    3.328    0.312    0.388   83.952
  339.750    3.360    0.308    0.380   87.334
  340.000    3.411    0.301    0.385   89.739
  340.250    3.482    0.289    0.389   94.163
  340.500    3.548    0.277    0.392   98.030
  340.750    3.623    0.268    0.404  103.311
  341.000    3.733    0.261    0.400  106.201
  341.250    3.855    0.263    0.397  104.816
  341.500    4.057    0.275    0.403  100.251
  341.750    4.228    0.280    0.398   96.357
  342.000    4.374    0.287    0.397   92.038
  342.250    4.458    0.299    0.396   85.638
  342.500    4.500    0.308    0.391   78.445
  342.750    4.491    0.317    0.388   76.512
  343.000    4.415    0.310    0.395   78.425
  343.250    4.109    0.302    0.405   82.052
  343.500    3.739    0.289    0.405   86.962
  343.750    3.649    0.279    0.397   91.016
  344.000    3.594    0.270    0.393   91.220
  344.250    3.520    0.281    0.404   85.434
  344.500    3.540    0.295    0.417   79.279
  344.750    3.607    0.308    0.421   79.420
  345.000    3.683    0.319    0.430   82.498
  345.250    3.710    0.313    0.450   84.781
  345.500    3.641    0.307    0.440   86.635
  345.750    3.539    0.302    0.436   87.020
  346.000    3.499    0.312    0.431   83.498
  346.250    3.473    0.318    0.425   79.175
  346.500    3.427    0.323    0.436   75.588
  346.750    3.395    0.328    0.441   81.293
  347.000    3.363    0.333    0.429   90.425
  347.250    3.331    0.311    0.417   95.270
  347.500    3.312    0.291    0.435  102.504
  347.750    3.281    0.277    0.464  101.610
  348.000    3.195    0.277    0.491   97.961
  348.250    3.088    0.280    0.468   95.535
  348.500    3.106    0.270    0.439   96.108
  348.750    3.171    0.255    0.444   99.304
  349.000    3.336    0.247    0.456  101.463
  349.250    3.426    0.251    0.456   95.004
  349.500    3.598    0.267    0.440   89.893
  349.750    3.694    0.295    0.429   87.341
  350.000    3.814    0.317    0.424   83.756
  350.250    3.916    0.315    0.423   80.659
  350.500    3.998    0.311    0.422   78.231
  350.750    4.052    0.305    0.420   76.417
  351.000    4.113    0.298    0.413   74.729
  351.250    4.136    0.307    0.409   74.441
  351.500    4.136    0.316    0.410   75.989
  351.750    4.097    0.314    0.421   77.966
  352.000    4.051    0.310    0.429   77.435
  352.250    3.960    0.314    0.420   74.216
  352.500    3.915    0.308    0.410   71.733
  352.750    3.799    0.309    0.404   71.810
  353.000    3.799    0.316    0.402   74.276
  353.250    3.798    0.321    0.407   76.072
  353.500    3.798    0.304    0.410   76.700
  353.750    3.834    0.295    0.407   75.621
  354.000    3.907    0.285    0.400   74.845
  354.250    3.929    0.277    0.392   74.009
  354.500    3.996    0.269    0.405   77.391
  354.750    4.065    0.255    0.404   82.671
  355.000    4.189    0.240    0.394   86.906
  355.250    4.261    0.227    0.387   90.655
  355.500    4.509    0.237    0.396   94.100
  355.750    4.543    0.255    0.412   97.175
  356.000    4.700    0.241    0.405   97.134
  356.250    4.807    0.228    0.389  100.336
  356.500    4.926    0.236    0.432   97.970
  356.750    5.001    0.247    0.458   92.123
