~VERSION INFORMATION
 VERS.                 2.0:   CWLS LOG ASCII STANDARD -VERSION 2.0
 WRAP.                  NO:   ONE LINE PER DEPTH STEP
~WELL INFORMATION BLOCK
#MNEM.UNIT           DATA                    DESCRIPTION OF MNEMONIC
#---------    -------------------            -------------------------------
# Generated from Intellog Unique Number	CW_79_81/WELL/591
NULL.         -999.25                        : NULL_VALUE
COMP .        INTERCITY GAS CORPORATION      :  COMPANY
WELL.         HOMESTEAD ET AL WEAVER         : Well_name    - WELL              
LOC .         07-21-080-01W5                 : Location     - LOCATION          
UWI .         00/07-21-080-01W5/0            : Uwi          - UNIQUE WELL ID    
ENTR.         MAX                            : Entered      - ENTERED BY        
SRVC.         SCHLUMBERGER                   : Scn          - SERVICE COMPANY   
DATE.         24 NOV 77                      : Date         - LOG DATE
STRT.M        225                            : top_depth    - START DEPTH       
STOP.M        490                            : bot_depth    - STOP DEPTH        
STEP.M        0.25                           : increment    - STEP LENGTH       
~CURVE INFORMATION BLOCK
#MNEM UNIT       ERCB CURVE CODE    CURVE DESCRIPTION
#-----------   ------------------   ----------------------------------
DEPT.M        00 001 00 00         : DEPTH        - DEPTH                       
ILD .OHMM     00 120 00 00         : RESD         - DEEP RESISTIVITY (DIL)      
NPHI.V/V      00 330 00 00         : PHIN         - NEUTRON POROSITY (SANDSTONE)
DPHI.V/V      00 890 00 00         : PHID         - DENSITY POROSITY (SANDSTONE)
CALI.MM       00 280 01 00         : CAL          - CALIPER                     
GR  .API      00 310 00 00         : GR           - GAMMA RAY                   
~PARAMETER INFORMATION       
#MNEM.UNIT           DATA             DESCRIPTION OF MNEMONIC
#---------         -----------     ------------------------------
GL  .M        570.6                : gl           - GROUND LEVEL ELEVATION      
EREF.M        574.3                : kb           - ELEVATION OF DEPTH REFERENCE
DATM.M        570.6                : datum        - DATUM ELEVATION             
TDD .M        512                  : tdd          - TOTAL DEPTH DRILLER         
RUN .         ONE                  : Run          - RUN NUMBER                  
ENG .         BILL                 : Engineer     - RECORDING ENGINEER          
WIT .         JIM                  : Witness      - WITNESSED BY                
MUD .         GEL                  : Mud_type     - MUD TYPE                    
MATR.         SANDSTONE            : Logunit      - NEUTRON MATRIX              
TMAX.C        36.3                 : BHT          - MAXIMUM RECORDED TEMPERATURE
BHTD.M        512                  : BHTDEP       - MAXIMUM RECORDED TEMPERATURE
RMT .C        17.5                 : MDTP         - TEMPERATURE OF MUD          
MUDD.KG/M     1120                 : MWT          - MUD DENSITY                 
NEUT.         1                    : NEUTRON      - NEUTRON TYPE                
RESI.         0                    : RESIST       - RESISTIVITY TYPE            
RM  .OHMM     16.4                 : RM           - RESISTIVITY OF MUD          
RMC .OHMM     0.25                 : RMC          - RESISTIVITY OF MUD CAKE     
RMF .OHMM     12.3                 : RMF          - RESISTIVITY OF MUD FILTRATE 
SUFT.C        4                    : SUFT         - SURFACE TEMPERATURE         
~A  DEPTH     RESD     PHIN     PHID      CAL       GR
# ...
  407.500   10.645    0.423    0.197  170.248   94.237
  407.750   10.543    0.411    0.203  170.240   94.231
  408.000   10.441    0.417    0.206  170.231   93.928
  408.250   10.246    0.427    0.203  170.222   93.921
  408.500   10.053    0.433    0.190  170.211   93.620
  408.750    9.957    0.432    0.182  170.697   92.129
  409.000    9.861    0.432    0.174  170.687   91.829
  409.250    9.857    0.432    0.174  170.679   91.822
  409.500   10.039    0.427    0.170  171.660   92.410
  409.750   10.320    0.412    0.158  172.143   93.296
  410.000   10.413    0.412    0.188  172.136   92.696
  410.250   10.409    0.421    0.189  171.135   90.613
  410.500   10.405    0.424    0.186  171.126   91.202
  410.750   10.499    0.438    0.188  170.623   92.384
  411.000   10.694    0.427    0.181  170.118   92.081
  411.250   10.993    0.422    0.188  169.616   91.183
  411.500   11.196    0.414    0.182  169.606   91.476
  411.750   11.191    0.406    0.163  171.080   94.735
  412.000   11.083    0.412    0.155  172.062   98.590
  412.250   10.875    0.427    0.179  172.051  101.552
  412.500   10.572    0.436    0.183  171.546   99.766
  412.750   10.182    0.437    0.181  171.045   97.682
  413.000    9.807    0.420    0.176  171.528  100.644
  413.250    9.712    0.411    0.160  172.511  101.530
  413.500    9.709    0.408    0.165  174.975  103.603
  413.750    9.616    0.393    0.148  176.943  104.486
  414.000    8.922    0.394    0.169  176.441  103.889
  414.250    8.513    0.419    0.194  172.968  102.695
  414.500    8.590    0.423    0.189  170.978  101.206
  414.750    8.749    0.408    0.179  170.474   96.747
  415.000    9.779    0.405    0.176  169.972   91.696
  415.250   10.631    0.404    0.178  169.467   86.941
  415.500   11.995    0.399    0.161  168.467   83.076
  415.750   14.179    0.394    0.157  168.460   82.774
  416.000   20.191    0.385    0.180  168.450   80.096
  416.250   22.361    0.376    0.161  168.442   72.373
  416.500   28.212    0.350    0.108  168.433   64.056
  416.750   32.736    0.319    0.056  168.424   59.596
  417.000   39.058    0.295    0.064  167.425   59.889
  417.250   47.477    0.270    0.084  165.931   58.398
  417.500   54.070    0.281    0.070  166.416   57.502
  417.750   56.625    0.251    0.047  166.903   57.794
  418.000   56.608    0.226    0.007  167.883   57.788
  418.250   54.520    0.235    0.044  168.369   57.782
  418.500   49.191    0.291    0.076  167.864   58.669
  418.750   41.201    0.337    0.101  168.350   61.928
  419.000   36.834    0.374    0.160  169.823   68.454
  419.250   32.321    0.392    0.202  169.319   73.791
  419.500   28.098    0.420    0.195  168.817   75.269
  419.750   24.656    0.417    0.179  168.807   76.154
  420.000   22.665    0.414    0.169  168.799   76.149
  420.250   21.228    0.420    0.186  168.788   77.925
  420.500   19.334    0.414    0.182  169.275   81.778
  420.750   17.124    0.386    0.171  169.263   85.038
  421.000   14.612    0.385    0.159  169.257   88.595
  421.250   13.184    0.392    0.167  169.248   92.150
  421.500   12.581    0.404    0.178  169.237   93.332
  421.750   11.782    0.417    0.185  169.229   92.140
  422.000   11.242    0.428    0.176  169.217   89.462
  422.250   10.827    0.428    0.180  169.209   88.864
  422.500   10.624    0.423    0.176  169.201   89.155
  422.750   10.620    0.420    0.168  169.192   89.148
  423.000   10.716    0.424    0.155  169.182   89.441
  423.250   10.813    0.416    0.161  169.174   91.215
  423.500   10.910    0.398    0.171  169.164   91.507
  423.750   10.906    0.390    0.166  169.155   89.127
  424.000   10.903    0.395    0.159  169.146   88.825
  424.250   10.899    0.400    0.147  169.136   89.710
  424.500   10.895    0.410    0.141  169.125   90.891
  424.750   10.790    0.425    0.144  169.119   91.182
  425.000   10.687    0.422    0.172  168.615   91.771
  425.250   10.584    0.428    0.174  168.605   93.843
  425.500   10.482    0.431    0.169  168.596   93.541
  425.750   10.286    0.434    0.166  169.080   94.130
  426.000   10.093    0.416    0.162  169.071   95.014
  426.250    9.903    0.418    0.165  169.063   94.118
  426.500    9.717    0.424    0.152  169.053   91.144
  426.750    9.534    0.408    0.131  168.548   91.435
  427.000    9.443    0.395    0.133  168.540   92.618
  427.250    9.443    0.395    0.177  168.531   94.690
  427.500    9.347    0.413    0.180  168.520   97.653
  427.750    9.345    0.415    0.174  168.017   97.647
  428.000    9.429    0.422    0.160  168.008   94.970
  428.250    9.514    0.422    0.156  167.999   91.402
  428.500    9.511    0.428    0.149  167.494   90.802
  428.750    9.508    0.423    0.146  167.486   91.392
  429.000    9.593    0.424    0.160  167.475   89.011
  429.250    9.590    0.410    0.157  167.468   87.522
  429.500    9.676    0.375    0.178  165.480   88.406
  429.750    9.764    0.360    0.189  163.986   87.806
  430.000    9.944    0.354    0.182  163.482   87.207
  430.250   10.128    0.354    0.183  163.472   86.608
  430.500   10.411    0.348    0.196  163.959   83.041
  430.750   10.702    0.350    0.203  164.443   78.879
  431.000   10.899    0.357    0.205  165.425   78.873
  431.250   11.100    0.357    0.193  165.910   77.088
  431.500   11.517    0.353    0.162  165.899   69.364
  431.750   12.063    0.322    0.101  165.891   65.796
  432.000   13.236    0.304    0.064  165.386   64.900
  432.250   14.658    0.280    0.033  165.378   64.301
  432.500   16.385    0.261    0.031  165.369   68.154
  432.750   17.321    0.284    0.057  165.360   73.788
  433.000   16.374    0.312    0.080  165.351   77.643
  433.250   14.775    0.347    0.109  165.835   81.495
  433.500   12.964    0.361    0.160  166.323   82.974
  433.750   11.918    0.375    0.171  167.302   85.047
  434.000   11.266    0.382    0.191  167.788   88.010
  434.250   10.952    0.391    0.197  168.765   90.973
  434.500   10.647    0.396    0.187  169.749   90.967
  434.750   10.447    0.388    0.183  170.234   90.071
  435.000   10.347    0.392    0.170  170.225   89.174
  435.250   10.248    0.402    0.171  169.720   89.169
  435.500   10.054    0.412    0.186  169.709   86.196
  435.750    9.958    0.413    0.192  170.195   83.518
  436.000    9.862    0.425    0.179  170.188   87.075
  436.250    9.859    0.405    0.160  170.179   90.335
  436.500    9.855    0.396    0.146  170.169   93.001
  436.750    9.852    0.401    0.151  170.653   93.293
  437.000    9.757    0.399    0.141  171.138   95.662
  437.250    9.574    0.395    0.140  171.626   95.953
  437.500    9.221    0.412    0.168  172.111   98.916
  437.750    8.881    0.415    0.168  172.102   99.207
  438.000    8.474    0.398    0.142  172.092  101.279
  438.250    8.550    0.412    0.115  171.093  102.461
  438.500    9.038    0.403    0.061  169.600   99.487
  438.750    9.466    0.369    0.045  169.590   97.404
  439.000    9.914    0.331    0.088  169.581  103.929
  439.250   10.383    0.344    0.133  169.573  105.110
  439.500   10.476    0.357    0.131  169.564  103.323
  439.750   10.375    0.362    0.132  169.554  100.944
  440.000    9.993    0.363    0.135  170.041  101.532
  440.250    9.446    0.362    0.138  172.504  103.011
  440.500    8.765    0.364    0.134  174.968  105.677
  440.750    7.763    0.380    0.149  175.949  107.156
  441.000    7.689    0.408    0.168  175.939  105.963
  441.250    8.053    0.417    0.181  174.446   97.942
  441.500    8.754    0.397    0.152  168.004   86.954
  441.750   11.044    0.383    0.181  166.512   72.700
  442.000   12.346    0.392    0.208  166.502   64.086
  442.250   16.168    0.387    0.237  165.998   40.926
  442.500   25.036    0.377    0.286  164.010   36.765
  442.750   33.715    0.371    0.296  162.023   31.119
  443.000   40.603    0.363    0.299  160.529   28.145
  443.250   46.673    0.365    0.286  160.026   26.953
  443.500   49.339    0.372    0.269  161.500   23.977
  443.750   50.719    0.383    0.244  161.986   23.081
