~VERSION INFORMATION
 VERS.                 2.0:   CWLS LOG ASCII STANDARD -VERSION 2.0
 WRAP.                  NO:   ONE LINE PER DEPTH STEP
~WELL INFORMATION BLOCK
#MNEM.UNIT           DATA                    DESCRIPTION OF MNEMONIC
#---------    -------------------            -------------------------------
# Generated from Intellog Unique Number	CW_73_75/WELL/2728
WELL.         ALLIED ET AL CALL 06-21        : Well_name    - WELL
LOC .         00/06-21-073-20W4/0            : Location     - LOCATION
UWI .         00/06-21-073-20W4/0            : Uwi          - UNIQUE WELL ID
ENTR.         JAYE                           : Entered      - ENTERED BY
SRVC.         SCHLUMBERGER                   : Scn          - SERVICE COMPANY
DATE.         22 JAN 74                      : Date         - LOG DATE
STRT.M        411.48                         : top_depth    - START DEPTH
STOP.M        615.73                         : bot_depth    - STOP DEPTH
STEP.M        0.25                           : increment    - STEP LENGTH
 NULL. -999.2500:NULL Value
~CURVE INFORMATION BLOCK
#MNEM UNIT       ERCB CURVE CODE    CURVE DESCRIPTION
#-----------   ------------------   ----------------------------------
DEPT.M        00 001 00 00         : DEPTH        - DEPTH
ILD .OHMM     00 120 00 00         : RESD         - DEEP RESISTIVITY (DIL)
NPHI.V/V      00 330 00 00         : PHIN         - NEUTRON POROSITY (SANDSTONE)
DPHI.V/V      00 890 00 00         : PHID         - DENSITY POROSITY (SANDSTONE)
GR  .API      00 310 00 00         : GR           - GAMMA RAY
CALI.MM       00 280 01 00         : CAL          - CALIPER
~PARAMETER INFORMATION
#MNEM.UNIT           DATA             DESCRIPTION OF MNEMONIC
#---------         -----------     ------------------------------
GL  .M        708.508              : gl           - GROUND LEVEL ELEVATION
EREF.M        711.556              : kb           - ELEVATION OF DEPTH REFERENCE
DATM.M        708.508              : datum        - DATUM ELEVATION
TDD .M        621.792              : tdd          - TOTAL DEPTH DRILLER
RUN .         ONE                  : Run          - RUN NUMBER
ENG .         CONNELLY             : Engineer     - RECORDING ENGINEER
WIT .         CONNELLY             : Witness      - WITNESSED BY
BASE.         EDM                  : Branch       - HOME BASE OF LOGGING UNIT
MUD .         CAUSTIC GEL          : Mud_type     - MUD TYPE
MATR.         SANDSTONE            : Logunit      - NEUTRON MATRIX
TMAX.C        21.1111              : BHT          - MAXIMUM RECORDED TEMPERATURE
BHTD.M        622.097              : BHTDEP       - MAXIMUM RECORDED TEMPERATURE
RMT .C        20                   : MDTP         - TEMPERATURE OF MUD
MUDD.KG/M     1140                 : MWT          - MUD DENSITY
NEUT.         1                    : NEUTRON      - NEUTRON TYPE
RESI.         0                    : RESIST       - RESISTIVITY TYPE
RM  .OHMM     2.83                 : RM           - RESISTIVITY OF MUD
RMC .OHMM     0                    : RMC          - RESISTIVITY OF MUD CAKE
RMF .OHMM     2.86                 : RMF          - RESISTIVITY OF MUD FILTRATE
SUFT.C        -17.7778             : SUFT         - SURFACE TEMPERATURE
~A  DEPTH     RESD     PHIN     PHID       GR      CAL
# ...
  484.480    5.918    0.498    0.333   48.473  156.725
  484.730    6.391    0.495    0.328   48.971  156.532
  484.980    6.784    0.502    0.340   48.734  156.438
  485.230    7.098    0.517    0.355   47.391  156.241
  485.480    7.690    0.514    0.354   49.362  156.254
  485.730    8.322    0.512    0.343   49.984  156.165
  485.980    9.311    0.488    0.338   49.193  155.864
  486.230   10.340    0.483    0.335   48.526  155.878
  486.480   11.050    0.484    0.332   47.123  155.787
  486.730   10.531    0.459    0.326   46.025  155.385
  486.980    9.811    0.471    0.319   46.524  155.192
  487.230    8.973    0.479    0.309   48.311  154.787
  487.480    8.135    0.463    0.334   48.686  154.280
  487.730    7.376    0.441    0.319   49.737  153.775
  487.980    6.856    0.469    0.304   49.253  153.164
  488.230    6.414    0.491    0.311   47.359  152.554
  488.480    6.213    0.513    0.315   49.760  151.942
  488.730    5.930    0.526    0.321   49.522  151.542
  488.980    5.728    0.520    0.328   50.082  151.344
  489.230    5.486    0.532    0.333   51.009  151.357
  489.480    5.243    0.525    0.323   51.447  151.478
  489.730    5.199    0.541    0.313   52.252  151.385
  489.980    5.196    0.535    0.321   53.670  151.502
  490.230    5.191    0.521    0.334   57.604  151.514
  490.480    5.187    0.527    0.331   62.458  151.630
  490.730    5.183    0.548    0.330   65.410  151.851
  490.980    5.180    0.572    0.332   63.884  152.072
  491.230    5.215    0.581    0.331   61.684  152.394
  491.480    5.212    0.556    0.328   61.262  152.928
  491.730    5.247    0.558    0.316   62.312  153.254
  491.980    5.323    0.557    0.311   62.812  153.368
  492.230    5.319    0.538    0.314   63.187  153.380
  492.480    5.314    0.526    0.320   65.157  153.709
  492.730    5.311    0.534    0.329   68.784  154.032
  492.980    5.346    0.541    0.328   71.921  154.250
  493.230    5.382    0.535    0.309   73.094  154.577
  493.480    5.457    0.515    0.287   72.550  154.798
  493.730    5.457    0.488    0.243   73.293  155.226
  493.980    5.450    0.482    0.215   75.570  155.238
  494.230    5.565    0.501    0.245   75.578  155.251
  494.480    5.558    0.512    0.257   72.335  155.160
  494.730    5.597    0.522    0.245   70.992  154.964
  494.980    5.632    0.521    0.228   71.000  154.665
  495.230    5.708    0.543    0.255   72.235  154.054
  495.480    5.744    0.526    0.278   73.530  152.301
  495.730    5.776    0.553    0.295   75.133  150.446
  495.980    5.815    0.578    0.274   76.552  150.355
  496.230    5.891    0.529    0.250   78.522  150.990
  496.480    5.887    0.505    0.245   81.475  151.937
  496.730    5.844    0.501    0.245   84.059  153.821
  496.980    5.840    0.521    0.242   86.030  156.639
  497.230    5.840    0.536    0.234   87.755  159.247
  497.480    5.870    0.539    0.224   85.799  163.416
  497.730    5.908    0.509    0.225   83.169  166.233
  497.980    5.943    0.496    0.222   81.888  166.666
  498.230    5.900    0.502    0.207   81.405  166.471
  498.480    5.816    0.504    0.203   81.719  166.691
  498.730    5.692    0.480    0.221   85.347  166.909
  498.980    5.569    0.517    0.218   84.925  167.024
  499.230    5.446    0.495    0.202   85.362  167.349
  499.480    5.045    0.473    0.203   86.719  167.364
  499.730    4.684    0.479    0.199   90.101  167.272
  499.980    4.322    0.511    0.201   92.071  166.973
  500.230    4.080    0.530    0.208   89.564  166.675
  500.480    3.837    0.532    0.225   86.075  166.481
  500.730    3.675    0.508    0.227   87.002  166.387
  500.980    3.591    0.480    0.222   89.954  166.610
  501.230    3.548    0.519    0.223   96.098  166.829
  501.480    3.583    0.573    0.221   97.148  167.052
  501.730    3.620    0.606    0.220   97.339  167.479
  501.980    3.734    0.626    0.220   94.770  167.390
  502.230    3.770    0.623    0.229   90.423  167.088
  502.480    3.766    0.563    0.240   85.399  165.959
  502.730    3.762    0.532    0.238   80.560  164.206
  502.980    3.716    0.504    0.230   79.770  164.427
  503.230    3.715    0.525    0.218   82.109  165.373
  503.480    3.671    0.554    0.205   83.344  166.425
  503.730    3.667    0.579    0.211   80.467  166.439
  503.980    3.703    0.613    0.231   74.033  165.619
  504.230    3.778    0.600    0.288   71.771  162.933
  504.480    3.893    0.540    0.308   72.944  159.829
  504.730    4.008    0.515    0.266   76.265  157.243
  504.980    4.124    0.515    0.262   75.721  154.557
  505.230    4.160    0.510    0.254   77.507  154.049
  505.480    4.156    0.500    0.243   79.540  156.450
  505.730    4.112    0.487    0.241   80.038  162.490
  505.980    4.108    0.483    0.235   79.677  166.346
  506.230    4.064    0.502    0.223   76.003  165.323
  506.480    4.064    0.518    0.241   71.594  162.736
  506.730    4.056    0.515    0.297   67.430  159.737
  506.980    4.052    0.506    0.345   67.008  158.501
  507.230    4.048    0.503    0.318   64.991  158.100
  507.480    4.044    0.487    0.307   62.422  157.903
  507.730    4.041    0.474    0.307   65.313  157.920
  507.980    4.037    0.491    0.316   64.033  157.932
  508.230    4.033    0.505    0.327   61.156  157.842
  508.480    4.069    0.523    0.332   59.385  157.751
  508.730    4.105    0.545    0.340   59.638  157.864
  508.980    4.180    0.528    0.340   60.627  157.878
  509.230    4.296    0.513    0.334   61.309  157.477
  509.480    4.370    0.501    0.332   61.317  157.492
  509.730    4.407    0.496    0.330   60.527  157.293
  509.980    4.482    0.530    0.318   57.221  157.413
  510.230    4.479    0.550    0.292   56.125  157.424
  510.480    4.434    0.565    0.262   59.752  157.435
  510.730    4.434    0.453    0.223   61.539  157.347
  510.980    4.345    0.432    0.241   60.075  157.359
  511.230    4.184    0.476    0.266   58.118  157.167
  511.480    4.061    0.555    0.311   57.881  157.176
  511.730    3.898    0.507    0.343   61.079  157.084
  511.980    3.775    0.522    0.320   64.829  157.202
  512.230    3.770    0.539    0.302   68.210  157.526
  512.480    3.768    0.564    0.298   67.175  158.269
  512.730    3.764    0.536    0.305   63.318  159.109
  512.980    3.759    0.529    0.300   61.914  160.058
  513.230    3.755    0.530    0.311   62.105  160.590
  513.480    3.791    0.523    0.321   60.579  160.811
  513.730    3.827    0.525    0.314   62.121  161.031
  513.980    3.862    0.539    0.300   64.583  160.943
  514.230    3.859    0.558    0.289   65.817  160.434
  514.480    3.855    0.527    0.303   65.702  160.240
  514.730    3.812    0.532    0.302   64.851  159.939
  514.980    3.728    0.582    0.290   61.300  159.433
  515.230    3.684    0.581    0.290   60.020  159.133
  515.480    3.640    0.528    0.306   60.150  158.524
  515.730    3.597    0.487    0.318   57.519  157.710
  515.980    3.553    0.519    0.332   55.196  157.406
  516.230    3.589    0.525    0.344   55.080  157.107
  516.480    3.664    0.522    0.329   55.640  156.812
  516.730    3.939    0.520    0.325   55.034  156.927
  516.980    4.372    0.505    0.340   54.612  157.145
  517.230    5.083    0.474    0.340   56.583  157.473
  517.480    5.873    0.441    0.324   57.879  158.730
  517.730    6.783    0.404    0.280   56.782  160.509
  517.980    7.931    0.333    0.234   53.967  161.768
  518.230    9.516    0.273    0.160   51.153  162.717
  518.480    9.870    0.232    0.060   48.707  163.352
  518.730    9.628    0.210    0.060   50.923  163.782
  518.980    8.313    0.204    0.066   50.564  163.690
  519.230    7.832    0.202    0.074   50.018  163.392
  519.480    6.557    0.204    0.088   50.517  162.781
  519.730    5.719    0.209    0.112   51.997  161.339
  519.980    4.602    0.225    0.160   54.457  159.689
  520.230    3.963    0.295    0.225   59.129  158.562
  520.480    3.561    0.488    0.333   62.510  157.951
  520.730    3.557    0.477    0.320   64.358  157.442
