~VERSION INFORMATION
 VERS.                 2.0:   CWLS LOG ASCII STANDARD -VERSION 2.0
 WRAP.                  NO:   ONE LINE PER DEPTH STEP
~WELL INFORMATION BLOCK
#MNEM.UNIT           DATA                    DESCRIPTION OF MNEMONIC
#---------    -------------------            -------------------------------
# Generated from Intellog Unique Number	CW_76_78/WELL/194
WELL.         06-17-077-25W4                 : Well_name    - WELL
LOC .         00/06-17-077-25W4/0            : Location     - LOCATION
UWI .         00/06-17-077-25W4/0            : Uwi          - UNIQUE WELL ID
ENTR.         JJ                             : Entered      - ENTERED BY
SRVC.         WESTERN ATLAS                  : Scn          - SERVICE COMPANY
DATE.         5 JAN 71                       : Date         - LOG DATE
STRT.M        536.448                        : top_depth    - START DEPTH
STOP.M        664.448                        : bot_depth    - STOP DEPTH
STEP.M        0.25                           : increment    - STEP LENGTH
 NULL. -999.2500:NULL Value
~CURVE INFORMATION BLOCK
#MNEM UNIT       ERCB CURVE CODE    CURVE DESCRIPTION
#-----------   ------------------   ----------------------------------
DEPT.M        00 001 00 00         : DEPTH        - DEPTH
NPHI.V/V      00 330 00 00         : PHIN         - NEUTRON POROSITY (SANDSTONE)
GR  .API      00 310 00 00         : GR           - GAMMA RAY
CALI.MM       00 280 01 00         : CAL          - CALIPER
DELT.US/F     00 520 00 00         : DELT         - SONIC TRAVEL TIME
ILD .OHMM     00 120 00 00         : RESD         - DEEP RESISTIVITY (DIL)
~PARAMETER INFORMATION
#MNEM.UNIT           DATA             DESCRIPTION OF MNEMONIC
#---------         -----------     ------------------------------
GL  .M        722.376              : gl           - GROUND LEVEL ELEVATION
EREF.M        726.338              : kb           - ELEVATION OF DEPTH REFERENCE
DATM.M        722.376              : datum        - DATUM ELEVATION
TDD .M        664.464              : tdd          - TOTAL DEPTH DRILLER
RUN .         ONE                  : Run          - RUN NUMBER
ENG .         HALLSTROM            : Engineer     - RECORDING ENGINEER
WIT .         KVILL                : Witness      - WITNESSED BY
BASE.         R.D.                 : Branch       - HOME BASE OF LOGGING UNIT
MUD .         GEL-CHEM             : Mud_type     - MUD TYPE
MATR.         SANDSTONE            : Logunit      - NEUTRON MATRIX
TMAX.C        30                   : BHT          - MAXIMUM RECORDED TEMPERATURE
BHTD.M        664.464              : BHTDEP       - MAXIMUM RECORDED TEMPERATURE
RMT .C        16.1111              : MDTP         - TEMPERATURE OF MUD
MUDD.KG/M     1116                 : MWT          - MUD DENSITY
NEUT.         1                    : NEUTRON      - NEUTRON TYPE
RESI.         0                    : RESIST       - RESISTIVITY TYPE
RM  .OHMM     7                    : RM           - RESISTIVITY OF MUD
RMC .OHMM     3.9                  : RMC          - RESISTIVITY OF MUD CAKE
RMF .OHMM     7                    : RMF          - RESISTIVITY OF MUD FILTRATE
SUFT.C        5                    : SUFT         - SURFACE TEMPERATURE
~A  DEPTH     PHIN       GR      CAL     DELT     RESD
  536.448    0.325   75.154  226.154  375.357    7.198
  536.698    0.327   72.805  227.791  376.910    7.182
  536.948    0.333   72.114  225.086  372.879    7.107
  537.198    0.339   71.667  221.869  375.021    7.012
  537.448    0.344   72.100  221.339  372.832    7.016
  537.698    0.337   70.580  223.389  382.334    6.981
  537.948    0.333   67.156  221.309  372.784    7.045
  538.198    0.328   67.002  221.084  359.161    7.189
  538.448    0.324   66.799  224.271  370.963    7.294
  538.698    0.324   67.817  225.392  377.904    7.399
  538.948    0.328   70.348  224.138  371.177    7.502
  539.198    0.335   66.679  221.642  370.497    7.627
  539.448    0.338   67.210  220.596  356.744    7.712
  539.698    0.334   68.617  221.610  364.930    7.797
  539.948    0.333   70.610  222.731  374.564    7.760
  540.198    0.331   70.945  223.544  373.750    7.705
  540.448    0.329   69.278  224.144  377.997    7.490
  540.698    0.320   67.952  224.233  368.647    7.374
  540.948    0.313   66.970  224.737  355.155    7.359
  541.198    0.295   64.619  227.820  369.913    7.443
  541.448    0.278   61.391  228.528  373.044    7.708
  541.698    0.257   57.627  226.029  368.881    8.092
  541.948    0.241   54.349  224.469  331.933    8.756
  542.198    0.239   52.244  224.350  306.027    9.500
  542.448    0.247   53.554  225.470  277.885   10.484
  542.698    0.254   55.402  225.455  295.139   11.768
  542.948    0.259   56.565  223.370  304.838   12.952
  543.198    0.258   56.411  221.805  323.211   10.637
  543.448    0.252   54.550  221.689  319.705   10.043
  543.698    0.239   52.980  223.941  338.799   10.128
  543.948    0.223   54.145  225.166  349.678   10.411
  544.198    0.209   53.747  225.361  285.734   10.976
  544.448    0.229   54.715  225.135  259.432   11.421
  544.698    0.235   56.368  224.916  293.965   11.864
  544.948    0.221   56.068  224.592  327.905   12.689
  545.198    0.211   55.278  224.575  259.165   13.313
  545.448    0.233   54.344  224.561  242.323   13.677
  545.698    0.266   55.899  225.062  235.072   12.982
  545.948    0.293   59.405  225.043  261.915   11.767
  546.198    0.300   62.667  224.928  330.810   10.052
  546.448    0.305   63.783  225.220  341.952    8.777
  546.698    0.309   64.360  225.207  346.595    8.062
  546.948    0.309   64.986  226.118  362.733    7.827
  547.198    0.306   66.102  226.722  370.658    7.710
  547.448    0.304   67.072  226.810  352.436    7.735
  547.698    0.305   68.041  225.246  349.454    7.720
  547.948    0.306   67.887  222.544  365.133    7.744
  548.198    0.303   66.757  221.082  369.115    7.849
  548.448    0.303   67.091  224.681  366.859    7.913
  548.698    0.304   67.132  227.044  358.689    8.018
  548.948    0.318   66.587  221.033  364.514    8.162
  549.198    0.323   66.043  218.440  374.737    8.348
  549.448    0.317   65.400  218.214  363.150    8.452
  549.698    0.319   64.369  221.610  365.098    8.456
  549.948    0.311   63.241  222.833  364.614    8.460
  550.198    0.313   66.357  220.544  355.852    8.444
  550.448    0.323   67.422  220.118  355.239    8.410
  550.698    0.324   68.049  221.651  366.055    8.354
  550.948    0.318   70.141  222.772  366.164    8.099
  551.198    0.321   69.841  222.755  363.904    7.843
  551.448    0.329   68.271  222.741  361.977    7.587
  551.698    0.325   68.606  223.860  370.952    7.092
  551.948    0.321   70.305  222.710  370.273    6.716
  552.198    0.316   72.153  219.490  358.883    6.581
  552.448    0.308   73.465  217.511  344.078    7.026
  552.698    0.303   76.482  217.706  361.069    7.751
  552.948    0.291   62.079  217.790  371.886    8.514
  553.198    0.282   52.408  218.810  391.572    9.439
  553.448    0.271   51.182  219.929  326.049   10.263
  553.698    0.273   51.076  220.329  311.046   11.066
  553.948    0.270   52.386  221.863  312.332   11.990
  554.198    0.268   53.843  223.809  314.283   12.875
  554.448    0.267   53.299  223.069  311.499   13.739
  554.698    0.261   54.510  220.781  297.547   12.664
  554.948    0.265   56.114  217.666  288.785   10.929
  555.198    0.276   57.035  216.929  329.627   10.114
  555.448    0.275   56.636  217.637  373.487   10.558
  555.698    0.250   54.678  219.481  364.858   12.502
  555.948    0.231   51.450  221.119  326.928   14.505
  556.198    0.218   49.099  222.856  287.289   17.709
  556.448    0.213   48.848  223.773  262.563   19.612
  556.698    0.215   49.767  223.445  250.122   22.515
  556.948    0.227   51.029  221.777  241.034   20.461
  557.198    0.242   53.462  219.593  281.479   17.967
  557.448    0.236   55.699  219.577  303.594   18.671
  557.698    0.221   56.229  221.835  263.032   20.255
  557.948    0.213   57.491  225.848  254.603   20.879
  558.198    0.229   58.214  227.589  244.397   19.364
  558.448    0.261   57.964  227.675  250.286   17.589
  558.698    0.274   57.321  227.141  318.715   14.555
  558.948    0.267   56.583  226.716  333.475   12.000
  559.198    0.264   56.331  225.152  319.129   11.405
  559.448    0.268   56.324  225.134  310.696   11.909
  559.698    0.267   56.513  228.839  297.993   12.713
  559.948    0.268   57.725  232.233  311.241   12.798
  560.198    0.269   58.499  231.804  309.574   11.623
  560.448    0.265   58.246  229.929  315.658   11.348
  560.698    0.259   57.898  231.455  323.582   11.452
  560.948    0.252   57.889  230.516  325.136   12.158
  561.198    0.243   57.687  228.639  319.133   13.100
  561.448    0.237   56.510  226.147  312.015   14.405
  561.698    0.231   52.159  219.831  297.608   15.988
  561.948    0.226   51.029  219.401  283.524   18.551
  562.198    0.219   51.118  225.479  278.835   21.955
  562.448    0.212   51.356  227.945  269.744   24.958
  562.698    0.215   52.080  222.349  251.984   26.702
  562.948    0.238   54.318  219.542  233.040   24.587
  563.198    0.267   56.409  218.705  221.192   17.414
  563.448    0.287   58.988  217.863  330.945   13.360
  563.698    0.306   60.738  216.813  345.241   11.326
  563.948    0.296   63.853  216.695  357.636    9.931
  564.198    0.298   64.969  217.711  352.225    9.076
  564.448    0.302   63.887  219.452  339.786    9.101
  564.698    0.305   65.931  220.573  328.988    9.345
  564.948    0.301   68.607  221.178  350.053    9.470
  565.198    0.293   67.672  218.888  356.401    9.454
  565.448    0.303   67.323  217.633  348.163    9.258
  565.698    0.305   69.072  218.137  340.718    9.043
  565.948    0.302   70.822  219.359  335.174    8.968
  566.198    0.299   72.523  220.273  351.116    9.052
  566.448    0.292   70.564  221.290  352.075    9.277
  566.698    0.283   69.287  221.793  344.759    9.661
  566.948    0.292   70.256  221.360  329.234    9.985
  567.198    0.300   71.713  220.725  332.758    9.950
  567.448    0.300   74.048  220.711  353.560    9.855
  567.698    0.287   70.380  220.590  348.673    9.858
  567.948    0.293   67.787  219.854  331.242    9.804
  568.198    0.291   69.487  219.425  327.997    9.848
  568.448    0.287   70.017  219.410  332.046    9.912
  568.698    0.287   70.156  219.910  328.869    9.876
  568.948    0.283   71.222  220.515  345.927    9.842
  569.198    0.279   70.434  221.224  354.444    9.786
  569.448    0.279   70.573  223.683  328.076    9.730
  569.698    0.289   70.713  224.804  310.052    9.594
  569.948    0.284   69.876  225.204  343.205    9.300
  570.198    0.278   69.624  225.910  347.508    9.125
  570.448    0.276   67.128  226.619  344.273    8.928
  570.698    0.283   69.121  227.431  340.107    8.893
  570.948    0.286   70.969  227.726  345.406    9.058
  571.198    0.280   68.911  228.021  346.829    9.342
  571.448    0.272   68.172  228.519  340.235    9.567
  571.698    0.267   68.993  228.812  329.243    9.630
  571.948    0.265   70.401  229.214  338.746    9.736
  572.198    0.263   70.932  228.678  337.864    9.881
  572.448    0.258   69.461  226.082  335.610    9.924
  572.698    0.259   68.917  221.832  329.017    9.989
