~VERSION INFORMATION
 VERS.                 2.0:   CWLS LOG ASCII STANDARD -VERSION 2.0
 WRAP.                  NO:   ONE LINE PER DEPTH STEP
~WELL INFORMATION BLOCK
#MNEM.UNIT           DATA                    DESCRIPTION OF MNEMONIC
#---------    -------------------            -------------------------------
# Generated from Intellog Unique Number	CX_WELLS/WELL/1046
LOC .         00/02-32-089-12W4/0            : Location     - LOCATION
UWI .         00/02-32-089-12W400            : Uwi          - UNIQUE WELL ID
ENTR.         DW                             : Entered      - ENTERED BY
SRVC.         SCHLUMBERGER                   : Scn          - SERVICE COMPANY
STRT.M        90                             : top_depth    - START DEPTH
STOP.M        240                            : bot_depth    - STOP DEPTH
STEP.M        0.25                           : increment    - STEP LENGTH
 NULL. -999.2500:NULL Value
~CURVE INFORMATION BLOCK
#MNEM UNIT       ERCB CURVE CODE    CURVE DESCRIPTION
#-----------   ------------------   ----------------------------------
DEPT.M        00 001 00 00         : DEPTH        - DEPTH
GR  .API      00 310 00 00         : GR           - GAMMA RAY
NPHI.V/V      00 330 00 00         : PHIN         - NEUTRON POROSITY (SANDSTONE)
DPHI.V/V      00 890 00 00         : PHID         - DENSITY POROSITY (SANDSTONE)
ILD .OHMM     00 120 00 00         : RESD         - DEEP RESISTIVITY (DIL)
~PARAMETER INFORMATION
#MNEM.UNIT           DATA             DESCRIPTION OF MNEMONIC
#---------         -----------     ------------------------------
GL  .M        525.15               : gl           - GROUND LEVEL ELEVATION
EREF.M        528.85               : kb           - ELEVATION OF DEPTH REFERENCE
DATM.M        528.85               : datum        - DATUM ELEVATION
TDD .M        717                  : tdd          - TOTAL DEPTH DRILLER
RUN .         ONE                  : Run          - RUN NUMBER
ENG .         BILL                 : Engineer     - RECORDING ENGINEER
WIT .         JIM                  : Witness      - WITNESSED BY
MUD .         GEL                  : Mud_type     - MUD TYPE
MATR.         SANDSTONE            : Logunit      - NEUTRON MATRIX
TMAX.C        18                   : BHT          - MAXIMUM RECORDED TEMPERATURE
BHTD.M        717                  : BHTDEP       - MAXIMUM RECORDED TEMPERATURE
MATR.         1                    : LOGUNIT      - NEUTRON MATRIX
RMT .C        25                   : MDTP         - TEMPERATURE OF MUD
NEUT.         1                    : NEUTRON      - NEUTRON TYPE
RESI.         0                    : RESIST       - RESISTIVITY TYPE
RMC .OHMM     0.25                 : RMC          - RESISTIVITY OF MUD CAKE
RMF .OHMM     0.25                 : RMF          - RESISTIVITY OF MUD FILTRATE
SUFT.C        15                   : SUFT         - SURFACE TEMPERATURE
~A  DEPTH       GR     PHIN     PHID     RESD
# ...
  177.000   74.632    0.334    0.265   14.160
  177.250   67.444    0.364    0.266   14.170
  177.500   66.878    0.396    0.262   14.986
  177.750   72.934    0.415    0.331   16.443
  178.000   77.795    0.419    0.373   17.707
  178.250   73.608    0.405    0.397   17.400
  178.500   65.215    0.251    0.072   16.477
  178.750   64.649    0.232    0.118   15.316
  179.000   70.113    0.304    0.206   13.232
  179.250   74.965    0.335    0.233   13.239
  179.500   73.806    0.337    0.221   16.825
  179.750   75.046    0.308    0.206   22.184
  180.000   77.490    0.296    0.216   41.490
  180.250   78.721    0.330    0.247   45.517
  180.500   78.155    0.342    0.318   37.897
  180.750   76.385    0.362    0.333   20.671
  181.000   74.624    0.391    0.359   15.132
  181.250   75.262    0.409    0.390   14.866
  181.500   76.502    0.432    0.403   17.556
  181.750   78.344    0.440    0.365   18.565
  182.000   78.973    0.391    0.331   19.631
  182.250   79.009    0.387    0.319   20.009
  182.500   79.045    0.398    0.317   18.602
  182.750   79.090    0.425    0.314   16.668
  183.000   80.932    0.441    0.308   13.877
  183.250   82.783    0.421    0.300   13.638
  183.500   84.014    0.399    0.290   14.689
  183.750   81.031    0.380    0.277   17.026
  184.000   72.638    0.382    0.268   18.341
  184.250   70.868    0.370    0.277   17.688
  184.500   75.729    0.364    0.291   16.444
  184.750   78.766    0.400    0.303   14.468
  185.000   81.822    0.424    0.296   12.968
  185.250   81.255    0.419    0.288   12.508
  185.500   79.485    0.409    0.283   12.749
  185.750   78.919    0.415    0.292   14.510
  186.000   79.557    0.423    0.301   16.213
  186.250   82.010    0.367    0.276   16.224
  186.500   84.454    0.354    0.274   16.238
  186.750   86.890    0.359    0.275   16.249
  187.000   88.741    0.366    0.274   16.564
  187.250   88.777    0.386    0.267   17.191
  187.500   88.210    0.392    0.254   18.181
  187.750   87.042    0.356    0.240   18.531
  188.000   85.874    0.338    0.220   17.549
  188.250   85.901    0.318    0.221   16.926
  188.500   85.335    0.324    0.244   17.255
  188.750   85.973    0.335    0.250   17.587
  189.000   87.213    0.347    0.265   17.596
  189.250   86.647    0.380    0.282   17.935
  189.500   81.867    0.370    0.276   18.622
  189.750   75.882    0.353    0.250   18.981
  190.000   73.519    0.328    0.232   19.343
  190.250   75.352    0.333    0.263   20.085
  190.500   77.796    0.349    0.292   21.245
  190.750   80.249    0.364    0.282   22.049
  191.000   80.887    0.367    0.282   23.748
  191.250   80.923    0.376    0.286   26.052
  191.500   81.561    0.368    0.273   28.060
  191.750   82.190    0.318    0.254   27.572
  192.000   84.041    0.305    0.241   23.812
  192.250   84.679    0.314    0.241   20.568
  192.500   82.298    0.329    0.254   17.770
  192.750   80.528    0.337    0.260   17.137
  193.000   79.369    0.333    0.255   17.470
  193.250   79.414    0.320    0.244   17.484
  193.500   78.830    0.303    0.240   16.864
  193.750   77.060    0.298    0.255   16.568
  194.000   76.493    0.310    0.287   17.198
  194.250   77.132    0.325    0.320   18.870
  194.500   76.574    0.343    0.327   19.233
  194.750   76.008    0.358    0.337   19.246
  195.000   74.840    0.372    0.344   21.117
  195.250   73.672    0.387    0.350   21.916
  195.500   72.495    0.381    0.338   23.179
  195.750   70.725    0.355    0.231   20.771
  196.000   70.761    0.346    0.258   18.278
  196.250   71.408    0.371    0.291   19.328
  196.500   70.842    0.409    0.318   20.434
  196.750   70.276    0.427    0.345   22.833
  197.000   70.311    0.438    0.344   25.992
  197.250   72.154    0.429    0.322   26.492
  197.500   78.210    0.408    0.317   22.880
  197.750   79.450    0.405    0.326   18.362
  198.000   79.486    0.406    0.324   15.009
  198.250   78.920    0.408    0.316   14.746
  198.500   78.354    0.398    0.310   14.223
  198.750   77.797    0.382    0.319   13.228
  199.000   76.018    0.374    0.314   12.759
  199.250   74.247    0.371    0.319   12.767
  199.500   74.283    0.379    0.330   13.498
  199.750   74.921    0.385    0.349   16.843
  200.000   75.568    0.377    0.340   22.207
  200.250   72.594    0.366    0.264   23.918
  200.500   70.213    0.360    0.293   23.503
  200.750   67.841    0.376    0.305   23.955
  201.000   64.866    0.399    0.312   23.975
  201.250   61.290    0.426    0.313   23.550
  201.500   58.927    0.453    0.315   22.719
  201.750   57.759    0.470    0.317   21.122
  202.000   57.193    0.467    0.314   17.910
  202.250   57.238    0.470    0.310   12.407
  202.500   57.265    0.468    0.309    9.422
  202.750   57.300    0.450    0.308    8.290
  203.000   57.337    0.456    0.300    7.850
  203.250   57.965    0.460    0.314    7.712
  203.500   58.603    0.463    0.335    8.155
  203.750   60.446    0.442    0.387    9.282
  204.000   64.094    0.423    0.358   10.960
  204.250   70.761    0.416    0.355   14.193
  204.500   72.594    0.419    0.367   15.284
  204.750   73.843    0.427    0.360   16.770
  205.000   72.675    0.436    0.335   16.175
  205.250   68.497    0.441    0.299   15.038
  205.500   72.145    0.444    0.280   13.476
  205.750   75.802    0.432    0.279   12.996
  206.000   77.644    0.374    0.279   12.536
  206.250   78.885    0.353    0.282   11.654
  206.500   76.503    0.353    0.306   11.450
  206.750   72.334    0.355    0.335   12.111
  207.000   69.953    0.359    0.330   12.118
  207.250   69.989    0.367    0.321   12.128
  207.500   71.831    0.382    0.319   12.138
  207.750   74.275    0.395    0.320   12.142
  208.000   74.320    0.391    0.324   10.881
  208.250   71.939    0.381    0.326   10.894
  208.500   67.760    0.383    0.328   11.100
  208.750   62.378    0.396    0.325   11.738
  209.000   61.210    0.328    0.311   12.414
  209.250   61.246    0.230    0.278   13.129
  209.500   60.078    0.165    0.296   13.382
  209.750   52.287    0.142    0.355   13.635
  210.000   46.294    0.134    0.378   14.685
  210.250   40.309    0.123    0.394   16.714
  210.500   34.325    0.110    0.401   19.376
  210.750   30.146    0.117    0.405   23.736
  211.000   30.182    0.128    0.390   39.754
  211.250   32.033    0.146    0.369   61.850
  211.500   33.875    0.183    0.363   71.701
  211.750   36.310    0.206    0.362   75.832
  212.000   39.366    0.206    0.360   75.871
  212.250   39.402    0.206    0.357   65.547
  212.500   39.447    0.212    0.354   52.594
  212.750   39.474    0.207    0.352   45.438
  213.000   40.130    0.203    0.349   46.312
  213.250   40.749    0.204    0.347   48.088
  213.500   41.388    0.214    0.342   46.383
  213.750   39.024    0.235    0.337   44.738
  214.000   36.643    0.242    0.332   44.776
  214.250   36.679    0.240    0.326   45.623
  214.500   37.317    0.230    0.312   45.654
  214.750   37.362    0.208    0.306   42.452
  215.000   37.991    0.209    0.316   39.462
  215.250   38.036    0.211    0.331   38.069
  215.500   37.470    0.172    0.347   37.394
  215.750   36.302    0.173    0.355   34.778
  216.000   35.745    0.210    0.336   30.593
  216.250   35.772    0.245    0.320   28.980
  216.500   35.816    0.283    0.299   30.076
  216.750   34.648    0.297    0.278   27.962
  217.000   33.462    0.300    0.277   23.281
  217.250   31.701    0.303    0.281   20.110
  217.500   31.728    0.303    0.283   18.356
  217.750   31.162    0.300    0.282   17.385
  218.000   31.198    0.307    0.282   16.766
  218.250   31.234    0.310    0.282   16.171
  218.500   31.881    0.307    0.285   15.603
  218.750   31.926    0.305    0.290   15.614
  219.000   32.564    0.306    0.291   15.337
  219.250   33.184    0.308    0.285   15.350
  219.500   34.424    0.311    0.281   15.643
  219.750   35.664    0.309    0.281   16.243
  220.000   36.302    0.308    0.282   16.866
  220.250   37.551    0.314    0.285   17.184
