~VERSION INFORMATION
 VERS.                 2.0:   CWLS LOG ASCII STANDARD -VERSION 2.0
 WRAP.                  NO:   ONE LINE PER DEPTH STEP
~WELL INFORMATION BLOCK
#MNEM.UNIT           DATA                    DESCRIPTION OF MNEMONIC
#---------    -------------------            -------------------------------
# Generated from Intellog Unique Number	CW_70_72/WELL/3007
NULL.         -999.25                        : NULL_VALUE
WELL.         SULPETRO ET AL PARKER 06-17    : Well_name    - WELL              
LOC .         06-17-070-04W5                 : Location     - LOCATION          
UWI .         00/06-17-070-04W5/0            : Uwi          - UNIQUE WELL ID    
ENTR.         J                              : Entered      - ENTERED BY        
SRVC.         WESTERN ATLAS                  : Scn          - SERVICE COMPANY   
DATE.         4 JUNE 83                      : Date         - LOG DATE          
STRT.M        600                            : top_depth    - START DEPTH       
STOP.M        840                            : bot_depth    - STOP DEPTH        
STEP.M        0.25                           : increment    - STEP LENGTH       
~CURVE INFORMATION BLOCK
#MNEM UNIT       ERCB CURVE CODE    CURVE DESCRIPTION
#-----------   ------------------   ----------------------------------
DEPT.M        00 001 00 00         : DEPTH        - DEPTH                       
ILD .OHMM     00 120 00 00         : RESD         - DEEP RESISTIVITY (DIL)      
CALI.MM       00 280 01 00         : CAL          - CALIPER                     
GR  .API      00 310 00 00         : GR           - GAMMA RAY                   
NPHI.V/V      00 330 00 00         : PHIN         - NEUTRON POROSITY (SANDSTONE)
DPHI.V/V      00 890 00 00         : PHID         - DENSITY POROSITY (SANDSTONE)
~PARAMETER INFORMATION       
#MNEM.UNIT           DATA             DESCRIPTION OF MNEMONIC
#---------         -----------     ------------------------------
GL  .M        710.35               : gl           - GROUND LEVEL ELEVATION      
EREF.M        714.05               : kb           - ELEVATION OF DEPTH REFERENCE
DATM.M        710.35               : datum        - DATUM ELEVATION             
TDD .M        905                  : tdd          - TOTAL DEPTH DRILLER         
RUN .         ONE                  : Run          - RUN NUMBER                  
ENG .         ADAMOWSKI            : Engineer     - RECORDING ENGINEER          
WIT .         DAVID                : Witness      - WITNESSED BY                
BASE.         EDM                  : Branch       - HOME BASE OF LOGGING UNIT   
MUD .         GEL CHEM             : Mud_type     - MUD TYPE                    
MATR.         SANDSTONE            : Logunit      - NEUTRON MATRIX              
TMAX.C        33                   : BHT          - MAXIMUM RECORDED TEMPERATURE
BHTD.M        902.5                : BHTDEP       - MAXIMUM RECORDED TEMPERATURE
RMT .C        17                   : MDTP         - TEMPERATURE OF MUD          
MUDD.KG/M     1150                 : MWT          - MUD DENSITY                 
NEUT.         1                    : NEUTRON      - NEUTRON TYPE                
RESI.         0                    : RESIST       - RESISTIVITY TYPE            
RM  .OHMM     2.3                  : RM           - RESISTIVITY OF MUD          
RMC .OHMM     2.5                  : RMC          - RESISTIVITY OF MUD CAKE     
RMF .OHMM     1.9                  : RMF          - RESISTIVITY OF MUD FILTRATE 
SUFT.C        0                    : SUFT         - SURFACE TEMPERATURE         
~A  DEPTH     RESD      CAL       GR     PHIN     PHID
# ...
  819.000    6.143  167.182   79.466    0.271    0.173
  819.250    6.140  166.750   77.649    0.278    0.181
  819.500    6.614  166.421   76.644    0.282    0.162
  819.750    7.809  166.144   71.010    0.281    0.132
  820.000    9.845  165.866   64.502    0.274    0.117
  820.250   12.046  165.647   61.743    0.265    0.108
  820.500   14.544  165.653   51.806    0.261    0.111
  820.750   16.451  167.103   44.614    0.259    0.115
  821.000   17.854  168.207   49.787    0.257    0.118
  821.250   15.246  170.028   66.273    0.257    0.110
  821.500   13.824  170.157   75.829    0.263    0.100
  821.750   12.915  170.243   62.574    0.260    0.087
  822.000   12.157  171.179   57.504    0.245    0.078
  822.250   11.272  171.571   61.497    0.238    0.066
  822.500   10.454  172.075   69.612    0.253    0.060
  822.750    9.232  171.762   76.406    0.274    0.095
  823.000    8.154  170.495   86.459    0.283    0.139
  823.250    7.298  168.359   84.206    0.280    0.161
  823.500    6.162  168.076   73.512    0.277    0.176
  823.750    5.391  168.157   67.502    0.273    0.188
  824.000    4.907  168.779   68.433    0.288    0.198
  824.250    4.618  169.600   66.487    0.287    0.204
  824.500    4.677  170.107   68.980    0.278    0.188
  824.750    4.862  169.464   78.907    0.269    0.175
  825.000    4.998  169.036   85.081    0.268    0.159
  825.250    5.013  167.789   92.193    0.275    0.168
  825.500    4.631  166.500   81.881    0.292    0.186
  825.750    4.208  163.689   80.495    0.292    0.202
  826.000    3.607  161.698   88.121    0.288    0.197
  826.250    2.879  160.010   78.543    0.283    0.190
  826.500    2.324  158.256   62.980    0.277    0.220
  826.750    1.862  157.584   46.100    0.281    0.247
  827.000    1.648  157.473   29.665    0.279    0.266
  827.250    1.574  158.176   26.970    0.258    0.245
  827.500    1.852  159.640   40.641    0.249    0.211
  827.750    2.253  160.549   53.570    0.247    0.178
  828.000    2.999  161.886   65.739    0.243    0.162
  828.250    3.725  162.929   71.167    0.235    0.157
  828.500    4.301  163.746   86.028    0.261    0.158
  828.750    4.864  164.259   95.463    0.274    0.176
  829.000    5.409  165.071   69.769    0.260    0.184
  829.250    5.794  165.467   49.769    0.242    0.167
  829.500    5.922  165.550   52.944    0.231    0.153
  829.750    5.280  165.765   71.616    0.241    0.160
  830.000    4.121  164.285   88.289    0.275    0.190
  830.250    3.435  163.135   76.979    0.304    0.229
  830.500    2.846  162.696   67.600    0.300    0.248
  830.750    2.595  162.671   63.401    0.286    0.247
  831.000    2.618  162.761   71.087    0.273    0.212
  831.250    2.847  164.426   77.575    0.265    0.191
  831.500    3.142  165.460   81.308    0.254    0.178
  831.750    3.494  165.967   80.049    0.248    0.171
  832.000    3.687  166.147   73.921    0.238    0.165
  832.250    3.811  166.568   68.108    0.229    0.173
  832.500    3.795  166.661   63.283    0.231    0.188
  832.750    3.460  166.733   56.970    0.242    0.192
  833.000    3.126  167.346   52.336    0.255    0.194
  833.250    3.015  168.791   50.635    0.265    0.184
  833.500    3.140  171.275   62.562    0.259    0.173
  833.750    3.338  174.076   67.740    0.251    0.161
  834.000    3.691  175.612   70.362    0.244    0.152
  834.250    4.120  177.282   72.345    0.243    0.141
  834.500    4.438  178.089   75.337    0.246    0.132
  834.750    4.709  177.987   80.079    0.254    0.124
  835.000    4.887  177.641  100.875    0.265    0.122
  835.250    4.958  177.532  109.423    0.273    0.126
  835.500    4.658  176.468  102.042    0.302    0.171
  835.750    4.295  172.816   85.542    0.329    0.199
  836.000    4.237  168.746   65.351    0.313    0.215
  836.250    4.347  167.083   67.470    0.250    0.127
  836.500    4.639  166.639   66.529    0.207    0.068
  836.750    5.072  165.992   59.211    0.191    0.009
  837.000    5.715  165.252   55.574    0.186    0.001
  837.250    6.561  164.919   54.128    0.182    0.019
  837.500    7.532  164.192   53.190    0.179    0.035
  837.750    8.392  163.649   48.988    0.176    0.036
  838.000    9.616  163.124   42.922    0.173    0.033
  838.250   11.039  162.795   39.672    0.162    0.032
  838.500   12.485  162.359   36.546    0.148    0.033
  838.750   14.604  161.716   34.155    0.140    0.035
  839.000   15.910  160.872   31.276    0.134    0.040
  839.250   16.694  159.840   28.263    0.131    0.044
  839.500   16.747  159.391   26.315    0.142    0.051
  839.750   16.489  158.864   23.563    0.149    0.063
  840.000   16.572  158.312   22.436    0.147    0.077
