~VERSION INFORMATION
 VERS.                 2.0:   CWLS LOG ASCII STANDARD -VERSION 2.0
 WRAP.                  NO:   ONE LINE PER DEPTH STEP
~WELL INFORMATION BLOCK
#MNEM.UNIT           DATA                    DESCRIPTION OF MNEMONIC
#---------    -------------------            -------------------------------
# Generated from Intellog Unique Number	CW_73_75/WELL/532
WELL.         NORCEN POR MARTIN HILLS 06-10  : Well_name    - WELL
LOC .         00/06-10-074-25W4/0            : Location     - LOCATION
UWI .         00/06-10-074-25W4/0            : Uwi          - UNIQUE WELL ID
ENTR.         JAYE                           : Entered      - ENTERED BY
SRVC.         COMPUTALOG                     : Scn          - SERVICE COMPANY
DATE.         18 FEB 83                      : Date         - LOG DATE
STRT.M        420                            : top_depth    - START DEPTH
STOP.M        642                            : bot_depth    - STOP DEPTH
STEP.M        0.25                           : increment    - STEP LENGTH
 NULL. -999.2500:NULL Value
~CURVE INFORMATION BLOCK
#MNEM UNIT       ERCB CURVE CODE    CURVE DESCRIPTION
#-----------   ------------------   ----------------------------------
DEPT.M        00 001 00 00         : DEPTH        - DEPTH
ILD .OHMM     00 120 00 00         : RESD         - DEEP RESISTIVITY (DIL)
CALI.MM       00 280 01 00         : CAL          - CALIPER
GR  .API      00 310 00 00         : GR           - GAMMA RAY
NPHI.V/V      00 330 00 00         : PHIN         - NEUTRON POROSITY (SANDSTONE)
DPHI.V/V      00 890 00 00         : PHID         - DENSITY POROSITY (SANDSTONE)
~PARAMETER INFORMATION
#MNEM.UNIT           DATA             DESCRIPTION OF MNEMONIC
#---------         -----------     ------------------------------
GL  .M        677.67               : gl           - GROUND LEVEL ELEVATION
EREF.M        680.97               : kb           - ELEVATION OF DEPTH REFERENCE
DATM.M        677.67               : datum        - DATUM ELEVATION
TDD .M        650                  : tdd          - TOTAL DEPTH DRILLER
RUN .         ONE                  : Run          - RUN NUMBER
ENG .         BOGNER               : Engineer     - RECORDING ENGINEER
BASE.         EDM                  : Branch       - HOME BASE OF LOGGING UNIT
MUD .         GEL CHEM             : Mud_type     - MUD TYPE
MATR.         SANDSTONE            : Logunit      - NEUTRON MATRIX
TMAX.C        35                   : BHT          - MAXIMUM RECORDED TEMPERATURE
BHTD.M        647.2                : BHTDEP       - MAXIMUM RECORDED TEMPERATURE
RMT .C        17.8                 : MDTP         - TEMPERATURE OF MUD
MUDD.KG/M     1140                 : MWT          - MUD DENSITY
NEUT.         1                    : NEUTRON      - NEUTRON TYPE
RESI.         0                    : RESIST       - RESISTIVITY TYPE
RM  .OHMM     3.3                  : RM           - RESISTIVITY OF MUD
RMC .OHMM     3                    : RMC          - RESISTIVITY OF MUD CAKE
RMF .OHMM     5.9                  : RMF          - RESISTIVITY OF MUD FILTRATE
SUFT.C        0                    : SUFT         - SURFACE TEMPERATURE
~A  DEPTH     RESD      CAL       GR     PHIN     PHID
# ...
  493.000    5.275  196.406   81.480    0.415    0.205
  493.250    5.266  196.042   82.706    0.416    0.200
  493.500    5.277  195.678   80.536    0.406    0.196
  493.750    5.239  195.417   77.802    0.412    0.206
  494.000    5.073  196.732   75.066    0.428    0.214
  494.250    4.885  199.202   77.363    0.434    0.197
  494.500    4.749  201.249   86.583    0.429    0.192
  494.750    4.670  202.771   90.582    0.419    0.191
  495.000    4.609  203.774   94.269    0.404    0.194
  495.250    4.602  203.926   96.122    0.389    0.192
  495.500    4.603  203.249   97.919    0.416    0.190
  495.750    4.577  201.729   96.000    0.442    0.192
  496.000    4.544  199.168   95.717    0.442    0.197
  496.250    4.528  196.598   91.661    0.434    0.206
  496.500    4.511  194.766   86.914    0.425    0.220
  496.750    4.487  194.085   78.513    0.418    0.240
  497.000    4.454  195.507   70.303    0.412    0.265
  497.250    4.429  196.821   62.031    0.401    0.283
  497.500    4.380  195.825   54.954    0.381    0.289
  497.750    4.332  195.669   51.651    0.374    0.291
  498.000    4.235  197.726   51.244    0.388    0.289
  498.250    4.140  199.139   52.034    0.407    0.287
  498.500    4.056  199.087   51.502    0.403    0.287
  498.750    3.920  195.055   52.350    0.399    0.288
  499.000    3.746  193.221   52.698    0.398    0.291
  499.250    3.533  194.118   51.035    0.386    0.300
  499.500    3.313  194.275   52.890    0.384    0.304
  499.750    3.118  192.968   51.792    0.390    0.302
  500.000    3.014  190.926   49.621    0.389    0.298
  500.250    2.975  191.085   51.165    0.384    0.293
  500.500    2.953  191.561   51.011    0.367    0.290
  500.750    2.954  191.728   49.470    0.364    0.299
  501.000    2.971  191.568   50.699    0.379    0.299
  501.250    2.978  191.103   55.141    0.395    0.292
  501.500    2.978  190.836   56.430    0.403    0.288
  501.750    2.996  190.897   54.007    0.390    0.292
  502.000    3.020  191.163   55.047    0.378    0.297
  502.250    3.102  191.428   60.495    0.366    0.296
  502.500    3.186  191.685   64.677    0.392    0.288
  502.750    3.373  192.163   68.613    0.408    0.275
  503.000    3.689  193.160   69.086    0.424    0.270
  503.250    4.011  194.264   64.211    0.408    0.273
  503.500    4.215  195.471   59.084    0.394    0.279
  503.750    4.208  196.683   60.879    0.384    0.283
  504.000    4.162  197.366   59.529    0.375    0.275
  504.250    4.077  197.743   57.485    0.381    0.261
  504.500    3.963  197.373   56.071    0.396    0.263
  504.750    3.911  196.590   55.414    0.406    0.268
  505.000    3.861  194.863   55.444    0.405    0.274
  505.250    3.811  193.344   56.614    0.399    0.276
  505.500    3.768  192.457   57.716    0.393    0.274
  505.750    3.733  192.089   58.816    0.389    0.271
  506.000    3.692  191.734   60.107    0.405    0.269
  506.250    3.665  191.785   63.477    0.427    0.268
  506.500    3.645  192.059   65.086    0.433    0.281
  506.750    3.646  192.834   62.601    0.430    0.287
  507.000    3.716  193.941   61.127    0.424    0.277
  507.250    3.832  195.358   62.035    0.415    0.263
  507.500    4.119  196.567   64.396    0.395    0.242
  507.750    4.446  197.254   64.305    0.370    0.216
  508.000    4.523  196.676   62.766    0.382    0.170
  508.250    4.448  193.795   63.049    0.401    0.207
  508.500    4.365  193.227   68.683    0.392    0.229
  508.750    4.333  195.691   76.643    0.371    0.256
  509.000    4.367  197.740   84.732    0.389    0.252
  509.250    4.409  196.537   91.938    0.404    0.247
  509.500    4.410  195.021   92.159    0.412    0.250
  509.750    4.428  194.970   87.977    0.399    0.250
  510.000    4.506  196.394   82.980    0.405    0.226
  510.250    4.744  197.598   81.563    0.420    0.192
  510.500    5.338  198.384   84.553    0.422    0.177
  510.750    5.804  198.858   85.028    0.385    0.167
  511.000    5.827  198.914   81.913    0.315    0.171
  511.250    5.601  198.132   76.282    0.335    0.199
  511.500    5.133  197.135   78.708    0.372    0.217
  511.750    4.795  196.037   84.151    0.431    0.205
  512.000    4.565  195.893   88.655    0.431    0.191
  512.250    4.438  195.836   89.001    0.414    0.181
  512.500    4.397  196.110   88.720    0.394    0.192
  512.750    4.398  196.366   88.816    0.387    0.207
  513.000    4.424  197.155   86.584    0.389    0.220
  513.250    4.442  197.422   83.407    0.397    0.209
  513.500    4.460  196.848   85.582    0.424    0.208
  513.750    4.452  196.168   89.387    0.440    0.213
  514.000    4.320  195.909   92.380    0.451    0.219
  514.250    4.160  196.381   93.544    0.435    0.215
  514.500    4.060  197.695   91.753    0.432    0.198
  514.750    4.107  200.687   89.583    0.423    0.189
  515.000    4.187  203.781   90.248    0.402    0.184
  515.250    4.276  205.734   92.294    0.396    0.181
  515.500    4.261  206.209   96.666    0.408    0.177
  515.750    4.189  205.948   98.462    0.430    0.172
  516.000    4.050  205.162   96.671    0.427    0.181
  516.250    3.870  203.640   96.011    0.416    0.189
  516.500    3.727  200.971   94.409    0.410    0.204
  516.750    3.602  197.878   86.073    0.408    0.235
  517.000    3.542  194.896   78.366    0.418    0.267
  517.250    3.509  193.698   73.369    0.421    0.285
  517.500    3.510  193.851   73.902    0.399    0.278
  517.750    3.647  195.479   73.684    0.401    0.277
  518.000    3.876  197.212   70.007    0.408    0.286
  518.250    4.004  194.747   66.642    0.391    0.285
  518.500    4.184  190.405   63.340    0.373    0.269
  518.750    4.363  189.718   60.982    0.341    0.227
  519.000    4.364  192.403   61.013    0.360    0.218
  519.250    4.275  193.090   64.637    0.393    0.234
  519.500    4.187  192.508   70.207    0.411    0.251
  519.750    4.048  192.880   73.635    0.406    0.242
  520.000    3.876  195.973   73.605    0.391    0.241
  520.250    3.796  199.075   74.267    0.395    0.244
  520.500    3.819  199.027   77.260    0.415    0.240
  520.750    3.856  198.351   79.997    0.422    0.233
  521.000    3.909  197.876   83.621    0.402    0.225
  521.250    3.969  197.406   83.399    0.382    0.222
  521.500    4.039  196.095   76.764    0.393    0.268
  521.750    4.109  193.845   70.253    0.401    0.289
  522.000    4.173  193.062   63.552    0.391    0.273
  522.250    4.230  192.702   66.918    0.405    0.246
  522.500    4.353  194.533   71.924    0.428    0.227
  522.750    4.454  199.516   76.234    0.414    0.217
  523.000    4.489  198.842   78.975    0.401    0.214
  523.250    4.406  197.008   78.253    0.385    0.244
  523.500    4.218  193.285   74.132    0.368    0.268
  523.750    4.116  191.565   71.146    0.393    0.275
  524.000    4.071  191.519   72.628    0.415    0.262
  524.250    4.064  195.025   76.436    0.403    0.227
  524.500    4.096  200.743   79.990    0.394    0.193
  524.750    4.112  201.431   83.233    0.394    0.203
  525.000    4.145  199.282   82.891    0.384    0.219
  525.250    4.185  196.608   78.832    0.383    0.250
  525.500    4.242  194.566   78.047    0.384    0.271
  525.750    4.357  194.727   78.837    0.381    0.278
  526.000    4.536  195.833   76.165    0.384    0.274
  526.250    4.659  196.621   73.305    0.389    0.260
  526.500    4.795  196.786   70.314    0.374    0.252
  526.750    4.723  195.791   67.328    0.359    0.255
  527.000    4.698  193.010   68.182    0.376    0.275
  527.250    4.734  188.562   70.414    0.388    0.281
  527.500    4.726  186.731   72.839    0.404    0.272
  527.750    4.621  186.149   73.564    0.432    0.249
  528.000    4.383  186.213   75.798    0.436    0.260
  528.250    4.196  186.576   74.259    0.417    0.279
  528.500    4.110  186.950   69.258    0.427    0.293
  528.750    4.174  187.419   64.760    0.427    0.289
  529.000    4.255  187.789   63.601    0.413    0.264
  529.250    4.363  189.006   63.695    0.398    0.245
