~VERSION INFORMATION
 VERS.                 2.0:   CWLS LOG ASCII STANDARD -VERSION 2.0
 WRAP.                  NO:   ONE LINE PER DEPTH STEP
~WELL INFORMATION BLOCK
#MNEM.UNIT           DATA                    DESCRIPTION OF MNEMONIC
#---------    -------------------            -------------------------------
# Generated from Intellog Unique Number	CW_70_72/WELL/829
NULL.         -999.25                        : NULL_VALUE
WELL.         SUNDANCE ET AL SMITH 06-29     : Well_name    - WELL              
LOC .         06-29-071-22W4                 : Location     - LOCATION          
UWI .         00/06-29-071-22W4/0            : Uwi          - UNIQUE WELL ID    
ENTR.         JAYE                           : Entered      - ENTERED BY        
SRVC.         SCHLUMBERGER                   : Scn          - SERVICE COMPANY   
DATE.         9 MAR 76                       : Date         - LOG DATE          
STRT.M        402.336                        : top_depth    - START DEPTH       
STOP.M        603.586                        : bot_depth    - STOP DEPTH        
STEP.M        0.25                           : increment    - STEP LENGTH       
~CURVE INFORMATION BLOCK
#MNEM UNIT       ERCB CURVE CODE    CURVE DESCRIPTION
#-----------   ------------------   ----------------------------------
DEPT.M        00 001 00 00         : DEPTH        - DEPTH                       
DPHI.V/V      00 890 00 00         : PHID         - DENSITY POROSITY (SANDSTONE)
NPHI.V/V      00 330 00 00         : PHIN         - NEUTRON POROSITY (SANDSTONE)
GR  .API      00 310 00 00         : GR           - GAMMA RAY                   
CALI.MM       00 280 01 00         : CAL          - CALIPER                     
ILD .OHMM     00 120 00 00         : RESD         - DEEP RESISTIVITY (DIL)      
~PARAMETER INFORMATION       
#MNEM.UNIT           DATA             DESCRIPTION OF MNEMONIC
#---------         -----------     ------------------------------
GL  .M        641.421              : gl           - GROUND LEVEL ELEVATION      
EREF.M        644.896              : kb           - ELEVATION OF DEPTH REFERENCE
DATM.M        641.421              : datum        - DATUM ELEVATION             
TDD .M        625.754              : tdd          - TOTAL DEPTH DRILLER         
RUN .         ONE                  : Run          - RUN NUMBER                  
BASE.         EDM                  : Branch       - HOME BASE OF LOGGING UNIT   
MUD .         GEL                  : Mud_type     - MUD TYPE                    
MATR.         SANDSTONE            : Logunit      - NEUTRON MATRIX              
TMAX.C        22.7778              : BHT          - MAXIMUM RECORDED TEMPERATURE
BHTD.M        626.669              : BHTDEP       - MAXIMUM RECORDED TEMPERATURE
RMT .C        21.6667              : MDTP         - TEMPERATURE OF MUD          
MUDD.KG/M     0                    : MWT          - MUD DENSITY                 
NEUT.         1                    : NEUTRON      - NEUTRON TYPE                
RESI.         0                    : RESIST       - RESISTIVITY TYPE            
RM  .OHMM     1.67                 : RM           - RESISTIVITY OF MUD          
RMC .OHMM     1.25                 : RMC          - RESISTIVITY OF MUD CAKE     
RMF .OHMM     2.74                 : RMF          - RESISTIVITY OF MUD FILTRATE 
SUFT.C        -17.7778             : SUFT         - SURFACE TEMPERATURE         
~A  DEPTH     PHID     PHIN       GR      CAL     RESD
# ...
  475.336    0.292    0.469   56.959  149.478    3.076
  475.586    0.289    0.474   58.976  149.529    3.090
  475.836    0.300    0.455   60.005  149.559    3.099
  476.086    0.312    0.445   56.660  149.703    3.106
  476.336    0.326    0.452   57.058  149.749    3.090
  476.586    0.345    0.461   58.515  149.899    3.077
  476.836    0.320    0.463   59.661  149.830    3.076
  477.086    0.308    0.475   60.559  149.755    3.061
  477.336    0.302    0.482   61.266  149.817    3.047
  477.586    0.299    0.474   61.356  149.951    3.044
  477.836    0.297    0.468   60.937  150.210    3.038
  478.086    0.294    0.477   60.654  150.154    3.040
  478.336    0.316    0.481   60.680  150.293    3.050
  478.586    0.323    0.478   61.080  150.216    3.057
  478.836    0.325    0.472   61.607  150.270    3.068
  479.086    0.311    0.469   62.251  150.207    3.116
  479.336    0.301    0.478   63.153  150.450    3.152
  479.586    0.307    0.470   63.864  150.384    3.184
  479.836    0.324    0.468   61.888  150.645    3.217
  480.086    0.315    0.465   59.918  151.005    3.237
  480.336    0.318    0.459   59.560  151.052    3.268
  480.586    0.325    0.458   59.652  151.199    3.300
  480.836    0.319    0.455   60.175  151.553    3.319
  481.086    0.316    0.451   61.761  151.914    3.342
  481.336    0.299    0.459   64.093  152.165    3.348
  481.586    0.308    0.464   65.802  152.415    3.375
  481.836    0.297    0.466   67.760  152.562    3.435
  482.086    0.293    0.464   70.032  152.819    3.494
  482.336    0.306    0.449   72.618  153.177    3.562
  482.586    0.300    0.447   75.200  153.318    3.609
  482.836    0.298    0.456   76.969  153.254    3.679
  483.086    0.302    0.452   78.741  153.405    3.749
  483.336    0.298    0.444   80.950  153.026    3.850
  483.586    0.283    0.439   83.409  152.324    3.984
  483.836    0.278    0.444   87.553  151.941    4.097
  484.086    0.296    0.451   85.269  152.301    4.245
  484.336    0.306    0.463   79.112  152.548    4.531
  484.586    0.311    0.481   74.083  152.702    5.017
  484.836    0.293    0.499   68.055  153.062    5.712
  485.086    0.267    0.481   68.705  153.313    6.491
  485.336    0.254    0.455   75.966  153.345    6.238
  485.586    0.243    0.418   81.293  153.278    5.567
  485.836    0.252    0.471   83.874  153.215    5.224
  486.086    0.304    0.501   85.336  153.054    5.138
  486.336    0.285    0.506   87.480  152.555    5.069
  486.586    0.271    0.474   89.440  152.287    5.118
  486.836    0.255    0.454   89.089  152.321    5.205
  487.086    0.249    0.434   86.870  152.587    5.445
  487.336    0.234    0.414   84.895  152.520    5.897
  487.586    0.222    0.382   80.929  152.235    6.471
  487.836    0.187    0.387   79.206  152.074    6.632
  488.086    0.191    0.425   83.224  151.884    6.221
  488.336    0.200    0.439   88.612  151.724    5.373
  488.586    0.210    0.460   91.570  151.978    4.947
  488.836    0.240    0.454   90.783  152.136    4.606
  489.086    0.275    0.447   85.625  152.267    4.242
  489.336    0.261    0.447   81.722  152.207    3.986
  489.586    0.254    0.456   79.560  152.146    3.880
  489.836    0.243    0.449   81.644  151.984    3.891
  490.086    0.238    0.445   87.286  152.013    3.967
  490.336    0.238    0.459   94.860  151.851    4.065
  490.586    0.218    0.477  103.623  151.684    4.203
  490.836    0.210    0.479  103.645  152.146    4.363
  491.086    0.199    0.481  101.550  153.876    4.547
  491.336    0.207    0.491  103.130  155.499    4.679
  491.586    0.219    0.478  107.149  156.392    4.759
  491.836    0.221    0.463  108.415  157.384    4.843
  492.086    0.215    0.470  107.636  158.467    4.909
  492.336    0.210    0.461  106.661  158.938    4.965
  492.586    0.198    0.469  107.374  159.614    5.063
  492.836    0.181    0.476  111.642  160.185    5.129
  493.086    0.205    0.470  116.032  160.861    5.247
  493.336    0.203    0.458  116.927  161.329    5.388
  493.586    0.198    0.444  117.143  161.577    5.512
  493.836    0.199    0.451  117.913  161.611    5.578
  494.086    0.201    0.475  119.997  161.543    5.508
  494.336    0.189    0.480  121.956  161.496    5.275
  494.586    0.181    0.465  120.170  161.517    5.058
  494.836    0.199    0.448  118.200  161.577    4.877
  495.086    0.206    0.469  117.286  161.611    4.635
  495.336    0.201    0.505  118.123  162.081    4.494
  495.586    0.193    0.534  120.642  164.339    4.375
  495.836    0.213    0.541  122.663  164.275    4.323
  496.086    0.228    0.523  122.190  162.724    4.286
  496.336    0.217    0.519  121.029  164.668    4.270
  496.586    0.199    0.509  117.682  167.038    4.259
  496.836    0.207    0.487  116.580  166.227    4.275
  497.086    0.178    0.480  116.610  165.222    4.287
  497.336    0.159    0.484  118.505  164.631    4.300
  497.586    0.184    0.464  120.650  164.564    4.307
  497.836    0.200    0.467  123.046  164.706    4.319
  498.086    0.183    0.472  121.322  164.948    4.306
  498.336    0.170    0.475  116.354  164.790    4.326
  498.586    0.146    0.488  111.139  164.299    4.350
  498.836    0.172    0.500  111.352  163.598    4.418
  499.086    0.151    0.488  110.439  162.595    4.502
  499.336    0.151    0.485  108.593  160.207    4.650
  499.586    0.168    0.484  107.180  157.068    4.783
  499.836    0.191    0.474  103.649  154.476    4.992
  500.086    0.216    0.462   97.618  152.389    5.271
  500.336    0.236    0.437   89.783  151.910    5.481
  500.586    0.222    0.422   81.820  151.737    5.650
  500.836    0.175    0.371   79.410  151.472    5.593
  501.086    0.151    0.391   84.736  150.976    5.472
  501.336    0.165    0.451   90.625  150.596    5.114
  501.586    0.192    0.482   95.952  150.198    4.914
  501.836    0.206    0.469  102.159  149.722    4.881
  502.086    0.227    0.454  108.423  149.347    4.883
  502.336    0.233    0.448  103.951  148.967    5.013
  502.586    0.191    0.432   99.235  148.581    5.351
  502.836    0.188    0.424   94.767  148.085    5.851
  503.086    0.189    0.434   88.490  147.817    6.361
  503.336    0.159    0.397   77.532  147.753    6.901
  503.586    0.138    0.373   81.549  147.581    7.407
  503.836    0.167    0.388   91.496  147.411    7.371
  504.086    0.171    0.374   97.010  147.460    6.448
  504.336    0.181    0.371  102.590  147.502    5.680
  504.586    0.196    0.394  110.413  147.849    4.995
  504.836    0.200    0.429  110.180  148.734    4.678
  505.086    0.178    0.452  108.712  149.835    4.528
  505.336    0.176    0.463  114.418  151.262    4.464
  505.586    0.183    0.473  111.505  155.530    4.451
  505.836    0.192    0.484  106.791  164.231    4.497
  506.086    0.204    0.472  102.695  164.700    4.533
  506.336    0.212    0.436   92.238  157.343    4.543
  506.586    0.185    0.392   83.026  155.475    4.536
  506.836    0.232    0.446   78.495  154.984    4.539
  507.086    0.270    0.488   82.264  154.914    4.541
  507.336    0.230    0.491   87.465  154.754    4.555
  507.586    0.238    0.456   92.171  155.642    4.597
  507.836    0.250    0.448   97.126  157.057    4.644
  508.086    0.231    0.486  101.704  158.689    4.688
  508.336    0.211    0.517  105.162  161.472    4.779
  508.586    0.219    0.524  108.117  163.312    4.934
  508.836    0.226    0.525  111.258  159.023    5.047
  509.086    0.236    0.524  112.409  153.667    4.934
  509.336    0.227    0.514  107.131  154.342    4.819
  509.586    0.237    0.496  104.161  157.138    4.732
  509.836    0.241    0.512  106.057  161.509    4.640
  510.086    0.243    0.519  109.881  165.883    4.551
  510.336    0.249    0.533  110.284  170.565    4.486
  510.586    0.244    0.544  106.565  174.414    4.392
  510.836    0.263    0.474  100.414  177.422    4.328
  511.086    0.248    0.452   95.883  157.915    4.255
  511.336    0.197    0.452   97.463  160.062    4.202
  511.586    0.206    0.471  101.295  167.820    4.180
