~VERSION INFORMATION
 VERS.                 2.0:   CWLS LOG ASCII STANDARD -VERSION 2.0
 WRAP.                  NO:   ONE LINE PER DEPTH STEP
~WELL INFORMATION BLOCK
#MNEM.UNIT           DATA                    DESCRIPTION OF MNEMONIC
#---------    -------------------            -------------------------------
# Generated from Intellog Unique Number	CS_71_72/WELL/844
WELL.         AEC IPIATIK KIRBY              : Well_name    - WELL
LOC .         00/09-24-071-06W4/0            : Location     - LOCATION
UWI .         00/09-24-071-06W4/0            : Uwi          - UNIQUE WELL ID
ENTR.         SP                             : Entered      - ENTERED BY
SRVC.         SCHLUMBERGER                   : Scn          - SERVICE COMPANY
STRT.M        315                            : top_depth    - START DEPTH
STOP.M        550                            : bot_depth    - STOP DEPTH
STEP.M        0.25                           : increment    - STEP LENGTH
 NULL. -999.2500:NULL Value
~CURVE INFORMATION BLOCK
#MNEM UNIT       ERCB CURVE CODE    CURVE DESCRIPTION
#-----------   ------------------   ----------------------------------
DEPT.M        00 001 00 00         : DEPTH        - DEPTH
ILD .OHMM     00 120 00 00         : RESD         - DEEP RESISTIVITY (DIL)
DPHI.V/V      00 890 00 00         : PHID         - DENSITY POROSITY (LIMESTONE)
NPHI.V/V      00 330 00 00         : PHIN         - NEUTRON POROSITY (LIMESTONE)
GR  .API      00 310 00 00         : GR           - GAMMA RAY
~PARAMETER INFORMATION
#MNEM.UNIT           DATA             DESCRIPTION OF MNEMONIC
#---------         -----------     ------------------------------
GL  .M        676.91               : gl           - GROUND LEVEL ELEVATION
EREF.M        681.65               : kb           - ELEVATION OF DEPTH REFERENCE
DATM.M        676.91               : datum        - DATUM ELEVATION
TDD .M        572                  : tdd          - TOTAL DEPTH DRILLER
RUN .         ONE                  : Run          - RUN NUMBER
ENG .         BILL                 : Engineer     - RECORDING ENGINEER
WIT .         JIM                  : Witness      - WITNESSED BY
MUD .         GEL                  : Mud_type     - MUD TYPE
MATR.         LIMESTONE            : Logunit      - NEUTRON MATRIX
TMAX.C        15                   : BHT          - MAXIMUM RECORDED TEMPERATURE
BHTD.M        572                  : BHTDEP       - MAXIMUM RECORDED TEMPERATURE
MATR.         1                    : LOGUNIT      - NEUTRON MATRIX
RMT .C        25                   : MDTP         - TEMPERATURE OF MUD
NEUT.         1                    : NEUTRON      - NEUTRON TYPE
RESI.         0                    : RESIST       - RESISTIVITY TYPE
RMC .OHMM     0.25                 : RMC          - RESISTIVITY OF MUD CAKE
RMF .OHMM     0.25                 : RMF          - RESISTIVITY OF MUD FILTRATE
SUFT.C        15                   : SUFT         - SURFACE TEMPERATURE
~A  DEPTH     RESD     PHID     PHIN       GR
  315.000    3.319    0.214    0.487  105.507
  315.250    3.390    0.207    0.480  109.405
  315.500    3.424    0.217    0.497  108.508
  315.750    3.394    0.225    0.518  104.878
  316.000    3.365    0.225    0.527  105.985
  316.250    3.359    0.218    0.501  109.761
  316.500    3.405    0.211    0.497  110.381
  316.750    3.686    0.199    0.506  103.171
  317.000    3.864    0.178    0.452   97.053
  317.250    3.947    0.164    0.452   95.548
  317.500    3.949    0.181    0.470   98.353
  317.750    3.863    0.204    0.479  102.009
  318.000    3.668    0.212    0.477  101.961
  318.250    3.456    0.219    0.496  100.884
  318.500    3.282    0.235    0.514  104.600
  318.750    3.175    0.236    0.529  108.132
  319.000    3.094    0.223    0.513  109.602
  319.250    3.073    0.223    0.498  108.948
  319.500    3.144    0.235    0.486  106.047
  319.750    3.297    0.242    0.491  101.932
  320.000    3.249    0.244    0.497  102.370
  320.250    3.257    0.232    0.494  106.754
  320.500    3.290    0.217    0.495  107.497
  320.750    3.347    0.207    0.515  108.178
  321.000    3.444    0.217    0.514  106.612
  321.250    3.591    0.226    0.500  102.558
  321.500    3.702    0.219    0.493  100.688
  321.750    3.788    0.211    0.487  106.409
  322.000    3.706    0.218    0.473  110.307
  322.250    3.619    0.225    0.455  106.799
  322.500    3.507    0.231    0.446  100.802
  322.750    3.489    0.209    0.479   99.722
  323.000    3.943    0.210    0.496   96.943
  323.250    5.899    0.215    0.503   92.403
  323.500    9.602    0.204    0.492   85.436
  323.750   24.217    0.219    0.414   77.860
  324.000   47.352    0.284    0.134   39.811
  324.250   61.802    0.366    0.108   30.961
  324.500   71.285    0.388    0.100   27.817
  324.750   70.526    0.384    0.103   26.312
  325.000   48.805    0.374    0.113   25.659
  325.250   38.644    0.363    0.144   27.007
  325.500   29.146    0.355    0.181   28.962
  325.750   22.439    0.347    0.362   32.010
  326.000   17.244    0.349    0.404   47.261
  326.250   13.834    0.424    0.438   60.812
  326.500   11.718    0.421    0.510   71.023
  326.750   10.537    0.398    0.453   77.047
  327.000    9.967    0.247    0.375   78.457
  327.250    9.861    0.244    0.367   77.437
  327.500    9.997    0.250    0.365   74.839
  327.750   10.191    0.251    0.361   70.058
  328.000   10.292    0.246    0.359   71.041
  328.250   10.453    0.237    0.372   70.994
  328.500   10.500    0.254    0.382   67.729
  328.750   10.445    0.263    0.388   65.314
  329.000   10.314    0.268    0.394   72.976
  329.250   10.034    0.270    0.399   82.823
  329.500    9.670    0.248    0.407   93.217
  329.750    9.302    0.218    0.414  100.515
  330.000    9.100    0.204    0.415  102.106
  330.250    9.208    0.209    0.401   97.506
  330.500    9.800    0.213    0.390   93.816
  330.750   10.141    0.224    0.402   92.009
  331.000   10.733    0.244    0.416   92.385
  331.250   11.211    0.262    0.418   91.185
  331.500   11.428    0.281    0.413   89.498
  331.750   11.607    0.278    0.429   88.600
  332.000   11.700    0.270    0.441   89.767
  332.250   11.750    0.291    0.441   94.272
  332.500   11.712    0.302    0.427   99.505
  332.750   11.501    0.292    0.423  100.249
  333.000   11.168    0.290    0.409   96.983
  333.250   10.643    0.286    0.398   97.542
  333.500   10.200    0.264    0.396  100.226
  333.750    9.702    0.240    0.388   97.751
  334.000    9.075    0.218    0.380   94.669
  334.250    8.812    0.199    0.392   95.471
  334.500    8.950    0.193    0.406  100.036
  334.750    9.244    0.226    0.401  102.720
  335.000    9.512    0.259    0.408   99.819
  335.250    9.751    0.284    0.423  103.900
  335.500    9.885    0.289    0.437  106.948
  335.750    9.707    0.293    0.438  109.999
  336.000    9.268    0.292    0.427  111.528
  336.250    8.800    0.281    0.433  112.997
  336.500    8.215    0.197    0.443  113.982
  336.750    7.388    0.085    0.439  106.711
  337.000    6.557    0.064    0.447  101.078
  337.250    5.820    0.105    0.443  107.223
  337.500    5.283    0.167    0.450  117.919
  337.750    4.877    0.196    0.469  123.517
  338.000    4.570    0.208    0.490  124.805
  338.250    4.307    0.203    0.505  125.304
  338.500    4.013    0.198    0.515  128.234
  338.750    3.761    0.196    0.524  129.460
  339.000    3.491    0.209    0.533  127.529
  339.250    3.315    0.226    0.518  130.577
  339.500    3.219    0.239    0.510  128.526
  339.750    3.344    0.228    0.517  122.713
  340.000    3.660    0.229    0.547  119.386
  340.250    4.269    0.243    0.532  114.544
  340.500    5.017    0.262    0.491  103.568
  340.750    6.064    0.276    0.440   94.718
  341.000    6.750    0.272    0.415   86.597
  341.250    7.279    0.257    0.418   82.968
  341.500    7.575    0.239    0.424   86.563
  341.750    7.565    0.229    0.404   92.404
  342.000    7.540    0.237    0.387   98.063
  342.250    7.644    0.262    0.414  102.083
  342.500    8.059    0.284    0.440  104.887
  342.750    8.626    0.296    0.437  106.783
  343.000    9.162    0.279    0.420  105.036
  343.250    9.788    0.267    0.401   94.546
  343.500   10.339    0.271    0.386   81.508
  343.750   10.446    0.286    0.380   74.175
  344.000   10.447    0.303    0.377   68.603
  344.250   10.164    0.310    0.378   69.953
  344.500   10.094    0.296    0.398   76.158
  344.750   10.117    0.288    0.417   80.481
  345.000   10.142    0.300    0.416   74.061
  345.250   10.185    0.321    0.402   63.995
  345.500   10.191    0.331    0.412   63.523
  345.750   10.140    0.320    0.428   68.150
  346.000   10.125    0.314    0.423   71.259
  346.250   10.074    0.318    0.413   72.971
  346.500   10.006    0.319    0.404   69.890
  346.750   10.009    0.314    0.400   66.747
  347.000   10.090    0.316    0.397   65.179
  347.250   10.229    0.325    0.401   63.736
  347.500   10.388    0.333    0.408   62.838
  347.750   10.511    0.339    0.402   65.038
  348.000   10.595    0.328    0.412   68.695
  348.250   10.601    0.314    0.421   72.349
  348.500   10.547    0.299    0.414   76.919
  348.750   10.415    0.289    0.405   79.660
  349.000   10.286    0.280    0.402   83.316
  349.250   10.214    0.265    0.405   86.060
  349.500    9.536    0.250    0.408   89.412
  349.750    9.541    0.244    0.409   91.792
  350.000    9.617    0.245    0.402   87.070
  350.250    9.787    0.251    0.407   82.773
  350.500   10.051    0.234    0.422   80.176
  350.750   10.617    0.211    0.436   79.096
  351.000   11.236    0.208    0.447   78.502
  351.250   11.693    0.237    0.455   81.127
  351.500   12.033    0.259    0.462   85.450
  351.750   12.152    0.275    0.453   86.190
  352.000   12.090    0.289    0.438   82.804
  352.250   11.872    0.271    0.428   84.881
  352.500   11.506    0.262    0.427   88.356
  352.750   11.069    0.268    0.444   90.128
  353.000   10.509    0.267    0.460   89.049
  353.250    9.830    0.258    0.469   90.641
  353.500    9.263    0.253    0.450   92.475
  353.750    8.844    0.250    0.435   94.430
  354.000    8.540    0.246    0.432   96.082
  354.250    8.355    0.245    0.459   99.131
  354.500    8.374    0.257    0.475   98.234
  354.750    8.489    0.271    0.461   93.816
  355.000    8.704    0.288    0.430   90.127
  355.250    8.906    0.298    0.430   89.956
  355.500    8.944    0.272    0.442   95.554
  355.750    8.701    0.248    0.444  101.456
  356.000    8.307    0.227    0.448  106.083
  356.250    7.917    0.214    0.456  110.712
  356.500    7.531    0.192    0.450  113.697
  356.750    7.271    0.212    0.439  114.864
  357.000    6.930    0.230    0.441  111.903
  357.250    6.742    0.224    0.461  108.576
  357.500    6.558    0.211    0.475  104.948
  357.750    6.464    0.210    0.469  102.835
  358.000    6.360    0.205    0.462  102.059
  358.250    6.316    0.201    0.485  105.171
