~VERSION INFORMATION
 VERS.                 2.0:   CWLS LOG ASCII STANDARD -VERSION 2.0
 WRAP.                  NO:   ONE LINE PER DEPTH STEP
~WELL INFORMATION BLOCK
#MNEM.UNIT           DATA                    DESCRIPTION OF MNEMONIC
#---------    -------------------            -------------------------------
# Generated from Intellog Unique Number	CS_77_79/WELL/843
WELL.         CANADIAN WORLDWIDE ENERGY      : Well_name    - WELL
LOC .         00/03-01-077-05W4/0            : Location     - LOCATION
UWI .         00/03-01-077-05W4/0            : Uwi          - UNIQUE WELL ID
ENTR.         SP                             : Entered      - ENTERED BY
SRVC.         SCHLUMBERGER                   : Scn          - SERVICE COMPANY
STRT.M        150                            : top_depth    - START DEPTH
STOP.M        405                            : bot_depth    - STOP DEPTH
STEP.M        0.25                           : increment    - STEP LENGTH
 NULL. -999.2500:NULL Value
~CURVE INFORMATION BLOCK
#MNEM UNIT       ERCB CURVE CODE    CURVE DESCRIPTION
#-----------   ------------------   ----------------------------------
DEPT.M        00 001 00 00         : DEPTH        - DEPTH
ILD .OHMM     00 120 00 00         : RESD         - DEEP RESISTIVITY (DIL)
DPHI.V/V      00 890 00 00         : PHID         - DENSITY POROSITY (SANDSTONE)
NPHI.V/V      00 330 00 00         : PHIN         - NEUTRON POROSITY (SANDSTONE)
GR  .API      00 310 00 00         : GR           - GAMMA RAY
~PARAMETER INFORMATION
#MNEM.UNIT           DATA             DESCRIPTION OF MNEMONIC
#---------         -----------     ------------------------------
GL  .M        571.1                : gl           - GROUND LEVEL ELEVATION
EREF.M        574.9                : kb           - ELEVATION OF DEPTH REFERENCE
DATM.M        571.1                : datum        - DATUM ELEVATION
TDD .M        405.5                : tdd          - TOTAL DEPTH DRILLER
RUN .         ONE                  : Run          - RUN NUMBER
ENG .         BILL                 : Engineer     - RECORDING ENGINEER
WIT .         JIM                  : Witness      - WITNESSED BY
MUD .         GEL                  : Mud_type     - MUD TYPE
MATR.         SANDSTONE            : Logunit      - NEUTRON MATRIX
TMAX.C        21                   : BHT          - MAXIMUM RECORDED TEMPERATURE
BHTD.M        431                  : BHTDEP       - MAXIMUM RECORDED TEMPERATURE
MATR.         1                    : LOGUNIT      - NEUTRON MATRIX
RMT .C        25                   : MDTP         - TEMPERATURE OF MUD
NEUT.         1                    : NEUTRON      - NEUTRON TYPE
RESI.         0                    : RESIST       - RESISTIVITY TYPE
RMC .OHMM     0.25                 : RMC          - RESISTIVITY OF MUD CAKE
RMF .OHMM     0.25                 : RMF          - RESISTIVITY OF MUD FILTRATE
SUFT.C        15                   : SUFT         - SURFACE TEMPERATURE
~A  DEPTH     RESD     PHID     PHIN       GR
# ...
  193.500   25.794    0.312    0.350   84.727
  193.750   24.393    0.286    0.363   85.365
  194.000   23.948    0.283    0.377   82.894
  194.250   23.079    0.292    0.389   81.661
  194.500   22.668    0.294    0.379   85.419
  194.750   22.679    0.287    0.378   88.541
  195.000   22.271    0.287    0.381   96.023
  195.250   22.287    0.292    0.376  101.641
  195.500   22.733    0.292    0.352  101.030
  195.750   23.183    0.278    0.336   92.952
  196.000   24.097    0.271    0.336   78.028
  196.250   25.525    0.268    0.338   53.769
  196.500   26.022    0.290    0.342   46.938
  196.750   28.093    0.330    0.357   43.218
  197.000   29.750    0.341    0.379   52.570
  197.250   30.930    0.327    0.389   61.919
  197.500   30.365    0.321    0.388   61.940
  197.750   29.820    0.331    0.349   61.330
  198.000   27.666    0.342    0.347   76.901
  198.250   25.188    0.334    0.353   88.742
  198.500   23.369    0.297    0.359   89.379
  198.750   22.517    0.243    0.364   78.815
  199.000   22.534    0.255    0.372   66.380
  199.250   22.983    0.272    0.374   55.820
  199.500   24.343    0.287    0.360   50.855
  199.750   25.783    0.304    0.351   48.375
  200.000   27.831    0.315    0.355   60.840
  200.250   29.476    0.308    0.356   62.721
  200.500   29.497    0.319    0.355   60.868
  200.750   26.862    0.323    0.358   67.733
  201.000   25.389    0.303    0.362   78.323
  201.250   23.115    0.283    0.370   83.940
  201.500   21.041    0.262    0.373   87.069
  201.750   19.522    0.248    0.377   86.465
  202.000   19.169    0.256    0.378   83.364
  202.250   20.310    0.271    0.378   82.141
  202.500   20.709    0.284    0.374   82.776
  202.750   21.937    0.293    0.366   84.030
  203.000   22.369    0.280    0.357   86.532
  203.250   22.389    0.273    0.348   87.170
  203.500   21.982    0.279    0.347   82.831
  203.750   21.184    0.296    0.360   83.467
  204.000   20.409    0.304    0.370   89.086
  204.250   18.937    0.312    0.374   94.704
  204.500   17.572    0.294    0.368   97.826
  204.750   16.927    0.274    0.358  102.198
  205.000   15.707    0.248    0.354  104.703
  205.250   14.573    0.256    0.360  103.471
  205.500   13.520    0.255    0.377  107.842
  205.750   12.310    0.234    0.398  117.195
  206.000   11.858    0.212    0.395  123.434
  206.250   10.798    0.212    0.391  120.962
  206.500   10.402    0.217    0.430  117.859
  206.750   10.024    0.218    0.449  121.612
  207.000    9.844    0.223    0.477  121.009
  207.250    9.852    0.225    0.456  120.395
  207.500   10.045    0.224    0.440  118.542
  207.750   10.441    0.242    0.439  115.447
  208.000   11.271    0.256    0.434  109.860
  208.250   12.167    0.268    0.418  104.270
  208.500   12.888    0.276    0.384   96.818
  208.750   13.651    0.271    0.373   94.963
  209.000   14.460    0.264    0.367  102.447
  209.250   14.744    0.268    0.364  103.711
  209.500   15.036    0.273    0.362   99.992
  209.750   15.045    0.277    0.363   96.895
  210.000   15.353    0.270    0.364  100.020
  210.250   15.363    0.252    0.368  105.010
  210.500   15.667    0.237    0.369   91.336
  210.750   15.676    0.212    0.369   82.017
  211.000   15.985    0.276    0.375   77.047
  211.250   17.255    0.292    0.385   62.746
  211.500   18.280    0.319    0.407   48.446
  211.750   18.636    0.337    0.418   55.930
  212.000   18.653    0.327    0.400   67.769
  212.250   18.317    0.287    0.382   79.611
  212.500   18.334    0.269    0.380   68.426
  212.750   17.997    0.293    0.379   63.461
  213.000   17.673    0.308    0.361   60.362
  213.250   16.090    0.301    0.356   76.557
  213.500   13.075    0.287    0.380   97.114
  213.750   11.247    0.271    0.408  105.842
  214.000   10.238    0.287    0.435  107.099
  214.250   10.845    0.298    0.440  100.891
  214.500   11.930    0.304    0.434   92.819
  214.750   13.373    0.307    0.414   89.716
  215.000   15.280    0.319    0.360   83.510
  215.250   16.809    0.306    0.361   87.263
  215.500   16.509    0.289    0.362   90.383
  215.750   15.609    0.273    0.361   97.244
  216.000   15.041    0.263    0.354   95.393
  216.250   14.766    0.261    0.361   97.276
  216.500   14.230    0.257    0.378   96.666
  216.750   14.511    0.252    0.393   87.347
  217.000   15.080    0.260    0.407   76.780
  217.250   16.279    0.276    0.412   67.459
  217.500   17.575    0.294    0.396   61.873
  217.750   18.612    0.306    0.364   60.021
  218.000   20.094    0.320    0.357   59.413
  218.250   21.282    0.332    0.354   57.564
  218.500   21.704    0.342    0.355   56.952
  218.750   21.317    0.347    0.361   55.099
  219.000   20.931    0.346    0.379   51.383
  219.250   20.165    0.349    0.403   56.377
  219.500   19.803    0.348    0.425   61.372
  219.750   19.820    0.344    0.417   62.632
  220.000   19.833    0.340    0.393   62.643
  220.250   19.845    0.346    0.399   62.037
  220.500   19.858    0.351    0.409   63.917
  220.750   19.884    0.357    0.425   66.424
  221.000   19.895    0.357    0.442   67.685
  221.250   19.904    0.353    0.440   68.316
  221.500   20.306    0.352    0.425   67.088
  221.750   20.316    0.351    0.408   61.502
  222.000   20.326    0.350    0.393   62.761
  222.250   20.346    0.348    0.395   64.020
  222.500   20.358    0.348    0.395   62.791
  222.750   19.997    0.357    0.394   59.069
  223.000   19.642    0.374    0.403   58.465
  223.250   22.855    0.394    0.422   59.106
  223.500   23.308    0.410    0.425   59.117
  223.750   23.776    0.395    0.412   59.129
  224.000   23.348    0.385    0.402   59.145
  224.250   23.362    0.362    0.392   59.160
  224.500   23.379    0.333    0.386   59.796
  224.750   22.959    0.339    0.390   59.809
  225.000   22.122    0.333    0.391   59.201
  225.250   21.318    0.322    0.386   57.354
  225.500   20.536    0.313    0.382   56.120
  225.750   19.794    0.319    0.374   62.361
  226.000   19.434    0.339    0.366   64.864
  226.250   19.088    0.348    0.378   59.900
  226.500   19.097    0.349    0.394   55.557
  226.750   19.110    0.345    0.398   53.703
  227.000   19.126    0.352    0.398   59.943
  227.250   19.508    0.355    0.401   61.826
  227.500   20.276    0.346    0.403   61.219
  227.750   20.672    0.350    0.399   59.366
  228.000   21.083    0.362    0.392   58.758
  228.250   21.500    0.360    0.368   59.393
  228.500   21.932    0.353    0.358   63.145
  228.750   22.368    0.346    0.358   66.278
  229.000   22.381    0.346    0.369   66.909
  229.250   22.400    0.351    0.379   65.054
  229.500   21.992    0.349    0.388   58.846
  229.750   22.017    0.344    0.391   58.866
  230.000   22.027    0.340    0.395   59.498
  230.250   22.040    0.347    0.404   60.762
  230.500   22.061    0.357    0.407   60.775
  230.750   22.074    0.368    0.399   55.810
  231.000   22.095    0.354    0.389   57.071
  231.250   22.106    0.353    0.384   62.685
  231.500   22.123    0.360    0.380   64.567
  231.750   21.728    0.354    0.382   62.715
  232.000   21.739    0.348    0.386   61.482
  232.250   21.353    0.343    0.387   61.497
  232.500   20.962    0.339    0.395   62.137
  232.750   20.590    0.344    0.409   62.149
  233.000   20.599    0.349    0.417   62.175
  233.250   20.620    0.362    0.417   62.809
  233.500   20.630    0.369    0.412   64.063
  233.750   20.269    0.361    0.433   67.190
  234.000   19.902    0.352    0.451   73.430
  234.250   19.544    0.349    0.458   78.422
  234.500   19.193    0.347    0.458   85.281
  234.750   18.845    0.346    0.455   87.163
  235.000   18.854    0.346    0.463   77.841
  235.250   18.863    0.346    0.462   71.012
  235.500   18.877    0.348    0.455   66.669
  235.750   19.255    0.352    0.436   66.685
  236.000   19.638    0.345    0.424   71.058
  236.250   20.024    0.340    0.417   72.314
  236.500   21.212    0.330    0.412   66.728
  236.750   22.042    0.321    0.401   60.522
