~VERSION INFORMATION
 VERS.                 2.0:   CWLS LOG ASCII STANDARD -VERSION 2.0
 WRAP.                  NO:   ONE LINE PER DEPTH STEP
~WELL INFORMATION BLOCK
#MNEM.UNIT           DATA                    DESCRIPTION OF MNEMONIC
#---------    -------------------            -------------------------------
# Generated from Intellog Unique Number	CS_77_79/WELL/851
WELL.         BOW VALLEY INDUSTRIES LTD      : Well_name    - WELL
LOC .         00/04-26-077-15W4/0            : Location     - LOCATION
UWI .         00/04-26-077-15W4/0            : Uwi          - UNIQUE WELL ID
ENTR.         SP                             : Entered      - ENTERED BY
SRVC.         SCHLUMBERGER                   : Scn          - SERVICE COMPANY
STRT.M        270                            : top_depth    - START DEPTH
STOP.M        515                            : bot_depth    - STOP DEPTH
STEP.M        0.25                           : increment    - STEP LENGTH
 NULL. -999.2500:NULL Value
~CURVE INFORMATION BLOCK
#MNEM UNIT       ERCB CURVE CODE    CURVE DESCRIPTION
#-----------   ------------------   ----------------------------------
DEPT.M        00 001 00 00         : DEPTH        - DEPTH
ILD .OHMM     00 120 00 00         : RESD         - DEEP RESISTIVITY (DIL)
DPHI.V/V      00 890 00 00         : PHID         - DENSITY POROSITY (LIMESTONE)
NPHI.V/V      00 330 00 00         : PHIN         - NEUTRON POROSITY (LIMESTONE)
GR  .API      00 310 00 00         : GR           - GAMMA RAY
~PARAMETER INFORMATION
#MNEM.UNIT           DATA             DESCRIPTION OF MNEMONIC
#---------         -----------     ------------------------------
GL  .M        662.4                : gl           - GROUND LEVEL ELEVATION
EREF.M        665.7                : kb           - ELEVATION OF DEPTH REFERENCE
DATM.M        662.4                : datum        - DATUM ELEVATION
TDD .M        524.6                : tdd          - TOTAL DEPTH DRILLER
RUN .         ONE                  : Run          - RUN NUMBER
ENG .         BILL                 : Engineer     - RECORDING ENGINEER
WIT .         JIM                  : Witness      - WITNESSED BY
MUD .         GEL                  : Mud_type     - MUD TYPE
MATR.         LIMESTONE            : Logunit      - NEUTRON MATRIX
TMAX.C        26.1                 : BHT          - MAXIMUM RECORDED TEMPERATURE
BHTD.M        524.6                : BHTDEP       - MAXIMUM RECORDED TEMPERATURE
MATR.         1                    : LOGUNIT      - NEUTRON MATRIX
RMT .C        25                   : MDTP         - TEMPERATURE OF MUD
NEUT.         1                    : NEUTRON      - NEUTRON TYPE
RESI.         0                    : RESIST       - RESISTIVITY TYPE
RMC .OHMM     0.25                 : RMC          - RESISTIVITY OF MUD CAKE
RMF .OHMM     0.25                 : RMF          - RESISTIVITY OF MUD FILTRATE
SUFT.C        15                   : SUFT         - SURFACE TEMPERATURE
~A  DEPTH     RESD     PHID     PHIN       GR
  270.000    3.682    0.273    0.569  103.662
  270.250    3.614    0.273    0.575  105.496
  270.500    3.615    0.282    0.577  106.110
  270.750    3.548    0.281    0.571  107.946
  271.000    3.549    0.278    0.549  107.950
  271.250    3.549    0.271    0.558  107.342
  271.500    3.550    0.268    0.570  103.690
  271.750    3.617    0.264    0.579  102.473
  272.000    3.685    0.255    0.573  101.259
  272.250    3.755    0.248    0.558  103.093
  272.500    3.826    0.248    0.541  105.535
  272.750    3.898    0.258    0.541  108.590
  273.000    3.972    0.262    0.539  107.374
  273.250    4.123    0.267    0.527  105.549
  273.500    4.280    0.267    0.525  103.724
  273.750    4.202    0.255    0.536  102.511
  274.000    4.125    0.248    0.555  102.514
  274.250    4.049    0.256    0.576  103.128
  274.500    3.901    0.265    0.585  106.181
  274.750    3.830    0.266    0.582  107.406
  275.000    3.690    0.263    0.584  107.411
  275.250    3.831    0.266    0.588  107.414
  275.500    3.903    0.272    0.538  104.979
  275.750    3.977    0.265    0.545  104.374
  276.000    4.128    0.267    0.516  105.600
  276.250    4.129    0.253    0.513  104.384
  276.500    4.207    0.239    0.505  101.339
  276.750    4.367    0.223    0.504   99.514
  277.000    4.450    0.211    0.508   97.080
  277.250    4.534    0.204    0.496   98.915
  277.500    4.619    0.205    0.488  100.138
  277.750    4.451    0.214    0.502  103.801
  278.000    4.620    0.220    0.498  107.464
  278.250    4.796    0.239    0.491  110.517
  278.500    5.072    0.248    0.500  112.961
  278.750    5.568    0.240    0.514  112.964
  279.000    6.112    0.246    0.522  111.750
  279.250    6.963    0.262    0.520  108.096
  279.500    8.708    0.278    0.514  103.221
  279.750    9.921    0.300    0.469   92.859
  280.000   11.304    0.324    0.394   83.108
  280.250   10.892    0.344    0.384   79.453
  280.500   10.111    0.304    0.400   81.287
  280.750    9.743    0.279    0.406   90.439
  281.000    9.214    0.274    0.417   95.322
  281.250    8.715    0.263    0.423   97.765
  281.500    8.090    0.255    0.435   98.380
  281.750    7.652    0.240    0.445   98.383
  282.000    7.373    0.229    0.462   98.389
  282.250    7.237    0.235    0.482   99.002
  282.500    7.798    0.234    0.497  100.229
  282.750    8.247    0.243    0.495  100.231
  283.000    9.573    0.258    0.459   96.576
  283.250   10.705    0.269    0.442   88.044
  283.500   11.322    0.279    0.436   80.731
  283.750   11.974    0.286    0.437   74.029
  284.000   11.975    0.284    0.430   71.594
  284.250   11.976    0.261    0.426   70.989
  284.500   11.540    0.238    0.440   74.043
  284.750   11.328    0.239    0.461   81.363
  285.000   10.915    0.259    0.476   86.246
  285.250   10.518    0.287    0.461   89.299
  285.500   10.519    0.315    0.455   94.181
  285.750   10.718    0.328    0.451   97.845
  286.000   10.921    0.321    0.452   98.459
  286.250   11.127    0.309    0.448   94.805
  286.500   11.337    0.298    0.447   89.932
  286.750   11.552    0.314    0.440   88.106
  287.000   11.770    0.330    0.438   85.671
  287.250   11.993    0.340    0.442   86.287
  287.500   11.994    0.337    0.442   90.559
  287.750   11.774    0.314    0.436   96.660
  288.000   11.776    0.297    0.434   99.105
  288.250   11.776    0.302    0.438   98.501
  288.500   11.561    0.304    0.441   97.284
  288.750   11.562    0.297    0.452   92.413
  289.000   11.780    0.304    0.454   91.197
  289.250   11.782    0.322    0.450   89.981
  289.500   11.784    0.334    0.455   89.375
  289.750   11.785    0.323    0.448   88.771
  290.000   12.007    0.317    0.448   87.555
  290.250   11.788    0.317    0.446   84.510
  290.500   11.789    0.315    0.439   77.197
  290.750   11.573    0.315    0.426   64.397
  291.000   11.360    0.337    0.418   58.913
  291.250   10.947    0.350    0.410   55.868
  291.500   10.745    0.356    0.408   57.702
  291.750   10.354    0.339    0.420   61.975
  292.000   10.164    0.316    0.438   66.858
  292.250    9.978    0.312    0.451   70.521
  292.500    9.614    0.309    0.439   74.794
  292.750    9.263    0.300    0.436   80.286
  293.000    8.600    0.299    0.444   87.608
  293.250    8.286    0.283    0.447   94.320
  293.500    7.411    0.260    0.443  101.032
  293.750    6.506    0.232    0.455  105.914
  294.000    6.040    0.174    0.488  108.967
  294.250    5.713    0.160    0.501  111.411
  294.500    5.504    0.179    0.495  117.514
  294.750    5.110    0.190    0.500  118.737
  295.000    4.924    0.193    0.509  118.741
  295.250    4.833    0.225    0.513  121.796
  295.500    4.571    0.226    0.524  123.631
  295.750    4.487    0.228    0.548  123.633
  296.000    4.488    0.229    0.566  121.809
  296.250    4.659    0.212    0.554  118.765
  296.500    4.659    0.202    0.535  116.940
  296.750    4.660    0.182    0.529  117.554
  297.000    4.575    0.149    0.521  121.828
  297.250    4.408    0.159    0.519  126.100
  297.500    4.327    0.197    0.526  130.372
  297.750    4.169    0.223    0.553  132.206
  298.000    4.017    0.231    0.569  129.161
  298.250    4.248    0.244    0.553  122.459
  298.500    5.313    0.265    0.519  118.195
  298.750    6.644    0.272    0.501  114.542
  299.000    7.569    0.269    0.485  112.716
  299.250    8.155    0.261    0.467  112.720
  299.500    8.310    0.258    0.457  113.945
  299.750    8.311    0.259    0.449  113.949
  300.000    8.008    0.261    0.443  112.733
  300.250    7.716    0.271    0.441  107.251
  300.500    7.163    0.273    0.438  104.205
  300.750    6.902    0.273    0.439  100.553
  301.000    6.775    0.271    0.440   99.336
  301.250    6.776    0.254    0.447  100.560
  301.500    7.034    0.203    0.455  106.662
  301.750    7.579    0.151    0.468  120.691
  302.000    8.319    0.225    0.489  114.598
  302.250    8.636    0.250    0.479  109.115
  302.500    8.965    0.250    0.447  106.679
  302.750    8.965    0.265    0.432  103.637
  303.000    9.135    0.284    0.432  103.642
  303.250    8.967    0.278    0.444  104.255
  303.500    8.803    0.282    0.453  106.088
  303.750    8.482    0.276    0.461  107.922
  304.000    8.022    0.272    0.461  110.366
  304.250    7.875    0.262    0.464  112.809
  304.500    7.876    0.256    0.473  114.035
  304.750    8.025    0.267    0.479  113.428
  305.000    8.177    0.274    0.474  110.994
  305.250    8.488    0.266    0.473  107.339
  305.500    8.977    0.274    0.470  102.465
  305.750    9.319    0.284    0.469   94.542
  306.000    9.673    0.290    0.473   87.231
  306.250    9.856    0.301    0.473   81.746
  306.500   10.231    0.314    0.475   75.653
  306.750   10.424    0.323    0.468   70.170
  307.000   10.622    0.323    0.464   67.735
  307.250   10.427    0.298    0.456   66.521
  307.500   10.047    0.273    0.456   66.523
  307.750    9.863    0.268    0.462   67.747
  308.000    9.328    0.274    0.470   73.851
  308.250    9.157    0.263    0.465   77.513
  308.500    8.989    0.256    0.458   84.836
  308.750    8.824    0.273    0.465   86.059
  309.000    8.503    0.285    0.457   87.284
  309.250    8.192    0.285    0.452   89.727
  309.500    7.605    0.272    0.462   94.609
  309.750    7.060    0.260    0.459  103.760
  310.000    6.433    0.263    0.448  112.911
  310.250    5.862    0.231    0.457  117.184
  310.500    5.648    0.235    0.471  119.017
  310.750    5.342    0.244    0.479  118.414
  311.000    5.343    0.255    0.494  117.197
  311.250    5.546    0.263    0.516  108.665
  311.500    5.865    0.272    0.518  106.839
  311.750    6.320    0.275    0.504  108.676
  312.000    6.439    0.278    0.495  109.288
  312.250    6.205    0.292    0.492  109.292
  312.500    5.868    0.299    0.487  105.638
  312.750    5.654    0.284    0.478  106.252
  313.000    5.551    0.274    0.478  107.477
  313.250    5.762    0.257    0.488  106.263
