~VERSION INFORMATION
 VERS.                 2.0:   CWLS LOG ASCII STANDARD -VERSION 2.0
 WRAP.                  NO:   ONE LINE PER DEPTH STEP
~WELL INFORMATION BLOCK
#MNEM.UNIT           DATA                    DESCRIPTION OF MNEMONIC
#---------    -------------------            -------------------------------
# Generated from Intellog Unique Number	CS_73_76/WELL/799
WELL.         SULPETRO LIMITED               : Well_name    - WELL
LOC .         00/09-29-073-10W4/0            : Location     - LOCATION
UWI .         00/09-29-073-10W4/0            : Uwi          - UNIQUE WELL ID
ENTR.         SP                             : Entered      - ENTERED BY
SRVC.         SCHLUMBERGER                   : Scn          - SERVICE COMPANY
STRT.M        295                            : top_depth    - START DEPTH
STOP.M        515                            : bot_depth    - STOP DEPTH
STEP.M        0.25                           : increment    - STEP LENGTH
 NULL. -999.2500:NULL Value
~CURVE INFORMATION BLOCK
#MNEM UNIT       ERCB CURVE CODE    CURVE DESCRIPTION
#-----------   ------------------   ----------------------------------
DEPT.M        00 001 00 00         : DEPTH        - DEPTH
ILD .OHMM     00 120 00 00         : RESD         - DEEP RESISTIVITY (DIL)
DPHI.V/V      00 890 00 00         : PHID         - DENSITY POROSITY (LIMESTONE)
NPHI.V/V      00 330 00 00         : PHIN         - NEUTRON POROSITY (LIMESTONE)
GR  .API      00 310 00 00         : GR           - GAMMA RAY
~PARAMETER INFORMATION
#MNEM.UNIT           DATA             DESCRIPTION OF MNEMONIC
#---------         -----------     ------------------------------
GL  .M        557.9                : gl           - GROUND LEVEL ELEVATION
EREF.M        660                  : kb           - ELEVATION OF DEPTH REFERENCE
DATM.M        557.9                : datum        - DATUM ELEVATION
TDD .M        520                  : tdd          - TOTAL DEPTH DRILLER
RUN .         ONE                  : Run          - RUN NUMBER
ENG .         BILL                 : Engineer     - RECORDING ENGINEER
WIT .         JIM                  : Witness      - WITNESSED BY
MUD .         GEL                  : Mud_type     - MUD TYPE
MATR.         LIMESTONE            : Logunit      - NEUTRON MATRIX
TMAX.C        25                   : BHT          - MAXIMUM RECORDED TEMPERATURE
BHTD.M        520                  : BHTDEP       - MAXIMUM RECORDED TEMPERATURE
MATR.         1                    : LOGUNIT      - NEUTRON MATRIX
RMT .C        25                   : MDTP         - TEMPERATURE OF MUD
NEUT.         1                    : NEUTRON      - NEUTRON TYPE
RESI.         0                    : RESIST       - RESISTIVITY TYPE
RMC .OHMM     0.25                 : RMC          - RESISTIVITY OF MUD CAKE
RMF .OHMM     0.25                 : RMF          - RESISTIVITY OF MUD FILTRATE
SUFT.C        15                   : SUFT         - SURFACE TEMPERATURE
~A  DEPTH     RESD     PHID     PHIN       GR
# ...
  425.500    5.577    0.274    0.462  101.829
  425.750    5.374    0.273    0.471  104.235
  426.000    5.084    0.271    0.478  107.244
  426.250    4.721    0.263    0.491  105.433
  426.500    4.465    0.265    0.512  104.827
  426.750    4.466    0.275    0.526  107.836
  427.000    4.635    0.279    0.545  109.640
  427.250    4.902    0.287    0.532  109.034
  427.500    4.994    0.286    0.519  104.813
  427.750    5.184    0.280    0.495   98.184
  428.000    5.282    0.277    0.474   87.940
  428.250    5.282    0.265    0.467   87.334
  428.500    5.186    0.255    0.469   92.752
  428.750    5.186    0.245    0.472  100.579
  429.000    5.092    0.233    0.471  105.996
  429.250    4.998    0.224    0.473  109.006
  429.500    4.999    0.229    0.486  110.811
  429.750    5.000    0.241    0.491  113.819
  430.000    5.189    0.251    0.508  113.214
  430.250    5.387    0.262    0.516  107.787
  430.500    5.803    0.256    0.498  104.772
  430.750    6.023    0.236    0.472  100.553
  431.000    6.137    0.215    0.463   96.934
  431.250    6.253    0.192    0.457   93.920
  431.500    6.371    0.198    0.471   99.939
  431.750    6.371    0.204    0.480  103.550
  432.000    6.372    0.214    0.477  106.558
  432.250    6.256    0.219    0.473  108.363
  432.500    6.256    0.219    0.476  110.166
  432.750    6.142    0.217    0.482  110.766
  433.000    6.030    0.220    0.474  109.558
  433.250    6.031    0.227    0.470  109.555
  433.500    5.921    0.241    0.467  112.563
  433.750    5.921    0.243    0.472  115.570
  434.000    5.813    0.240    0.471  117.375
  434.250    5.707    0.233    0.468  118.577
  434.500    5.602    0.227    0.473  111.343
  434.750    5.500    0.238    0.476  108.931
  435.000    5.501    0.248    0.480  105.314
  435.250    5.301    0.262    0.484  105.310
  435.500    5.302    0.281    0.488  107.716
  435.750    5.205    0.288    0.491  107.111
  436.000    5.110    0.294    0.495  103.492
  436.250    5.110    0.300    0.497  101.079
  436.500    5.111    0.303    0.500  100.474
  436.750    5.018    0.284    0.491  103.483
  437.000    4.926    0.248    0.482  104.684
  437.250    4.836    0.229    0.473  101.668
  437.500    4.747    0.218    0.463  100.460
  437.750    4.575    0.213    0.472   99.252
  438.000    4.328    0.212    0.478  104.068
  438.250    4.170    0.211    0.489  111.895
  438.500    3.945    0.219    0.491  116.109
  438.750    3.595    0.225    0.490  117.310
  439.000    3.043    0.257    0.502  113.090
  439.250    2.825    0.273    0.520  108.266
  439.500    2.672    0.281    0.548  106.457
  439.750    2.528    0.276    0.572  104.043
  440.000    2.436    0.266    0.611  105.847
  440.250    2.347    0.265    0.625  108.856
  440.500    2.348    0.266    0.636  113.068
  440.750    2.348    0.266    0.640  115.475
  441.000    2.483    0.270    0.631  117.279
  441.250    2.828    0.275    0.622  119.084
  441.500    3.162    0.280    0.602  118.478
  441.750    3.406    0.281    0.578  111.245
  442.000    3.879    0.280    0.546  106.422
  442.250    4.102    0.260    0.519  107.022
  442.500    4.258    0.248    0.501  110.029
  442.750    4.419    0.245    0.488  111.834
  443.000    4.420    0.239    0.484  109.421
  443.250    4.503    0.241    0.480  107.611
  443.500    4.504    0.231    0.477  108.811
  443.750    4.589    0.223    0.466  110.012
  444.000    4.675    0.219    0.457  110.009
  444.250    4.764    0.218    0.452  105.790
  444.500    4.853    0.227    0.451   94.340
  444.750    4.945    0.254    0.446   87.711
  445.000    5.038    0.263    0.439   78.671
  445.250    5.133    0.276    0.434   76.861
  445.500    5.329    0.292    0.430   78.062
  445.750    5.329    0.301    0.424   79.865
  446.000    5.430    0.305    0.424   79.863
  446.250    5.430    0.303    0.434   78.654
  446.500    5.431    0.292    0.445   77.445
  446.750    5.432    0.286    0.452   77.443
  447.000    5.433    0.283    0.457   78.042
  447.250    5.433    0.291    0.456   79.242
  447.500    5.334    0.298    0.451   79.240
  447.750    5.237    0.307    0.445   78.633
  448.000    5.237    0.315    0.444   80.437
  448.250    5.238    0.312    0.446   82.843
  448.500    5.238    0.299    0.451   84.046
  448.750    5.239    0.283    0.450   85.848
  449.000    5.240    0.277    0.450   85.845
  449.250    5.241    0.270    0.465   84.637
  449.500    5.241    0.262    0.471   84.031
  449.750    5.242    0.256    0.480   84.028
  450.000    5.242    0.248    0.475   84.628
  450.250    5.146    0.251    0.468   85.828
  450.500    5.053    0.263    0.458   87.632
  450.750    4.960    0.261    0.451   91.845
  451.000    4.869    0.269    0.458   96.059
  451.250    4.438    0.275    0.468  103.284
  451.500    4.045    0.262    0.480  110.509
  451.750    3.826    0.249    0.499  115.325
  452.000    3.488    0.245    0.523  118.936
  452.250    3.361    0.246    0.561  121.945
  452.500    3.239    0.246    0.585  123.749
  452.750    3.180    0.243    0.556  124.951
  453.000    3.300    0.232    0.547  125.549
  453.250    3.622    0.228    0.522  123.136
  453.500    3.690    0.233    0.499  121.325
  453.750    3.760    0.244    0.487  121.322
  454.000    3.691    0.255    0.485  121.318
  454.250    3.624    0.258    0.481  121.918
  454.500    3.624    0.259    0.485  123.721
  454.750    3.625    0.249    0.496  123.718
  455.000    3.762    0.229    0.494  120.100
  455.250    4.616    0.216    0.465  111.662
  455.500    5.662    0.197    0.428  106.841
  455.750    6.449    0.169    0.402  101.416
  456.000    7.077    0.179    0.394  102.014
  456.250    7.624    0.182    0.398  105.625
  456.500    8.213    0.190    0.403  106.828
  456.750    8.848    0.198    0.394   97.787
  457.000    9.355    0.202    0.376   91.760
  457.250    9.711    0.225    0.368   86.938
  457.500   10.079    0.237    0.361   83.923
  457.750   10.462    0.229    0.378   86.931
  458.000   10.464    0.244    0.382   88.734
  458.250   10.465    0.242    0.391   88.731
  458.500   10.466    0.245    0.396   86.318
  458.750   10.085    0.258    0.395   85.110
  459.000   10.087    0.237    0.395   88.119
  459.250    9.721    0.227    0.398   93.537
  459.500    9.721    0.222    0.409   96.544
  459.750    9.723    0.244    0.408   95.939
  460.000    9.724    0.263    0.404   93.526
  460.250   10.093    0.268    0.390   91.716
  460.500   10.673    0.263    0.372   89.906
  460.750   12.156    0.261    0.361   88.095
  461.000   12.854    0.278    0.351   82.670
  461.250   14.914    0.285    0.344   71.823
  461.500   17.961    0.293    0.339   62.783
  461.750   20.456    0.303    0.334   60.371
  462.000   22.869    0.308    0.338   57.356
  462.250   26.536    0.316    0.348   60.965
  462.500   25.101    0.310    0.355   62.168
  462.750   22.046    0.312    0.357   62.767
  463.000   20.469    0.303    0.360   67.582
  463.250   19.006    0.295    0.365   74.205
  463.500   17.647    0.284    0.378   79.624
  463.750   16.085    0.274    0.385   83.235
  464.000   15.500    0.266    0.387   86.243
  464.250   14.663    0.262    0.383   91.661
  464.500   13.871    0.261    0.378   96.477
  464.750   13.367    0.263    0.378  103.702
  465.000   12.644    0.265    0.380  108.518
  465.250   11.960    0.257    0.381  111.527
  465.500   11.525    0.262    0.383  107.909
  465.750   10.702    0.266    0.384  106.097
  466.000   10.312    0.249    0.388  105.493
  466.250    9.938    0.236    0.396  110.308
  466.500    9.401    0.232    0.401  117.533
  466.750    9.059    0.226    0.408  121.746
  467.000    8.730    0.216    0.416  125.358
  467.250    8.570    0.206    0.413  128.969
  467.500    8.571    0.194    0.386  121.134
  467.750    8.896    0.207    0.368  115.107
  468.000    9.234    0.215    0.354  105.465
  468.250   10.325    0.247    0.350   97.631
  468.500   10.917    0.270    0.351   91.603
  468.750   11.332    0.273    0.359   87.986
