~VERSION INFORMATION
 VERS.                 2.0:   CWLS LOG ASCII STANDARD -VERSION 2.0
 WRAP.                  NO:   ONE LINE PER DEPTH STEP
~WELL INFORMATION BLOCK
#MNEM.UNIT           DATA                    DESCRIPTION OF MNEMONIC
#---------    -------------------            -------------------------------
# Generated from Intellog Unique Number	CC_80_83/WELL/1046
LOC .         00/03-03-081-10W4/0            : Location     - LOCATION
UWI .         00/03-03-081-10W400            : Uwi          - UNIQUE WELL ID
ENTR.         DW                             : Entered      - ENTERED BY
SRVC.         SCHLUMBERGER                   : Scn          - SERVICE COMPANY
STRT.M        250                            : top_depth    - START DEPTH
STOP.M        484.75                         : bot_depth    - STOP DEPTH
STEP.M        0.25                           : increment    - STEP LENGTH
 NULL. -999.2500:NULL Value
~CURVE INFORMATION BLOCK
#MNEM UNIT       ERCB CURVE CODE    CURVE DESCRIPTION
#-----------   ------------------   ----------------------------------
DEPT.M        00 001 00 00         : DEPTH        - DEPTH
GR  .API      00 310 00 00         : GR           - GAMMA RAY
DPHI.V/V      00 890 00 00         : PHID         - DENSITY POROSITY (SANDSTONE)
NPHI.V/V      00 330 00 00         : PHIN         - NEUTRON POROSITY (SANDSTONE)
ILD .OHMM     00 120 00 00         : RESD         - DEEP RESISTIVITY (DIL)
~PARAMETER INFORMATION
#MNEM.UNIT           DATA             DESCRIPTION OF MNEMONIC
#---------         -----------     ------------------------------
GL  .M        695                  : gl           - GROUND LEVEL ELEVATION
EREF.M        698.2                : kb           - ELEVATION OF DEPTH REFERENCE
DATM.M        698.2                : datum        - DATUM ELEVATION
TDD .M        492                  : tdd          - TOTAL DEPTH DRILLER
RUN .         ONE                  : Run          - RUN NUMBER
ENG .         BILL                 : Engineer     - RECORDING ENGINEER
WIT .         JIM                  : Witness      - WITNESSED BY
MUD .         GEL                  : Mud_type     - MUD TYPE
MATR.         SANDSTONE            : Logunit      - NEUTRON MATRIX
TMAX.C        27                   : BHT          - MAXIMUM RECORDED TEMPERATURE
BHTD.M        492                  : BHTDEP       - MAXIMUM RECORDED TEMPERATURE
MATR.         1                    : LOGUNIT      - NEUTRON MATRIX
RMT .C        25                   : MDTP         - TEMPERATURE OF MUD
NEUT.         1                    : NEUTRON      - NEUTRON TYPE
RESI.         0                    : RESIST       - RESISTIVITY TYPE
RMC .OHMM     0.25                 : RMC          - RESISTIVITY OF MUD CAKE
RMF .OHMM     0.25                 : RMF          - RESISTIVITY OF MUD FILTRATE
SUFT.C        15                   : SUFT         - SURFACE TEMPERATURE
~A  DEPTH       GR     PHID     PHIN     RESD
# ...
  380.500   95.939    0.289    0.476    2.604
  380.750  101.366    0.293    0.507    2.426
  381.000  104.611    0.304    0.543    2.405
  381.250  106.346    0.307    0.571    2.462
  381.500  104.404    0.305    0.583    2.550
  381.750   99.262    0.316    0.575    2.805
  382.000   95.064    0.330    0.555    3.238
  382.250   89.115    0.333    0.552    3.462
  382.500   85.244    0.332    0.556    4.338
  382.750   83.262    0.311    0.548    4.922
  383.000   85.417    0.284    0.513    5.207
  383.250   90.150    0.274    0.478    5.630
  383.500   89.986    0.274    0.466    5.781
  383.750   86.079    0.268    0.434    5.868
  384.000   85.310    0.276    0.426    6.087
  384.250   85.616    0.277    0.457    6.612
  384.500   85.786    0.280    0.468    7.303
  384.750   87.292    0.288    0.446    7.809
  385.000   92.747    0.266    0.451    8.204
  385.250  103.659    0.239    0.470    9.051
  385.500  101.293    0.239    0.452    9.729
  385.750   89.088    0.183    0.424   10.305
  386.000   82.308    0.129    0.405   10.570
  386.250   85.308    0.136    0.384   10.217
  386.500   88.704    0.158    0.376    9.363
  386.750   86.482    0.232    0.405    8.103
  387.000   87.118    0.261    0.427    7.070
  387.250   91.883    0.243    0.443    6.303
  387.500   93.456    0.231    0.441    5.931
  387.750   89.659    0.241    0.425    5.888
  388.000   87.392    0.249    0.434    5.788
  388.250   90.283    0.243    0.449    5.780
  388.500   95.713    0.252    0.466    5.863
  388.750   99.141    0.266    0.500    5.997
  389.000   93.826    0.278    0.505    6.614
  389.250   82.668    0.283    0.474    7.428
  389.500   76.467    0.265    0.426    8.579
  389.750   74.153    0.218    0.300   11.860
  390.000   73.856    0.146    0.263   13.049
  390.250   74.555    0.156    0.275   13.148
  390.500   79.299    0.238    0.298   12.027
  390.750   85.736    0.292    0.364   10.087
  391.000   86.659    0.296    0.431    9.572
  391.250   84.744    0.294    0.412    8.532
  391.500   80.570    0.291    0.397    8.071
  391.750   77.366    0.300    0.404    8.017
  392.000   76.053    0.313    0.406    7.753
  392.250   75.982    0.313    0.401    7.400
  392.500   79.802    0.298    0.410    7.315
  392.750   88.446    0.281    0.430    7.332
  393.000   87.537    0.271    0.459    7.132
  393.250   88.193    0.271    0.474    6.942
  393.500   92.544    0.278    0.461    6.895
  393.750   92.514    0.282    0.447    6.914
  394.000   89.059    0.277    0.452    7.047
  394.250   87.154    0.265    0.450    7.395
  394.500   88.144    0.268    0.428    7.765
  394.750   82.513    0.270    0.405    8.170
  395.000   79.363    0.265    0.400    8.499
  395.250   84.245    0.265    0.418    8.800
  395.500   83.938    0.272    0.447    8.694
  395.750   79.052    0.275    0.435    7.235
  396.000   76.539    0.271    0.419    6.983
  396.250   76.385    0.274    0.428    7.528
  396.500   76.055    0.198    0.405    8.294
  396.750   70.388    0.098    0.341    9.269
  397.000   61.011    0.138    0.313   10.001
  397.250   64.260    0.206    0.319   10.251
  397.500   71.082    0.262    0.331    9.376
  397.750   75.746    0.287    0.395    8.189
  398.000   77.096    0.295    0.443    7.646
  398.250   76.034    0.302    0.433    7.606
  398.500   75.033    0.302    0.442    7.472
  398.750   74.962    0.303    0.475    7.365
  399.000   75.536    0.291    0.471    7.080
  399.250   75.426    0.281    0.466    6.612
  399.500   73.061    0.287    0.468    6.018
  399.750   71.230    0.300    0.462    5.509
  400.000   73.820    0.314    0.459    5.167
  400.250   77.838    0.352    0.463    4.604
  400.500   84.098    0.341    0.518    4.350
  400.750   86.112    0.304    0.544    4.428
  401.000   81.089    0.291    0.493    4.843
  401.250   74.408    0.299    0.438    5.731
  401.500   71.099    0.301    0.444    6.815
  401.750   68.952    0.304    0.455    7.421
  402.000   67.562    0.306    0.450    7.700
  402.250   70.425    0.311    0.447    7.888
  402.500   75.983    0.289    0.428    7.495
  402.750   80.102    0.226    0.431    6.864
  403.000   79.920    0.136    0.486    7.222
  403.250   69.870    0.015    0.442    8.323
  403.500   48.356   -0.014    0.306    9.860
  403.750   38.621    0.060    0.196   11.139
  404.000   48.132    0.140    0.204   12.044
  404.250   64.517    0.179    0.322   11.953
  404.500   77.687    0.213    0.437   10.161
  404.750   84.188    0.241    0.446    8.318
  405.000   82.695    0.267    0.438    7.572
  405.250   82.351    0.269    0.436    7.405
  405.500   84.558    0.252    0.446    7.333
  405.750   83.831    0.231    0.465    7.370
  406.000   80.523    0.220    0.472    7.501
  406.250   79.895    0.243    0.462    7.632
  406.500   79.963    0.237    0.452    7.650
  406.750   79.971    0.222    0.445    7.652
  407.000   81.579    0.227    0.441    7.615
  407.250   86.366    0.234    0.439    7.456
  407.500   92.742    0.227    0.444    7.359
  407.750   94.558    0.223    0.447    7.602
  408.000   87.881    0.223    0.442    7.777
  408.250   88.125    0.225    0.434    7.808
  408.500   93.983    0.228    0.422    7.785
  408.750   96.016    0.234    0.423    7.568
  409.000   97.735    0.243    0.442    7.071
  409.250   99.294    0.254    0.433    6.634
  409.500   88.051    0.268    0.418    6.106
  409.750   84.142    0.277    0.420    5.315
  410.000   87.865    0.284    0.438    4.732
  410.250   88.181    0.292    0.449    4.316
  410.500   88.051    0.308    0.460    3.440
  410.750   84.904    0.343    0.525    2.602
  411.000   82.097    0.353    0.589    2.168
  411.250   81.963    0.350    0.601    2.034
  411.500   82.222    0.351    0.586    2.123
  411.750   80.565    0.334    0.580    2.362
  412.000   77.812    0.296    0.574    2.652
  412.250   75.861    0.289    0.553    3.117
  412.500   78.684    0.279    0.502    3.605
  412.750   82.821    0.254    0.462    3.902
  413.000   84.589    0.237    0.442    4.211
  413.250   82.832    0.241    0.419    4.936
  413.500   78.375    0.244    0.398    5.983
  413.750   73.820    0.213    0.397    6.720
  414.000   67.534    0.134    0.404    7.303
  414.250   70.892    0.140    0.351    7.832
  414.500   79.890    0.221    0.358    7.494
  414.750   84.102    0.271    0.449    6.321
  415.000   86.139    0.278    0.463    5.620
  415.250   89.946    0.279    0.462    5.332
  415.500   91.947    0.257    0.470    4.226
  415.750   93.209    0.259    0.468    3.553
  416.000   90.059    0.271    0.457    3.518
  416.250   84.861    0.266    0.459    3.474
  416.500   86.081    0.268    0.482    3.540
  416.750   86.905    0.276    0.497    3.542
  417.000   84.488    0.287    0.486    3.538
  417.250   85.740    0.300    0.485    3.543
  417.500   90.616    0.299    0.495    3.532
  417.750   94.299    0.287    0.490    3.438
  418.000   96.879    0.285    0.475    3.275
  418.250   98.517    0.288    0.483    3.266
  418.500   92.187    0.271    0.488    3.336
  418.750   85.926    0.237    0.465    3.325
  419.000   86.272    0.244    0.444    3.603
  419.250   89.851    0.277    0.465    4.164
  419.500   91.707    0.263    0.503    4.476
  419.750   91.917    0.260    0.487    4.709
  420.000   89.012    0.258    0.471    4.809
  420.250   84.121    0.253    0.453    4.877
  420.500   85.176    0.236    0.414    4.958
  420.750   89.287    0.222    0.395    5.045
  421.000   85.111    0.219    0.419    5.121
  421.250   83.167    0.179    0.424    5.111
  421.500   99.344    0.174    0.436    5.254
  421.750  109.067    0.211    0.453    5.403
  422.000   96.688    0.239    0.470    5.432
  422.250   79.348    0.245    0.461    5.807
  422.500   74.342    0.273    0.404    6.740
  422.750   70.840    0.336    0.342    8.992
  423.000   72.023    0.356    0.311   18.372
  423.250   74.491    0.359    0.304   25.028
  423.500   75.114    0.354    0.307   26.529
  423.750   73.991    0.335    0.317   27.090
