~VERSION INFORMATION
 VERS.                 2.0:   CWLS LOG ASCII STANDARD -VERSION 2.0
 WRAP.                  NO:   ONE LINE PER DEPTH STEP
~WELL INFORMATION BLOCK
#MNEM.UNIT           DATA                    DESCRIPTION OF MNEMONIC
#---------    -------------------            -------------------------------
# Generated from Intellog Unique Number	CS_73_76/WELL/2390
WELL.         07-24-076-07W4                 : Well_name    - WELL
LOC .         00/07-24-076-07W4/0            : Location     - LOCATION
UWI .         00/07-24-076-07W4/0            : Uwi          - UNIQUE WELL ID
ENTR.         SP                             : Entered      - ENTERED BY
SRVC.         SCHLUMBERGER                   : Scn          - SERVICE COMPANY
STRT.M        150                            : top_depth    - START DEPTH
STOP.M        375                            : bot_depth    - STOP DEPTH
STEP.M        0.25                           : increment    - STEP LENGTH
 NULL. -999.2500:NULL Value
~CURVE INFORMATION BLOCK
#MNEM UNIT       ERCB CURVE CODE    CURVE DESCRIPTION
#-----------   ------------------   ----------------------------------
DEPT.M        00 001 00 00         : DEPTH        - DEPTH
ILD .OHMM     00 120 00 00         : RESD         - DEEP RESISTIVITY (DIL)
GR  .API      00 310 00 00         : GR           - GAMMA RAY
DPHI.V/V      00 890 00 00         : PHID         - DENSITY POROSITY (LIMESTONE)
NPHI.V/V      00 330 00 00         : PHIN         - NEUTRON POROSITY (LIMESTONE)
~PARAMETER INFORMATION
#MNEM.UNIT           DATA             DESCRIPTION OF MNEMONIC
#---------         -----------     ------------------------------
GL  .M        572.32               : gl           - GROUND LEVEL ELEVATION
EREF.M        575.82               : kb           - ELEVATION OF DEPTH REFERENCE
DATM.M        572.32               : datum        - DATUM ELEVATION
TDD .M        377                  : tdd          - TOTAL DEPTH DRILLER
RUN .         ONE                  : Run          - RUN NUMBER
ENG .         BILL                 : Engineer     - RECORDING ENGINEER
WIT .         JIM                  : Witness      - WITNESSED BY
MUD .         GEL                  : Mud_type     - MUD TYPE
MATR.         LIMESTONE            : Logunit      - NEUTRON MATRIX
TMAX.C        23                   : BHT          - MAXIMUM RECORDED TEMPERATURE
BHTD.M        377                  : BHTDEP       - MAXIMUM RECORDED TEMPERATURE
MATR.         1                    : LOGUNIT      - NEUTRON MATRIX
RMT .C        25                   : MDTP         - TEMPERATURE OF MUD
NEUT.         1                    : NEUTRON      - NEUTRON TYPE
RESI.         0                    : RESIST       - RESISTIVITY TYPE
RMC .OHMM     0.25                 : RMC          - RESISTIVITY OF MUD CAKE
RMF .OHMM     0.25                 : RMF          - RESISTIVITY OF MUD FILTRATE
SUFT.C        15                   : SUFT         - SURFACE TEMPERATURE
~A  DEPTH     RESD       GR     PHID     PHIN
  150.000    3.835  101.828    0.316    0.811
  150.250    3.908  101.827    0.315    0.495
  150.500    3.982  103.655    0.302    0.488
  150.750    4.212  107.922    0.302    0.425
  151.000    4.455  106.091    0.292    0.439
  151.250    4.712   98.163    0.290    0.473
  151.500    4.625   95.722    0.268    0.492
  151.750    4.456   89.624    0.155    0.424
  152.000    4.293   85.964    0.148    0.441
  152.250    4.215  101.816    0.266    0.527
  152.500    4.137  105.473    0.263    0.505
  152.750    4.061  106.082    0.258    0.513
  153.000    4.138  108.519    0.263    0.551
  153.250    4.296  109.128    0.269    0.585
  153.500    4.460  110.955    0.266    0.557
  153.750    4.630  112.783    0.268    0.512
  154.000    4.806  112.172    0.269    0.483
  154.250    5.084  109.732    0.264    0.450
  154.500    5.278  111.560    0.259    0.398
  154.750    5.479  110.339    0.266    0.406
  155.000    5.688  113.996    0.268    0.407
  155.250    6.016  114.605    0.253    0.418
  155.500    6.017  114.603    0.237    0.430
  155.750    5.797  110.333    0.231    0.421
  156.000    5.907  106.674    0.242    0.396
  156.250    6.019  105.453    0.249    0.403
  156.500    6.366  104.842    0.227    0.392
  156.750    7.122  108.499    0.243    0.437
  157.000    8.911  110.327    0.258    0.393
  157.250   10.347   98.130    0.237    0.359
  157.500   12.015   79.227    0.155    0.300
  157.750   11.152   63.982    0.277    0.285
  158.000    9.606   78.005    0.408    0.263
  158.250    8.751  129.832    0.254    0.269
  158.500    7.824  120.684    0.298    0.335
  158.750    6.615   91.415    0.319    0.384
  159.000    6.373  100.560    0.286    0.418
  159.250    6.026  104.827    0.260    0.420
  159.500    7.682  108.484    0.247    0.420
  159.750   10.753  108.483    0.234    0.464
  160.000   13.707  107.262    0.157    0.457
  160.250   16.834  102.992    0.106    0.386
  160.500   21.461   92.625    0.089    0.355
  160.750   22.279   93.843    0.263    0.365
  161.000   23.130  101.768    0.277    0.360
  161.250   23.569  104.206    0.282    0.333
  161.500   23.571  107.254    0.276    0.327
  161.750   22.709  108.472    0.266    0.346
  162.000   21.879  102.373    0.260    0.381
  162.250   21.079  102.981    0.265    0.348
  162.500   20.691  107.248    0.242    0.344
  162.750   19.566  112.125    0.212    0.352
  163.000   18.851  120.660    0.208    0.331
  163.250   19.570  119.439    0.203    0.310
  163.500   21.488  122.486    0.233    0.313
  163.750   24.037  124.315    0.253    0.387
  164.000   27.912  113.338    0.269    0.409
  164.250   31.812  109.068    0.254    0.419
  164.500   36.257   82.238    0.264    0.410
  164.750   37.640   54.798    0.319    0.385
  165.000   38.353   41.382    0.325    0.357
  165.250   37.647   39.551    0.335    0.357
  165.500   34.296   46.257    0.337    0.366
  165.750   28.459   59.670    0.328    0.393
  166.000   24.974   75.522    0.330    0.383
  166.250   21.114   84.667    0.322    0.357
  166.500   18.529   91.983    0.338    0.354
  166.750   15.665   96.250    0.325    0.374
  167.000   13.748  101.127    0.288    0.341
  167.250   12.759  108.442    0.262    0.322
  167.500   11.842  112.099    0.239    0.360
  167.750   11.624  112.098    0.227    0.407
  168.000   12.068  116.365    0.229    0.420
  168.250   13.005  117.583    0.237    0.409
  168.500   15.972  117.582    0.237    0.418
  168.750   19.252  109.044    0.264    0.421
  169.000   22.777  101.726    0.282    0.413
  169.250   26.449   99.894    0.271    0.391
  169.500   29.039  101.113    0.259    0.392
  169.750   31.885  107.209    0.288    0.388
  170.000   33.724   84.647    0.327    0.394
  170.250   35.671   71.231    0.334    0.427
  170.500   37.031   55.986    0.333    0.466
  170.750   37.733   48.668    0.321    0.433
  171.000   37.041   45.008    0.320    0.378
  171.250   37.043   45.616    0.331    0.378
  171.500   36.363   46.225    0.341    0.393
  171.750   35.694   50.491    0.345    0.409
  172.000   35.698   51.710    0.336    0.400
  172.250   35.700   51.708    0.330    0.381
  172.500   34.395   54.146    0.323    0.349
  172.750   31.923   58.413    0.330    0.337
  173.000   24.584   61.460    0.304    0.339
  173.250   19.288   62.069    0.317    0.347
  173.500   15.418   68.775    0.328    0.355
  173.750   12.794   84.627    0.332    0.350
  174.000   11.227  101.698    0.299    0.327
  174.250    9.853  119.990    0.253    0.364
  174.500    8.976  129.744    0.216    0.381
  174.750    8.026  124.865    0.182    0.389
  175.000    7.449  113.278    0.145    0.378
  175.250    6.660  113.277    0.169    0.388
  175.500    6.298  128.519    0.202    0.389
  175.750    6.068  132.786    0.199    0.378
  176.000    5.956  130.956    0.198    0.428
  176.250    5.957  129.125    0.199    0.475
  176.500    6.540  127.904    0.184    0.446
  176.750    6.918  129.122    0.190    0.420
  177.000    8.338  127.292    0.204    0.408
  177.250   11.243  107.169    0.226    0.459
  177.500   14.332   77.290    0.293    0.447
  177.750   18.616   73.020    0.305    0.393
  178.000   20.824   73.018    0.300    0.350
  178.250   22.026   74.846    0.310    0.344
  178.500   21.621   76.674    0.272    0.365
  178.750   21.223   77.892    0.257    0.388
  179.000   20.069   73.623    0.277    0.377
  179.250   19.336   72.402    0.271    0.361
  179.500   19.338   79.108    0.244    0.320
  179.750   18.982   82.765    0.262    0.318
  180.000   18.984   82.764    0.276    0.339
  180.250   18.635   79.714    0.283    0.370
  180.500   17.954   83.981    0.268    0.388
  180.750   17.298   88.247    0.274    0.370
  181.000   17.299   88.856    0.255    0.358
  181.250   16.057   89.464    0.260    0.362
  181.500   15.469   91.901    0.270    0.355
  181.750   14.904   93.120    0.273    0.348
  182.000   14.359   94.338    0.266    0.359
  182.250   12.601   91.898    0.257    0.344
  182.500   11.267   92.506    0.251    0.345
  182.750   10.074   94.334    0.243    0.321
  183.000    9.177   94.333    0.238    0.305
  183.250    8.678  105.917    0.228    0.331
  183.500    9.179  123.598    0.197    0.372
  183.750   10.659  126.645    0.135    0.383
  184.000   14.918  127.864    0.153    0.419
  184.250   22.921  121.155    0.200    0.464
  184.500   31.486  105.910    0.261    0.452
  184.750   36.561   96.762    0.334    0.388
  185.000   40.143  102.858    0.335    0.359
  185.250   34.578  116.881    0.333    0.367
  185.500   30.916  130.294    0.332    0.394
  185.750   27.643  143.098    0.331    0.406
  186.000   25.182  126.633    0.329    0.398
  186.250   23.372  111.998    0.317    0.395
  186.500   21.692   94.924    0.294    0.388
  186.750   20.900   92.483    0.272    0.405
  187.000   20.516   99.189    0.267    0.383
  187.250   20.904  105.895    0.268    0.357
  187.500   22.111  104.674    0.273    0.318
  187.750   23.828  107.112    0.280    0.315
  188.000   26.655  109.549    0.282    0.324
  188.250   30.952  108.938    0.271    0.379
  188.500   33.984  105.888    0.261    0.408
  188.750   35.945   68.082    0.280    0.381
  189.000   35.949   54.666    0.320    0.348
  189.250   35.953   46.738    0.305    0.337
  189.500   34.639   45.517    0.295    0.301
  189.750   33.373   47.955    0.301    0.357
  190.000   32.153   55.880    0.277    0.368
  190.250   30.405   63.196    0.257    0.348
  190.500   28.752   62.585    0.273    0.300
  190.750   27.700   57.096    0.280    0.289
  191.000   26.195   57.095    0.277    0.312
  191.250   25.237   65.020    0.249    0.339
  191.500   24.773   69.897    0.234    0.346
  191.750   23.426   80.261    0.249    0.339
  192.000   22.153   77.820    0.268    0.348
  192.250   20.948   79.649    0.290    0.361
  192.500   19.443   84.525    0.279    0.368
  192.750   18.045   87.573    0.261    0.355
  193.000   16.748   86.962    0.255    0.326
  193.250   15.258   93.058    0.253    0.329
