~VERSION INFORMATION
 VERS.                 2.0:   CWLS LOG ASCII STANDARD -VERSION 2.0
 WRAP.                  NO:   ONE LINE PER DEPTH STEP
~WELL INFORMATION BLOCK
#MNEM.UNIT           DATA                    DESCRIPTION OF MNEMONIC
#---------    -------------------            -------------------------------
# Generated from Intellog Unique Number	CC_84_87/WELL/1064
NULL.         -999.25                        : NULL_VALUE
WELL.         PARA ET AL GRANOR              : Well_name    - WELL              
LOC .         06-06-084-17W4                 : Location     - LOCATION          
UWI .         00/06-06-084-17W400            : Uwi          - UNIQUE WELL ID    
ENTR.         JHS                            : Entered      - ENTERED BY        
SRVC.         COMPUTALOG                     : Scn          - SERVICE COMPANY   
DATE.         25 JAN 82                      : Date         - LOG DATE
STRT.M        97                             : top_depth    - START DEPTH       
STOP.M        290.5                          : bot_depth    - STOP DEPTH        
STEP.M        0.3                            : increment    - STEP LENGTH       
~CURVE INFORMATION BLOCK
#MNEM UNIT       ERCB CURVE CODE    CURVE DESCRIPTION
#-----------   ------------------   ----------------------------------
DEPT.M        00 001 00 00         : DEPTH        - DEPTH                       
DPHI.V/V      00 890 00 00         : PHID         - DENSITY POROSITY (LIMESTONE)
NPHI.V/V      00 330 00 00         : PHIN         - NEUTRON POROSITY (LIMESTONE)
GR  .API      00 310 00 00         : GR           - GAMMA RAY                   
ILD .OHMM     00 120 00 00         : RESD         - DEEP RESISTIVITY (DIL)      
~PARAMETER INFORMATION       
#MNEM.UNIT           DATA             DESCRIPTION OF MNEMONIC
#---------         -----------     ------------------------------
GL  .M        536.88               : gl           - GROUND LEVEL ELEVATION      
EREF.M        540.48               : kb           - ELEVATION OF DEPTH REFERENCE
DATM.M        540.48               : datum        - DATUM ELEVATION             
TDD .M        291                  : tdd          - TOTAL DEPTH DRILLER         
RUN .         ONE                  : Run          - RUN NUMBER                  
ENG .         BILL                 : Engineer     - RECORDING ENGINEER          
WIT .         JIM                  : Witness      - WITNESSED BY                
MUD .         GEL                  : Mud_type     - MUD TYPE                    
MATR.         LIMESTONE            : Logunit      - NEUTRON MATRIX              
TMAX.C        22                   : BHT          - MAXIMUM RECORDED TEMPERATURE
BHTD.M        291                  : BHTDEP       - MAXIMUM RECORDED TEMPERATURE
MATR.         1                    : LOGUNIT      - NEUTRON MATRIX              
RMT .C        25                   : MDTP         - TEMPERATURE OF MUD          
NEUT.         1                    : NEUTRON      - NEUTRON TYPE                
RESI.         0                    : RESIST       - RESISTIVITY TYPE            
RMC .OHMM     0.25                 : RMC          - RESISTIVITY OF MUD CAKE     
RMF .OHMM     0.25                 : RMF          - RESISTIVITY OF MUD FILTRATE 
SUFT.C        15                   : SUFT         - SURFACE TEMPERATURE         
~A  DEPTH     PHID     PHIN       GR     RESD
# ...
  253.602    0.186    0.453   98.970    6.866
  253.902    0.169    0.423  100.819    6.014
  254.202    0.180    0.435  100.209    5.471
  254.502    0.175    0.447  100.829    5.268
  254.802    0.178    0.386  101.448    4.978
  255.102    0.173    0.426  108.829    4.793
  255.402    0.180    0.489  111.908    4.793
  255.702    0.175    0.378  114.372    4.978
  256.002    0.170    0.375  107.614    5.269
  256.302    0.159    0.455  107.004    5.903
  256.602    0.163    0.489  102.706    6.999
  256.902    0.151    0.488   94.103    8.952
  257.202    0.023    0.242   81.813   13.320
  257.502    0.130    0.241   74.441   17.694
  257.802    0.179    0.370   88.585   19.450
  258.102    0.178    0.369  103.343   17.037
  258.402    0.169    0.367  102.119   15.500
  258.702    0.163    0.389  108.271   15.210
  259.001    0.178    0.399  100.900   15.210
  259.301    0.207    0.318   95.986   16.406
  259.601    0.254    0.274   70.170   19.089
  259.901    0.297    0.227   59.109   22.210
  260.201    0.321    0.196   52.352   23.957
  260.501    0.318    0.206   52.972   24.882
  260.801    0.308    0.222   51.746   24.883
  261.101    0.307    0.200   51.751   24.417
  261.401    0.328    0.208   54.215   22.637
  261.701    0.337    0.296   57.293   18.039
  262.001    0.318    0.363   54.838   15.505
  262.301    0.281    0.413   52.999   13.841
  262.601    0.274    0.400   54.848   12.124
  262.901    0.268    0.428   57.312   11.897
  263.201    0.264    0.423   59.775   11.456
  263.501    0.258    0.389   65.928   10.621
  263.801    0.244    0.358   75.154    9.662
  264.101    0.165    0.344   89.913    8.625
  264.401    0.153    0.327  100.369    7.555
  264.701    0.164    0.326   97.300    6.618
  265.001    0.189    0.321   96.075    5.797
  265.301    0.205    0.407  100.383    4.798
  265.601    0.210    0.458  106.535    4.283
  265.901    0.191    0.426  108.384    3.971
  266.201    0.182    0.474  114.536    3.896
  266.501    0.154    0.535  113.926    4.047
  266.801    0.102    0.523  102.250    4.533
  267.101    0.090    0.426   89.960    5.689
  267.401    0.154    0.421   91.809    6.022
  267.701    0.190    0.451  104.723    5.690
  268.001    0.201    0.416  114.564    4.709
  268.301    0.214    0.477  119.487    4.284
  268.601    0.197    0.482  124.410    4.284
  268.901    0.171    0.444  113.349    4.709
  269.201    0.096    0.412  102.903    5.799
  269.501    0.092    0.318   86.309    7.008
  269.801    0.150    0.330   80.166    9.852
  270.101    0.174    0.360   92.466   14.941
  270.401    0.174    0.378   98.004   16.116
  270.701    0.228    0.338   88.787   15.814
  271.001    0.264    0.297   80.185   16.425
  271.301    0.229    0.354   77.115   18.056
  271.601    0.213    0.385   82.653   22.235
  271.901    0.233    0.361   83.273   26.364
  272.201    0.292    0.330   75.285   28.982
  272.501    0.348    0.234   57.462   31.262
  272.801    0.341    0.194   57.468   33.090
  273.101    0.327    0.249   55.628   34.367
  273.401    0.318    0.271   56.247   30.679
  273.701    0.251    0.308   60.554   27.386
  274.001    0.214    0.351   92.527   25.876
  274.301    0.278    0.445   88.228   25.391
  274.601    0.313    0.412   76.553   31.268
  274.901    0.291    0.352   77.787   37.076
  275.201    0.197    0.365   87.013   39.243
  275.501    0.238    0.407  101.157   34.375
  275.801    0.205    0.375   91.326   25.395
  276.101    0.168    0.376  102.396   21.418
  276.401    0.175    0.359  109.778   19.857
  276.701    0.178    0.323  104.865   19.120
  277.001    0.184    0.349  106.099   19.486
  277.301    0.198    0.347  101.185   20.625
  277.601    0.210    0.310   89.509   21.422
  277.901    0.223    0.317   87.055   21.831
  278.201    0.213    0.352   93.208   21.021
  278.501    0.207    0.340   95.671   21.022
  278.801    0.200    0.361  100.594   21.424
  279.101    0.176    0.309   81.541   21.425
  279.401    0.133    0.289   91.382   20.243
  279.701    0.133    0.374  109.215   18.415
  280.001    0.131    0.420  109.219   16.753
  280.301    0.115    0.377  105.536   15.829
  280.601    0.173    0.339  109.843   15.533
  280.901    0.187    0.247  112.308   17.733
  281.201    0.231    0.237   98.787   23.114
  281.501    0.220    0.297   81.578   29.008
  281.801    0.198    0.362   79.739   33.118
  282.101    0.225    0.398   77.900   35.054
  282.401    0.193    0.392   72.986   38.534
  282.701    0.200    0.330   67.458   41.566
  283.001    0.260    0.360   80.987   41.567
  283.301    0.269    0.426   82.222   40.789
  283.600    0.242    0.430   85.300   38.538
  283.900    0.236    0.403   90.838   35.060
  284.200    0.226    0.384   98.220   30.711
  284.500    0.210    0.374  105.601   29.571
  284.800    0.224    0.400  104.376   31.299
  285.100    0.250    0.435   93.930   34.407
  285.400    0.242    0.408   90.862   35.065
  285.700    0.199    0.335   96.398   35.066
  286.000    0.171    0.325  108.084   32.510
  286.300    0.185    0.318  110.548   30.717
  286.600    0.263    0.325  109.323   31.903
  286.900    0.269    0.346  104.410   33.134
  287.200    0.231    0.324  106.873   32.514
  287.500    0.182    0.292  103.804   32.515
  287.800    0.261    0.284  108.727   35.073
  288.100    0.301    0.304  107.503   44.858
  288.400    0.361    0.367  108.736   59.585
  288.700    0.322    0.416  111.200   76.208
  289.000    0.301    0.404  103.828   85.374
  289.300    0.306    0.414  105.677   83.776
  289.600    0.294    0.453  108.140   61.891
  289.900    0.282    0.490  106.302   53.197
  290.200    0.231    0.468  109.379   42.390
  290.500    0.303    0.436   16.555   39.301
