~VERSION INFORMATION
 VERS.                 2.0:   CWLS LOG ASCII STANDARD -VERSION 2.0
 WRAP.                  NO:   ONE LINE PER DEPTH STEP
~WELL INFORMATION BLOCK
#MNEM.UNIT           DATA                    DESCRIPTION OF MNEMONIC
#---------    -------------------            -------------------------------
# Generated from Intellog Unique Number	CW_70_72/WELL/3002
NULL.         -999.25                        : NULL_VALUE
WELL.         CDN-SUP MI5TSUE 04-03          : Well_name    - WELL              
LOC .         04-03-070-03W5                 : Location     - LOCATION          
UWI .         00/04-03-070-03W5/0            : Uwi          - UNIQUE WELL ID    
ENTR.         JAYE                           : Entered      - ENTERED BY        
SRVC.         SCHLUMBERGER                   : Scn          - SERVICE COMPANY   
DATE.         8 SEPT 80                      : Date         - LOG DATE          
STRT.M        495                            : top_depth    - START DEPTH       
STOP.M        705                            : bot_depth    - STOP DEPTH        
STEP.M        0.25                           : increment    - STEP LENGTH       
~CURVE INFORMATION BLOCK
#MNEM UNIT       ERCB CURVE CODE    CURVE DESCRIPTION
#-----------   ------------------   ----------------------------------
DEPT.M        00 001 00 00         : DEPTH        - DEPTH                       
ILD .OHMM     00 120 00 00         : RESD         - DEEP RESISTIVITY (DIL)      
CALI.MM       00 280 01 00         : CAL          - CALIPER                     
GR  .API      00 310 00 00         : GR           - GAMMA RAY                   
NPHI.V/V      00 330 00 00         : PHIN         - NEUTRON POROSITY (SANDSTONE)
DPHI.V/V      00 890 00 00         : PHID         - DENSITY POROSITY (SANDSTONE)
~PARAMETER INFORMATION       
#MNEM.UNIT           DATA             DESCRIPTION OF MNEMONIC
#---------         -----------     ------------------------------
GL  .M        614                  : gl           - GROUND LEVEL ELEVATION      
EREF.M        621                  : kb           - ELEVATION OF DEPTH REFERENCE
DATM.M        614                  : datum        - DATUM ELEVATION             
TDD .M        1710.5               : tdd          - TOTAL DEPTH DRILLER         
RUN .         ONE                  : Run          - RUN NUMBER                  
ENG .         IRELAND              : Engineer     - RECORDING ENGINEER          
WIT .         KELLY                : Witness      - WITNESSED BY                
BASE.         EDMONTON             : Branch       - HOME BASE OF LOGGING UNIT   
MUD .         GEL BENEX            : Mud_type     - MUD TYPE                    
MATR.         SANDSTONE            : Logunit      - NEUTRON MATRIX              
TMAX.C        44                   : BHT          - MAXIMUM RECORDED TEMPERATURE
BHTD.M        1708.5               : BHTDEP       - MAXIMUM RECORDED TEMPERATURE
RMT .C        17.8                 : MDTP         - TEMPERATURE OF MUD          
MUDD.KG/M     1110                 : MWT          - MUD DENSITY                 
NEUT.         1                    : NEUTRON      - NEUTRON TYPE                
RESI.         0                    : RESIST       - RESISTIVITY TYPE            
RM  .OHMM     1.9                  : RM           - RESISTIVITY OF MUD          
RMC .OHMM     0.25                 : RMC          - RESISTIVITY OF MUD CAKE     
RMF .OHMM     0.99                 : RMF          - RESISTIVITY OF MUD FILTRATE 
SUFT.C        0                    : SUFT         - SURFACE TEMPERATURE         
~A  DEPTH     RESD      CAL       GR     PHIN     PHID
# ...
  604.500    2.131  252.731   69.804    0.433    0.273
  604.750    2.109  252.008   66.476    0.432    0.252
  605.000    2.107  250.873   63.025    0.423    0.239
  605.250    2.205  250.048   62.098    0.432    0.241
  605.500    2.302  251.583   61.910    0.427    0.251
  605.750    2.449  255.581   60.799    0.393    0.227
  606.000    2.674  251.979   57.902    0.356    0.055
  606.250    3.059  251.157   54.451    0.180    0.046
  606.500    3.364  244.276   52.169    0.170    0.074
  606.750    4.167  240.885   49.765    0.184    0.100
  607.000    5.123  244.266   48.900    0.205    0.118
  607.250    5.751  246.416   51.729    0.242    0.162
  607.500    6.086  247.745   55.667    0.272    0.200
  607.750    5.858  246.715   59.236    0.359    0.221
  608.000    5.111  244.349   59.725    0.403    0.225
  608.250    4.218  242.292   58.737    0.399    0.223
  608.500    3.507  241.671   59.227    0.374    0.247
  608.750    3.217  241.255   58.854    0.382    0.264
  609.000    2.892  240.223   58.359    0.402    0.230
  609.250    2.783  239.501   62.296    0.373    0.230
  609.500    2.740  239.392   63.833    0.380    0.244
  609.750    2.726  239.593   63.830    0.392    0.257
  610.000    2.669  240.306   64.135    0.400    0.253
  610.250    2.569  240.814   64.932    0.412    0.247
  610.500    2.500  244.196   64.498    0.432    0.232
  610.750    2.530  245.320   63.140    0.412    0.190
  611.000    2.609  243.467   61.537    0.325    0.177
  611.250    2.719  241.717   63.812    0.332    0.196
  611.500    2.867  244.176   69.535    0.366    0.210
  611.750    3.005  248.892   71.872    0.392    0.218
  612.000    3.109  251.042   72.608    0.402    0.213
  612.250    3.211  251.037   72.975    0.403    0.187
  612.500    3.213  249.595   74.203    0.413    0.200
  612.750    3.181  248.154   74.816    0.416    0.206
  613.000    3.207  246.712   74.751    0.403    0.201
  613.250    3.269  248.452   70.130    0.391    0.209
  613.500    3.364  253.680   68.280    0.374    0.204
  613.750    3.540  259.423   70.740    0.354    0.162
  614.000    3.642  265.370   75.848    0.332    0.164
  614.250    3.768  267.931   81.817    0.356    0.172
  614.500    3.914  270.902   82.492    0.383    0.168
  614.750    4.006  272.847   80.888    0.379    0.155
  615.000    4.122  273.458   81.439    0.364    0.148
  615.250    4.201  270.579   82.729    0.356    0.144
  615.500    4.356  266.777   84.635    0.352    0.147
  615.750    4.491  264.206   84.016    0.352    0.148
  616.000    4.587  263.380   83.274    0.353    0.147
  616.250    4.685  262.759   82.779    0.354    0.145
  616.500    4.714  262.241   83.022    0.357    0.142
  616.750    4.719  262.338   83.635    0.358    0.137
  617.000    4.722  263.668   84.001    0.356    0.131
  617.250    4.735  268.075   84.183    0.348    0.124
  617.500    4.774  270.636   83.626    0.341    0.123
  617.750    4.795  271.863   83.069    0.336    0.139
  618.000    4.807  272.166   84.543    0.339    0.142
  618.250    4.812  273.083   83.740    0.360    0.134
  618.500    4.807  273.695   81.766    0.364    0.133
  618.750    4.828  274.100   82.133    0.352    0.138
  619.000    4.824  274.301   81.637    0.345    0.142
  619.250    4.818  275.012   79.972    0.351    0.144
  619.500    4.813  275.213   79.168    0.359    0.151
  619.750    4.844  275.415   80.089    0.368    0.153
  620.000    4.866  275.717   79.532    0.378    0.155
  620.250    4.905  275.199   80.513    0.386    0.166
  620.500    4.946  274.475   81.803    0.396    0.184
  620.750    4.940  273.445   83.894    0.404    0.175
  621.000    4.880  271.798   85.000    0.404    0.173
  621.250    4.680  269.740   85.058    0.401    0.175
  621.500    4.489  269.017   84.378    0.388    0.178
  621.750    4.265  267.060   85.422    0.375    0.174
  622.000    4.136  266.133   86.589    0.384    0.162
  622.250    4.033  266.129   86.709    0.397    0.167
  622.500    3.955  269.510   85.967    0.390    0.178
  622.750    3.892  272.379   84.733    0.385    0.185
  623.000    3.852  272.168   82.820    0.397    0.190
  623.250    3.806  269.187   82.140    0.406    0.187
  623.500    3.788  266.718   83.738    0.408    0.180
  623.750    3.750  265.584   85.952    0.404    0.172
  624.000    3.711  265.169   85.641    0.417    0.172
  624.250    3.706  265.062   84.099    0.420    0.173
  624.500    3.702  265.056   82.248    0.405    0.167
  624.750    3.692  265.154   82.799    0.401    0.166
  625.000    3.674  265.560   84.028    0.400    0.160
  625.250    3.656  265.350   84.087    0.393    0.158
  625.500    3.653  265.037   82.975    0.395    0.173
  625.750    3.642  265.750   81.433    0.401    0.188
  626.000    3.658  266.463   80.137    0.407    0.201
  626.250    3.676  267.177   77.855    0.411    0.213
  626.500    3.699  267.274   74.650    0.397    0.220
  626.750    3.722  266.962   71.569    0.392    0.190
  627.000    3.859  266.853   68.672    0.385    0.164
  627.250    3.977  268.183   68.484    0.358    0.175
  627.500    4.146  269.512   71.314    0.367    0.206
  627.750    4.355  269.301   74.636    0.388    0.196
  628.000    4.407  268.783   77.280    0.371    0.156
  628.250    4.346  268.471   79.617    0.360    0.145
  628.500    4.268  268.466   81.831    0.379    0.143
  628.750    4.035  268.049   83.367    0.391    0.143
  629.000    3.948  268.046   84.534    0.387    0.148
  629.250    3.908  267.527   83.300    0.379    0.151
  629.500    3.875  267.418   79.972    0.376    0.153
  629.750    3.878  267.723   77.321    0.371    0.154
  630.000    3.888  270.078   75.655    0.357    0.156
  630.250    3.898  271.612   75.160    0.359    0.159
  630.500    3.880  272.736   75.588    0.374    0.163
  630.750    3.861  273.860   77.493    0.384    0.163
  631.000    3.836  274.677   79.276    0.389    0.158
  631.250    3.796  275.287   78.842    0.353    0.154
  631.500    3.771  276.102   77.669    0.352    0.148
  631.750    3.725  277.022   77.543    0.366    0.144
  632.000    3.681  278.248   78.956    0.375    0.159
  632.250    3.650  279.064   79.816    0.382    0.164
  632.500    3.572  277.931   79.135    0.389    0.184
  632.750    3.406  268.894   77.470    0.401    0.213
  633.000    3.279  252.777   71.432    0.425    0.256
  633.250    3.287  248.770   61.762    0.408    0.276
  633.500    3.440  252.663   58.742    0.394    0.283
  633.750    3.805  253.172   61.202    0.398    0.286
  634.000    4.116  252.756   61.137    0.396    0.289
  634.250    4.371  252.854   59.472    0.386    0.272
  634.500    4.703  253.875   59.160    0.376    0.249
  634.750    4.902  254.692   59.466    0.372    0.235
  635.000    5.007  254.994   60.017    0.384    0.251
  635.250    5.002  254.784   60.014    0.393    0.267
  635.500    4.878  254.677   60.011    0.389    0.276
  635.750    4.809  256.416   60.008    0.380    0.266
  636.000    4.742  260.516   59.882    0.366    0.237
  636.250    4.703  274.366   57.046    0.359    0.223
  636.500    4.654  274.669   52.609    0.346    0.229
  636.750    4.582  261.938   53.407    0.323    0.249
  637.000    4.551  254.031   55.682    0.356    0.261
  637.250    4.537  252.075   56.788    0.391    0.272
  637.500    4.583  251.660   56.846    0.413    0.278
  637.750    4.595  251.040   56.658    0.419    0.287
  638.000    4.590  250.829   56.594    0.419    0.287
  638.250    4.534  250.926   57.268    0.416    0.282
  638.500    4.439  250.615   57.696    0.410    0.273
  638.750    4.378  250.609   57.324    0.405    0.265
  639.000    4.261  250.296   56.890    0.395    0.271
  639.250    4.202  250.394   58.303    0.388    0.278
  639.500    4.172  250.900   58.977    0.380    0.282
  639.750    4.114  250.794   58.112    0.386    0.278
  640.000    4.034  250.070   54.907    0.400    0.274
  640.250    4.015  249.142   54.966    0.398    0.284
  640.500    4.063  242.466   56.194    0.405    0.275
  640.750    4.135  240.512   56.684    0.396    0.235
