~VERSION INFORMATION
 VERS.                 2.0:   CWLS LOG ASCII STANDARD -VERSION 2.0
 WRAP.                  NO:   ONE LINE PER DEPTH STEP
~WELL INFORMATION BLOCK
#MNEM.UNIT           DATA                    DESCRIPTION OF MNEMONIC
#---------    -------------------            -------------------------------
# Generated from Intellog Unique Number	CW_70_72/WELL/903
NULL.         -999.25                        : NULL_VALUE
WELL.         CHIEFTAIN ET AL SMITH 07-19    : Well_name    - WELL              
LOC .         07-19-071-26W4                 : Location     - LOCATION          
UWI .         00/07-19-071-26W4/0            : Uwi          - UNIQUE WELL ID    
ENTR.         JAYE                           : Entered      - ENTERED BY        
SRVC.         SCHLUMBERGER                   : Scn          - SERVICE COMPANY   
DATE.         13 JUNE 76                     : Date         - LOG DATE          
STRT.M        445.008                        : top_depth    - START DEPTH       
STOP.M        702.258                        : bot_depth    - STOP DEPTH        
STEP.M        0.25                           : increment    - STEP LENGTH       
~CURVE INFORMATION BLOCK
#MNEM UNIT       ERCB CURVE CODE    CURVE DESCRIPTION
#-----------   ------------------   ----------------------------------
DEPT.M        00 001 00 00         : DEPTH        - DEPTH                       
DPHI.V/V      00 890 00 00         : PHID         - DENSITY POROSITY (SANDSTONE)
NPHI.V/V      00 330 00 00         : PHIN         - NEUTRON POROSITY (SANDSTONE)
GR  .API      00 310 00 00         : GR           - GAMMA RAY                   
CALI.MM       00 280 01 00         : CAL          - CALIPER                     
ILD .OHMM     00 120 00 00         : RESD         - DEEP RESISTIVITY (DIL)      
~PARAMETER INFORMATION       
#MNEM.UNIT           DATA             DESCRIPTION OF MNEMONIC
#---------         -----------     ------------------------------
GL  .M        633.374              : gl           - GROUND LEVEL ELEVATION      
EREF.M        636.422              : kb           - ELEVATION OF DEPTH REFERENCE
DATM.M        633.374              : datum        - DATUM ELEVATION             
TDD .M        627.888              : tdd          - TOTAL DEPTH DRILLER         
RUN .         ONE                  : Run          - RUN NUMBER                  
BASE.         EDM                  : Branch       - HOME BASE OF LOGGING UNIT   
MUD .         GEL CHEM             : Mud_type     - MUD TYPE                    
MATR.         SANDSTONE            : Logunit      - NEUTRON MATRIX              
TMAX.C        27.2222              : BHT          - MAXIMUM RECORDED TEMPERATURE
BHTD.M        627.888              : BHTDEP       - MAXIMUM RECORDED TEMPERATURE
RMT .C        16.6667              : MDTP         - TEMPERATURE OF MUD          
MUDD.KG/M     0                    : MWT          - MUD DENSITY                 
NEUT.         1                    : NEUTRON      - NEUTRON TYPE                
RESI.         0                    : RESIST       - RESISTIVITY TYPE            
RM  .OHMM     4.87                 : RM           - RESISTIVITY OF MUD          
RMC .OHMM     0                    : RMC          - RESISTIVITY OF MUD CAKE     
RMF .OHMM     3.87                 : RMF          - RESISTIVITY OF MUD FILTRATE 
SUFT.C        -17.7778             : SUFT         - SURFACE TEMPERATURE         
~A  DEPTH     PHID     PHIN       GR      CAL     RESD
# ...
  627.508    0.180    0.509  102.506  159.517    2.199
  627.758    0.176    0.520   99.137  159.534    2.365
  628.008    0.167    0.519   95.702  159.573    2.719
  628.258    0.155    0.465   92.025  159.591    2.956
  628.508    0.146    0.426   89.391  159.625    3.475
  628.758    0.103    0.385   86.209  159.639    3.928
  629.008    0.070    0.391   82.776  159.673    4.400
  629.258    0.038    0.386   79.961  159.687    4.802
  629.508    0.017    0.361   84.079  159.719    5.014
  629.758    0.072    0.359   91.790  159.545    5.063
  630.008    0.122    0.365   97.334  159.664    5.056
  630.258    0.128    0.376  102.817  159.486    5.058
  630.508    0.117    0.386  102.977  159.515    5.203
  630.758    0.107    0.367   96.941  159.536    5.774
  631.008    0.100    0.350   90.720  159.355    6.565
  631.258    0.093    0.338   84.009  159.171    7.367
  631.508    0.081    0.296   79.212  159.199    7.996
  631.758    0.060    0.276   74.233  159.013    8.165
  632.008    0.028    0.260   71.664  158.843    7.031
  632.258    0.011    0.258   74.362  158.754    5.999
  632.508    0.004    0.303   84.485  158.666    5.156
  632.758    0.123    0.367   94.795  158.588    4.808
  633.008    0.136    0.401   96.628  158.309    4.992
  633.258    0.135    0.390   90.159  158.129    5.519
  633.508    0.124    0.383   85.239  158.044    6.103
  633.758    0.099    0.373   80.756  157.957    6.301
  634.008    0.084    0.332   75.711  157.879    6.075
  634.258    0.062    0.313   79.398  157.808    5.890
  634.508    0.085    0.351   85.250  157.726    5.742
  634.758    0.110    0.371   89.060  157.661    5.702
  635.008    0.129    0.341   86.805  157.584    5.800
  635.258    0.113    0.342   84.491  157.600    5.835
  635.508    0.108    0.344   82.971  157.735    5.860
  635.758    0.086    0.335   83.443  157.755    5.819
  636.008    0.038    0.317   85.888  157.755    5.737
  636.258    0.040    0.331   90.564  157.801    5.603
  636.508    0.084    0.355   84.654  157.836    5.025
  636.758    0.108    0.370   73.296  157.863    4.240
  637.008    0.119    0.357   59.402  157.879    3.775
  637.258    0.132    0.320   46.496  158.026    3.355
  637.508    0.152    0.305   36.748  158.043    2.815
  637.758    0.211    0.323   29.291  158.059    2.420
  638.008    0.238    0.318   30.317  158.191    2.235
  638.258    0.249    0.311   31.032  158.224    2.187
  638.508    0.242    0.308   31.687  158.460    2.229
  638.758    0.240    0.312   31.288  158.478    2.289
  639.008    0.245    0.314   29.708  158.609    2.337
  639.258    0.251    0.321   31.540  158.751    2.382
  639.508    0.261    0.332   34.422  158.884    2.383
  639.758    0.254    0.336   34.454  158.901    2.367
  640.008    0.251    0.326   31.143  158.947    2.333
  640.258    0.256    0.326   28.149  158.965    2.275
  640.508    0.259    0.331   27.625  159.089    2.234
  640.758    0.254    0.334   28.396  159.116    2.182
  641.008    0.251    0.341   29.548  159.133    2.159
  641.258    0.251    0.343   29.958  159.178    2.144
  641.508    0.266    0.337   30.047  159.194    2.133
  641.758    0.258    0.336   31.198  159.210    2.130
  642.008    0.252    0.335   31.477  159.351    2.139
  642.258    0.252    0.334   32.190  159.477    2.164
  642.508    0.255    0.336   33.525  159.504    2.201
  642.758    0.246    0.344   34.114  159.527    2.227
  643.008    0.233    0.346   34.521  159.663    2.257
  643.258    0.228    0.346   34.681  159.679    2.317
  643.508    0.228    0.346   35.085  160.028    2.366
  643.758    0.230    0.343   36.417  160.154    2.412
  644.008    0.250    0.331   37.752  160.493    2.417
  644.258    0.260    0.326   38.593  161.044    2.414
  644.508    0.250    0.323   38.872  161.597    2.402
  644.758    0.234    0.322   38.845  162.038    2.390
  645.008    0.243    0.332   38.878  162.588    2.360
  645.258    0.254    0.342   39.034  163.036    2.327
  645.508    0.262    0.337   39.192  163.481    2.306
  645.758    0.266    0.328   39.167  163.818    2.299
  646.008    0.269    0.328   39.693  164.045    2.308
  646.258    0.265    0.335   40.473  164.403    2.322
  646.508    0.251    0.340   41.370  164.520    2.336
  646.758    0.242    0.333   42.705  164.550    2.368
  647.008    0.235    0.315   42.737  164.470    2.382
  647.258    0.227    0.320   40.605  164.495    2.401
  647.508    0.224    0.334   39.215  164.206    2.402
  647.758    0.233    0.347   40.303  163.915    2.403
  648.008    0.244    0.357   41.140  162.793    2.436
  648.258    0.248    0.359   41.606  161.462    2.497
  648.508    0.247    0.347   42.016  160.342    2.535
  648.758    0.244    0.346   42.796  159.736    2.569
  649.008    0.240    0.355   43.076  159.140    2.594
  649.258    0.235    0.357   43.045  158.848    2.615
  649.508    0.226    0.346   43.323  158.665    2.641
  649.758    0.220    0.340   44.169  158.490    2.672
  650.008    0.233    0.343   45.063  158.504    2.713
  650.258    0.236    0.348   47.510  158.334    2.775
  650.508    0.236    0.350   49.839  158.249    2.844
  650.758    0.230    0.347   50.304  158.371    2.893
  651.008    0.218    0.334   49.906  158.507    2.927
  651.258    0.202    0.325   50.372  158.529    2.956
  651.508    0.207    0.341   51.147  158.562    3.012
  651.758    0.224    0.349   53.165  158.585    3.070
  652.008    0.232    0.345   54.745  158.608    3.152
  652.258    0.223    0.333   52.052  158.745    3.248
  652.508    0.216    0.332   51.717  158.766    3.341
  652.758    0.212    0.337   53.358  158.787    3.444
  653.008    0.202    0.333   55.127  158.922    3.549
  653.258    0.194    0.329   54.542  158.943    3.678
  653.508    0.181    0.335   51.355  158.885    3.861
  653.758    0.184    0.329   50.772  158.904    3.965
  654.008    0.177    0.322   51.731  159.025    3.996
  654.258    0.152    0.318   53.685  159.046    4.035
  654.508    0.158    0.314   57.000  159.184    4.067
  654.758    0.174    0.313   61.738  159.418    4.168
  655.008    0.182    0.313   60.659  159.438    4.319
  655.258    0.181    0.311   61.003  159.794    4.468
  655.508    0.162    0.306   62.275  159.911    4.596
  655.758    0.140    0.294   63.916  160.358    4.710
  656.008    0.151    0.304   63.828  160.695    4.792
  656.258    0.169    0.319   62.872  161.354    4.838
  656.508    0.179    0.319   62.160  162.015    4.868
  656.758    0.164    0.320   59.969  162.240    4.879
  657.008    0.167    0.325   58.019  162.797    4.881
  657.258    0.169    0.314   58.795  163.022    4.902
  657.508    0.141    0.301   61.184  163.479    4.959
  657.758    0.138    0.298   64.062  163.811    5.083
  658.008    0.154    0.299   65.459  164.043    5.257
  658.258    0.172    0.290   65.989  164.286    5.540
  658.508    0.166    0.286   69.488  164.417    5.709
  658.758    0.156    0.283   76.210  164.645    5.819
  659.008    0.137    0.289   81.442  164.645    5.843
  659.258    0.113    0.322   88.720  164.908    5.706
  659.508    0.085    0.387   94.886  165.035    5.351
  659.758    0.070    0.409   97.146  165.035    5.121
  660.008    0.087    0.425   94.454  165.190    4.928
  660.258    0.094    0.434   94.055  165.328    4.849
  660.508    0.103    0.447   91.241  165.353    5.100
  660.758    0.123    0.467   85.022  165.285    5.660
  661.008    0.102    0.327   75.212  165.298    6.591
  661.258    0.072    0.304   66.024  165.230    8.374
  661.508    0.053    0.227   60.175  165.349    9.989
  661.758    0.058    0.207   58.041  165.276   11.633
  662.008    0.068    0.205   54.300  165.092   12.911
  662.258    0.061    0.194   54.335  164.911   14.013
  662.508    0.052    0.176   53.314  164.727   14.821
  662.758    0.041    0.182   49.077  164.649   13.171
  663.008    0.031    0.192   53.508  164.464   10.551
  663.258    0.030    0.209   61.097  164.285    8.406
  663.508    0.066    0.241   66.883  164.404    7.374
  663.758    0.090    0.296   72.241  164.436    6.738
