~VERSION INFORMATION
 VERS.                 2.0:   CWLS LOG ASCII STANDARD -VERSION 2.0
 WRAP.                  NO:   ONE LINE PER DEPTH STEP
~WELL INFORMATION BLOCK
#MNEM.UNIT           DATA                    DESCRIPTION OF MNEMONIC
#---------    -------------------            -------------------------------
# Generated from Intellog Unique Number	CW_70_72/WELL/3015
NULL.         -999.25                        : NULL_VALUE
WELL.         CHIEFCO POR ET AL DANCING 07-0 : Well_name    - WELL              
LOC .         07-01-070-27W4                 : Location     - LOCATION          
UWI .         00/07-01-070-27W4/0            : Uwi          - UNIQUE WELL ID    
ENTR.         J                              : Entered      - ENTERED BY        
SRVC.         SCHLUMBERGER                   : Scn          - SERVICE COMPANY   
DATE.         20 DEC 75                      : Date         - LOG DATE          
STRT.M        484.632                        : top_depth    - START DEPTH       
STOP.M        737.632                        : bot_depth    - STOP DEPTH        
STEP.M        0.25                           : increment    - STEP LENGTH       
~CURVE INFORMATION BLOCK
#MNEM UNIT       ERCB CURVE CODE    CURVE DESCRIPTION
#-----------   ------------------   ----------------------------------
DEPT.M        00 001 00 00         : DEPTH        - DEPTH                       
ILD .OHMM     00 120 00 00         : RESD         - DEEP RESISTIVITY (DIL)      
CALI.MM       00 280 01 00         : CAL          - CALIPER                     
GR  .API      00 310 00 00         : GR           - GAMMA RAY                   
NPHI.V/V      00 330 00 00         : PHIN         - NEUTRON POROSITY (SANDSTONE)
DPHI.V/V      00 890 00 00         : PHID         - DENSITY POROSITY (SANDSTONE)
~PARAMETER INFORMATION       
#MNEM.UNIT           DATA             DESCRIPTION OF MNEMONIC
#---------         -----------     ------------------------------
GL  .M        648.005              : gl           - GROUND LEVEL ELEVATION      
EREF.M        650.748              : kb           - ELEVATION OF DEPTH REFERENCE
DATM.M        648.005              : datum        - DATUM ELEVATION             
TDD .M        754.38               : tdd          - TOTAL DEPTH DRILLER         
RUN .         ONE                  : Run          - RUN NUMBER                  
ENG .         ROBSON               : Engineer     - RECORDING ENGINEER          
BASE.         RD                   : Branch       - HOME BASE OF LOGGING UNIT   
MUD .         GEL                  : Mud_type     - MUD TYPE                    
MATR.         SANDSTONE            : Logunit      - NEUTRON MATRIX              
TMAX.C        27.7778              : BHT          - MAXIMUM RECORDED TEMPERATURE
BHTD.M        754.075              : BHTDEP       - MAXIMUM RECORDED TEMPERATURE
RMT .C        17.7778              : MDTP         - TEMPERATURE OF MUD          
MUDD.KG/M     1176                 : MWT          - MUD DENSITY                 
NEUT.         1                    : NEUTRON      - NEUTRON TYPE                
RESI.         0                    : RESIST       - RESISTIVITY TYPE            
RM  .OHMM     3.72                 : RM           - RESISTIVITY OF MUD          
RMC .OHMM     2.5                  : RMC          - RESISTIVITY OF MUD CAKE     
RMF .OHMM     4.21                 : RMF          - RESISTIVITY OF MUD FILTRATE 
SUFT.C        -17.7778             : SUFT         - SURFACE TEMPERATURE         
~A  DEPTH     RESD      CAL       GR     PHIN     PHID
  484.632    2.125  193.840   93.943    0.531    0.183
  484.882    2.140  193.761   89.827    0.542    0.202
  485.132    2.195  194.504   82.128    0.529    0.204
  485.382    2.275  197.612   78.806    0.529    0.225
  485.632    2.437  202.986   76.873    0.552    0.247
  485.882    2.595  205.987   70.147    0.566    0.269
  486.132    2.745  189.969   57.408    0.491    0.285
  486.382    2.861  160.997   49.224    0.398    0.307
  486.632    2.897  155.776   51.668    0.369    0.259
  486.882    2.917  154.979   53.867    0.385    0.250
  487.132    2.938  154.385   57.221    0.403    0.265
  487.382    3.007  154.100   59.181    0.415    0.257
  487.632    3.191  154.022   60.712    0.413    0.236
  487.882    3.393  154.151   65.221    0.406    0.223
  488.132    3.519  154.891   68.756    0.400    0.219
  488.382    3.556  156.557   71.440    0.400    0.195
  488.632    3.562  162.544   73.275    0.430    0.161
  488.882    3.477  168.020   72.318    0.457    0.142
  489.132    3.365  166.194   73.546    0.456    0.138
  489.382    3.243  162.101   71.192    0.421    0.198
  489.632    3.115  159.762   68.291    0.396    0.207
  489.882    2.933  159.782   72.981    0.406    0.211
  490.132    2.792  159.501   83.867    0.398    0.248
  490.382    2.692  158.290   89.039    0.430    0.236
  490.632    2.590  162.118   91.907    0.462    0.218
  490.882    2.502  170.262   87.732    0.486    0.214
  491.132    2.464  170.494   91.754    0.514    0.245
  491.382    2.468  169.177   94.439    0.579    0.253
  491.632    2.727  177.737   94.452    0.582    0.272
  491.882    3.012  189.482   88.517    0.460    0.297
  492.132    3.407  166.166   83.007    0.395    0.232
  492.382    3.847  161.464   82.835    0.382    0.204
  492.632    4.320  161.382   86.615    0.382    0.221
  492.882    4.677  161.402   84.928    0.389    0.221
  493.132    5.056  161.021   81.966    0.403    0.209
  493.382    5.203  160.729   79.186    0.392    0.249
  493.632    5.249  160.238   79.323    0.360    0.281
  493.882    5.078  160.476   76.786    0.377    0.288
  494.132    4.773  160.904   74.614    0.393    0.286
  494.382    4.264  161.337   76.267    0.410    0.256
  494.632    3.992  161.771   74.581    0.439    0.238
  494.882    3.779  161.898   72.532    0.466    0.220
  495.132    3.645  162.235   72.421    0.464    0.204
  495.382    3.656  162.150   74.197    0.445    0.194
  495.632    3.777  161.562   76.216    0.436    0.188
  495.882    3.872  160.969   78.719    0.449    0.182
  496.132    3.963  160.170   81.770    0.459    0.173
  496.382    3.955  159.883   81.965    0.453    0.186
  496.632    3.833  159.596   79.976    0.437    0.199
  496.882    3.513  160.031   79.866    0.425    0.210
  497.132    3.265  162.113   80.550    0.428    0.197
  497.382    2.933  167.377   78.194    0.423    0.178
  497.632    2.371  168.634   70.133    0.436    0.200
  497.882    2.009  163.927   62.919    0.435    0.236
  498.132    1.909  160.455   52.610    0.410    0.294
  498.382    1.926  159.347   58.088    0.398    0.278
  498.632    2.055  158.860   70.552    0.387    0.255
  498.882    2.194  158.579   76.030    0.388    0.229
  499.132    2.359  158.290   71.978    0.400    0.212
  499.382    2.531  158.212   67.799    0.403    0.235
  499.632    2.681  158.544   72.248    0.405    0.241
  499.882    2.774  158.669   76.815    0.411    0.214
  500.132    2.748  158.693   78.955    0.396    0.208
  500.382    2.611  159.023   72.348    0.409    0.195
  500.632    2.397  159.462   61.614    0.407    0.230
  500.882    2.180  159.377   50.940    0.390    0.267
  501.132    1.919  159.402   52.351    0.358    0.285
  501.382    1.733  159.320   53.215    0.350    0.279
  501.632    1.565  159.146   50.435    0.364    0.272
  501.882    1.447  158.858   43.892    0.386    0.270
  502.132    1.370  159.083   37.956    0.403    0.268
  502.382    1.311  159.217   36.757    0.383    0.286
  502.632    1.276  159.340   37.377    0.381    0.273
  502.882    1.264  159.675   38.845    0.374    0.282
  503.132    1.396  159.897   42.503    0.367    0.278
  503.382    1.512  160.235   45.431    0.365    0.282
  503.632    1.628  160.254   50.911    0.367    0.271
  503.882    1.725  160.086   57.059    0.362    0.276
  504.132    1.885  160.097   65.696    0.365    0.257
  504.382    2.060  159.813   71.722    0.377    0.239
  504.632    2.214  159.939   75.742    0.368    0.213
  504.882    2.389  159.939   79.035    0.365    0.189
  505.132    2.572  160.610   81.842    0.384    0.214
  505.382    2.821  160.726   86.960    0.383    0.205
  505.632    3.044  160.751   92.377    0.376    0.209
  505.882    3.297  161.088   98.099    0.356    0.198
  506.132    3.570  165.836  101.635    0.408    0.169
  506.382    3.803  170.692  101.587    0.438    0.175
  506.632    3.795  171.539  100.387    0.415    0.188
  506.882    3.490  170.434   99.190    0.396    0.187
  507.132    3.134  170.150   98.654    0.388    0.194
  507.382    2.675  169.555   98.243    0.411    0.216
  507.632    2.304  170.705   97.772    0.495    0.258
  507.882    2.092  186.255   97.603    0.561    0.285
  508.132    2.028  197.796   97.677    0.564    0.307
  508.382    2.087  203.375   97.752    0.560    0.289
  508.632    2.228  219.848   98.313    0.561    0.254
  508.882    2.417  203.317  100.208    0.525    0.273
  509.132    2.680  184.009  102.714    0.479    0.228
  509.382    2.860  174.572  102.361    0.480    0.178
  509.632    3.068  183.541   95.878    0.543    0.182
  509.882    3.287  196.521   85.872    0.536    0.223
  510.132    3.437  185.646   75.988    0.481    0.253
  510.382    3.558  172.817   69.138    0.376    0.285
  510.632    3.486  160.401   69.578    0.358    0.330
  510.882    3.247  159.292   75.725    0.373    0.302
  511.132    2.970  158.184   75.861    0.432    0.258
  511.382    2.910  157.588   75.391    0.445    0.218
  511.632    2.919  156.689   77.470    0.437    0.196
  511.882    3.004  156.092   79.485    0.443    0.185
  512.132    3.149  155.809   81.565    0.424    0.201
  512.382    3.393  157.786   83.763    0.425    0.202
  512.632    3.628  161.511   85.903    0.438    0.184
  512.882    3.921  164.623   82.760    0.450    0.168
  513.132    4.198  165.876   78.339    0.450    0.155
  513.382    4.699  166.933   72.523    0.397    0.182
  513.632    5.005  167.672   61.123    0.335    0.186
  513.882    5.243  167.800   62.169    0.302    0.148
  514.132    5.194  167.721   65.035    0.311    0.135
  514.382    4.459  166.610   60.920    0.357    0.171
  514.632    3.751  164.370   56.197    0.409    0.208
  514.882    2.898  162.857   54.209    0.416    0.250
  515.132    2.363  161.755   54.221    0.416    0.286
  515.382    2.025  161.160   54.478    0.408    0.274
  515.632    1.879  160.872   55.525    0.400    0.268
  515.882    1.832  160.487   57.116    0.417    0.271
  516.132    1.848  160.504   58.832    0.417    0.267
  516.382    1.898  160.424   60.000    0.418    0.272
  516.632    2.071  160.549   60.378    0.415    0.282
  516.882    2.218  160.986   61.427    0.408    0.294
  517.132    2.291  161.323   62.409    0.411    0.274
  517.382    2.332  161.238   65.277    0.422    0.261
  517.632    2.276  161.067   66.565    0.435    0.245
  517.882    2.195  160.666   65.182    0.446    0.229
  518.132    2.112  160.485   64.533    0.447    0.254
  518.382    1.985  160.405   67.822    0.436    0.262
  518.632    1.938  160.740   77.126    0.444    0.249
  518.882    1.889  162.626   83.456    0.442    0.240
  519.132    1.941  163.873   87.964    0.451    0.232
  519.382    2.175  166.567   92.715    0.498    0.226
  519.632    2.420  177.283   92.424    0.472    0.228
  519.882    2.611  181.729   92.438    0.430    0.245
  520.132    2.823  180.314   95.670    0.399    0.200
  520.382    2.970  190.621   98.660    0.398    0.160
  520.632    3.039  195.989  100.071    0.435    0.171
  520.882    3.094  190.462   95.227    0.489    0.212
