~VERSION INFORMATION
 VERS.                 2.0:   CWLS LOG ASCII STANDARD -VERSION 2.0
 WRAP.                  NO:   ONE LINE PER DEPTH STEP
~WELL INFORMATION BLOCK
#MNEM.UNIT           DATA                    DESCRIPTION OF MNEMONIC
#---------    -------------------            -------------------------------
# Generated from Intellog Unique Number	CN_91_93/WELL/3193
WELL.         PARAMOUNT RESOURCES LTD.       : Well_name    - WELL
LOC .         00/06-02-092-19W4/0            : Location     - LOCATION
UWI .         00/06-02-092-19W4/0            : Uwi          - UNIQUE WELL ID
ENTR.         JOETTE                         : Entered      - ENTERED BY
SRVC.         COMPUTALOG                     : Scn          - SERVICE COMPANY
DATE.         04/14/92                       : Date         - LOG DATE
STRT.M        100                            : top_depth    - START DEPTH
STOP.M        267                            : bot_depth    - STOP DEPTH
STEP.M        0.25                           : increment    - STEP LENGTH
 NULL. -999.2500:NULL Value
~CURVE INFORMATION BLOCK
#MNEM UNIT       ERCB CURVE CODE    CURVE DESCRIPTION
#-----------   ------------------   ----------------------------------
DEPT.M        00 001 00 00         : DEPTH        - DEPTH
CALI.MM       00 280 01 00         : CAL          - CALIPER
GR  .API      00 310 00 00         : GR           - GAMMA RAY
NPHI.V/V      00 330 00 00         : PHIN         - NEUTRON POROSITY (SANDSTONE)
DPHI.V/V      00 890 00 00         : PHID         - DENSITY POROSITY (SANDSTONE)
ILD .OHMM     00 120 00 00         : RESD         - DEEP RESISTIVITY (DIL)
~PARAMETER INFORMATION
#MNEM.UNIT           DATA             DESCRIPTION OF MNEMONIC
#---------         -----------     ------------------------------
GL  .M        527.02               : gl           - GROUND LEVEL ELEVATION
EREF.M        530.82               : kb           - ELEVATION OF DEPTH REFERENCE
DATM.M        530.82               : datum        - DATUM ELEVATION
TDD .M        267.5                : tdd          - TOTAL DEPTH DRILLER
RUN .         ONE                  : Run          - RUN NUMBER
ENG .         JO                   : Engineer     - RECORDING ENGINEER
WIT .         TIM                  : Witness      - WITNESSED BY
MUD .         GEL                  : Mud_type     - MUD TYPE
MATR.         SANDSTONE            : Logunit      - NEUTRON MATRIX
TMAX.C        22                   : BHT          - MAXIMUM RECORDED TEMPERATURE
BHTD.M        267.5                : BHTDEP       - MAXIMUM RECORDED TEMPERATURE
RMT .C        11.1                 : MDTP         - TEMPERATURE OF MUD
MUDD.KG/M     1130                 : MWT          - MUD DENSITY
NEUT.         1                    : NEUTRON      - NEUTRON TYPE
RESI.         0                    : RESIST       - RESISTIVITY TYPE
RM  .OHMM     1.8                  : RM           - RESISTIVITY OF MUD
RMC .OHMM     1.8                  : RMC          - RESISTIVITY OF MUD CAKE
RMF .OHMM     5                    : RMF          - RESISTIVITY OF MUD FILTRATE
SUFT.C        4                    : SUFT         - SURFACE TEMPERATURE
~A  DEPTH      CAL       GR     PHIN     PHID     RESD
# ...
  136.500  220.472  128.275    0.491    0.220    6.451
  136.750  222.565  126.458    0.539    0.194    6.203
  137.000  225.710  119.079    0.507    0.155    6.201
  137.250  224.717  124.046    0.458    0.165    6.200
  137.500  217.562  129.637    0.455    0.201    6.198
  137.750  217.609  130.893    0.510    0.203    5.959
  138.000  218.685  126.607    0.504    0.203    5.843
  138.250  219.761  126.635    0.483    0.211    5.729
  138.500  221.889  126.046    0.491    0.217    5.617
  138.750  225.023  123.605    0.523    0.204    5.507
  139.000  221.972  116.836    0.547    0.135    5.505
  139.250  188.055  116.254    0.530    0.152    5.612
  139.500  173.697  119.369    0.437    0.221    5.832
  139.750  149.052  121.249    0.434    0.260    5.946
  140.000  136.752  120.043    0.426    0.295    6.180
  140.250  140.927  118.219    0.416    0.289    6.423
  140.500  148.164  116.395    0.523    0.273    6.421
  140.750  157.471  115.806    0.557    0.267    6.296
  141.000  170.894  117.693    0.603    0.263    6.173
  141.250  192.559  118.325    0.573    0.260    6.052
  141.500  215.241  118.353    0.528    0.259    6.170
  141.750  219.416  118.382    0.479    0.257    6.666
  142.000  220.515  118.410    0.470    0.245    6.796
  142.250  220.527  114.117    0.492    0.232    7.344
  142.500  220.574  108.589    0.516    0.244    8.092
  142.750  219.604  103.679    0.507    0.250    8.916
  143.000  218.611   99.386    0.508    0.224   10.415
  143.250  218.658   87.685    0.472    0.169   12.166
  143.500  226.948   82.157    0.418    0.166   12.162
  143.750  223.908   90.211    0.383    0.210   11.469
  144.000  220.881  103.820    0.391    0.249    9.812
  144.250  218.858  117.437    0.431    0.226    8.560
  144.500  216.848  120.552    0.474    0.202    7.917
  144.750  214.849  122.432    0.475    0.181    7.322
  145.000  214.884  123.092    0.484    0.169    6.771
  145.250  215.984  123.723    0.436    0.145    6.511
  145.500  217.036  124.376    0.451    0.183    6.384
  145.750  218.112  121.928    0.447    0.195    5.791
  146.000  220.229  125.667    0.443    0.220    5.356
  146.250  219.259  125.078    0.460    0.233    4.582
  146.500  218.254  120.785    0.487    0.232    4.238
  146.750  219.353  118.344    0.485    0.234    3.996
  147.000  219.377  120.217    0.491    0.245    3.843
  147.250  221.493  120.863    0.524    0.249    3.695
  147.500  223.586  120.274    0.562    0.250    3.417
  147.750  224.674  116.605    0.614    0.254    3.350
  148.000  223.693  114.782    0.614    0.256    3.285
  148.250  221.670  114.810    0.551    0.259    3.284
  148.500  216.573  116.683    0.515    0.264    3.480
  148.750  210.447  121.657    0.476    0.268    3.761
  149.000  208.448  123.537    0.486    0.275    4.480
  149.250  211.582  120.486    0.541    0.262    5.233
  149.500  215.756  116.186    0.553    0.232    5.766
  149.750  217.861  111.893    0.487    0.226    6.478
  150.000  218.937  108.842    0.435    0.231    7.566
  150.250  220.025  104.542    0.411    0.216    8.669
  150.500  220.060   97.155    0.452    0.205    9.931
  150.750  222.165   91.627    0.475    0.210   11.157
  151.000  225.299   94.742    0.483    0.200   12.293
  151.250  227.392   83.659    0.455    0.115   12.778
  151.500  227.451   83.070    0.352    0.062   13.279
  151.750  219.267   91.748    0.401    0.076   13.020
  152.000  216.228   92.400    0.439    0.115   11.810
  152.250  214.205   92.429    0.428    0.205   10.712
  152.500  210.149   93.074    0.413    0.232    9.906
  152.750  205.051   97.417    0.423    0.233    9.162
  153.000  195.827  104.853    0.435    0.222    8.640
  153.250  184.557  112.289    0.425    0.229    8.807
  153.500  173.298  117.873    0.402    0.273    9.154
  153.750  172.304  120.988    0.435    0.286    9.892
  154.000  160.005  114.226    0.460    0.271   10.689
  154.250  161.081   92.030    0.474    0.250   11.111
  154.500  172.446   86.510    0.471    0.236   11.776
  154.750  192.042   87.148    0.458    0.237   11.772
  155.000  211.637   88.411    0.447    0.251   11.769
  155.250  218.910   82.266    0.548    0.261   11.765
  155.500  221.015   77.974    0.485    0.267   11.535
  155.750  221.062   77.384    0.452    0.264   11.758
  156.000  221.109   79.272    0.447    0.262   11.755
  156.250  219.087   80.535    0.421    0.241   12.219
  156.500  211.944   83.025    0.452    0.216   12.453
  156.750  209.921   85.523    0.459    0.236   12.696
  157.000  209.980   85.551    0.368    0.269   12.692
  157.250  210.027   91.760    0.405    0.255   11.969
  157.500  210.074  102.282    0.434    0.228   10.043
  157.750  212.179  102.311    0.460    0.188    8.762
  158.000  216.354  101.729    0.476    0.175    7.352
  158.250  219.476  104.837    0.464    0.193    7.208
  158.500  221.569  107.334    0.435    0.192    7.492
  158.750  223.674  110.456    0.452    0.186    8.255
  159.000  225.779  109.867    0.402    0.181    8.921
  159.250  225.837  109.278    0.387    0.182    9.454
  159.500  226.913  109.931    0.426    0.192    9.269
  159.750  227.990  109.945    0.452    0.203    8.573
  160.000  230.094  109.973    0.495    0.209    7.929
  160.250  222.939  106.297    0.516    0.216    7.624
  160.500  219.888  100.770    0.542    0.189    7.622
  160.750  215.820   99.564    0.531    0.153    8.397
  161.000  217.937  102.068    0.521    0.177    9.253
  161.250  208.724   99.003    0.504    0.223   10.396
  161.500  202.586   91.630    0.447    0.246   11.455
  161.750  196.460   87.962    0.395    0.262   12.869
  162.000  203.721   87.359    0.398    0.278   13.377
  162.250  216.114   88.004    0.392    0.245   14.454
  162.500  223.387   89.267    0.414    0.213   13.899
  162.750  223.411   92.389    0.454    0.191   13.627
  163.000  223.458   94.276    0.471    0.193   14.164
  163.250  224.534   89.976    0.413    0.170   15.306
  163.500  225.622   86.918    0.364    0.160   16.221
  163.750  222.582   88.181    0.351    0.208   16.218
  164.000  217.485   90.061    0.330    0.239   15.293
  164.250  213.405   88.855    0.340    0.234   14.143
  164.500  210.366   88.266    0.345    0.211   13.338
  164.750  208.367   91.381    0.347    0.203   12.578
  165.000  208.414   95.113    0.340    0.200   11.860
  165.250  207.432  100.711    0.437    0.189   11.628
  165.500  206.439   99.498    0.458    0.178   11.626
  165.750  205.469   97.674    0.478    0.148   12.083
  166.000  205.516   94.616    0.480    0.136   11.846
  166.250  207.621   92.175    0.460    0.162   11.172
  166.500  208.697   89.116    0.424    0.186    9.559
  166.750  210.813   87.286    0.381    0.225    8.340
  167.000  212.918   98.426    0.410    0.218    7.713
  167.250  215.023  105.252    0.451    0.218    7.273
  167.500  215.070  109.608    0.485    0.222    7.131
  167.750  213.060  105.308    0.515    0.227    7.557
  168.000  213.107   95.459    0.497    0.225    8.327
  168.250  216.241   88.073    0.472    0.213    9.539
  168.500  218.345   78.224    0.502    0.204   10.512
  168.750  216.323   74.555    0.473    0.241   11.581
  169.000  195.793   79.515    0.455    0.261   12.038
  169.250  206.129   86.958    0.414    0.246   12.271
  169.500  219.551   94.394    0.388    0.231   11.348
  169.750  223.726  103.065    0.401    0.220   10.293
  170.000  222.744  108.656    0.415    0.231    9.898
  170.250  219.704  107.450    0.427    0.230    8.805
  170.500  218.734  105.002    0.440    0.221    8.632
  170.750  217.741  100.092    0.457    0.225    8.631
  171.000  217.788   93.329    0.491    0.227    8.798
  171.250  217.835   92.740    0.391    0.225    9.323
  171.500  216.842   95.862    0.405    0.213   10.272
  171.750  216.912   98.970    0.428    0.197   10.678
  172.000  216.971   98.999    0.453    0.176   11.996
  172.250  218.036   94.088    0.495    0.139   14.855
  172.500  219.100   89.795    0.476    0.110   18.757
  172.750  220.176   85.502    0.424    0.082   23.684
