~VERSION INFORMATION
 VERS.                 2.0:   CWLS LOG ASCII STANDARD -VERSION 2.0
 WRAP.                  NO:   ONE LINE PER DEPTH STEP
~WELL INFORMATION BLOCK
#MNEM.UNIT           DATA                    DESCRIPTION OF MNEMONIC
#---------    -------------------            -------------------------------
# Generated from Intellog Unique Number	CS_73_76/WELL/785
WELL.         AMOCO KIRBY                    : Well_name    - WELL
LOC .         00/09-25-073-05W4/0            : Location     - LOCATION
UWI .         00/09-25-073-05W4/0            : Uwi          - UNIQUE WELL ID
ENTR.         SP                             : Entered      - ENTERED BY
SRVC.         SCHLUMBERGER                   : Scn          - SERVICE COMPANY
STRT.M        285                            : top_depth    - START DEPTH
STOP.M        500                            : bot_depth    - STOP DEPTH
STEP.M        0.25                           : increment    - STEP LENGTH
 NULL. -999.2500:NULL Value
~CURVE INFORMATION BLOCK
#MNEM UNIT       ERCB CURVE CODE    CURVE DESCRIPTION
#-----------   ------------------   ----------------------------------
DEPT.M        00 001 00 00         : DEPTH        - DEPTH
ILD .OHMM     00 120 00 00         : RESD         - DEEP RESISTIVITY (DIL)
DPHI.V/V      00 890 00 00         : PHID         - DENSITY POROSITY (LIMESTONE)
NPHI.V/V      00 330 00 00         : PHIN         - NEUTRON POROSITY (LIMESTONE)
GR  .API      00 310 00 00         : GR           - GAMMA RAY
~PARAMETER INFORMATION
#MNEM.UNIT           DATA             DESCRIPTION OF MNEMONIC
#---------         -----------     ------------------------------
GL  .M        682.7                : gl           - GROUND LEVEL ELEVATION
EREF.M        686.9                : kb           - ELEVATION OF DEPTH REFERENCE
DATM.M        682.7                : datum        - DATUM ELEVATION
TDD .M        845.3                : tdd          - TOTAL DEPTH DRILLER
RUN .         ONE                  : Run          - RUN NUMBER
ENG .         BILL                 : Engineer     - RECORDING ENGINEER
WIT .         JIM                  : Witness      - WITNESSED BY
MUD .         GEL                  : Mud_type     - MUD TYPE
MATR.         LIMESTONE            : Logunit      - NEUTRON MATRIX
TMAX.C        18                   : BHT          - MAXIMUM RECORDED TEMPERATURE
BHTD.M        845.3                : BHTDEP       - MAXIMUM RECORDED TEMPERATURE
MATR.         1                    : LOGUNIT      - NEUTRON MATRIX
RMT .C        25                   : MDTP         - TEMPERATURE OF MUD
NEUT.         1                    : NEUTRON      - NEUTRON TYPE
RESI.         0                    : RESIST       - RESISTIVITY TYPE
RMC .OHMM     0.25                 : RMC          - RESISTIVITY OF MUD CAKE
RMF .OHMM     0.25                 : RMF          - RESISTIVITY OF MUD FILTRATE
SUFT.C        15                   : SUFT         - SURFACE TEMPERATURE
~A  DEPTH     RESD     PHID     PHIN       GR
# ...
  415.500    1.377    0.319    0.442   49.317
  415.750    1.353    0.309    0.446   48.714
  416.000    1.304    0.296    0.426   48.111
  416.250    1.281    0.303    0.412   48.709
  416.500    1.305    0.314    0.392   48.706
  416.750    1.571    0.314    0.405   49.302
  417.000    1.788    0.314    0.418   49.300
  417.250    1.572    0.319    0.413   49.297
  417.500    1.382    0.320    0.404   49.294
  417.750    1.333    0.317    0.398   49.291
  418.000    1.262    0.314    0.394   49.888
  418.250    1.239    0.323    0.411   51.685
  418.500    1.217    0.327    0.433   52.282
  418.750    1.217    0.359    0.454   51.678
  419.000    1.218    0.412    0.472   51.675
  419.250    1.219    0.448    0.590   51.673
  419.500    1.219    0.467    0.592   51.070
  419.750    1.220    0.474    0.603   50.467
  420.000    1.243    0.466    0.619   50.464
  420.250    1.244    0.468    0.614   51.061
  420.500    1.268    0.461    0.567   52.258
  420.750    1.268    0.465    0.506   53.455
  421.000    1.293    0.459    0.513   55.851
  421.250    1.317    0.449    0.536   57.048
  421.500    1.342    0.460    0.556   58.245
  421.750    1.557    0.459    0.540   58.242
  422.000    1.874    0.402    0.511   58.240
  422.250    1.981    0.325    0.502   57.037
  422.500    2.095    0.323    0.496   55.834
  422.750    2.135    0.338    0.487   50.431
  423.000    2.300    0.363    0.397   46.828
  423.250    2.980    0.335    0.382   44.426
  423.500    3.520    0.330    0.368   45.022
  423.750    4.396    0.340    0.363   46.220
  424.000    5.291    0.348    0.357   46.816
  424.250    6.136    0.363    0.352   46.213
  424.500    6.610    0.354    0.346   45.010
  424.750    6.142    0.347    0.345   44.408
  425.000    5.602    0.348    0.349   42.005
  425.250    5.303    0.347    0.355   42.224
  425.500    5.021    0.348    0.359   43.426
  425.750    5.115    0.357    0.363   46.434
  426.000    6.044    0.360    0.379   49.440
  426.250    7.009    0.361    0.393   49.437
  426.500    7.144    0.388    0.408   48.831
  426.750    6.639    0.400    0.384   47.019
  427.000    6.400    0.393    0.388   46.410
  427.250    6.058    0.399    0.382   46.406
  427.500    6.406    0.388    0.334   46.403
  427.750    7.568    0.381    0.255   47.002
  428.000    9.108    0.404    0.233   47.600
  428.250   10.564    0.422    0.248   48.199
  428.500   11.170    0.420    0.285   46.989
  428.750   11.813    0.398    0.302   46.383
  429.000    7.447    0.384    0.267   45.173
  429.250    5.969    0.377    0.242   44.568
  429.500    8.967    0.394    0.216   45.165
  429.750   12.509    0.414    0.262   45.161
  430.000   15.335    0.436    0.295   43.953
  430.250   12.755    0.375    0.317   45.151
  430.500    8.657    0.345    0.281   46.352
  430.750    6.098    0.344    0.263   46.951
  431.000    7.615    0.352    0.239   46.948
  431.250    9.867    0.365    0.295   45.738
  431.500   11.233    0.371    0.326   43.925
  431.750    8.839    0.350    0.313   43.923
  432.000    6.829    0.344    0.301   45.726
  432.250    7.221    0.347    0.336   48.132
  432.500    7.359    0.354    0.327   49.331
  432.750    4.640    0.364    0.319   49.931
  433.000    4.473    0.364    0.330   50.528
  433.250    4.476    0.367    0.338   49.319
  433.500    4.316    0.350    0.332   46.302
  433.750    4.398    0.328    0.297   44.491
  434.000    5.594    0.358    0.282   44.485
  434.250    6.858    0.370    0.309   44.481
  434.500    6.989    0.382    0.330   45.079
  434.750    3.663    0.368    0.353   44.474
  435.000    3.280    0.355    0.334   44.471
  435.250    3.282    0.359    0.345   43.864
  435.500    3.164    0.349    0.381   43.861
  435.750    2.400    0.333    0.409   45.061
  436.000    2.189    0.334    0.381   46.260
  436.250    2.034    0.304    0.347   46.859
  436.500    2.151    0.278    0.326   48.059
  436.750    2.233    0.244    0.350   48.658
  437.000    2.000    0.282    0.368   48.652
  437.250    1.858    0.320    0.378   48.650
  437.500    1.894    0.332    0.377   48.042
  437.750    2.238    0.320    0.401   48.038
  438.000    2.410    0.328    0.415   48.636
  438.250    2.744    0.334    0.428   49.236
  438.500    3.067    0.325    0.438   50.436
  438.750    3.243    0.332    0.432   51.637
  439.000    3.626    0.331    0.445   51.030
  439.250    3.763    0.325    0.456   48.616
  439.500    3.906    0.334    0.460   46.202
  439.750    3.837    0.327    0.420   45.596
  440.000    3.910    0.319    0.418   46.193
  440.250    3.985    0.305    0.414   46.190
  440.500    4.373    0.292    0.412   46.788
  440.750    4.798    0.273    0.406   46.784
  441.000    4.712    0.283    0.402   46.780
  441.250    4.461    0.304    0.384   47.378
  441.500    4.146    0.297    0.382   47.975
  441.750    3.997    0.320    0.384   47.370
  442.000    3.925    0.333    0.386   46.764
  442.250    3.855    0.344    0.388   45.552
  442.500    3.857    0.352    0.438   44.947
  442.750    3.788    0.342    0.437   44.944
  443.000    3.652    0.333    0.401   44.937
  443.250    3.394    0.333    0.388   44.934
  443.500    3.154    0.336    0.383   46.736
  443.750    3.041    0.339    0.382   47.335
  444.000    2.878    0.348    0.394   47.935
  444.250    2.674    0.359    0.401   49.134
  444.500    2.308    0.325    0.405   47.926
  444.750    2.106    0.306    0.407   43.102
  445.000    2.186    0.300    0.415   46.110
  445.250    2.535    0.306    0.427   47.913
  445.500    2.731    0.309    0.442   47.909
  445.750    2.585    0.321    0.448   46.097
  446.000    2.358    0.331    0.456   46.093
  446.250    2.448    0.326    0.454   47.294
  446.500    2.637    0.297    0.430   49.699
  446.750    2.737    0.309    0.415   50.296
  447.000    2.591    0.325    0.408   50.896
  447.250    2.278    0.330    0.399   51.492
  447.500    2.003    0.335    0.393   51.489
  447.750    1.895    0.333    0.394   50.883
  448.000    1.729    0.325    0.411   50.277
  448.250    1.667    0.290    0.420   49.670
  448.500    1.607    0.263    0.401   48.461
  448.750    1.668    0.228    0.336   44.240
  449.000    2.415    0.183    0.280   37.608
  449.250    4.129    0.139    0.208   36.401
  449.500    7.189    0.073    0.200   40.009
  449.750    8.977    0.069    0.321   41.212
  450.000    8.818    0.171    0.363   44.219
  450.250    5.876    0.288    0.407   47.226
  450.500    3.773    0.336    0.436   47.223
  450.750    2.209    0.343    0.449   47.218
  451.000    1.804    0.335    0.456   46.612
  451.250    1.616    0.328    0.423   46.609
  451.500    1.474    0.332    0.405   44.194
  451.750    1.370    0.337    0.394   44.190
  452.000    1.296    0.334    0.388   44.185
  452.250    1.423    0.329    0.390   42.977
  452.500    1.650    0.324    0.402   41.768
  452.750    1.744    0.336    0.417   42.968
  453.000    1.451    0.335    0.432   44.168
  453.250    1.252    0.334    0.441   44.768
  453.500    1.400    0.326    0.453   47.171
  453.750    1.653    0.330    0.465   47.771
  454.000    1.953    0.329    0.428   46.561
  454.250    2.028    0.326    0.417   43.544
  454.500    1.816    0.331    0.411   42.940
  454.750    1.784    0.325    0.396   42.935
  455.000    1.886    0.319    0.388   43.533
  455.250    1.958    0.316    0.384   41.721
  455.500    1.853    0.313    0.401   43.522
  455.750    1.722    0.311    0.413   44.724
  456.000    1.661    0.302    0.407   47.129
  456.250    1.998    0.288    0.398   48.331
  456.500    2.947    0.275    0.399   49.532
  456.750    2.639    0.299    0.423   48.323
  457.000    2.155    0.315    0.417   45.909
  457.250    1.826    0.321    0.422   44.098
  457.500    1.576    0.330    0.439   44.094
  457.750    1.491    0.343    0.452   44.692
  458.000    1.412    0.335    0.460   46.495
  458.250    1.387    0.334    0.464   49.503
  458.500    1.387    0.354    0.460   53.714
  458.750    1.494    0.327    0.364   54.313
