~VERSION INFORMATION
 VERS.                 2.0:   CWLS LOG ASCII STANDARD -VERSION 2.0
 WRAP.                  NO:   ONE LINE PER DEPTH STEP
~WELL INFORMATION BLOCK
#MNEM.UNIT           DATA                    DESCRIPTION OF MNEMONIC
#---------    -------------------            -------------------------------
# Generated from Intellog Unique Number	CS_67_68/WELL/778
WELL.         ICG RESOURCES LTD.             : Well_name    - WELL
LOC .         00/07-28-068-09W4/0            : Location     - LOCATION
UWI .         00/07-28-068-09W4/0            : Uwi          - UNIQUE WELL ID
ENTR.         SP                             : Entered      - ENTERED BY
SRVC.         SCHLUMBERGER                   : Scn          - SERVICE COMPANY
STRT.M        515                            : top_depth    - START DEPTH
STOP.M        735                            : bot_depth    - STOP DEPTH
STEP.M        0.25                           : increment    - STEP LENGTH
 NULL. -999.2500:NULL Value
~CURVE INFORMATION BLOCK
#MNEM UNIT       ERCB CURVE CODE    CURVE DESCRIPTION
#-----------   ------------------   ----------------------------------
DEPT.M        00 001 00 00         : DEPTH        - DEPTH
ILD .OHMM     00 120 00 00         : RESD         - DEEP RESISTIVITY (DIL)
DPHI.V/V      00 890 00 00         : PHID         - DENSITY POROSITY (LIMESTONE)
NPHI.V/V      00 330 00 00         : PHIN         - NEUTRON POROSITY (LIMESTONE)
GR  .API      00 310 00 00         : GR           - GAMMA RAY
~PARAMETER INFORMATION
#MNEM.UNIT           DATA             DESCRIPTION OF MNEMONIC
#---------         -----------     ------------------------------
GL  .M        839.1                : gl           - GROUND LEVEL ELEVATION
EREF.M        842.3                : kb           - ELEVATION OF DEPTH REFERENCE
DATM.M        839.1                : datum        - DATUM ELEVATION
TDD .M        739                  : tdd          - TOTAL DEPTH DRILLER
RUN .         ONE                  : Run          - RUN NUMBER
ENG .         BILL                 : Engineer     - RECORDING ENGINEER
WIT .         JIM                  : Witness      - WITNESSED BY
MUD .         GEL                  : Mud_type     - MUD TYPE
MATR.         LIMESTONE            : Logunit      - NEUTRON MATRIX
TMAX.C        23.8                 : BHT          - MAXIMUM RECORDED TEMPERATURE
BHTD.M        739                  : BHTDEP       - MAXIMUM RECORDED TEMPERATURE
MATR.         1                    : LOGUNIT      - NEUTRON MATRIX
RMT .C        25                   : MDTP         - TEMPERATURE OF MUD
NEUT.         1                    : NEUTRON      - NEUTRON TYPE
RESI.         0                    : RESIST       - RESISTIVITY TYPE
RMC .OHMM     0.25                 : RMC          - RESISTIVITY OF MUD CAKE
RMF .OHMM     0.25                 : RMF          - RESISTIVITY OF MUD FILTRATE
SUFT.C        15                   : SUFT         - SURFACE TEMPERATURE
~A  DEPTH     RESD     PHID     PHIN       GR
  515.000    1.773    0.227    0.526   93.041
  515.250    1.779    0.239    0.536   91.700
  515.500    1.823    0.254    0.532   92.740
  515.750    1.857    0.235    0.533   97.016
  516.000    1.891    0.213    0.541   99.704
  516.250    1.908    0.198    0.547  101.171
  516.500    1.918    0.206    0.552   99.341
  516.750    1.943    0.238    0.553   93.056
  517.000    1.961    0.256    0.532   88.784
  517.250    1.982    0.188    0.514   86.100
  517.500    2.008    0.180    0.509   89.093
  517.750    2.034    0.194    0.512   92.087
  518.000    2.091    0.211    0.518   93.554
  518.250    2.166    0.216    0.524   93.617
  518.500    2.235    0.208    0.529   92.642
  518.750    2.285    0.220    0.538   91.362
  519.000    2.306    0.237    0.544   92.768
  519.250    2.345    0.244    0.525   97.899
  519.500    2.375    0.243    0.522  101.808
  519.750    2.388    0.241    0.536  103.031
  520.000    2.387    0.238    0.544   99.736
  520.250    2.386    0.229    0.540   95.831
  520.500    2.381    0.222    0.550   93.696
  520.750    2.385    0.216    0.508   92.538
  521.000    2.380    0.212    0.490   92.540
  521.250    2.397    0.210    0.494   93.641
  521.500    2.415    0.221    0.505   96.146
  521.750    2.455    0.184    0.510   99.323
  522.000    2.514    0.166    0.512   97.799
  522.250    2.561    0.179    0.488  100.304
  522.500    2.619    0.193    0.470   99.634
  522.750    2.647    0.199    0.480   97.072
  523.000    2.642    0.203    0.458   98.661
  523.250    2.592    0.207    0.444  106.905
  523.500    2.525    0.206    0.444  106.968
  523.750    2.432    0.194    0.452  101.475
  524.000    2.329    0.194    0.476   99.035
  524.250    2.324    0.196    0.491  100.564
  524.500    2.518    0.204    0.506   99.345
  524.750    3.085    0.210    0.516   87.442
  525.000    3.938    0.144    0.298   71.326
  525.250    5.036    0.122    0.283   55.028
  525.500    6.346    0.229    0.296   42.820
  525.750    7.645    0.266    0.304   43.066
  526.000    8.297    0.290    0.299   44.655
  526.250    8.805    0.286    0.291   41.178
  526.500    9.155    0.295    0.308   41.118
  526.750    9.716    0.284    0.325   40.266
  527.000   10.408    0.283    0.342   38.375
  527.250   11.529    0.295    0.371   35.691
  527.500   12.964    0.303    0.397   33.922
  527.750   14.389    0.307    0.410   32.643
  528.000   15.616    0.311    0.390   32.400
  528.250   16.979    0.321    0.392   32.891
  528.500   17.819    0.327    0.403   33.320
  528.750   18.875    0.329    0.405   30.758
  529.000   20.032    0.323    0.406   26.914
  529.250   21.902    0.316    0.405   26.183
  529.500   22.730    0.316    0.403   31.130
  529.750   21.050    0.322    0.397   30.400
  530.000   18.365    0.316    0.395   26.006
  530.250   16.264    0.294    0.403   35.410
  530.500   14.950    0.277    0.419   42.860
  530.750   13.897    0.273    0.431   48.540
  531.000   13.739    0.294    0.411   40.971
  531.250   14.717    0.309    0.406   33.465
  531.500   16.673    0.316    0.403   31.696
  531.750   18.332    0.307    0.386   27.424
  532.000   18.431    0.298    0.376   23.947
  532.250   16.231    0.294    0.385   24.437
  532.500   13.265    0.293    0.396   28.651
  532.750   11.191    0.295    0.387   32.072
  533.000    9.601    0.300    0.375   32.685
  533.250    8.190    0.309    0.367   31.466
  533.500    7.013    0.315    0.381   37.328
  533.750    6.108    0.244    0.394   47.038
  534.000    5.479    0.224    0.391   65.294
  534.250    5.229    0.200    0.417   86.969
  534.500    5.276    0.227    0.433   91.855
  534.750    5.465    0.257    0.417   72.137
  535.000    5.588    0.277    0.387   61.456
  535.250    5.755    0.282    0.378   57.734
  535.500    5.808    0.297    0.382   59.445
  535.750    5.501    0.308    0.381   64.637
  536.000    5.094    0.307    0.381   70.377
  536.250    4.613    0.290    0.388   78.011
  536.500    4.337    0.277    0.393   84.362
  536.750    4.240    0.264    0.406   90.469
  537.000    4.215    0.240    0.424   96.576
  537.250    4.182    0.142    0.424   95.418
  537.500    4.181    0.109    0.413   92.428
  537.750    4.188    0.110    0.401   98.963
  538.000    4.234    0.130    0.401  106.596
  538.250    4.163    0.147    0.421  103.118
  538.500    3.913    0.085    0.442   98.603
  538.750    3.597    0.087    0.458  105.442
  539.000    3.239    0.131    0.471  114.907
  539.250    3.011    0.164    0.487  120.648
  539.500    2.667    0.183    0.502  123.580
  539.750    2.479    0.189    0.513  120.224
  540.000    2.279    0.188    0.502  121.264
  540.250    2.154    0.187    0.509  124.319
  540.500    2.227    0.219    0.513  125.847
  540.750    2.431    0.228    0.495  121.331
  541.000    2.713    0.221    0.485  110.039
  541.250    3.022    0.253    0.468   88.368
  541.500    3.160    0.287    0.453   69.017
  541.750    3.291    0.313    0.435   51.925
  542.000    3.260    0.348    0.416   42.342
  542.250    3.058    0.337    0.398   44.237
  542.500    3.001    0.333    0.401   46.986
  542.750    3.063    0.331    0.397   47.537
  543.000    3.131    0.323    0.413   47.661
  543.250    3.166    0.322    0.428   51.510
  543.500    3.153    0.324    0.433   53.892
  543.750    3.065    0.327    0.446   55.787
  544.000    3.008    0.336    0.450   56.094
  544.250    2.908    0.344    0.433   54.204
  544.500    2.816    0.351    0.427   52.496
  544.750    2.733    0.354    0.443   50.178
  545.000    2.702    0.352    0.445   46.701
  545.250    2.686    0.348    0.436   43.833
  545.500    2.670    0.348    0.425   41.027
  545.750    2.645    0.353    0.405   39.625
  546.000    2.615    0.354    0.398   43.595
  546.250    2.585    0.352    0.405   44.757
  546.500    2.546    0.355    0.411   43.355
  546.750    2.536    0.355    0.407   44.883
  547.000    2.530    0.346    0.399   51.540
  547.250    2.530    0.341    0.390   55.999
  547.500    2.524    0.340    0.388   60.579
  547.750    2.529    0.338    0.407   64.488
  548.000    2.528    0.347    0.418   68.825
  548.250    2.537    0.351    0.422   74.261
  548.500    2.541    0.354    0.426   82.565
  548.750    2.554    0.344    0.434   91.481
  549.000    2.573    0.346    0.448   67.368
  549.250    2.592    0.349    0.444   55.099
  549.500    2.605    0.350    0.429   48.934
  549.750    2.624    0.333    0.420   54.309
  550.000    2.648    0.327    0.413   56.692
  550.250    2.657    0.336    0.407   58.220
  550.500    2.697    0.341    0.410   55.048
  550.750    2.788    0.344    0.419   61.643
  551.000    2.872    0.346    0.430   67.628
  551.250    3.036    0.334    0.438   73.857
  551.500    3.199    0.314    0.442   80.819
  551.750    3.325    0.298    0.437   84.973
  552.000    3.477    0.291    0.444   86.684
  552.250    3.548    0.285    0.462   87.541
  552.500    3.481    0.280    0.466   87.665
  552.750    3.404    0.276    0.456   82.600
  553.000    3.384    0.280    0.451   78.572
  553.250    3.434    0.296    0.447   80.711
  553.500    3.544    0.304    0.438   87.124
  553.750    3.603    0.290    0.450   90.972
  554.000    3.615    0.291    0.477   95.003
  554.250    3.548    0.313    0.489   86.702
  554.500    3.449    0.296    0.490   81.026
  554.750    3.409    0.279    0.485   90.736
  555.000    3.421    0.252    0.475   96.599
  555.250    3.420    0.241    0.462  100.752
  555.500    3.407    0.260    0.470  101.242
  555.750    3.400    0.273    0.474   98.924
  556.000    3.399    0.255    0.466   98.072
  556.250    3.411    0.242    0.453   96.975
  556.500    3.454    0.237    0.468   96.549
  556.750    3.565    0.245    0.499   96.063
  557.000    3.741    0.256    0.504   96.736
  557.250    3.861    0.251    0.482   96.311
  557.500    3.896    0.239    0.468   95.459
  557.750    3.866    0.242    0.464   93.934
  558.000    3.822    0.265    0.492   90.761
  558.250    3.737    0.284    0.502   88.444
