~VERSION INFORMATION
 VERS.                 2.0:   CWLS LOG ASCII STANDARD -VERSION 2.0
 WRAP.                  NO:   ONE LINE PER DEPTH STEP
~WELL INFORMATION BLOCK
#MNEM.UNIT           DATA                    DESCRIPTION OF MNEMONIC
#---------    -------------------            -------------------------------
# Generated from Intellog Unique Number	CX_WELLS/WELL/2581
WELL.         PARA ET AL PONY                : Well_name    - WELL
LOC .         00/03-11-080-08W4/0            : Location     - LOCATION
UWI .         00/03-11-080-08W400            : Uwi          - UNIQUE WELL ID
ENTR.         T                              : Entered      - ENTERED BY
SRVC.         SCHLUMBERGER                   : Scn          - SERVICE COMPANY
STRT.M        190                            : top_depth    - START DEPTH
STOP.M        410                            : bot_depth    - STOP DEPTH
STEP.M        0.25                           : increment    - STEP LENGTH
 NULL. -999.2500:NULL Value
~CURVE INFORMATION BLOCK
#MNEM UNIT       ERCB CURVE CODE    CURVE DESCRIPTION
#-----------   ------------------   ----------------------------------
DEPT.M        00 001 00 00         : DEPTH        - DEPTH
GR  .API      00 310 00 00         : GR           - GAMMA RAY
NPHI.V/V      00 330 00 00         : PHIN         - NEUTRON POROSITY (SANDSTONE)
DPHI.V/V      00 890 00 00         : PHID         - DENSITY POROSITY (SANDSTONE)
ILD .OHMM     00 120 00 00         : RESD         - DEEP RESISTIVITY (DIL)
~PARAMETER INFORMATION
#MNEM.UNIT           DATA             DESCRIPTION OF MNEMONIC
#---------         -----------     ------------------------------
GL  .M        631                  : gl           - GROUND LEVEL ELEVATION
EREF.M        634.5                : kb           - ELEVATION OF DEPTH REFERENCE
DATM.M        634.5                : datum        - DATUM ELEVATION
TDD .M        411                  : tdd          - TOTAL DEPTH DRILLER
RUN .         ONE                  : Run          - RUN NUMBER
ENG .         BILL                 : Engineer     - RECORDING ENGINEER
WIT .         JIM                  : Witness      - WITNESSED BY
MUD .         GEL                  : Mud_type     - MUD TYPE
MATR.         SANDSTONE            : Logunit      - NEUTRON MATRIX
TMAX.C        25                   : BHT          - MAXIMUM RECORDED TEMPERATURE
BHTD.M        411                  : BHTDEP       - MAXIMUM RECORDED TEMPERATURE
MATR.         1                    : LOGUNIT      - NEUTRON MATRIX
RMT .C        16                   : MDTP         - TEMPERATURE OF MUD
NEUT.         1                    : NEUTRON      - NEUTRON TYPE
RESI.         3.5                  : RESIST       - RESISTIVITY TYPE
RMC .OHMM     3.2                  : RMC          - RESISTIVITY OF MUD CAKE
RMF .OHMM     3.5                  : RMF          - RESISTIVITY OF MUD FILTRATE
SUFT.C        5                    : SUFT         - SURFACE TEMPERATURE
~A  DEPTH       GR     PHIN     PHID     RESD
# ...
  320.500   87.002    0.365    0.222    8.476
  320.750   88.756    0.352    0.197    7.729
  321.000   90.516    0.357    0.118    7.727
  321.250   94.043    0.383    0.080    7.726
  321.500   96.980    0.389    0.114    7.724
  321.750  100.503    0.401    0.147    7.722
  322.000  102.850    0.413    0.185    7.864
  322.250  104.018    0.425    0.252    8.009
  322.500  104.595    0.439    0.238    8.308
  322.750  103.401    0.450    0.225    8.778
  323.000  102.213    0.455    0.227    9.447
  323.250  101.019    0.446    0.241   10.357
  323.500  100.421    0.423    0.241   10.744
  323.750  100.409    0.412    0.241    9.978
  324.000   99.805    0.409    0.246    9.098
  324.250   98.619    0.404    0.260    8.449
  324.500   96.838    0.394    0.277    8.142
  324.750   95.647    0.386    0.293    7.846
  325.000   95.635    0.390    0.308    7.700
  325.250   97.983    0.395    0.311    7.699
  325.500   99.740    0.409    0.292    7.556
  325.750  100.318    0.416    0.263    7.556
  326.000  100.890    0.426    0.239    7.554
  326.250  101.471    0.431    0.233    7.552
  326.500  101.459    0.432    0.234    7.550
  326.750  101.447    0.436    0.235    7.548
  327.000  100.846    0.437    0.235    7.548
  327.250  100.247    0.438    0.233    7.975
  327.500   98.466    0.439    0.232    8.583
  327.750   96.686    0.442    0.232    9.069
  328.000   95.494    0.447    0.234    8.902
  328.250   95.483    0.453    0.239    8.577
  328.500   94.292    0.459    0.251    8.419
  328.750   90.739    0.460    0.277    8.417
  329.000   87.186    0.426    0.303    8.572
  329.250   84.818    0.407    0.330    9.056
  329.500   85.396    0.369    0.347    9.395
  329.750   88.923    0.399    0.327    9.927
  330.000   91.859    0.433    0.300   11.085
  330.250   94.206    0.455    0.286   12.152
  330.500   94.195    0.465    0.293   13.323
  330.750   93.001    0.436    0.305   14.078
  331.000   92.405    0.401    0.327   15.719
  331.250   88.262    0.366    0.347   16.609
  331.500   82.944    0.373    0.356   16.605
  331.750   78.804    0.377    0.355   16.001
  332.000   75.251    0.369    0.345   14.862
  332.250   72.883    0.358    0.326   13.061
  332.500   69.328    0.333    0.292   11.062
  332.750   68.729    0.267    0.179   10.086
  333.000   68.721    0.277    0.131    9.367
  333.250   69.888    0.290    0.128    9.026
  333.500   73.414    0.309    0.151    8.859
  333.750   76.938    0.352    0.273    8.696
  334.000   79.282    0.386    0.323    8.535
  334.250   79.276    0.419    0.322    8.534
  334.500   78.675    0.448    0.318    8.376
  334.750   77.481    0.427    0.310    8.374
  335.000   77.469    0.418    0.305    8.220
  335.250   81.588    0.418    0.294    8.218
  335.500   91.011    0.423    0.289    7.919
  335.750   95.124    0.433    0.292    7.773
  336.000   92.167    0.441    0.287    7.490
  336.250   90.386    0.438    0.280    7.488
  336.500   90.964    0.432    0.262    7.625
  336.750   94.487    0.423    0.194    7.625
  337.000   98.011    0.418    0.187    7.623
  337.250   99.774    0.430    0.211    7.211
  337.500  101.531    0.439    0.223    7.078
  337.750  102.109    0.445    0.228    6.695
  338.000  102.095    0.440    0.231    6.453
  338.250  102.086    0.438    0.231    6.333
  338.500  102.074    0.444    0.233    6.216
  338.750  102.062    0.454    0.233    6.102
  339.000  102.640    0.446    0.233    6.100
  339.250  102.626    0.434    0.234    5.987
  339.500  103.206    0.427    0.233    5.877
  339.750  103.784    0.427    0.233    5.769
  340.000  104.359    0.428    0.233    5.558
  340.250  104.937    0.431    0.232    5.456
  340.500  104.925    0.432    0.228    5.257
  340.750  104.324    0.433    0.227    4.974
  341.000  101.956    0.434    0.226    4.619
  341.250   97.224    0.439    0.228    3.912
  341.500   94.267    0.452    0.235    3.136
  341.750   91.897    0.477    0.258    2.912
  342.000   91.882    0.515    0.273    3.021
  342.250   91.870    0.539    0.284    3.192
  342.500   91.272    0.540    0.294    3.435
  342.750   88.901    0.533    0.294    3.766
  343.000   85.938    0.528    0.293    3.979
  343.250   85.929    0.523    0.289    4.362
  343.500   87.097    0.519    0.284    4.782
  343.750   88.851    0.489    0.276    5.147
  344.000   89.426    0.478    0.267    5.438
  344.250   91.183    0.455    0.268    5.437
  344.500   92.941    0.443    0.268    5.537
  344.750   94.111    0.435    0.262    5.435
  345.000   95.869    0.424    0.236    5.335
  345.250   95.851    0.411    0.231    5.236
  345.500   94.666    0.395    0.232    4.953
  345.750   92.885    0.389    0.238    4.862
  346.000   94.052    0.388    0.245    4.685
  346.250   97.576    0.395    0.254    4.432
  346.500   99.336    0.403    0.247    4.350
  346.750  102.273    0.418    0.235    4.192
  347.000  103.438    0.431    0.226    4.191
  347.250  103.423    0.445    0.220    4.114
  347.500  103.414    0.453    0.222    4.189
  347.750  103.405    0.453    0.226    4.189
  348.000  103.393    0.453    0.231    4.345
  348.250  103.971    0.456    0.231    4.591
  348.500  103.957    0.462    0.230    4.941
  348.750  104.538    0.467    0.229    5.125
  349.000  103.930    0.469    0.230    5.723
  349.250  103.921    0.469    0.231    6.391
  349.500  103.910    0.468    0.230    6.879
  349.750  103.311    0.462    0.228    7.403
  350.000  100.938    0.455    0.226    7.968
  350.250   99.157    0.445    0.228    8.734
  350.500   97.966    0.435    0.229    9.061
  350.750   97.361    0.432    0.229    9.399
  351.000   97.356    0.427    0.219    9.931
  351.250   97.927    0.418    0.205   10.688
  351.500   97.922    0.418    0.185   11.502
  351.750   96.731    0.418    0.177   11.932
  352.000   92.001    0.419    0.189   11.929
  352.250   87.272    0.419    0.188   11.928
  352.500   82.543    0.419    0.191   11.925
  352.750   78.403    0.414    0.202   11.922
  353.000   74.853    0.403    0.238   11.920
  353.250   74.252    0.363    0.291   10.868
  353.500   74.240    0.328    0.297   10.668
  353.750   75.408    0.307    0.294   10.279
  354.000   78.934    0.313    0.289   10.278
  354.250   81.868    0.324    0.278   11.062
  354.500   83.625    0.337    0.274   12.352
  354.750   84.793    0.354    0.275   14.311
  355.000   83.605    0.367    0.286   17.849
  355.250   79.462    0.382    0.307   20.679
  355.500   72.374    0.189    0.336   19.206
  355.750   62.338    0.165    0.380   17.511
  356.000   58.195    0.154    0.406   16.875
  356.250   59.952    0.195    0.407   16.261
  356.500   61.123    0.250    0.385   16.868
  356.750   62.880    0.271    0.312   18.492
  357.000   64.635    0.311    0.294   20.272
  357.250   65.216    0.325    0.293   22.224
  357.500   65.793    0.356    0.293   25.278
  357.750   66.961    0.369    0.294   28.228
  358.000   68.129    0.369    0.295   31.521
  358.250   68.707    0.369    0.298   35.197
  358.500   70.461    0.369    0.298   34.547
  358.750   72.215    0.371    0.299   32.682
  359.000   74.565    0.377    0.299   30.917
  359.250   76.912    0.380    0.299   28.190
  359.500   78.083    0.384    0.298   25.235
  359.750   81.600    0.384    0.297   23.008
  360.000   82.774    0.383    0.294   20.595
  360.250   85.121    0.385    0.289   19.129
  360.500   88.650    0.390    0.280   17.766
  360.750   89.225    0.391    0.261   16.198
  361.000   90.393    0.389    0.208   15.608
  361.250   92.743    0.362    0.161   15.321
  361.500   98.628    0.354    0.193   15.036
  361.750  107.461    0.355    0.221   15.314
  362.000  115.116    0.362    0.212   16.481
  362.250  123.359    0.376    0.202   17.738
  362.500  127.473    0.390    0.207   20.935
  362.750  112.132    0.384    0.282   25.634
  363.000   96.199    0.344    0.310   27.587
  363.250   78.496    0.243    0.315   29.691
  363.500   75.536    0.259    0.314   30.801
  363.750   79.059    0.284    0.309   34.393
