~VERSION INFORMATION
 VERS.                 2.0:   CWLS LOG ASCII STANDARD -VERSION 2.0
 WRAP.                  NO:   ONE LINE PER DEPTH STEP
~WELL INFORMATION BLOCK
#MNEM.UNIT           DATA                    DESCRIPTION OF MNEMONIC
#---------    -------------------            -------------------------------
# Generated from Intellog Unique Number	CS_67_68/WELL/768
WELL.         FISHER CREEK                   : Well_name    - WELL
LOC .         00/07-01-068-06W4/0            : Location     - LOCATION
UWI .         00/07-01-068-06W4/0            : Uwi          - UNIQUE WELL ID
ENTR.         SP                             : Entered      - ENTERED BY
SRVC.         SCHLUMBERGER                   : Scn          - SERVICE COMPANY
STRT.M        335                            : top_depth    - START DEPTH
STOP.M        550                            : bot_depth    - STOP DEPTH
STEP.M        0.25                           : increment    - STEP LENGTH
 NULL. -999.2500:NULL Value
~CURVE INFORMATION BLOCK
#MNEM UNIT       ERCB CURVE CODE    CURVE DESCRIPTION
#-----------   ------------------   ----------------------------------
DEPT.M        00 001 00 00         : DEPTH        - DEPTH
ILD .OHMM     00 120 00 00         : RESD         - DEEP RESISTIVITY (DIL)
DPHI.V/V      00 890 00 00         : PHID         - DENSITY POROSITY (LIMESTONE)
NPHI.V/V      00 330 00 00         : PHIN         - NEUTRON POROSITY (LIMESTONE)
GR  .API      00 310 00 00         : GR           - GAMMA RAY
~PARAMETER INFORMATION
#MNEM.UNIT           DATA             DESCRIPTION OF MNEMONIC
#---------         -----------     ------------------------------
GL  .M        672.57               : gl           - GROUND LEVEL ELEVATION
EREF.M        675.6                : kb           - ELEVATION OF DEPTH REFERENCE
DATM.M        672.57               : datum        - DATUM ELEVATION
TDD .M        554                  : tdd          - TOTAL DEPTH DRILLER
RUN .         ONE                  : Run          - RUN NUMBER
ENG .         BILL                 : Engineer     - RECORDING ENGINEER
WIT .         JIM                  : Witness      - WITNESSED BY
MUD .         GEL                  : Mud_type     - MUD TYPE
MATR.         LIMESTONE            : Logunit      - NEUTRON MATRIX
TMAX.C        20                   : BHT          - MAXIMUM RECORDED TEMPERATURE
BHTD.M        554                  : BHTDEP       - MAXIMUM RECORDED TEMPERATURE
MATR.         1                    : LOGUNIT      - NEUTRON MATRIX
RMT .C        25                   : MDTP         - TEMPERATURE OF MUD
NEUT.         1                    : NEUTRON      - NEUTRON TYPE
RESI.         0                    : RESIST       - RESISTIVITY TYPE
RMC .OHMM     0.25                 : RMC          - RESISTIVITY OF MUD CAKE
RMF .OHMM     0.25                 : RMF          - RESISTIVITY OF MUD FILTRATE
SUFT.C        15                   : SUFT         - SURFACE TEMPERATURE
~A  DEPTH     RESD     PHID     PHIN       GR
# ...
  378.500    9.696    0.093    0.306   55.685
  378.750    8.048    0.164    0.414   59.073
  379.000    7.015    0.223    0.459   62.963
  379.250    6.150    0.315    0.479   66.665
  379.500    5.464    0.349    0.478   68.360
  379.750    5.059    0.357    0.480   67.921
  380.000    4.940    0.365    0.481   66.918
  380.250    5.350    0.369    0.473   66.417
  380.500    5.719    0.364    0.462   66.229
  380.750    5.932    0.351    0.455   65.916
  381.000    5.992    0.341    0.466   65.289
  381.250    5.961    0.328    0.476   64.098
  381.500    5.977    0.314    0.479   63.157
  381.750    6.140    0.303    0.469   62.092
  382.000    6.297    0.300    0.468   61.716
  382.250    6.444    0.307    0.459   62.281
  382.500    6.608    0.315    0.452   63.913
  382.750    6.726    0.315    0.460   64.102
  383.000    6.679    0.307    0.467   63.977
  383.250    6.595    0.304    0.457   62.660
  383.500    6.525    0.310    0.471   58.896
  383.750    6.406    0.316    0.478   57.579
  384.000    6.219    0.319    0.459   61.846
  384.250    6.037    0.321    0.447   64.795
  384.500    5.709    0.325    0.449   66.113
  384.750    5.552    0.335    0.469   67.055
  385.000    5.339    0.343    0.476   67.933
  385.250    5.125    0.346    0.460   69.252
  385.500    5.013    0.345    0.454   70.632
  385.750    4.931    0.343    0.462   72.640
  386.000    4.888    0.351    0.472   74.774
  386.250    4.900    0.356    0.479   69.944
  386.500    4.978    0.356    0.481   64.361
  386.750    5.114    0.353    0.471   61.727
  387.000    5.185    0.348    0.471   61.477
  387.250    5.277    0.341    0.458   60.975
  387.500    5.391    0.333    0.439   68.818
  387.750    5.445    0.321    0.430   77.350
  388.000    5.459    0.311    0.432   84.314
  388.250    5.472    0.305    0.450   90.212
  388.500    5.570    0.300    0.454   96.235
  388.750    5.788    0.294    0.448   92.660
  389.000    5.980    0.292    0.440   91.971
  389.250    6.166    0.289    0.435   98.245
  389.500    6.336    0.286    0.452  101.319
  389.750    6.399    0.280    0.479   92.286
  390.000    6.440    0.276    0.484   81.371
  390.250    6.395    0.277    0.468   74.219
  390.500    6.327    0.285    0.461   65.500
  390.750    6.271    0.293    0.457   67.633
  391.000    6.239    0.301    0.464   68.198
  391.250    6.137    0.306    0.476   68.325
  391.500    5.992    0.309    0.484   69.078
  391.750    5.872    0.306    0.487   70.772
  392.000    5.616    0.296    0.491   73.784
  392.250    5.524    0.286    0.502   73.346
  392.500    5.353    0.298    0.513   65.442
  392.750    5.285    0.308    0.498   56.095
  393.000    5.268    0.313    0.466   48.755
  393.250    5.331    0.315    0.439   44.741
  393.500    5.284    0.315    0.394   42.985
  393.750    5.179    0.312    0.395   44.993
  394.000    5.114    0.307    0.389   48.569
  394.250    5.040    0.308    0.403   51.958
  394.500    5.005    0.312    0.419   53.589
  394.750    4.999    0.314    0.413   54.907
  395.000    5.087    0.313    0.402   55.661
  395.250    5.217    0.308    0.395   59.425
  395.500    5.340    0.304    0.391   64.821
  395.750    5.424    0.301    0.385   71.033
  396.000    5.511    0.290    0.384   75.676
  396.250    5.556    0.276    0.399   77.997
  396.500    5.633    0.264    0.409   80.695
  396.750    5.766    0.257    0.412   84.209
  397.000    5.890    0.264    0.418   90.421
  397.250    6.017    0.274    0.433   94.562
  397.500    6.146    0.279    0.432   93.935
  397.750    6.363    0.265    0.424   92.493
  398.000    6.500    0.252    0.417   95.630
  398.250    6.565    0.236    0.416   98.203
  398.500    6.533    0.218    0.416   96.635
  398.750    6.511    0.237    0.446   86.222
  399.000    6.453    0.270    0.495   75.996
  399.250    6.372    0.294    0.475   67.590
  399.500    6.316    0.305    0.456   62.384
  399.750    6.296    0.320    0.446   63.012
  400.000    6.252    0.330    0.444   64.769
  400.250    6.151    0.333    0.437   62.135
  400.500    5.960    0.336    0.432   57.305
  400.750    5.542    0.341    0.431   54.733
  401.000    5.429    0.344    0.446   54.106
  401.250    5.251    0.349    0.465   52.978
  401.500    5.165    0.354    0.454   50.281
  401.750    5.100    0.351    0.447   47.521
  402.000    5.056    0.349    0.447   45.075
  402.250    5.030    0.349    0.444   44.448
  402.500    5.061    0.345    0.446   46.895
  402.750    5.094    0.341    0.449   48.652
  403.000    5.144    0.342    0.449   50.723
  403.250    5.177    0.347    0.448   51.853
  403.500    5.170    0.350    0.439   51.854
  403.750    5.153    0.353    0.444   47.212
  404.000    5.138    0.353    0.456   48.279
  404.250    5.121    0.353    0.446   48.907
  404.500    5.086    0.355    0.437   45.708
  404.750    5.060    0.356    0.434   46.712
  405.000    5.053    0.358    0.439   48.469
  405.250    4.999    0.360    0.444   47.278
  405.500    4.908    0.360    0.449   46.024
  405.750    4.819    0.360    0.450   47.028
  406.000    4.751    0.358    0.449   48.409
  406.250    4.744    0.357    0.457   47.657
  406.500    4.747    0.355    0.469   45.712
  406.750    4.768    0.351    0.461   48.975
  407.000    4.816    0.343    0.456   51.234
  407.250    4.836    0.341    0.475   53.054
  407.500    4.904    0.343    0.486   53.431
  407.750    4.944    0.346    0.469   52.491
  408.000    4.984    0.351    0.445   51.927
  408.250    4.997    0.354    0.434   52.618
  408.500    4.990    0.350    0.453   55.567
  408.750    4.984    0.343    0.458   58.641
  409.000    4.977    0.336    0.449   61.151
  409.250    4.989    0.329    0.441   60.273
  409.500    5.030    0.334    0.450   57.326
  409.750    5.100    0.336    0.461   56.009
  410.000    5.180    0.338    0.464   61.091
  410.250    5.375    0.328    0.473   62.409
  410.500    5.396    0.323    0.479   64.543
  410.750    5.409    0.326    0.451   72.699
  411.000    5.301    0.329    0.431   81.168
  411.250    5.117    0.289    0.417   89.952
  411.500    4.802    0.258    0.467   82.550
  411.750    4.540    0.289    0.493   76.779
  412.000    4.325    0.310    0.487   70.004
  412.250    4.287    0.324    0.471   66.115
  412.500    4.371    0.331    0.461   64.108
  412.750    4.500    0.338    0.457   70.382
  413.000    4.597    0.323    0.454   77.095
  413.250    4.714    0.311    0.455   83.056
  413.500    4.825    0.299    0.468   85.817
  413.750    4.892    0.290    0.488   80.297
  414.000    4.950    0.290    0.502   83.685
  414.250    4.852    0.290    0.488   86.760
  414.500    4.544    0.277    0.502   82.557
  414.750    4.361    0.293    0.516   76.347
  415.000    4.085    0.311    0.462   79.359
  415.250    3.848    0.315    0.437   91.718
  415.500    3.590    0.291    0.510  101.443
  415.750    3.213    0.276    0.550  105.521
  416.000    2.657    0.277    0.579  105.772
  416.250    2.396    0.296    0.601  102.134
  416.500    2.610    0.291    0.574   87.267
  416.750    2.998    0.295    0.539   74.218
  417.000    3.417    0.311    0.506   66.126
  417.250    3.786    0.331    0.468   62.864
  417.500    4.227    0.355    0.454   67.256
  417.750    4.666    0.351    0.449   68.010
  418.000    4.931    0.345    0.449   65.877
  418.250    5.066    0.341    0.463   63.808
  418.500    5.254    0.340    0.480   61.487
  418.750    5.956    0.320    0.501   58.978
  419.000    7.307    0.262    0.388   53.521
  419.250   11.353    0.187    0.169   44.488
  419.500   14.881   -0.003    0.148   48.880
  419.750   17.615   -0.010    0.145   53.523
  420.000   21.572   -0.000    0.150   57.413
  420.250   27.958    0.062    0.208   61.930
  420.500   19.467    0.238    0.374   66.260
  420.750   12.545    0.303    0.464   69.272
  421.000    8.130    0.332    0.486   69.711
  421.250    6.497    0.344    0.494   68.332
  421.500    5.674    0.351    0.479   67.329
  421.750    5.225    0.352    0.472   67.392
