~VERSION INFORMATION
 VERS.                 2.0:   CWLS LOG ASCII STANDARD -VERSION 2.0
 WRAP.                  NO:   ONE LINE PER DEPTH STEP
~WELL INFORMATION BLOCK
#MNEM.UNIT           DATA                    DESCRIPTION OF MNEMONIC
#---------    -------------------            -------------------------------
# Generated from Intellog Unique Number	CS_73_76/WELL/4141
WELL.         BVI ET AL DUNCAN               : Well_name    - WELL
LOC .         00/03-30-074-10W4/0            : Location     - LOCATION
UWI .         00/03-30-074-10W4/0            : Uwi          - UNIQUE WELL ID
ENTR.         SP                             : Entered      - ENTERED BY
SRVC.         SCHLUMBERGER                   : Scn          - SERVICE COMPANY
STRT.M        304.8                          : top_depth    - START DEPTH
STOP.M        521.3                          : bot_depth    - STOP DEPTH
STEP.M        0.25                           : increment    - STEP LENGTH
 NULL. -999.2500:NULL Value
~CURVE INFORMATION BLOCK
#MNEM UNIT       ERCB CURVE CODE    CURVE DESCRIPTION
#-----------   ------------------   ----------------------------------
DEPT.M        00 001 00 00         : DEPTH        - DEPTH
GR  .API      00 310 00 00         : GR           - GAMMA RAY
DELT.US/F     00 520 00 00         : DELT         - SONIC TRAVEL TIME
ILD .OHMM     00 120 00 00         : RESD         - DEEP RESISTIVITY (DIL)
~PARAMETER INFORMATION
#MNEM.UNIT           DATA             DESCRIPTION OF MNEMONIC
#---------         -----------     ------------------------------
GL  .M        678.028              : gl           - GROUND LEVEL ELEVATION
EREF.M        681.533              : kb           - ELEVATION OF DEPTH REFERENCE
DATM.M        681.533              : datum        - DATUM ELEVATION
TDD .M        787.908              : tdd          - TOTAL DEPTH DRILLER
RUN .         ONE                  : Run          - RUN NUMBER
ENG .         BILL                 : Engineer     - RECORDING ENGINEER
WIT .         JIM                  : Witness      - WITNESSED BY
MUD .         GEL                  : Mud_type     - MUD TYPE
MATR.         SANDSTONE            : Logunit      - NEUTRON MATRIX
TMAX.C        26.6667              : BHT          - MAXIMUM RECORDED TEMPERATURE
BHTD.M        787.908              : BHTDEP       - MAXIMUM RECORDED TEMPERATURE
MATR.         1                    : LOGUNIT      - NEUTRON MATRIX
RMT .C        25                   : MDTP         - TEMPERATURE OF MUD
NEUT.         1                    : NEUTRON      - NEUTRON TYPE
RESI.         0                    : RESIST       - RESISTIVITY TYPE
RMC .OHMM     1.13                 : RMC          - RESISTIVITY OF MUD CAKE
RMF .OHMM     0.82                 : RMF          - RESISTIVITY OF MUD FILTRATE
SUFT.C        15                   : SUFT         - SURFACE TEMPERATURE
~A  DEPTH       GR     DELT     RESD
# ...
  467.550   75.264  437.921    3.482
  467.800   75.261  434.604    3.546
  468.050   75.259  431.288    3.542
  468.300   75.256  429.964    3.475
  468.550   75.252  429.968    3.407
  468.800   75.250  432.628    3.340
  469.050   75.246  441.265    3.274
  469.300   74.640  454.553    3.272
  469.550   70.418  447.915    3.396
  469.800   64.385  416.038    3.947
  470.050   60.765  388.146    4.590
  470.300   55.938  386.822    5.756
  470.550   54.730  328.377    7.355
  470.800   53.521  336.351    7.488
  471.050   53.518  355.616    7.204
  471.300   58.338  372.889    6.803
  471.550   61.350  394.147    6.421
  471.800   63.759  408.099    6.176
  472.050   68.580  407.439    6.173
  472.300   69.180  400.136    6.286
  472.550   69.780  386.858    6.522
  472.800   71.586  388.854    6.771
  473.050   75.803  389.521    7.437
  473.300   78.211  390.190    8.644
  473.550   77.605  386.873    9.496
  473.800   76.397  382.226   10.235
  474.050   72.777  366.954   10.824
  474.300   68.553  310.502   11.020
  474.550   66.139  298.551   11.014
  474.800   64.326  329.107   11.005
  475.050   64.322  349.700   10.996
  475.300   64.321  374.280   11.195
  475.550   64.318  382.254   11.400
  475.800   63.711  384.915   11.609
  476.050   63.106  385.583   12.045
  476.300   62.499  384.258   12.504
  476.550   63.100  382.936   13.475
  476.800   63.097  386.258   14.523
  477.050   59.476  391.576   15.074
  477.300   54.651  400.215   15.637
  477.550   43.192  400.882   15.631
  477.800   36.557  392.916   16.527
  478.050   34.745  392.255   17.479
  478.300   34.139  395.581   19.202
  478.550   35.342  398.242   20.696
  478.800   37.751  400.238   21.071
  479.050   42.572  400.905   21.461
  479.300   47.994  402.903   21.853
  479.550   49.197  403.570   20.236
  479.800   50.399  405.566   19.108
  480.050   51.001  408.228   18.040
  480.300   52.204  410.224   17.031
  480.550   51.597  410.892   16.389
  480.800   50.991  410.896   15.767
  481.050   52.194  408.906   15.752
  481.300   57.618  315.260   15.448
  481.550   60.629  319.913   14.305
  481.800   62.436  346.484   13.507
  482.050   66.654  375.048   12.998
  482.300   70.268  409.590   11.808
  482.550   76.897  413.579   11.580
  482.800   82.320  392.329   11.575
  483.050   81.714  391.004   12.012
  483.300   79.903  385.695   13.446
  483.550   75.680  383.042   16.232
  483.800   71.457  377.068   18.873
  484.050   67.835  369.101   22.360
  484.300   64.818  370.434   28.038
  484.550   63.610  372.430   33.218
  484.800   60.591  374.428   35.802
  485.050   58.780  375.095   32.544
  485.300   56.365  376.428   26.912
  485.550   55.157  378.424   21.428
  485.800   52.741  378.428   19.113
  486.050   52.738  375.112   18.389
  486.300   55.148  371.793   17.692
  486.550   59.365  367.147   17.347
  486.800   62.979  366.488   16.690
  487.050   61.168  368.484   16.051
  487.300   57.547  367.160   15.446
  487.550   59.353  364.506   14.863
  487.800   61.159  359.860   13.508
  488.050   65.377  353.887   12.514
  488.300   68.991  353.891   12.042
  488.550   69.591  358.544   11.583
  488.800   67.176  363.861   11.144
  489.050   64.159  367.850   10.521
  489.300   64.760  372.503   10.124
  489.550   74.403  378.485    9.201
  489.800   76.811  381.146    8.852
  490.050   75.603  377.829    8.845
  490.300   73.790  374.511    9.179
  490.550   73.186  371.194    9.349
  490.800   73.183  368.542    9.520
  491.050   73.781  365.888    9.695
  491.300   74.382  362.573    9.683
  491.550   74.379  361.248    9.678
  491.800   74.376  361.250    9.670
  492.050   74.374  361.254    9.664
  492.300   71.355  362.586    9.839
  492.550   70.147  362.591    9.833
  492.800   68.938  362.596   10.011
  493.050   69.538  362.598   10.005
  493.300   70.741  362.602   10.189
  493.550   71.342  362.608   10.373
  493.800   70.736  363.275   10.365
  494.050   68.924  362.615   10.557
  494.300   66.510  361.292   10.549
  494.550   65.904  360.630   10.739
  494.800   65.901  359.969   10.731
  495.050   67.706  360.637   10.925
  495.300   70.115  362.635   10.919
  495.550   73.730  363.302   11.117
  495.800   76.138  363.306   11.322
  496.050   76.135  363.310   11.532
  496.300   76.133  363.314   11.962
  496.550   75.527  361.990   11.958
  496.800   74.318  360.001   11.948
  497.050   71.904  357.348   12.165
  497.300   71.900  356.688   12.157
  497.550   72.500  356.693   12.611
  497.800   72.497  356.695   12.847
  498.050   73.700  357.362   13.330
  498.300   76.109  357.367   13.836
  498.550   80.928  358.035   14.624
  498.800   80.324  358.038   14.900
  499.050   77.305  357.379   15.460
  499.300   75.494  357.384   16.044
  499.550   73.683  357.386   16.337
  499.800   71.871  358.054   16.640
  500.050   70.059  360.050   16.623
  500.300   70.056  361.382   16.927
  500.550   70.657  361.387   17.237
  500.800   72.463  361.391   17.888
  501.050   73.063  362.722   18.567
  501.300   69.442  368.039   21.180
  501.550   65.219  374.021   26.559
  501.800   60.392  378.010   32.067
  502.050   54.963  378.015   39.448
  502.300   53.151  378.019   42.525
  502.550   53.148  378.687   43.303
  502.800   53.749  380.683   39.355
  503.050   57.363  382.015   36.465
  503.300   59.168  384.012   32.519
  503.550   59.165  385.343   29.012
  503.800   57.354  388.004   24.912
  504.050   54.939  389.337   23.077
  504.300   54.936  388.678   23.949
  504.550   57.346  388.015   26.305
  504.800   60.960  386.692   28.892
  505.050   64.575  385.366   32.341
  505.300   66.381  383.378   35.522
  505.550   65.775  382.717   36.871
  505.800   62.757  381.393   38.994
  506.050   60.343  381.397   42.027
  506.300   56.722  386.049   49.772
  506.550   53.101  390.038   53.654
  506.800   51.289  390.042   52.606
  507.050   53.095  390.046   46.932
  507.300   54.299  390.050   38.810
  507.550   51.884  388.726   30.902
  507.800   48.263  388.066   24.144
  508.050   47.657  386.742   19.966
  508.300   54.287  383.424   16.198
  508.550   62.122  380.772   13.392
  508.800   68.751  377.455   12.409
  509.050   69.952  375.466   11.279
  509.300   69.348  372.148   10.061
  509.550   69.345  368.167    9.144
  509.800   68.739  364.849    8.470
  510.050   65.722  362.197    7.847
  510.300   60.292  362.201    7.549
  510.550   54.863  364.199    7.262
  510.800   58.478  365.529    7.122
  511.050   65.107  368.190    7.117
  511.300   61.487  370.851    7.112
  511.550   57.866  372.848    7.106
  511.800   55.451  372.851    7.099
  512.050   59.668  370.199    7.095
  512.300   63.284  366.217    7.222
  512.550   68.104  360.907    7.219
  512.800   67.498  357.592    7.213
  513.050   63.274  358.923    7.208
  513.300   59.655  364.240    7.202
  513.550   52.417  366.901    6.927
  513.800   46.987  367.570    6.794
  514.050   48.190  368.237    6.413
  514.300   49.392  368.241    6.289
  514.550   49.389  367.581    6.051
  514.800   49.387  363.600    5.820
  515.050   48.177  359.620    5.817
  515.300   48.176  358.293    5.702
  515.550   47.570  356.305    5.382
  515.800   45.155  357.638    5.180
  516.050   43.945  360.297    4.890
  516.300   44.546  364.951    4.705
  516.550   45.749  370.933    4.441
  516.800   46.951  372.929    4.273
  517.050   47.552  373.596    4.190
  517.300   48.152  374.929    4.030
  517.550   48.751  377.590    3.952
  517.800   48.749  379.587    3.802
  518.050   49.349  380.919    3.657
  518.300   50.552  382.250    3.586
  518.550   51.755  383.582    3.584
  518.800   52.355  384.914    3.513
  519.050   51.147  395.545    3.510
  519.300   46.319  420.788    3.443
  519.550   43.904  442.046    3.375
  519.800   39.681  473.931    3.309
  520.050   31.238  485.226    3.306
  520.300   31.235  493.864    3.304
  520.550   34.246  503.167    3.301
  520.800   37.861  503.171    3.299
  521.050   41.476  503.175    3.295
  521.300   42.678  505.835    3.294
