~VERSION INFORMATION
 VERS.                 2.0:   CWLS LOG ASCII STANDARD -VERSION 2.0
 WRAP.                  NO:   ONE LINE PER DEPTH STEP
~WELL INFORMATION BLOCK
#MNEM.UNIT           DATA                    DESCRIPTION OF MNEMONIC
#---------    -------------------            -------------------------------
# Generated from Intellog Unique Number	CX_WELLS/WELL/2780
WELL.         NEWBY                          : Well_name    - WELL
LOC .         00/09-36-081-06W4/0            : Location     - LOCATION
UWI .         00/09-36-081-06W4/0            : Uwi          - UNIQUE WELL ID
ENTR.         T                              : Entered      - ENTERED BY
SRVC.         SCHLUMBERGER                   : Scn          - SERVICE COMPANY
STRT.M        150                            : top_depth    - START DEPTH
STOP.M        263                            : bot_depth    - STOP DEPTH
STEP.M        0.25                           : increment    - STEP LENGTH
 NULL. -999.2500:NULL Value
~CURVE INFORMATION BLOCK
#MNEM UNIT       ERCB CURVE CODE    CURVE DESCRIPTION
#-----------   ------------------   ----------------------------------
DEPT.M        00 001 00 00         : DEPTH        - DEPTH
GR  .API      00 310 00 00         : GR           - GAMMA RAY
NPHI.V/V      00 330 00 00         : PHIN         - NEUTRON POROSITY (SANDSTONE)
DPHI.V/V      00 890 00 00         : PHID         - DENSITY POROSITY (SANDSTONE)
ILD .OHMM     00 120 00 00         : RESD         - DEEP RESISTIVITY (DLL)
~PARAMETER INFORMATION
#MNEM.UNIT           DATA             DESCRIPTION OF MNEMONIC
#---------         -----------     ------------------------------
GL  .M        478.6                : gl           - GROUND LEVEL ELEVATION
EREF.M        481.7                : kb           - ELEVATION OF DEPTH REFERENCE
DATM.M        481.7                : datum        - DATUM ELEVATION
TDD .M        263.5                : tdd          - TOTAL DEPTH DRILLER
RUN .         ONE                  : Run          - RUN NUMBER
ENG .         BILL                 : Engineer     - RECORDING ENGINEER
WIT .         JIM                  : Witness      - WITNESSED BY
MUD .         GEL                  : Mud_type     - MUD TYPE
MATR.         SANDSTONE            : Logunit      - NEUTRON MATRIX
TMAX.C        22                   : BHT          - MAXIMUM RECORDED TEMPERATURE
BHTD.M        264                  : BHTDEP       - MAXIMUM RECORDED TEMPERATURE
MATR.         1                    : LOGUNIT      - NEUTRON MATRIX
RMT .C        16                   : MDTP         - TEMPERATURE OF MUD
NEUT.         1                    : NEUTRON      - NEUTRON TYPE
RESI.         3.5                  : RESIST       - RESISTIVITY TYPE
RMC .OHMM     4                    : RMC          - RESISTIVITY OF MUD CAKE
RMF .OHMM     4.4                  : RMF          - RESISTIVITY OF MUD FILTRATE
SUFT.C        4                    : SUFT         - SURFACE TEMPERATURE
~A  DEPTH       GR     PHIN     PHID     RESD
  150.000   55.577    0.384    0.364   11.156
  150.250   55.562    0.393    0.357   11.343
  150.500   56.127    0.407    0.358   11.148
  150.750   56.692    0.421    0.356   10.775
  151.000   57.252    0.422    0.356   10.591
  151.250   57.818    0.421    0.354   10.408
  151.500   58.968    0.416    0.354   10.230
  151.750   58.953    0.408    0.354   10.226
  152.000   57.178    0.399    0.354   10.223
  152.250   55.403    0.396    0.354   10.220
  152.500   54.798    0.394    0.351   10.215
  152.750   56.533    0.394    0.347   10.384
  153.000   55.918    0.394    0.342   10.380
  153.250   55.318    0.397    0.340   10.552
  153.500   55.318    0.402    0.340   10.548
  153.750   54.098    0.406    0.340   10.544
  154.000   54.673    0.410    0.340   10.539
  154.250   55.238    0.411    0.341   10.537
  154.500   55.804    0.403    0.344   10.533
  154.750   56.949    0.398    0.345   10.352
  155.000   56.934    0.405    0.346   10.349
  155.250   56.909    0.419    0.346   10.344
  155.500   56.304    0.419    0.345   10.341
  155.750   56.284    0.401    0.356   10.335
  156.000   57.434    0.364    0.360   10.333
  156.250   57.419    0.354    0.356   10.326
  156.500   56.815    0.355    0.354   10.323
  156.750   56.790    0.376    0.356   10.320
  157.000   57.940    0.385    0.360   10.314
  157.250   59.085    0.390    0.356   10.311
  157.500   59.065    0.394    0.344   10.307
  157.750   59.045    0.399    0.328   10.303
  158.000   58.440    0.414    0.332   10.299
  158.250   57.835    0.427    0.337   10.468
  158.500   57.816    0.428    0.345   10.466
  158.750   57.796    0.428    0.352   10.462
  159.000   58.356    0.427    0.354   10.459
  159.250   58.346    0.420    0.359   10.455
  159.500   58.326    0.400    0.360   10.274
  159.750   58.301    0.399    0.360   10.100
  160.000   58.281    0.405    0.360    9.926
  160.250   58.261    0.414    0.360    9.592
  160.500   58.241    0.420    0.360    9.590
  160.750   58.221    0.408    0.362    9.426
  161.000   58.782    0.397    0.362    9.265
  161.250   59.927    0.387    0.359    8.804
  161.500   61.667    0.390    0.356    8.088
  161.750   64.578    0.401    0.348    7.431
  162.000   71.579    0.418    0.336    6.828
  162.250   78.580    0.473    0.309    4.256
  162.500   86.166    0.480    0.286    3.594
  162.750   91.991    0.491    0.283    3.086
  163.000   94.317    0.508    0.290    2.741
  163.250   97.802    0.524    0.293    2.649
  163.500   99.533    0.540    0.301    2.693
  163.750  100.693    0.575    0.304    2.739
  164.000  102.418    0.588    0.301    2.879
  164.250  102.993    0.593    0.296    2.878
  164.500  102.388    0.528    0.289    2.976
  164.750   98.858    0.534    0.283    3.129
  165.000   98.248    0.543    0.275    3.290
  165.250   99.398    0.548    0.270    3.402
  165.500   98.788    0.534    0.268    3.577
  165.750   98.193    0.507    0.264    3.825
  166.000   96.413    0.501    0.264    4.091
  166.250   95.223    0.490    0.270    4.448
  166.500   92.863    0.458    0.274    4.838
  166.750   92.258    0.442    0.280    5.087
  167.000   91.653    0.445    0.282    5.721
  167.250   89.873    0.450    0.283    5.818
  167.500   88.103    0.449    0.285    6.435
  167.750   88.663    0.432    0.283    7.238
  168.000   89.228    0.401    0.285    8.006
  168.250   85.113    0.357    0.291    8.856
  168.500   81.582    0.324    0.307    9.631
  168.750   78.632    0.289    0.334    9.958
  169.000   78.612    0.286    0.351   10.124
  169.250   80.348    0.290    0.354    9.785
  169.500   82.668    0.298    0.350    9.142
  169.750   85.579    0.340    0.328    8.399
  170.000   89.069    0.405    0.295    7.588
  170.250   91.969    0.422    0.279    7.090
  170.500   94.290    0.450    0.267    6.852
  170.750   96.025    0.472    0.258    6.848
  171.000   98.346    0.466    0.252    6.846
  171.250   99.496    0.458    0.249    6.844
  171.500   97.726    0.440    0.248    6.727
  171.750   93.610    0.418    0.245    6.723
  172.000   90.075    0.400    0.245    6.721
  172.250   89.470    0.396    0.248    6.719
  172.500   91.785    0.404    0.254    6.716
  172.750   92.941    0.410    0.256    6.714
  173.000   93.511    0.416    0.264    6.598
  173.250   93.481    0.422    0.264    6.376
  173.500   96.386    0.433    0.264    6.268
  173.750   98.707    0.444    0.262    6.265
  174.000   99.272    0.449    0.259    6.159
  174.250   97.502    0.455    0.255    5.952
  174.500   94.557    0.464    0.248    5.849
  174.750   93.947    0.461    0.248    5.847
  175.000   94.517    0.437    0.252    5.845
  175.250   95.082    0.428    0.260    5.844
  175.500   95.057    0.426    0.265    5.939
  175.750   92.697    0.424    0.274    6.039
  176.000   88.001    0.420    0.275    6.036
  176.250   86.811    0.423    0.274    5.933
  176.500   90.877    0.434    0.269    5.543
  176.750   93.787    0.442    0.264    5.358
  177.000   96.108    0.453    0.263    4.759
  177.250   99.003    0.461    0.263    4.447
  177.500   98.983    0.472    0.262    4.298
  177.750   98.388    0.483    0.261    4.224
  178.000   96.028    0.494    0.260    4.152
  178.250   94.838    0.502    0.258    4.221
  178.500   93.643    0.508    0.256    4.365
  178.750   93.623    0.510    0.256    4.589
  179.000   95.944    0.507    0.257    4.744
  179.250   97.679    0.503    0.263    5.428
  179.500   95.909    0.497    0.269    6.004
  179.750   88.868    0.491    0.276    6.103
  180.000   80.652    0.480    0.283    6.205
  180.250   80.042    0.459    0.292    6.202
  180.500   84.123    0.443    0.296    6.200
  180.750   92.294    0.429    0.293    5.793
  181.000   97.540    0.437    0.279    4.975
  181.250   98.685    0.453    0.269    4.062
  181.500   95.740    0.472    0.265    3.992
  181.750   91.044    0.447    0.272    4.342
  182.000   85.754    0.416    0.283    4.566
  182.250   83.978    0.408    0.293    4.965
  182.500   83.964    0.399    0.308    5.221
  182.750   85.114    0.404    0.313    5.398
  183.000   86.259    0.427    0.291    5.396
  183.250   86.239    0.433    0.264    5.394
  183.500   85.629    0.437    0.269    5.391
  183.750   82.689    0.432    0.280    5.481
  184.000   78.569    0.406    0.291    5.573
  184.250   75.628    0.397    0.303    6.060
  184.500   73.263    0.385    0.296    6.266
  184.750   71.483    0.367    0.178    6.589
  185.000   70.888    0.344    0.129    6.812
  185.250   69.698    0.320    0.110    6.808
  185.500   69.678    0.320    0.088    6.692
  185.750   76.094    0.345    0.107    6.578
  186.000   84.265    0.350    0.123    6.466
  186.250   86.585    0.379    0.157    5.940
  186.500   89.491    0.405    0.188    5.645
  186.750   91.226    0.414    0.224    5.455
  187.000   92.962    0.433    0.237    5.363
  187.250   94.697    0.451    0.249    5.359
  187.500   95.847    0.456    0.250    5.358
  187.750   95.817    0.446    0.249    5.356
  188.000   95.212    0.435    0.250    5.537
  188.250   95.197    0.424    0.250    5.535
  188.500   95.177    0.416    0.245    5.628
  188.750   95.743    0.410    0.244    5.720
  189.000   96.308    0.403    0.244    5.623
  189.250   95.703    0.400    0.247    5.254
  189.500   95.093    0.408    0.250    4.909
  189.750   93.318    0.432    0.259    4.511
  190.000   90.953    0.439    0.263    4.074
  190.250   89.183    0.459    0.274    3.744
  190.500   87.412    0.472    0.286    3.440
  190.750   84.462    0.486    0.293    3.160
  191.000   82.102    0.502    0.296    2.855
  191.250   80.327    0.504    0.296    2.759
  191.500   80.892    0.512    0.296    2.666
  191.750   83.793    0.515    0.293    2.665
  192.000   84.948    0.516    0.292    2.756
  192.250   87.258    0.515    0.286    3.048
  192.500   87.833    0.504    0.274    3.315
  192.750   88.984    0.478    0.261    3.666
  193.000   88.379    0.464    0.257    3.921
  193.250   86.603    0.457    0.246    4.123
