~VERSION INFORMATION
 VERS.                 2.0:   CWLS LOG ASCII STANDARD -VERSION 2.0
 WRAP.                  NO:   ONE LINE PER DEPTH STEP
~WELL INFORMATION BLOCK
#MNEM.UNIT           DATA                    DESCRIPTION OF MNEMONIC
#---------    -------------------            -------------------------------
# Generated from Intellog Unique Number	CS_71_72/WELL/644
WELL.         AMOCO AEC IPIATIK              : Well_name    - WELL
LOC .         00/05-05-072-04W4/0            : Location     - LOCATION
UWI .         00/05-05-072-04W4/0            : Uwi          - UNIQUE WELL ID
ENTR.         SP                             : Entered      - ENTERED BY
SRVC.         SCHLUMBERGER                   : Scn          - SERVICE COMPANY
STRT.M        295                            : top_depth    - START DEPTH
STOP.M        500                            : bot_depth    - STOP DEPTH
STEP.M        0.25                           : increment    - STEP LENGTH
 NULL. -999.2500:NULL Value
~CURVE INFORMATION BLOCK
#MNEM UNIT       ERCB CURVE CODE    CURVE DESCRIPTION
#-----------   ------------------   ----------------------------------
DEPT.M        00 001 00 00         : DEPTH        - DEPTH
DPHI.V/V      00 890 00 00         : PHID         - DENSITY POROSITY (LIMESTONE)
NPHI.V/V      00 330 00 00         : PHIN         - NEUTRON POROSITY (LIMESTONE)
GR  .API      00 310 00 00         : GR           - GAMMA RAY
ILD .OHMM     00 120 00 00         : RESD         - DEEP RESISTIVITY (DIL)
~PARAMETER INFORMATION
#MNEM.UNIT           DATA             DESCRIPTION OF MNEMONIC
#---------         -----------     ------------------------------
GL  .M        673.5                : gl           - GROUND LEVEL ELEVATION
EREF.M        677.76               : kb           - ELEVATION OF DEPTH REFERENCE
DATM.M        673.5                : datum        - DATUM ELEVATION
TDD .M        519                  : tdd          - TOTAL DEPTH DRILLER
RUN .         ONE                  : Run          - RUN NUMBER
ENG .         BILL                 : Engineer     - RECORDING ENGINEER
WIT .         JIM                  : Witness      - WITNESSED BY
MUD .         GEL                  : Mud_type     - MUD TYPE
MATR.         LIMESTONE            : Logunit      - NEUTRON MATRIX
TMAX.C        19.5                 : BHT          - MAXIMUM RECORDED TEMPERATURE
BHTD.M        549                  : BHTDEP       - MAXIMUM RECORDED TEMPERATURE
MATR.         1                    : LOGUNIT      - NEUTRON MATRIX
RMT .C        25                   : MDTP         - TEMPERATURE OF MUD
NEUT.         1                    : NEUTRON      - NEUTRON TYPE
RESI.         0                    : RESIST       - RESISTIVITY TYPE
RMC .OHMM     0.25                 : RMC          - RESISTIVITY OF MUD CAKE
RMF .OHMM     0.25                 : RMF          - RESISTIVITY OF MUD FILTRATE
SUFT.C        15                   : SUFT         - SURFACE TEMPERATURE
~A  DEPTH     PHID     PHIN       GR     RESD
# ...
  382.000    0.294    0.492   67.868    3.040
  382.250    0.287    0.484   70.909    2.934
  382.500    0.291    0.483   74.546    2.882
  382.750    0.259    0.485   80.606    2.884
  383.000    0.263    0.485   84.854    2.886
  383.250    0.256    0.490   85.471    2.942
  383.500    0.252    0.503   82.461    2.943
  383.750    0.270    0.504   75.818    2.892
  384.000    0.290    0.480   69.177    2.791
  384.250    0.277    0.458   64.956    2.743
  384.500    0.276    0.450   63.759    2.744
  384.750    0.289    0.462   66.192    2.798
  385.000    0.286    0.463   69.228    2.903
  385.250    0.278    0.462   73.474    2.960
  385.500    0.272    0.486   78.326    3.015
  385.750    0.266    0.515   83.782    3.018
  386.000    0.252    0.553   89.845    2.966
  386.250    0.254    0.582   94.695    2.914
  386.500    0.270    0.601   98.940    2.916
  386.750    0.272    0.605  105.006    2.918
  387.000    0.281    0.596  106.832    2.974
  387.250    0.274    0.588  107.446    3.031
  387.500    0.259    0.581  104.434    3.146
  387.750    0.248    0.561  100.216    3.148
  388.000    0.241    0.556   99.016    3.209
  388.250    0.250    0.596   97.825    3.210
  388.500    0.255    0.602   97.837    3.213
  388.750    0.268    0.580   97.845    3.215
  389.000    0.267    0.569   98.466    3.160
  389.250    0.259    0.582   99.078    3.220
  389.500    0.271    0.592   99.698    3.282
  389.750    0.257    0.581   96.081    3.533
  390.000    0.238    0.565   91.859    3.803
  390.250    0.221    0.531   88.850    3.946
  390.500    0.240    0.511   87.648    4.328
  390.750    0.246    0.518   85.849    4.491
  391.000    0.249    0.525   85.261    4.575
  391.250    0.234    0.531   85.873    4.750
  391.500    0.244    0.523   87.101    4.929
  391.750    0.234    0.495   88.317    5.118
  392.000    0.228    0.486   90.144    5.121
  392.250    0.227    0.490   87.133    4.941
  392.500    0.232    0.507   84.729    4.766
  392.750    0.205    0.517   85.345    4.434
  393.000    0.212    0.531   85.962    4.126
  393.250    0.206    0.530   87.185    3.982
  393.500    0.200    0.537   87.801    3.984
  393.750    0.204    0.532   89.023    3.988
  394.000    0.234    0.531   91.456    3.990
  394.250    0.213    0.531   93.287    4.066
  394.500    0.233    0.538   93.900    4.071
  394.750    0.248    0.537   93.308    4.000
  395.000    0.259    0.532   92.714    4.002
  395.250    0.257    0.538   92.724    3.791
  395.500    0.234    0.565   96.370    3.528
  395.750    0.236    0.586   97.588    3.466
  396.000    0.227    0.603  100.630    3.346
  396.250    0.222    0.587  101.848    3.348
  396.500    0.217    0.596  104.891    3.350
  396.750    0.214    0.575  105.504    3.352
  397.000    0.242    0.583  106.119    3.416
  397.250    0.232    0.577  105.530    3.483
  397.500    0.228    0.556  104.334    3.485
  397.750    0.214    0.551  101.322    3.551
  398.000    0.235    0.557  100.121    3.554
  398.250    0.236    0.561   97.716    3.622
  398.500    0.229    0.566   98.334    3.624
  398.750    0.223    0.576   99.554    3.628
  399.000    0.236    0.582  100.776    3.697
  399.250    0.258    0.594  100.787    3.699
  399.500    0.278    0.611   98.381    3.911
  399.750    0.271    0.616   92.950    4.058
  400.000    0.249    0.591   88.731    4.368
  400.250    0.232    0.556   86.931    4.702
  400.500    0.224    0.496   85.739    4.971
  400.750    0.234    0.512   85.144    5.064
  401.000    0.226    0.534   84.549    5.070
  401.250    0.231    0.541   83.955    5.072
  401.500    0.243    0.529   83.966    4.986
  401.750    0.233    0.537   85.800    4.898
  402.000    0.233    0.547   87.625    4.728
  402.250    0.255    0.531   88.843    4.644
  402.500    0.251    0.504   91.886    4.647
  402.750    0.261    0.487   92.495    4.912
  403.000    0.275    0.466   86.463    5.192
  403.250    0.290    0.458   82.846    5.797
  403.500    0.281    0.461   79.834    6.472
  403.750    0.256    0.480   77.426    7.094
  404.000    0.173    0.493   70.785    7.496
  404.250    0.118    0.332   63.539    7.924
  404.500    0.081    0.390   62.945    7.786
  404.750    0.115    0.433   70.220    7.380
  405.000    0.282    0.459   73.254    6.991
  405.250    0.297    0.462   76.292    6.504
  405.500    0.311    0.462   77.513    5.942
  405.750    0.315    0.478   78.131    5.631
  406.000    0.304    0.490   77.537    5.433
  406.250    0.302    0.496   73.922    5.435
  406.500    0.320    0.462   70.305    5.245
  406.750    0.324    0.449   70.319    5.155
  407.000    0.327    0.445   73.361    5.065
  407.250    0.328    0.467   75.792    4.979
  407.500    0.330    0.486   77.009    4.982
  407.750    0.306    0.499   77.020    4.984
  408.000    0.286    0.513   76.430    5.081
  408.250    0.278    0.509   78.861    5.084
  408.500    0.258    0.485   83.114    5.087
  408.750    0.253    0.490   84.938    5.184
  409.000    0.259    0.482   86.763    5.284
  409.250    0.266    0.475   87.379    5.387
  409.500    0.257    0.481   88.000    5.489
  409.750    0.255    0.485   87.402    5.593
  410.000    0.243    0.480   85.606    5.598
  410.250    0.231    0.467   84.403    5.602
  410.500    0.232    0.471   81.395    5.404
  410.750    0.238    0.498   81.406    4.848
  411.000    0.244    0.516   86.256    4.193
  411.250    0.262    0.536   92.925    3.561
  411.500    0.270    0.558   95.353    2.864
  411.750    0.265    0.558   98.391    2.522
  412.000    0.268    0.544   93.569    2.223
  412.250    0.261    0.556   91.762    2.144
  412.500    0.280    0.576   91.172    2.185
  412.750    0.274    0.580   93.604    2.353
  413.000    0.255    0.558   97.246    2.442
  413.250    0.242    0.544   99.072    2.534
  413.500    0.237    0.541  100.897    2.630
  413.750    0.239    0.541  100.911    2.729
  414.000    0.243    0.551   98.504    2.833
  414.250    0.234    0.557   94.289    2.941
  414.500    0.245    0.565   91.879    3.051
  414.750    0.246    0.542   88.863    3.535
  415.000    0.267    0.503   81.623    3.804
  415.250    0.287    0.460   79.212    4.093
  415.500    0.305    0.462   76.803    4.655
  415.750    0.289    0.478   79.842    5.391
  416.000    0.280    0.496   79.855    5.802
  416.250    0.268    0.502   76.845    6.246
  416.500    0.282    0.450   74.434    6.601
  416.750    0.279    0.435   71.428    6.977
  417.000    0.268    0.448   69.623    7.240
  417.250    0.279    0.455   68.423    7.379
  417.500    0.286    0.457   70.857    7.250
  417.750    0.291    0.465   74.499    6.625
  418.000    0.294    0.496   77.539    6.278
  418.250    0.302    0.502   77.546    6.057
  418.500    0.294    0.493   76.956    5.843
  418.750    0.292    0.493   76.361    5.439
  419.000    0.281    0.499   76.984    5.345
  419.250    0.288    0.493   77.599    5.348
  419.500    0.248    0.485   80.028    5.352
  419.750    0.234    0.476   81.250    5.355
  420.000    0.228    0.479   80.665    5.264
  420.250    0.230    0.475   80.067    5.267
  420.500    0.261    0.474   79.473    5.176
  420.750    0.258    0.476   77.672    5.179
  421.000    0.246    0.480   80.711    5.182
  421.250    0.231    0.488   83.141    5.477
  421.500    0.223    0.486   83.154    6.459
  421.750    0.240    0.473   76.518    9.477
  422.000    0.180    0.456   74.709   12.465
  422.250    0.092    0.329   67.464   16.397
  422.500    0.022    0.202   54.776   18.644
  422.750   -0.004    0.201   50.553   18.656
  423.000   -0.008    0.213   52.989   16.735
  423.250    0.022    0.235   56.022   12.511
  423.500    0.099    0.264   64.507    9.526
  423.750    0.178    0.323   67.539    7.385
  424.000    0.224    0.384   73.600    6.387
  424.250    0.257    0.451   77.847    5.942
  424.500    0.247    0.477   78.466    5.948
  424.750    0.266    0.474   80.899    5.845
  425.000    0.273    0.470   82.117    5.848
  425.250    0.255    0.467   86.370    5.746
