~VERSION INFORMATION
 VERS.                 2.0:   CWLS LOG ASCII STANDARD -VERSION 2.0
 WRAP.                  NO:   ONE LINE PER DEPTH STEP
~WELL INFORMATION BLOCK
#MNEM.UNIT           DATA                    DESCRIPTION OF MNEMONIC
#---------    -------------------            -------------------------------
# Generated from Intellog Unique Number	CW_73_75/WELL/3516
WELL.         1CGR MAXUS KELLY               : Well_name    - WELL
LOC .         00/02-01-073-19W4/0            : Location     - LOCATION
UWI .         00/02-01-073-19W4/0            : Uwi          - UNIQUE WELL ID
ENTR.         TIM                            : Entered      - ENTERED BY
SRVC.         SCHLUMBERGER                   : Scn          - SERVICE COMPANY
STRT.M        325                            : top_depth    - START DEPTH
STOP.M        555                            : bot_depth    - STOP DEPTH
STEP.M        0.25                           : increment    - STEP LENGTH
 NULL. -999.2500:NULL Value
~CURVE INFORMATION BLOCK
#MNEM UNIT       ERCB CURVE CODE    CURVE DESCRIPTION
#-----------   ------------------   ----------------------------------
DEPT.M        00 001 00 00         : DEPTH        - DEPTH
ILD .OHMM     00 120 00 00         : RESD         - DEEP RESISTIVITY (DIL)
DPHI.V/V      00 890 00 00         : PHID         - DENSITY POROSITY (SANDSTONE)
NPHI.V/V      00 330 00 00         : PHIN         - NEUTRON POROSITY (SANDSTONE)
CALI.MM       00 280 01 00         : CAL          - CALIPER
GR  .API      00 310 00 00         : GR           - GAMMA RAY
~PARAMETER INFORMATION
#MNEM.UNIT           DATA             DESCRIPTION OF MNEMONIC
#---------         -----------     ------------------------------
GL  .M        631.8                : gl           - GROUND LEVEL ELEVATION
EREF.M        635.6                : kb           - ELEVATION OF DEPTH REFERENCE
DATM.M        635.6                : datum        - DATUM ELEVATION
TDD .M        509                  : tdd          - TOTAL DEPTH DRILLER
RUN .         ONE                  : Run          - RUN NUMBER
ENG .         BILL                 : Engineer     - RECORDING ENGINEER
WIT .         JIM                  : Witness      - WITNESSED BY
MUD .         GEL                  : Mud_type     - MUD TYPE
MATR.         SANDSTONE            : Logunit      - NEUTRON MATRIX
TMAX.C        22                   : BHT          - MAXIMUM RECORDED TEMPERATURE
BHTD.M        509                  : BHTDEP       - MAXIMUM RECORDED TEMPERATURE
RMT .C        15                   : MDTP         - TEMPERATURE OF MUD
MUDD.KG/M     1090                 : MWT          - MUD DENSITY
NEUT.         1                    : NEUTRON      - NEUTRON TYPE
RESI.         0                    : RESIST       - RESISTIVITY TYPE
RM  .OHMM     3.11                 : RM           - RESISTIVITY OF MUD
RMC .OHMM     3.5                  : RMC          - RESISTIVITY OF MUD CAKE
RMF .OHMM     3.2                  : RMF          - RESISTIVITY OF MUD FILTRATE
SUFT.C        4                    : SUFT         - SURFACE TEMPERATURE
~A  DEPTH     RESD     PHID     PHIN      CAL       GR
# ...
  398.000    5.965    0.334    0.441  153.289   82.785
  398.250    6.329    0.317    0.444  153.326   80.974
  398.500    6.707    0.276    0.431  153.382   77.950
  398.750    7.256    0.122    0.375  153.401   79.800
  399.000    7.402    0.134    0.322  154.463  109.677
  399.250    7.714    0.176    0.327  154.500  121.884
  399.500    7.440    0.201    0.345  155.552  124.344
  399.750    6.925    0.234    0.389  155.580  107.916
  400.000    6.442    0.242    0.436  155.618   94.534
  400.250    5.993    0.244    0.457  155.655   79.325
  400.500    5.575    0.244    0.457  156.707   76.301
  400.750    5.384    0.244    0.463  156.763   81.198
  401.000    5.297    0.240    0.466  156.782   86.094
  401.250    5.307    0.229    0.458  156.819   91.600
  401.500    5.324    0.218    0.445  156.866   95.278
  401.750    5.442    0.206    0.439  156.912  102.007
  402.000    5.452    0.198    0.433  156.940  105.685
  402.250    5.463    0.206    0.432  156.977  105.098
  402.500    5.580    0.217    0.442  157.015   91.108
  402.750    5.494    0.224    0.451  158.076   83.819
  403.000    5.504    0.229    0.450  158.114   79.576
  403.250    5.420    0.222    0.444  158.151   75.334
  403.500    5.433    0.218    0.434  158.188   75.367
  403.750    5.451    0.218    0.420  158.225   77.821
  404.000    5.366    0.225    0.405  159.269   78.447
  404.250    5.373    0.238    0.416  159.325   78.469
  404.500    5.189    0.234    0.441  159.352   78.492
  404.750    5.109    0.225    0.435  159.390   80.347
  405.000    4.934    0.206    0.429  159.418   82.812
  405.250    4.762    0.203    0.423  159.473   83.433
  405.500    4.516    0.227    0.434  159.492   84.674
  405.750    4.359    0.270    0.459  159.548   82.259
  406.000    4.057    0.306    0.472  159.566   78.022
  406.250    3.848    0.336    0.467  158.588   72.555
  406.500    3.781    0.357    0.460  155.579   75.015
  406.750    3.867    0.367    0.449  152.570   79.917
  407.000    3.872    0.374    0.437  151.601   83.589
  407.250    4.030    0.368    0.425  151.657   82.404
  407.500    4.040    0.348    0.414  151.676   78.156
  407.750    4.205    0.329    0.412  151.713   73.913
  408.000    4.379    0.322    0.410  151.750   70.286
  408.250    4.470    0.328    0.405  151.797   67.267
  408.500    4.572    0.334    0.399  151.843   65.451
  408.750    4.670    0.337    0.392  151.862   62.427
  409.000    4.768    0.338    0.385  151.899   56.966
  409.250    4.780    0.338    0.386  151.936   55.775
  409.500    4.792    0.342    0.392  151.973   59.453
  409.750    4.804    0.349    0.397  152.011   63.735
  410.000    4.816    0.349    0.397  152.057   69.240
  410.250    4.828    0.347    0.393  152.094   75.361
  410.500    4.844    0.344    0.392  153.147   72.952
  410.750    4.769    0.342    0.389  153.175   71.744
  411.000    4.778    0.337    0.392  153.221   62.628
  411.250    4.790    0.334    0.399  153.249   66.915
  411.500    4.802    0.334    0.401  154.311   76.076
  411.750    4.728    0.336    0.405  155.383   70.615
  412.000    4.737    0.338    0.413  155.401   58.452
  412.250    4.749    0.340    0.421  155.448   49.945
  412.500    4.764    0.341    0.418  156.500   53.623
  412.750    4.685    0.341    0.416  156.538   62.175
  413.000    4.700    0.334    0.408  156.565   81.090
  413.250    4.709    0.327    0.401  156.621   94.516
  413.500    4.724    0.327    0.392  156.649   98.194
  413.750    4.651    0.327    0.394  156.686   92.124
  414.000    4.657    0.329    0.396  156.714   81.179
  414.250    4.585    0.329    0.401  156.752   76.942
  414.500    4.596    0.329    0.403  157.814   73.303
  414.750    4.523    0.328    0.404  157.851   69.676
  415.000    4.537    0.328    0.406  157.888   71.520
  415.250    4.461    0.328    0.407  157.916   80.682
  415.500    4.470    0.329    0.408  157.962   85.584
  415.750    4.484    0.331    0.415  157.990   83.778
  416.000    4.412    0.334    0.424  158.028   80.760
  416.250    4.423    0.338    0.436  158.074   78.340
  416.500    4.435    0.341    0.441  158.111   80.190
  416.750    4.446    0.341    0.437  158.158   85.695
  417.000    4.460    0.337    0.431  158.186   84.499
  417.250    4.468    0.335    0.415  157.217   77.825
  417.500    4.483    0.336    0.410  157.245   72.973
  417.750    4.579    0.339    0.416  156.276   72.990
  418.000    4.587    0.342    0.427  156.313   77.283
  418.250    4.692    0.344    0.434  156.341   77.300
  418.500    4.698    0.345    0.431  156.387   73.063
  418.750    4.799    0.345    0.427  156.415   76.746
  419.000    4.908    0.344    0.420  156.471   77.976
  419.250    4.924    0.344    0.419  156.490   76.780
  419.500    4.838    0.345    0.424  156.527   70.111
  419.750    4.589    0.346    0.424  156.574   74.387
  420.000    4.512    0.346    0.424  156.574   81.112
  420.250    4.358    0.344    0.433  154.617   78.697
  420.500    4.371    0.339    0.434  154.617   89.082
  420.750    4.550    0.332    0.430  152.670   94.588
  421.000    4.732    0.321    0.420  152.698   95.834
  421.250    4.925    0.304    0.366  153.760   92.196
  421.500    5.126    0.211    0.357  153.788   74.544
  421.750    5.043    0.212    0.407  153.825   60.553
  422.000    4.783    0.241    0.425  153.881   54.483
  422.250    4.616    0.295    0.424  153.909   67.305
  422.500    4.542    0.334    0.423  153.937   60.620
  422.750    4.392    0.334    0.421  153.974   63.694
  423.000    4.403    0.314    0.419  155.036   74.074
  423.250    4.412    0.291    0.412  155.082   85.672
  423.500    4.428    0.292    0.408  155.101  102.754
  423.750    4.521    0.318    0.409  155.138   71.704
  424.000    4.535    0.341    0.405  155.175   66.852
  424.250    4.629    0.343    0.398  155.222   79.669
  424.500    4.641    0.343    0.402  155.250   85.175
  424.750    4.738    0.341    0.410  154.281   88.858
  425.000    4.840    0.339    0.414  154.327   68.160
  425.250    5.037    0.336    0.412  154.346   62.090
  425.500    5.344    0.335    0.409  153.377   54.801
  425.750    5.667    0.335    0.410  153.433   54.823
  426.000    6.127    0.337    0.415  153.452   60.944
  426.250    6.493    0.341    0.423  153.498   57.310
  426.500    7.152    0.319    0.420  153.535   52.453
  426.750    7.585    0.269    0.265  153.573   45.773
  427.000    7.463    0.153    0.221  153.610   39.094
  427.250    7.078    0.160    0.206  153.638   36.679
  427.500    6.704    0.205    0.230  153.675   37.316
  427.750    6.350    0.249    0.372  153.721   68.411
  428.000    5.911    0.324    0.382  153.768   77.573
  428.250    5.603    0.350    0.391  153.787   86.734
  428.500    5.310    0.350    0.407  153.824   96.504
  428.750    5.125    0.343    0.407  153.861   62.413
  429.000    4.858    0.335    0.398  153.908   60.608
  429.250    4.607    0.333    0.384  153.935   60.625
  429.500    4.530    0.333    0.387  153.982   64.308
  429.750    4.381    0.335    0.393  154.010   68.590
  430.000    4.308    0.337    0.402  153.032   73.486
  430.250    4.236    0.340    0.409  152.072   72.899
  430.500    4.173    0.342    0.416  152.100   74.140
  430.750    4.104    0.347    0.418  151.131   69.288
  431.000    4.114    0.354    0.420  151.159   65.046
  431.250    4.051    0.356    0.419  151.206   65.068
  431.500    4.061    0.353    0.416  151.233   66.320
  431.750    4.071    0.352    0.415  151.289   69.383
  432.000    4.079    0.351    0.420  151.317   73.067
  432.250    4.092    0.351    0.428  151.345   76.130
  432.500    4.105    0.350    0.433  151.392   82.854
  432.750    4.113    0.352    0.432  151.420   87.756
  433.000    4.201    0.350    0.431  151.466   90.210
  433.250    4.211    0.349    0.429  151.503   89.629
  433.500    4.219    0.347    0.431  151.550   89.651
  433.750    4.230    0.343    0.435  151.568   92.720
  434.000    4.324    0.342    0.440  151.606   97.616
  434.250    4.257    0.339    0.440  151.643   91.540
