~VERSION INFORMATION
 VERS.                 2.0:   CWLS LOG ASCII STANDARD -VERSION 2.0
 WRAP.                  NO:   ONE LINE PER DEPTH STEP
~WELL INFORMATION BLOCK
#MNEM.UNIT           DATA                    DESCRIPTION OF MNEMONIC
#---------    -------------------            -------------------------------
# Generated from Intellog Unique Number	CS_77_79/WELL/2918
WELL.         CAN WORLDWIDE ENR              : Well_name    - WELL
LOC .         00/07-06-079-03W4/0            : Location     - LOCATION
UWI .         00/07-06-079-03W4/0            : Uwi          - UNIQUE WELL ID
ENTR.         TIM                            : Entered      - ENTERED BY
SRVC.         SCHLUMBERGER                   : Scn          - SERVICE COMPANY
STRT.M        135                            : top_depth    - START DEPTH
STOP.M        405                            : bot_depth    - STOP DEPTH
STEP.M        0.25                           : increment    - STEP LENGTH
 NULL. -999.2500:NULL Value
~CURVE INFORMATION BLOCK
#MNEM UNIT       ERCB CURVE CODE    CURVE DESCRIPTION
#-----------   ------------------   ----------------------------------
DEPT.M        00 001 00 00         : DEPTH        - DEPTH
GR  .API      00 310 00 00         : GR           - GAMMA RAY
NPHI.V/V      00 330 00 00         : PHIN         - NEUTRON POROSITY (SANDSTONE)
DPHI.V/V      00 890 00 00         : PHID         - DENSITY POROSITY (SANDSTONE)
ILD .OHMM     00 120 00 00         : RESD         - DEEP RESISTIVITY (DIL)
~PARAMETER INFORMATION
#MNEM.UNIT           DATA             DESCRIPTION OF MNEMONIC
#---------         -----------     ------------------------------
GL  .M        552.02               : gl           - GROUND LEVEL ELEVATION
EREF.M        556.38               : kb           - ELEVATION OF DEPTH REFERENCE
DATM.M        556.38               : datum        - DATUM ELEVATION
TDD .M        410                  : tdd          - TOTAL DEPTH DRILLER
RUN .         ONE                  : Run          - RUN NUMBER
ENG .         BILL                 : Engineer     - RECORDING ENGINEER
WIT .         JIM                  : Witness      - WITNESSED BY
MUD .         GEL                  : Mud_type     - MUD TYPE
MATR.         SANDSTONE            : Logunit      - NEUTRON MATRIX
TMAX.C        20                   : BHT          - MAXIMUM RECORDED TEMPERATURE
BHTD.M        410                  : BHTDEP       - MAXIMUM RECORDED TEMPERATURE
MATR.         1                    : LOGUNIT      - NEUTRON MATRIX
RMT .C        15                   : MDTP         - TEMPERATURE OF MUD
NEUT.         1                    : NEUTRON      - NEUTRON TYPE
RESI.         4.4                  : RESIST       - RESISTIVITY TYPE
RMC .OHMM     4.5                  : RMC          - RESISTIVITY OF MUD CAKE
RMF .OHMM     4                    : RMF          - RESISTIVITY OF MUD FILTRATE
SUFT.C        15                   : SUFT         - SURFACE TEMPERATURE
~A  DEPTH       GR     PHIN     PHID     RESD
# ...
  222.000   50.647    0.385    0.339   11.835
  222.250   51.252    0.391    0.340   11.838
  222.500   51.857    0.397    0.339   11.620
  222.750   52.463    0.391    0.336   11.622
  223.000   53.069    0.382    0.332   11.409
  223.250   53.675    0.390    0.333   11.410
  223.500   54.281    0.400    0.333   11.201
  223.750   54.886    0.410    0.330   11.204
  224.000   55.493    0.420    0.322   11.205
  224.250   56.706    0.420    0.307   11.000
  224.500   57.922    0.428    0.316   11.002
  224.750   59.136    0.435    0.325   11.003
  225.000   59.133    0.435    0.333   11.005
  225.250   58.521    0.423    0.330   11.007
  225.500   57.909    0.409    0.327   11.010
  225.750   58.514    0.401    0.328   11.433
  226.000   59.728    0.397    0.328   11.651
  226.250   59.726    0.396    0.327   12.329
  226.500   58.505    0.394    0.323   12.330
  226.750   56.066    0.395    0.329   12.804
  227.000   54.846    0.407    0.335   12.806
  227.250   52.407    0.417    0.339   12.809
  227.500   50.575    0.409    0.344   13.055
  227.750   50.574    0.416    0.347   13.057
  228.000   49.959    0.422    0.349   13.059
  228.250   49.348    0.428    0.352   13.062
  228.500   48.127    0.435    0.355   13.312
  228.750   46.296    0.439    0.358   13.315
  229.000   45.076    0.427    0.358   13.317
  229.250   44.462    0.424    0.360   13.319
  229.500   44.461    0.436    0.363   13.322
  229.750   45.676    0.450    0.366   13.325
  230.000   47.499    0.445    0.371   13.327
  230.250   48.105    0.428    0.376   13.082
  230.500   48.712    0.415    0.365   13.085
  230.750   48.709    0.418    0.355   13.086
  231.000   49.922    0.421    0.357   13.090
  231.250   52.964    0.432    0.357   12.610
  231.500   56.614    0.456    0.355   12.378
  231.750   60.264    0.461    0.351   12.381
  232.000   62.087    0.454    0.345   12.618
  232.250   61.477    0.445    0.339   12.619
  232.500   59.037    0.439    0.336   12.861
  232.750   55.989    0.444    0.346   12.160
  233.000   53.550    0.443    0.362   11.074
  233.250   52.938    0.433    0.362    9.897
  233.500   54.763    0.427    0.337    8.681
  233.750   60.849    0.427    0.326    7.473
  234.000   69.980    0.440    0.311    6.555
  234.250   84.591    0.456    0.283    7.067
  234.500   88.850    0.467    0.252    7.764
  234.750   93.717    0.477    0.238    8.062
  235.000   91.886    0.485    0.238    8.691
  235.250   88.840    0.476    0.255    9.196
  235.500   84.574    0.466    0.260    9.915
  235.750   86.397    0.459    0.260    9.917
  236.000   87.612    0.468    0.259    9.918
  236.250   88.218    0.476    0.265    9.920
  236.500   85.779    0.471    0.271    9.922
  236.750   82.123    0.479    0.279    9.559
  237.000   79.075    0.487    0.272    9.382
  237.250   77.854    0.490    0.261    8.707
  237.500   79.677    0.478    0.253    8.232
  237.750   83.327    0.465    0.244    7.784
  238.000   85.760    0.456    0.242    7.498
  238.250   85.757    0.477    0.247    7.360
  238.500   83.927    0.480    0.251    7.362
  238.750   83.314    0.486    0.252    7.502
  239.000   85.747    0.487    0.253    7.504
  239.250   88.179    0.478    0.253    7.939
  239.500   91.828    0.469    0.253    8.559
  239.750   93.045    0.459    0.252    9.228
  240.000   95.477    0.466    0.251   10.329
  240.250   97.300    0.476    0.248   11.136
  240.500   96.079    0.485    0.254   12.234
  240.750   94.250    0.481    0.281   12.466
  241.000   91.811    0.454    0.308   13.191
  241.250   86.327    0.442    0.315   13.958
  241.500   77.190    0.447    0.330   14.225
  241.750   75.969    0.458    0.336   13.964
  242.000   74.139    0.469    0.337   13.965
  242.250   72.918    0.479    0.339   13.205
  242.500   72.306    0.471    0.339   12.961
  242.750   69.867    0.468    0.340   12.255
  243.000   68.647    0.466    0.342   11.586
  243.250   68.644    0.466    0.342   10.955
  243.500   68.640    0.469    0.346   10.957
  243.750   69.245    0.471    0.345   11.166
  244.000   71.677    0.477    0.337   11.380
  244.250   73.502    0.477    0.333   11.170
  244.500   75.933    0.470    0.330   10.174
  244.750   75.929    0.460    0.329    9.618
  245.000   75.927    0.448    0.329    9.094
  245.250   75.925    0.443    0.329    8.128
  245.500   76.528    0.445    0.327    7.684
  245.750   77.135    0.443    0.318    6.740
  246.000   77.741    0.442    0.308    5.802
  246.250   78.957    0.453    0.274    5.090
  246.500   82.606    0.467    0.247    4.723
  246.750   86.258    0.481    0.233    4.301
  247.000   91.125    0.490    0.240    3.917
  247.250   94.167    0.498    0.237    3.773
  247.500   98.426    0.506    0.233    3.568
  247.750  100.250    0.512    0.230    3.437
  248.000   97.811    0.492    0.227    3.311
  248.250   94.154    0.470    0.233    3.250
  248.500   92.933    0.479    0.241    3.190
  248.750   96.584    0.508    0.250    3.131
  249.000  103.279    0.536    0.252    3.074
  249.250  109.365    0.557    0.254    3.075
  249.500  112.406    0.576    0.251    3.075
  249.750  109.967    0.572    0.249    3.134
  250.000  106.310    0.563    0.245    3.254
  250.250  106.307    0.539    0.243    3.317
  250.500  106.913    0.535    0.240    3.380
  250.750  106.910    0.544    0.234    3.510
  251.000  106.297    0.553    0.240    3.784
  251.250  103.859    0.542    0.245    4.004
  251.500  100.811    0.527    0.255    4.398
  251.750   96.543    0.512    0.259    4.923
  252.000   94.714    0.511    0.253    5.510
  252.250   94.103    0.511    0.247    6.053
  252.500   91.665    0.511    0.238    6.776
  252.750   88.616    0.507    0.238    7.443
  253.000   86.786    0.501    0.239    7.875
  253.250   87.391    0.495    0.247    8.490
  253.500   87.388    0.489    0.252    8.816
  253.750   87.385    0.478    0.260    9.685
  254.000   86.164    0.463    0.281   10.841
  254.250   84.335    0.443    0.295   11.687
  254.500   81.895    0.418    0.292   13.330
  254.750   80.065    0.414    0.295   14.643
  255.000   78.234    0.400    0.316   16.085
  255.250   77.624    0.361    0.302   17.669
  255.500   75.185    0.348    0.261   20.153
  255.750   72.745    0.337    0.227   22.139
  256.000   70.307    0.326    0.165   22.988
  256.250   61.169    0.311    0.121   22.992
  256.500   59.949    0.306    0.264   22.997
  256.750   73.951    0.315    0.294   22.155
  257.000   74.557    0.320    0.303   20.946
  257.250   70.900    0.313    0.300   20.179
  257.500   64.808    0.274    0.264   18.726
  257.750   58.715    0.237    0.136   17.704
  258.000   58.711    0.279    0.120   15.824
  258.250   61.753    0.348    0.178   13.879
  258.500   64.185    0.376    0.227   11.948
  258.750   66.618    0.420    0.277   10.679
  259.000   69.050    0.436    0.282   10.883
  259.250   71.481    0.463    0.287   11.302
  259.500   72.696    0.475    0.294   11.517
  259.750   72.695    0.475    0.304   11.519
  260.000   73.300    0.476    0.297   11.522
  260.250   73.296    0.476    0.284   11.310
  260.500   73.294    0.475    0.281   11.311
  260.750   73.291    0.474    0.288   10.898
  261.000   73.287    0.472    0.301   10.899
  261.250   73.284    0.468    0.308   10.699
  261.500   73.281    0.458    0.301   10.701
  261.750   73.278    0.436    0.302   10.504
  262.000   73.883    0.430    0.309   10.506
  262.250   74.490    0.459    0.304   10.313
  262.500   77.530    0.468    0.295    9.752
  262.750   80.572    0.472    0.283    9.394
  263.000   86.049    0.476    0.259    8.555
  263.250   91.527    0.479    0.246    8.398
  263.500   95.176    0.479    0.242    8.399
  263.750   95.173    0.477    0.240    8.400
  264.000   93.952    0.480    0.240    8.402
  264.250   90.905    0.486    0.245    8.404
  264.500   86.640    0.490    0.250    8.096
  264.750   85.419    0.479    0.256    7.513
  265.000   87.242    0.469    0.256    7.238
  265.250   89.673    0.454    0.255    6.843
