~VERSION INFORMATION
 VERS.                 2.0:   CWLS LOG ASCII STANDARD -VERSION 2.0
 WRAP.                  NO:   ONE LINE PER DEPTH STEP
~WELL INFORMATION BLOCK
#MNEM.UNIT           DATA                    DESCRIPTION OF MNEMONIC
#---------    -------------------            -------------------------------
# Generated from Intellog Unique Number	CN_94_101/WELL/2749
WELL.         COLUMBIA GAS DEVELOPMENT LTD.  : Well_name    - WELL
LOC .         00/07-06-094-20W4/0            : Location     - LOCATION
UWI .         00/07-06-094-20W4/0            : Uwi          - UNIQUE WELL ID
ENTR.         JOETTE                         : Entered      - ENTERED BY
SRVC.         COMPUTALOG                     : Scn          - SERVICE COMPANY
DATE.         07\03\92                       : Date         - LOG DATE
STRT.M        180                            : top_depth    - START DEPTH
STOP.M        353                            : bot_depth    - STOP DEPTH
STEP.M        0.25                           : increment    - STEP LENGTH
 NULL. -999.2500:NULL Value
~CURVE INFORMATION BLOCK
#MNEM UNIT       ERCB CURVE CODE    CURVE DESCRIPTION
#-----------   ------------------   ----------------------------------
DEPT.M        00 001 00 00         : DEPTH        - DEPTH
CALI.MM       00 280 01 00         : CAL          - CALIPER
NPHI.V/V      00 330 00 00         : PHIN         - NEUTRON POROSITY (SANDSTONE)
GR  .API      00 310 00 00         : GR           - GAMMA RAY
DPHI.V/V      00 890 00 00         : PHID         - DENSITY POROSITY (SANDSTONE)
ILD .OHMM     00 120 00 00         : RESD         - DEEP RESISTIVITY (DIL)
~PARAMETER INFORMATION
#MNEM.UNIT           DATA             DESCRIPTION OF MNEMONIC
#---------         -----------     ------------------------------
GL  .M        661.36               : gl           - GROUND LEVEL ELEVATION
EREF.M        664.86               : kb           - ELEVATION OF DEPTH REFERENCE
DATM.M        664.86               : datum        - DATUM ELEVATION
TDD .M        354.7                : tdd          - TOTAL DEPTH DRILLER
RUN .         ONE                  : Run          - RUN NUMBER
ENG .         JO                   : Engineer     - RECORDING ENGINEER
WIT .         TIM                  : Witness      - WITNESSED BY
MUD .         GEL                  : Mud_type     - MUD TYPE
MATR.         SANDSTONE            : Logunit      - NEUTRON MATRIX
TMAX.C        22                   : BHT          - MAXIMUM RECORDED TEMPERATURE
BHTD.M        354.7                : BHTDEP       - MAXIMUM RECORDED TEMPERATURE
RMT .C        12.2                 : MDTP         - TEMPERATURE OF MUD
MUDD.KG/M     1150                 : MWT          - MUD DENSITY
NEUT.         1                    : NEUTRON      - NEUTRON TYPE
RESI.         0                    : RESIST       - RESISTIVITY TYPE
RM  .OHMM     3.3                  : RM           - RESISTIVITY OF MUD
RMC .OHMM     3.3                  : RMC          - RESISTIVITY OF MUD CAKE
RMF .OHMM     2.2                  : RMF          - RESISTIVITY OF MUD FILTRATE
SUFT.C        4                    : SUFT         - SURFACE TEMPERATURE
~A  DEPTH      CAL     PHIN       GR     PHID     RESD
  180.000  159.347    0.480  123.706    0.243    3.911
  180.250  162.403    0.477  123.131    0.237    3.910
  180.500  165.469    0.463  121.975    0.238    3.838
  180.750  166.515    0.451  121.408    0.246    3.837
  181.000  163.532    0.436  122.036    0.243    3.836
  181.250  158.521    0.430  124.464    0.230    3.835
  181.500  153.509    0.436  124.487    0.231    3.835
  181.750  151.527    0.452  123.323    0.233    3.833
  182.000  154.592    0.458  120.963    0.226    3.977
  182.250  157.658    0.458  119.799    0.219    4.202
  182.500  158.695    0.455  123.422    0.222    4.359
  182.750  160.760    0.448  124.050    0.223    4.440
  183.000  159.806    0.441  121.691    0.186    4.606
  183.250  157.814    0.434  118.137    0.144    4.867
  183.500  156.832    0.425  113.977    0.176    5.049
  183.750  155.868    0.419  111.021    0.199    5.142
  184.000  159.934    0.426  112.844    0.207    5.334
  184.250  163.009    0.438  122.434    0.221    5.432
  184.500  155.979    0.447  127.849    0.229    5.332
  184.750  160.054    0.449  126.693    0.235    5.234
  185.000  159.081    0.428  126.110    0.222    5.042
  185.250  160.127    0.406  127.941    0.225    4.949
  185.500  163.184    0.419  131.556    0.229    4.858
  185.750  170.297    0.432  130.400    0.223    4.857
  186.000  169.324    0.441  128.033    0.222    4.855
  186.250  168.352    0.432  131.051    0.232    4.855
  186.500  170.408    0.432  131.089    0.229    4.944
  186.750  161.357    0.429  126.930    0.221    4.943
  187.000  154.336    0.421  121.583    0.217    5.034
  187.250  156.383    0.428  117.432    0.214    5.221
  187.500  161.468    0.429  113.877    0.219    5.221
  187.750  165.543    0.417  118.090    0.220    5.124
  188.000  167.599    0.434  125.888    0.218    5.029
  188.250  167.645    0.450  126.516    0.215    4.670
  188.500  164.653    0.454  122.962    0.215    4.584
  188.750  160.660    0.416  118.213    0.219    5.119
  189.000  157.659    0.365  111.671    0.228    6.388
  189.250  155.676    0.349   89.596    0.239    8.426
  189.500  153.684    0.324   71.097    0.257   13.366
  189.750  152.721    0.303   59.178    0.279   14.930
  190.000  151.748    0.326   41.890    0.275   16.370
  190.250  153.804    0.331   44.900    0.255   15.772
  190.500  155.860    0.356   45.536    0.240   15.197
  190.750  155.897    0.372   44.372    0.229   14.376
  191.000  154.924    0.372   46.187    0.243   13.598
  191.250  156.980    0.376   50.400    0.269   13.102
  191.500  157.016    0.386   53.433    0.246   12.393
  191.750  155.043    0.389   54.651    0.242   11.939
  192.000  157.099    0.353   61.254    0.262   11.720
  192.250  160.165    0.381   67.267    0.287   11.291
  192.500  161.211    0.386   69.082    0.301   11.290
  192.750  160.238    0.369   68.515    0.297   11.081
  193.000  159.265    0.335   66.156    0.304   11.709
  193.250  158.283    0.326   63.199    0.308   12.604
  193.500  158.320    0.328   60.242    0.294   13.319
  193.750  162.395    0.342   58.481    0.285   13.818
  194.000  163.442    0.368   59.109    0.292   13.560
  194.250  162.496    0.380   60.932    0.304   13.067
  194.500  162.524    0.393   63.360    0.305   12.591
  194.750  162.570    0.401   64.585    0.311   11.476
  195.000  162.597    0.402   62.831    0.326   11.265
  195.250  162.625    0.399   59.269    0.330   10.854
  195.500  161.661    0.394   55.715    0.330   10.458
  195.750  158.669    0.375   52.758    0.351   10.848
  196.000  158.715    0.337   49.212    0.419   11.255
  196.250  159.743    0.309   46.255    0.407   11.676
  196.500  165.838    0.301   42.701    0.350   12.112
  196.750  170.923    0.306   39.139    0.335   12.335
  197.000  170.959    0.316   35.593    0.337   12.562
  197.250  167.967    0.320   38.005    0.338   12.559
  197.500  169.014    0.312   42.816    0.329   12.557
  197.750  162.992    0.307   44.041    0.321   12.324
  198.000  156.971    0.317   42.877    0.321   11.874
  198.250  161.065    0.311   36.336    0.337   11.655
  198.500  166.150    0.315   41.743    0.350   11.229
  198.750  164.158    0.352   46.554    0.344   11.022
  199.000  168.234    0.377   51.969    0.337   10.620
  199.250  170.290    0.357   56.182    0.338   10.045
  199.500  163.259    0.349   59.797    0.332    9.679
  199.750  161.276    0.365   65.803    0.282    9.155
  200.000  165.352    0.400   74.795    0.258    8.345
  200.250  166.398    0.418   84.393    0.252    7.607
  200.500  166.435    0.420   88.606    0.224    7.197
  200.750  169.500    0.415   87.441    0.215    6.560
  201.000  169.537    0.414   85.082    0.223    5.763
  201.250  165.545    0.425   89.295    0.244    5.352
  201.500  164.572    0.435   94.105    0.263    4.879
  201.750  165.627    0.438   99.513    0.267    4.447
  202.000  165.673    0.434  103.129    0.266    4.285
  202.250  164.691    0.436  106.162    0.271    4.206
  202.500  162.708    0.443  104.997    0.273    4.283
  202.750  161.736    0.446  103.236    0.263    4.444
  203.000  161.763    0.439  100.869    0.261    4.696
  203.250  161.800    0.408   97.322    0.266    5.149
  203.500  164.866    0.393   99.138    0.256    5.342
  203.750  165.921    0.395   94.388    0.231    5.541
  204.000  165.949    0.413   88.444    0.226    5.643
  204.250  161.956    0.454   83.695    0.239    5.641
  204.500  166.022    0.451   82.531    0.256    5.641
  204.750  168.087    0.438   86.146    0.257    5.639
  205.000  166.105    0.421   90.957    0.244    5.638
  205.250  163.122    0.405   90.987    0.235    5.742
  205.500  162.131    0.400   86.836    0.229    5.740
  205.750  160.157    0.403   82.684    0.240    5.739
  206.000  158.175    0.401   85.702    0.264    5.953
  206.250  157.202    0.388   92.312    0.262    6.176
  206.500  154.228    0.396   91.148    0.253    6.408
  206.750  154.246    0.418   86.989    0.254    6.898
  207.000  152.264    0.434   78.655    0.277    8.143
  207.250  149.271    0.401   60.164    0.293   10.161
  207.500  148.308    0.373   41.076    0.310   13.401
  207.750  151.373    0.355   27.954    0.304   18.340
  208.000  152.411    0.336   27.985    0.300   20.110
  208.250  153.457    0.318   28.621    0.304   21.646
  208.500  154.503    0.306   26.254    0.311   23.301
  208.750  155.559    0.301   20.907    0.319   24.172
  209.000  159.634    0.304   17.353    0.334   24.616
  209.250  163.700    0.318   18.578    0.351   23.285
  209.500  171.824    0.341   25.786    0.363   21.619
  209.750  173.880    0.355   31.194    0.369   21.222
  210.000  167.859    0.355   33.032    0.365   21.217
  210.250  168.905    0.352   34.243    0.347   20.822
  210.500  169.951    0.353   37.858    0.341   20.819
  210.750  167.969    0.357   40.279    0.345   20.058
  211.000  161.957    0.358   42.109    0.337   18.975
  211.250  160.984    0.356   44.530    0.326   16.980
  211.500  161.021    0.349   46.950    0.320   15.479
  211.750  161.057    0.354   49.968    0.315   14.643
  212.000  163.113    0.382   56.571    0.310   13.104
  212.250  163.150    0.394   61.381    0.312   11.945
  212.500  162.168    0.378   66.789    0.307   10.690
  212.750  159.176    0.374   76.992    0.292    9.566
  213.000  157.202    0.376   74.027    0.279    8.883
  213.250  158.249    0.372   69.278    0.281    8.558
  213.500  161.314    0.363   67.524    0.286    8.556
  213.750  165.408    0.353   68.750    0.292    8.715
  214.000  165.436    0.353   69.378    0.299    9.209
  214.250  164.472    0.378   64.621    0.309   10.098
  214.500  163.490    0.365   49.117    0.315   12.144
  214.750  162.508    0.342   46.751    0.312   15.153
  215.000  158.506    0.333   38.416    0.246   16.925
  215.250  156.523    0.334   30.680    0.235   18.904
  215.500  158.579    0.329   39.688    0.252   19.611
  215.750  161.645    0.302   36.724    0.276   19.247
  216.000  161.691    0.311   31.369    0.247   17.545
  216.250  160.709    0.319   34.992    0.243   16.294
