~VERSION INFORMATION
 VERS.                 2.0:   CWLS LOG ASCII STANDARD -VERSION 2.0
 WRAP.                  NO:   ONE LINE PER DEPTH STEP
~WELL INFORMATION BLOCK
#MNEM.UNIT           DATA                    DESCRIPTION OF MNEMONIC
#---------    -------------------            -------------------------------
# Generated from Intellog Unique Number	CW_70_72/WELL/829
NULL.         -999.25                        : NULL_VALUE
WELL.         SUNDANCE ET AL SMITH 06-29     : Well_name    - WELL              
LOC .         06-29-071-22W4                 : Location     - LOCATION          
UWI .         00/06-29-071-22W4/0            : Uwi          - UNIQUE WELL ID    
ENTR.         JAYE                           : Entered      - ENTERED BY        
SRVC.         SCHLUMBERGER                   : Scn          - SERVICE COMPANY   
DATE.         9 MAR 76                       : Date         - LOG DATE          
STRT.M        402.336                        : top_depth    - START DEPTH       
STOP.M        603.586                        : bot_depth    - STOP DEPTH        
STEP.M        0.25                           : increment    - STEP LENGTH       
~CURVE INFORMATION BLOCK
#MNEM UNIT       ERCB CURVE CODE    CURVE DESCRIPTION
#-----------   ------------------   ----------------------------------
DEPT.M        00 001 00 00         : DEPTH        - DEPTH                       
DPHI.V/V      00 890 00 00         : PHID         - DENSITY POROSITY (SANDSTONE)
NPHI.V/V      00 330 00 00         : PHIN         - NEUTRON POROSITY (SANDSTONE)
GR  .API      00 310 00 00         : GR           - GAMMA RAY                   
CALI.MM       00 280 01 00         : CAL          - CALIPER                     
ILD .OHMM     00 120 00 00         : RESD         - DEEP RESISTIVITY (DIL)      
~PARAMETER INFORMATION       
#MNEM.UNIT           DATA             DESCRIPTION OF MNEMONIC
#---------         -----------     ------------------------------
GL  .M        641.421              : gl           - GROUND LEVEL ELEVATION      
EREF.M        644.896              : kb           - ELEVATION OF DEPTH REFERENCE
DATM.M        641.421              : datum        - DATUM ELEVATION             
TDD .M        625.754              : tdd          - TOTAL DEPTH DRILLER         
RUN .         ONE                  : Run          - RUN NUMBER                  
BASE.         EDM                  : Branch       - HOME BASE OF LOGGING UNIT   
MUD .         GEL                  : Mud_type     - MUD TYPE                    
MATR.         SANDSTONE            : Logunit      - NEUTRON MATRIX              
TMAX.C        22.7778              : BHT          - MAXIMUM RECORDED TEMPERATURE
BHTD.M        626.669              : BHTDEP       - MAXIMUM RECORDED TEMPERATURE
RMT .C        21.6667              : MDTP         - TEMPERATURE OF MUD          
MUDD.KG/M     0                    : MWT          - MUD DENSITY                 
NEUT.         1                    : NEUTRON      - NEUTRON TYPE                
RESI.         0                    : RESIST       - RESISTIVITY TYPE            
RM  .OHMM     1.67                 : RM           - RESISTIVITY OF MUD          
RMC .OHMM     1.25                 : RMC          - RESISTIVITY OF MUD CAKE     
RMF .OHMM     2.74                 : RMF          - RESISTIVITY OF MUD FILTRATE 
SUFT.C        -17.7778             : SUFT         - SURFACE TEMPERATURE         
~A  DEPTH     PHID     PHIN       GR      CAL     RESD
  402.336    0.193    0.545  115.377  185.009    2.524
  402.586    0.208    0.563  117.327  187.900    2.525
  402.836    0.224    0.575  119.231  186.984    2.550
  403.086    0.245    0.566  120.940  182.163    2.566
  403.336    0.270    0.557  121.835  176.815    2.592
  403.586    0.277    0.538  122.857  173.370    2.588
  403.836    0.266    0.520  123.011  174.365    2.538
  404.086    0.246    0.508  119.913  177.149    2.516
  404.336    0.199    0.525  115.318  181.103    2.574
  404.586    0.195    0.557  110.665  185.482    2.702
  404.836    0.223    0.581  101.828  195.454    2.875
  405.086    0.283    0.554   94.741  190.744    3.017
  405.336    0.250    0.500   89.025  155.281    3.166
  405.586    0.142    0.465   93.849  153.105    3.411
  405.836    0.157    0.476   98.433  164.871    3.758
  406.086    0.207    0.516  103.636  172.631    3.987
  406.336    0.232    0.510  101.034  167.273    4.273
  406.586    0.233    0.490   96.693  161.295    4.442
  406.836    0.244    0.475   91.353  157.424    4.570
  407.086    0.252    0.459   89.254  156.204    4.719
  407.336    0.241    0.436   88.345  155.293    4.733
  407.586    0.218    0.422   85.184  154.168    4.648
  407.836    0.241    0.425   82.526  153.686    4.448
  408.086    0.239    0.439   78.743  153.596    4.180
  408.336    0.253    0.442   74.836  153.874    3.851
  408.586    0.313    0.443   75.113  154.330    3.566
  408.836    0.386    0.448   79.504  154.482    3.254
  409.086    0.423    0.478   85.268  154.627    3.013
  409.336    0.485    0.501   93.904  154.137    2.756
  409.586    0.527    0.579  101.664  153.659    2.692
  409.836    0.552    0.586  105.995  153.699    2.767
  410.086    0.481    0.557  109.700  263.736    3.245
  410.336    0.371    0.504  112.846  229.118    3.634
  410.586    0.307    0.469  113.933  199.569    3.922
  410.836    0.270    0.444  111.274  176.793    4.218
  411.086    0.219    0.433   98.694  160.452    4.427
  411.336    0.211    0.416   94.287  156.793    4.681
  411.586    0.227    0.403   91.749  156.302    4.870
  411.836    0.232    0.408   95.830  156.130    4.854
  412.086    0.240    0.437  101.844  156.391    4.715
  412.336    0.260    0.457  105.680  162.032    4.490
  412.586    0.303    0.547  107.825  170.530    4.252
  412.836    0.322    0.534  108.161  181.974    4.077
  413.086    0.443    0.520  107.744  198.397    3.946
  413.336    0.445    0.501  104.840  209.217    3.883
  413.586    0.362    0.484   99.623  158.540    3.894
  413.836    0.321    0.467   95.715  157.933    4.050
  414.086    0.260    0.478   91.747  158.615    4.127
  414.336    0.273    0.484   87.590  159.292    4.129
  414.586    0.267    0.460   86.115  159.951    4.087
  414.836    0.245    0.451   86.951  159.910    4.082
  415.086    0.202    0.470   88.847  159.422    4.085
  415.336    0.223    0.474   91.117  159.037    4.095
  415.586    0.217    0.473   93.763  158.956    4.097
  415.836    0.228    0.472   96.969  158.997    4.084
  416.086    0.234    0.471  100.801  159.368    4.006
  416.336    0.234    0.465  104.755  159.414    3.897
  416.586    0.221    0.457  108.895  159.455    3.711
  416.836    0.208    0.453  111.547  159.706    3.707
  417.086    0.221    0.456  108.013  160.380    3.745
  417.336    0.212    0.456  103.671  161.686    3.859
  417.586    0.209    0.450  101.635  168.599    3.946
  417.836    0.228    0.442  103.528  175.516    4.105
  418.086    0.245    0.439  105.987  179.468    4.302
  418.336    0.270    0.429  109.135  169.889    4.574
  418.586    0.233    0.433  112.897  162.742    4.765
  418.836    0.212    0.466  114.485  166.804    4.876
  419.086    0.235    0.440  113.946  169.383    4.850
  419.336    0.272    0.419  112.659  159.385    4.791
  419.586    0.248    0.416  113.561  156.676    4.708
  419.836    0.238    0.476  116.516  159.149    4.626
  420.086    0.240    0.508  119.101  167.009    4.576
  420.336    0.259    0.505  120.436  175.819    4.530
  420.586    0.250    0.476  122.764  176.921    4.514
  420.836    0.220    0.469  125.477  173.789    4.517
  421.086    0.247    0.485  130.119  178.478    4.528
  421.336    0.261    0.504  127.210  194.478    4.574
  421.586    0.233    0.498  122.927  189.445    4.678
  421.836    0.260    0.485  119.831  177.648    4.849
  422.086    0.276    0.466  115.239  167.865    4.944
  422.336    0.287    0.451  109.274  158.717    5.009
  422.586    0.280    0.444  104.180  158.866    5.077
  422.836    0.236    0.435  107.199  167.458    5.166
  423.086    0.239    0.442  111.031  174.050    5.246
  423.336    0.233    0.472  108.370  169.021    5.337
  423.586    0.244    0.425  102.836  160.827    5.441
  423.836    0.199    0.399   99.686  159.694    5.482
  424.086    0.185    0.377  102.890  161.540    5.498
  424.336    0.216    0.447  110.653  166.860    5.409
  424.586    0.211    0.477  111.426  170.818    4.881
  424.836    0.220    0.464  105.898  172.124    4.309
  425.086    0.271    0.447   97.124  162.123    3.824
  425.336    0.267    0.427   89.536  157.091    3.502
  425.586    0.269    0.422   83.440  155.552    3.249
  425.836    0.266    0.419   85.650  154.219    3.227
  426.086    0.257    0.415   92.165  153.726    3.477
  426.336    0.243    0.409   99.679  154.085    3.793
  426.586    0.220    0.391  102.322  154.552    4.226
  426.836    0.212    0.380  104.158  155.652    4.492
  427.086    0.181    0.430  107.173  158.224    4.841
  427.336    0.169    0.436  110.445  162.713    5.176
  427.586    0.220    0.430  112.403  168.244    5.395
  427.836    0.199    0.445  111.055  170.397    5.346
  428.086    0.251    0.465  109.646  174.142    4.924
  428.336    0.339    0.511  110.731  180.203    4.378
  428.586    0.489    0.561  106.823  182.146    3.951
  428.836    0.569    0.580  104.477  183.245    3.693
  429.086    0.450    0.571  114.299  195.333    3.744
  429.336    0.326    0.527  123.307  178.251    3.892
  429.586    0.267    0.486  129.948  165.716    4.208
  429.836    0.214    0.460  131.219  167.349    4.644
  430.086    0.202    0.484  128.058  170.239    4.959
  430.336    0.225    0.500  127.275  170.917    5.033
  430.586    0.242    0.496  119.997  170.632    4.774
  430.836    0.311    0.484  111.660  163.924    4.245
  431.086    0.318    0.466  103.324  153.713    3.769
  431.336    0.349    0.485  108.278  158.511    3.419
  431.586    0.418    0.529  118.721  194.056    3.149
  431.836    0.354    0.554  123.926  236.992    3.305
  432.086    0.315    0.572  129.317  200.264    3.682
  432.336    0.289    0.570  126.093  190.057    4.153
  432.586    0.266    0.546  115.074  165.159    4.539
  432.836    0.248    0.498  108.736  157.487    5.017
  433.086    0.251    0.465  102.643  156.890    5.527
  433.336    0.226    0.442   96.924  157.340    5.801
  433.586    0.214    0.454   94.763  158.141    5.923
  433.836    0.221    0.464   90.547  158.814    5.756
  434.086    0.222    0.461   89.073  158.433    5.541
  434.336    0.230    0.468   91.155  157.517    5.334
  434.586    0.238    0.458   93.929  156.499    5.143
  434.836    0.213    0.459   96.138  155.907    4.942
  435.086    0.200    0.466   98.344  154.999    4.775
  435.336    0.219    0.469   99.180  154.203    4.630
  435.586    0.256    0.478   98.146  153.183    4.489
  435.836    0.241    0.488   98.731  153.012    4.337
  436.086    0.254    0.469  102.872  153.680    4.182
  436.336    0.220    0.467  107.451  156.158    4.094
  436.586    0.239    0.482  112.214  160.746    4.158
  436.836    0.265    0.474  115.858  165.754    4.406
  437.086    0.268    0.450  119.193  162.830    4.547
  437.336    0.217    0.442  122.963  157.909    4.627
  437.586    0.207    0.432  126.668  154.885    4.598
  437.836    0.192    0.433  131.060  154.402    4.523
  438.086    0.200    0.465  137.076  157.298    4.459
  438.336    0.214    0.483  130.362  162.616    4.365
  438.586    0.232    0.519  115.472  169.946    4.366
