~VERSION INFORMATION
 VERS.                 2.0:   CWLS LOG ASCII STANDARD -VERSION 2.0
 WRAP.                  NO:   ONE LINE PER DEPTH STEP
~WELL INFORMATION BLOCK
#MNEM.UNIT           DATA                    DESCRIPTION OF MNEMONIC
#---------    -------------------            -------------------------------
# Generated from Intellog Unique Number	CW_82_90/WELL/549
WELL.         MIAMI AMOCO WABASCA 06-34      : Well_name    - WELL
LOC .         00/06-34-084-01W5/0            : Location     - LOCATION
UWI .         00/06-34-084-01W5/0            : Uwi          - UNIQUE WELL ID
ENTR.         JAYE                           : Entered      - ENTERED BY
SRVC.         SCHLUMBERGER                   : Scn          - SERVICE COMPANY
DATE.         29 JAN 75                      : Date         - LOG DATE
STRT.M        274.32                         : top_depth    - START DEPTH
STOP.M        475.57                         : bot_depth    - STOP DEPTH
STEP.M        0.25                           : increment    - STEP LENGTH
 NULL. -999.2500:NULL Value
~CURVE INFORMATION BLOCK
#MNEM UNIT       ERCB CURVE CODE    CURVE DESCRIPTION
#-----------   ------------------   ----------------------------------
DEPT.M        00 001 00 00         : DEPTH        - DEPTH
CALI.MM       00 280 01 00         : CAL          - CALIPER
GR  .API      00 310 00 00         : GR           - GAMMA RAY
NPHI.V/V      00 330 00 00         : PHIN         - NEUTRON POROSITY (SANDSTONE)
DPHI.V/V      00 890 00 00         : PHID         - DENSITY POROSITY (SANDSTONE)
ILD .OHMM     00 120 00 00         : RESD         - DEEP RESISTIVITY (DIL)
~PARAMETER INFORMATION
#MNEM.UNIT           DATA             DESCRIPTION OF MNEMONIC
#---------         -----------     ------------------------------
GL  .M        627.583              : gl           - GROUND LEVEL ELEVATION
EREF.M        630.875              : kb           - ELEVATION OF DEPTH REFERENCE
DATM.M        627.583              : datum        - DATUM ELEVATION
TDD .M        475.488              : tdd          - TOTAL DEPTH DRILLER
RUN .         ONE                  : Run          - RUN NUMBER
ENG .         CROCKFORD            : Engineer     - RECORDING ENGINEER
WIT .         RUDD                 : Witness      - WITNESSED BY
BASE.         EDMONTON             : Branch       - HOME BASE OF LOGGING UNIT
MUD .         DAPP                 : Mud_type     - MUD TYPE
MATR.         SANDSTONE            : Logunit      - NEUTRON MATRIX
TMAX.C        25                   : BHT          - MAXIMUM RECORDED TEMPERATURE
BHTD.M        475.488              : BHTDEP       - MAXIMUM RECORDED TEMPERATURE
RMT .C        17.7778              : MDTP         - TEMPERATURE OF MUD
MUDD.KG/M     9600                 : MWT          - MUD DENSITY
NEUT.         1                    : NEUTRON      - NEUTRON TYPE
RESI.         0                    : RESIST       - RESISTIVITY TYPE
RM  .OHMM     2.8                  : RM           - RESISTIVITY OF MUD
RMC .OHMM     0                    : RMC          - RESISTIVITY OF MUD CAKE
RMF .OHMM     2.34                 : RMF          - RESISTIVITY OF MUD FILTRATE
SUFT.C        -17.7778             : SUFT         - SURFACE TEMPERATURE
~A  DEPTH      CAL       GR     PHIN     PHID     RESD
# ...
  347.320  164.442   90.207    0.468    0.240    7.678
  347.570  168.834   94.383    0.483    0.209    6.430
  347.820  171.657   92.755    0.486    0.212    5.030
  348.070  176.257   91.739    0.484    0.222    4.747
  348.320  177.424   91.579    0.485    0.242    4.689
  348.570  175.393   91.355    0.479    0.232    4.719
  348.820  174.188   90.829    0.467    0.253    4.783
  349.070  175.051   89.808    0.475    0.248    5.003
  349.320  176.644   89.525    0.483    0.272    5.165
  349.570  175.331   89.427    0.491    0.267    5.371
  349.820  171.023   88.408    0.485    0.259    5.628
  350.070  168.782   85.798    0.474    0.279    5.853
  350.320  166.128   82.215    0.476    0.267    5.944
  350.570  163.371   81.258    0.482    0.233    5.808
  350.820  162.062   83.724    0.491    0.159    5.470
  351.070  161.891   90.105    0.485    0.149    4.993
  351.320  162.236   92.937    0.495    0.189    4.314
  351.570  162.790   90.332    0.502    0.221    3.839
  351.820  165.416   88.215    0.488    0.252    3.744
  352.070  167.320   82.549    0.474    0.257    3.739
  352.320  169.119   79.943    0.476    0.229    4.057
  352.570  169.669   80.149    0.492    0.243    4.566
  352.820  168.977   83.898    0.497    0.257    4.973
  353.070  167.360   87.526    0.482    0.264    5.078
  353.320  166.674   90.180    0.457    0.259    4.880
  353.570  167.122   90.687    0.464    0.247    4.496
  353.820  169.747   89.611    0.487    0.246    4.196
  354.070  172.474   88.349    0.503    0.248    4.115
  354.320  173.147   85.373    0.520    0.246    4.164
  354.570  172.444   79.649    0.541    0.255    4.712
  354.820  168.547   73.192    0.508    0.242    5.804
  355.070  162.995   69.913    0.487    0.270    6.915
  355.320  161.480   69.567    0.475    0.283    7.783
  355.570  161.104   71.057    0.465    0.300    8.553
  355.820  161.245   71.018    0.462    0.320    9.179
  356.070  159.725   71.407    0.449    0.315    9.304
  356.320  156.453   72.713    0.435    0.305    8.827
  356.570  154.525   74.810    0.439    0.286    7.164
  356.820  156.111   78.563    0.465    0.261    5.354
  357.070  159.873   82.066    0.490    0.236    4.702
  357.320  165.811   84.963    0.511    0.231    4.153
  357.570  168.435   86.266    0.533    0.254    3.681
  357.820  168.164   89.469    0.528    0.269    3.187
  358.070  164.162   92.300    0.520    0.269    2.872
  358.320  163.165   95.806    0.557    0.263    2.602
  358.570  168.174  101.517    0.579    0.252    2.451
  358.820  175.969  101.967    0.599    0.266    2.364
  359.070  185.949   99.053    0.582    0.277    2.319
  359.320  186.705   94.122    0.541    0.276    2.506
  359.570  174.528   87.051    0.514    0.274    3.020
  359.820  169.283   81.513    0.474    0.260    3.980
  360.070  176.358   81.410    0.480    0.244    4.975
  360.320  177.227   79.784    0.493    0.244    5.388
  360.570  174.465   77.971    0.503    0.245    5.760
  360.820  172.228   78.483    0.498    0.256    5.828
  361.070  168.331   79.174    0.468    0.262    5.622
  361.320  164.639   83.721    0.467    0.254    5.265
  361.570  167.378   85.702    0.476    0.247    5.051
  361.820  170.926   85.535    0.481    0.238    5.332
  362.070  173.237   81.896    0.451    0.213    5.648
  362.320  170.582   77.878    0.336    0.161    6.345
  362.570  167.720   75.579    0.306    0.129    7.090
  362.820  164.548   81.039    0.310    0.146    7.227
  363.070  163.757   84.972    0.375    0.191    7.061
  363.320  169.177   85.425    0.475    0.221    6.553
  363.570  167.767   84.099    0.481    0.246    5.599
  363.820  164.697   85.532    0.485    0.244    5.361
  364.070  166.186   88.911    0.487    0.247    5.445
  364.320  172.125   89.911    0.482    0.236    5.632
  364.570  174.231   88.161    0.476    0.272    6.099
  364.820  169.086   83.901    0.467    0.264    6.402
  365.070  159.807   77.141    0.463    0.245    6.419
  365.320  157.364   80.217    0.491    0.238    6.191
  365.570  161.024   80.848    0.520    0.235    5.662
  365.820  169.957   77.817    0.541    0.222    5.029
  366.070  175.278   74.720    0.504    0.220    4.868
  366.320  176.452   72.848    0.456    0.198    4.981
  366.570  170.069   75.374    0.421    0.204    5.286
  366.820  170.622   80.411    0.432    0.213    5.756
  367.070  169.728   80.552    0.459    0.248    6.222
  367.320  166.972   78.556    0.475    0.272    6.284
  367.570  170.112   78.578    0.490    0.272    6.073
  367.820  164.043   80.680    0.498    0.283    5.141
  368.070  162.939   82.353    0.521    0.279    3.935
  368.320  168.565   84.025    0.544    0.259    3.271
  368.570  172.230   85.938    0.540    0.261    3.132
  368.820  172.779   86.878    0.518    0.260    3.112
  369.070  167.132   84.638    0.493    0.255    3.148
  369.320  172.855   85.270    0.458    0.252    3.472
  369.570  174.244   85.965    0.457    0.236    4.062
  369.820  177.899   83.604    0.454    0.206    4.903
  370.070  181.041   82.035    0.415    0.191    5.767
  370.320  172.073   82.671    0.399    0.186    6.709
  370.570  164.033   86.726    0.451    0.201    7.307
  370.820  175.150   90.168    0.476    0.214    7.627
  371.070  175.701   92.213    0.479    0.222    7.716
  371.320  172.526   93.579    0.479    0.212    7.498
  371.570  170.495   94.085    0.479    0.210    7.259
  371.820  176.128   93.740    0.476    0.181    7.042
  372.070  179.781   92.905    0.459    0.185    6.970
  372.320  177.541   92.684    0.457    0.177    7.039
  372.570  172.710   94.358    0.467    0.179    7.095
  372.820  167.575   96.517    0.457    0.190    7.155
  373.070  169.679   97.454    0.450    0.199    7.173
  373.320  173.650   96.623    0.452    0.191    7.176
  373.570  179.692   94.075    0.457    0.195    7.234
  373.820  182.008   93.668    0.462    0.212    7.279
  374.070  182.763   94.916    0.470    0.218    7.326
  374.320  183.318   94.262    0.462    0.216    7.331
  374.570  170.934   93.308    0.437    0.216    7.349
  374.820  167.866   93.147    0.438    0.177    7.313
  375.070  168.844   92.984    0.443    0.202    7.319
  375.320  170.014   92.393    0.442    0.200    7.337
  375.570  174.393   89.420    0.446    0.184    7.465
  375.820  176.916   83.451    0.449    0.188    7.750
  376.070  169.809   78.461    0.423    0.182    8.135
  376.320  164.878   74.081    0.410    0.128    8.923
  376.570  166.678   73.493    0.342    0.075   11.051
  376.820  168.580   73.514    0.308    0.064   13.070
  377.070  169.139   70.051    0.277    0.050   15.516
  377.320  169.790   64.143    0.206    0.025   19.143
  377.570  170.968   62.026    0.211   -0.007   21.827
  377.820  171.827   66.030    0.249    0.018   23.040
  378.070  172.384   69.040    0.311    0.042   22.929
  378.320  172.628   75.604    0.311    0.070   21.793
  378.570  172.663   79.595    0.312    0.093   17.819
  378.820  171.975   83.284    0.386    0.114   14.515
  379.070  170.871   84.957    0.427    0.192   10.846
  379.320  168.945   80.271    0.446    0.224    9.319
  379.570  171.876   75.891    0.468    0.227    6.664
  379.820  177.089   68.272    0.485    0.231    6.299
  380.070  172.988   64.016    0.464    0.259    6.269
  380.320  169.193   61.840    0.455    0.231    6.449
  380.570  166.749   61.431    0.444    0.219    6.770
  380.820  164.820   61.882    0.440    0.222    7.120
  381.070  163.207   62.269    0.431    0.272    7.391
  381.320  163.035   64.067    0.431    0.278    7.602
  381.570  163.279   65.374    0.435    0.261    7.805
  381.820  163.517   64.475    0.425    0.255    7.884
  382.070  163.657   67.371    0.410    0.272    7.875
  382.320  164.005   73.566    0.402    0.261    7.896
  382.570  164.351   79.945    0.405    0.236    7.887
  382.820  165.109   85.221    0.412    0.214    7.921
  383.070  167.022   91.477    0.413    0.206    7.999
  383.320  167.151   93.150    0.412    0.189    8.049
  383.570  165.948   95.127    0.416    0.184    8.098
