~VERSION INFORMATION
 VERS.                 2.0:   CWLS LOG ASCII STANDARD -VERSION 2.0
 WRAP.                  NO:   ONE LINE PER DEPTH STEP
~WELL INFORMATION BLOCK
#MNEM.UNIT           DATA                    DESCRIPTION OF MNEMONIC
#---------    -------------------            -------------------------------
# Generated from Intellog Unique Number	CN_94_101/WELL/2626
WELL.         PARAMOUNT RESOURCES LTD.       : Well_name    - WELL
LOC .         00/03-31-094-17W4/0            : Location     - LOCATION
UWI .         00/03-31-094-17W400            : Uwi          - UNIQUE WELL ID
ENTR.         JOETTE                         : Entered      - ENTERED BY
SRVC.         COMPUTALOG                     : Scn          - SERVICE COMPANY
DATE.         06/18/92                       : Date         - LOG DATE
STRT.M        90                             : top_depth    - START DEPTH
STOP.M        280                            : bot_depth    - STOP DEPTH
STEP.M        0.25                           : increment    - STEP LENGTH
 NULL. -999.2500:NULL Value
~CURVE INFORMATION BLOCK
#MNEM UNIT       ERCB CURVE CODE    CURVE DESCRIPTION
#-----------   ------------------   ----------------------------------
DEPT.M        00 001 00 00         : DEPTH        - DEPTH
CALI.MM       00 280 01 00         : CAL          - CALIPER
GR  .API      00 310 00 00         : GR           - GAMMA RAY
NPHI.V/V      00 330 00 00         : PHIN         - NEUTRON POROSITY (SANDSTONE)
DPHI.V/V      00 890 00 00         : PHID         - DENSITY POROSITY (SANDSTONE)
ILD .OHMM     00 120 00 00         : RESD         - DEEP RESISTIVITY (DIL)
~PARAMETER INFORMATION
#MNEM.UNIT           DATA             DESCRIPTION OF MNEMONIC
#---------         -----------     ------------------------------
GL  .M        538.3                : gl           - GROUND LEVEL ELEVATION
EREF.M        542.1                : kb           - ELEVATION OF DEPTH REFERENCE
DATM.M        542.1                : datum        - DATUM ELEVATION
TDD .M        281.4                : tdd          - TOTAL DEPTH DRILLER
RUN .         ONE                  : Run          - RUN NUMBER
ENG .         JO                   : Engineer     - RECORDING ENGINEER
WIT .         TIM                  : Witness      - WITNESSED BY
MUD .         GEL                  : Mud_type     - MUD TYPE
MATR.         SANDSTONE            : Logunit      - NEUTRON MATRIX
TMAX.C        25                   : BHT          - MAXIMUM RECORDED TEMPERATURE
BHTD.M        281.4                : BHTDEP       - MAXIMUM RECORDED TEMPERATURE
RMT .C        16                   : MDTP         - TEMPERATURE OF MUD
MUDD.KG/M     1100                 : MWT          - MUD DENSITY
NEUT.         1                    : NEUTRON      - NEUTRON TYPE
RESI.         0                    : RESIST       - RESISTIVITY TYPE
RM  .OHMM     4.1                  : RM           - RESISTIVITY OF MUD
RMC .OHMM     4.1                  : RMC          - RESISTIVITY OF MUD CAKE
RMF .OHMM     4.1                  : RMF          - RESISTIVITY OF MUD FILTRATE
SUFT.C        4                    : SUFT         - SURFACE TEMPERATURE
~A  DEPTH      CAL       GR     PHIN     PHID     RESD
# ...
  199.500  155.154   89.600    0.378    0.219    8.575
  199.750  155.247   87.838    0.373    0.215    9.095
  200.000  156.383   87.284    0.370    0.209    9.114
  200.250  157.494   90.394    0.368    0.207    8.633
  200.500  159.624   92.269    0.396    0.210    8.030
  200.750  160.713   97.212    0.423    0.210    7.746
  201.000  162.843  100.933    0.423    0.207    7.617
  201.250  163.978   98.546    0.418    0.207    8.075
  201.500  165.090   96.770    0.429    0.212    8.397
  201.750  165.207  102.948    0.448    0.216    9.084
  202.000  165.301  107.891    0.461    0.217    9.265
  202.250  164.377  108.558    0.457    0.219    9.279
  202.500  163.476   97.606    0.414    0.236    9.308
  202.750  161.510   92.775    0.419    0.245    9.323
  203.000  160.563   94.067    0.421    0.234    9.337
  203.250  155.566   96.567    0.415    0.229    9.356
  203.500  152.629   96.013    0.395    0.193    9.380
  203.750  151.658   89.336    0.349    0.142    9.954
  204.000  151.776   80.841    0.336    0.112   10.350
  204.250  151.869   79.675    0.345    0.167   10.568
  204.500  153.005   82.786    0.361    0.222   10.195
  204.750  153.075   87.132    0.374    0.242    9.477
  205.000  153.169   89.020    0.369    0.237    8.977
  205.250  154.328   89.063    0.362    0.238    8.669
  205.500  154.398   88.508    0.373    0.245    8.516
  205.750  155.486   87.954    0.410    0.257    8.224
  206.000  151.555   89.260    0.407    0.226    8.088
  206.250  151.625   92.995    0.408    0.219    8.104
  206.500  151.743   95.481    0.414    0.222    7.970
  206.750  152.831   99.188    0.417    0.222    7.986
  207.000  154.938  101.687    0.413    0.214    8.159
  207.250  157.114  101.133    0.405    0.211    8.171
  207.500  158.179   97.538    0.390    0.216    8.184
  207.750  159.291   95.748    0.389    0.229    8.052
  208.000  159.385   86.031    0.395    0.238    7.768
  208.250  156.448   83.630    0.409    0.240    7.365
  208.500  155.500   87.990    0.418    0.232    7.377
  208.750  154.647   92.308    0.433    0.221    8.127
  209.000  154.717   96.029    0.460    0.210    8.770
  209.250  154.787  102.208    0.366    0.107    9.472
  209.500  154.881   94.309    0.317    0.100    9.860
  209.750  157.034   80.914    0.315    0.129    8.828
  210.000  158.099   76.694    0.321    0.172    7.754
  210.250  160.253   81.040    0.352    0.151    5.645
  210.500  160.347   78.653    0.375    0.152    5.449
  210.750  159.399   78.710    0.375    0.180    4.971
  211.000  157.480   84.874    0.387    0.223    4.371
  211.250  156.532   87.984    0.395    0.232    4.065
  211.500  154.614   87.444    0.387    0.259    3.994
  211.750  154.684   86.889    0.385    0.253    3.785
  212.000  155.843   88.167    0.396    0.248    3.651
  212.250  156.908   91.278    0.476    0.275    3.522
  212.500  158.043   94.999    0.538    0.280    3.274
  212.750  158.137   99.942    0.561    0.249    4.035
  213.000  158.254  106.106    0.482    0.232    5.064
  213.250  157.283  103.719    0.451    0.230    6.121
  213.500  156.406   97.668    0.417    0.236    7.404
  213.750  155.482   93.434    0.412    0.216    7.706
  214.000  155.575   87.993    0.410    0.163    7.434
  214.250  154.675   84.384    0.398    0.160    6.786
  214.500  154.745   81.997    0.382    0.187    6.549
  214.750  155.833   87.551    0.408    0.206    6.434
  215.000  157.987   94.937    0.420    0.198    6.576
  215.250  159.075  102.948    0.430    0.199    6.968
  215.500  161.205  105.448    0.439    0.202    7.818
  215.750  161.322   95.120    0.398    0.168    8.440
  216.000  157.367   82.946    0.365    0.122    9.465
  216.250  155.378   70.786    0.329    0.108   10.620
  216.500  152.465   69.620    0.309    0.170   11.465
  216.750  152.512   77.617    0.359    0.199   11.941
  217.000  153.647   85.614    0.398    0.202   11.965
  217.250  154.736   95.486    0.393    0.208   11.761
  217.500  157.883   93.682    0.391    0.222   11.560
  217.750  160.037   90.684    0.392    0.214   11.369
  218.000  161.125   89.532    0.394    0.184   11.404
  218.250  161.242   89.589    0.395    0.181   11.644
  218.500  161.313   90.256    0.357    0.154   11.662
  218.750  161.430   92.755    0.361    0.154   11.480
  219.000  161.524   95.255    0.373    0.193   11.284
  219.250  160.600   95.922    0.374    0.205   11.092
  219.500  160.670   92.299    0.378    0.197   10.700
  219.750  161.805   89.912    0.377    0.200   10.327
  220.000  161.876   95.466    0.369    0.208   10.156
  220.250  162.016  101.631    0.372    0.216    9.988
  220.500  161.069   99.244    0.380    0.208    9.822
  220.750  158.109   92.595    0.375    0.197    9.842
  221.000  157.184   93.873    0.381    0.194    9.868
  221.250  159.338   96.373    0.391    0.194   10.075
  221.500  162.462   97.636    0.404    0.194   10.287
  221.750  163.551   98.303    0.371    0.190   10.703
  222.000  165.680   96.555    0.357    0.169   11.135
  222.250  163.738   93.544    0.359    0.207   11.584
  222.500  159.783   89.310    0.370    0.228   12.769
  222.750  157.841   85.105    0.357    0.214   13.529
  223.000  156.893   85.758    0.317    0.140   14.335
  223.250  157.034   86.439    0.302    0.108   14.905
  223.500  157.105   85.260    0.250    0.079   16.405
  223.750  157.222   80.429    0.277    0.060   18.407
  224.000  157.292   81.110    0.302    0.065   17.756
  224.250  157.386   82.985    0.319    0.203   14.749
  224.500  156.462   84.874    0.350    0.246   12.484
  224.750  156.579   82.487    0.373    0.271   10.772
  225.000  156.649   80.711    0.387    0.282   10.198
  225.250  156.790   80.170    0.393    0.255    9.485
  225.500  156.861   80.837    0.388    0.239    9.505
  225.750  156.978   82.115    0.413    0.229   10.075
  226.000  157.025   83.393    0.416    0.232   10.675
  226.250  157.142   81.631    0.422    0.235   12.205
  226.500  157.236   79.827    0.394    0.234   13.425
  226.750  157.306   78.065    0.364    0.195   13.203
  227.000  157.400   76.885    0.262    0.090   11.386
  227.250  157.494   75.720    0.350    0.206   10.201
  227.500  156.616   75.776    0.355    0.232   10.026
  227.750  156.687   79.498    0.363    0.226    9.677
  228.000  155.739   83.219    0.395    0.206    9.697
  228.250  157.869   88.162    0.418    0.209   10.678
  228.500  163.077   86.385    0.338    0.166   12.201
  228.750  162.152   78.501    0.276    0.064   17.793
  229.000  161.252   68.784    0.260    0.030   25.017
  229.250  159.309   62.121    0.250    0.045   25.517
  229.500  159.380   59.734    0.234    0.044   27.050
  229.750  157.461   61.012    0.222    0.036   30.350
  230.000  156.513   62.290    0.251    0.035   27.676
  230.250  155.612   69.080    0.293    0.063   14.108
  230.500  156.677   74.633    0.346    0.090   11.941
  230.750  158.831   81.395    0.388    0.129   10.107
  231.000  159.943   89.406    0.389    0.156    9.221
  231.250  160.036   93.141    0.394    0.162    8.743
  231.500  161.148   95.044    0.411    0.166    8.752
  231.750  163.302   95.683    0.431    0.185    8.775
  232.000  165.385   97.572    0.432    0.196    8.788
  232.250  166.496   98.849    0.418    0.195    8.811
  232.500  166.590  102.585    0.412    0.201    8.346
  232.750  166.684  100.809    0.448    0.199    7.754
  233.000  166.825   99.643    0.445    0.205    7.353
  233.250  166.895  102.740    0.438    0.207    7.227
  233.500  167.012  109.529    0.435    0.198    7.238
  233.750  168.101  105.309    0.436    0.196    7.126
  234.000  169.260  101.701    0.429    0.194    7.133
  234.250  170.325  102.979    0.420    0.185    7.148
  234.500  172.454  103.035    0.408    0.183    7.163
  234.750  168.500  103.091    0.420    0.184    7.597
  235.000  166.534  102.537    0.427    0.128    7.756
  235.250  162.603   97.692    0.387    0.091    8.065
  235.500  161.631   90.419    0.367    0.058    8.721
  235.750  160.707   89.254    0.398    0.097    8.895
