~VERSION INFORMATION
 VERS.                 2.0:   CWLS LOG ASCII STANDARD -VERSION 2.0
 WRAP.                  NO:   ONE LINE PER DEPTH STEP
~WELL INFORMATION BLOCK
#MNEM.UNIT           DATA                    DESCRIPTION OF MNEMONIC
#---------    -------------------            -------------------------------
# Generated from Intellog Unique Number	CC_80_83/WELL/2321
NULL.         -999.25                        : NULL_VALUE
WELL.         NOVALTA GARSON                 : Well_name    - WELL
LOC .         09-13-083-02W4                 : Location     - LOCATION          
UWI .         00/09-13-083-02W400            : Uwi          - UNIQUE WELL ID    
ENTR.         DW                             : Entered      - ENTERED BY        
SRVC.         COMPUTALOG                     : Scn          - SERVICE COMPANY   
DATE.         01 FEB 83                      : Date         - LOG DATE
STRT.M        90                             : top_depth    - START DEPTH       
STOP.M        335.098                        : bot_depth    - STOP DEPTH        
STEP.M        0.3                            : increment    - STEP LENGTH       
~CURVE INFORMATION BLOCK
#MNEM UNIT       ERCB CURVE CODE    CURVE DESCRIPTION
#-----------   ------------------   ----------------------------------
DEPT.M        00 001 00 00         : DEPTH        - DEPTH                       
DPHI.V/V      00 890 00 00         : PHID         - DENSITY POROSITY (LIMESTONE)
NPHI.V/V      00 330 00 00         : PHIN         - NEUTRON POROSITY (LIMESTONE)
GR  .API      00 310 00 00         : GR           - GAMMA RAY                   
ILD .OHMM     00 120 00 00         : RESD         - DEEP RESISTIVITY (DIL)      
~PARAMETER INFORMATION       
#MNEM.UNIT           DATA             DESCRIPTION OF MNEMONIC
#---------         -----------     ------------------------------
GL  .M        477.66               : gl           - GROUND LEVEL ELEVATION      
EREF.M        480.66               : kb           - ELEVATION OF DEPTH REFERENCE
DATM.M        480.66               : datum        - DATUM ELEVATION             
TDD .M        340                  : tdd          - TOTAL DEPTH DRILLER         
RUN .         ONE                  : Run          - RUN NUMBER                  
ENG .         BILL                 : Engineer     - RECORDING ENGINEER          
WIT .         JIM                  : Witness      - WITNESSED BY                
MUD .         GEL                  : Mud_type     - MUD TYPE                    
MATR.         LIMESTONE            : Logunit      - NEUTRON MATRIX              
TMAX.C        22                   : BHT          - MAXIMUM RECORDED TEMPERATURE
BHTD.M        340                  : BHTDEP       - MAXIMUM RECORDED TEMPERATURE
MATR.         1                    : LOGUNIT      - NEUTRON MATRIX              
RMT .C        25                   : MDTP         - TEMPERATURE OF MUD          
NEUT.         1                    : NEUTRON      - NEUTRON TYPE                
RESI.         0                    : RESIST       - RESISTIVITY TYPE            
RMC .OHMM     0.25                 : RMC          - RESISTIVITY OF MUD CAKE     
RMF .OHMM     0.25                 : RMF          - RESISTIVITY OF MUD FILTRATE 
SUFT.C        15                   : SUFT         - SURFACE TEMPERATURE         
~A  DEPTH     PHID     PHIN       GR     RESD
# ...
  246.602    0.193    0.352   97.012    5.851
  246.902    0.227    0.358   87.136    6.078
  247.202    0.241    0.342   76.025    5.970
  247.502    0.235    0.332   76.641    5.756
  247.802    0.210    0.355   90.219    5.758
  248.102    0.198    0.356  101.328    6.095
  248.402    0.204    0.350   98.241    6.825
  248.702    0.196    0.359  100.092    7.361
  249.002    0.192    0.379  105.028    7.367
  249.302    0.232    0.379  104.410    7.100
  249.602    0.232    0.354  100.706    6.593
  249.902    0.214    0.343   97.002    6.356
  250.202    0.204    0.337   93.297    6.480
  250.502    0.209    0.343   92.062    6.860
  250.802    0.215    0.339   90.826    7.128
  251.102    0.224    0.355   90.826    7.001
  251.402    0.234    0.356   92.059    6.746
  251.702    0.236    0.330   96.379    6.383
  252.002    0.197    0.335  113.660    6.270
  252.302    0.183    0.368  116.745    6.393
  252.602    0.178    0.370  110.572    6.766
  252.902    0.184    0.368  103.781    7.435
  253.202    0.207    0.364   99.460    7.441
  253.502    0.208    0.349  101.310    7.173
  253.802    0.212    0.330   99.458    7.047
  254.102    0.223    0.334   95.136    7.050
  254.402    0.213    0.344   93.284    7.056
  254.702    0.204    0.366   96.369    7.469
  255.002    0.196    0.349  104.392    7.615
  255.302    0.220    0.340  125.376    7.764
  255.602    0.218    0.359  108.093    7.626
  255.902    0.210    0.356  101.920    7.351
  256.202    0.210    0.349  105.005    6.956
  256.502    0.208    0.347  101.301    6.833
  256.802    0.201    0.361   93.893    6.836
  257.102    0.204    0.375   95.744    6.970
  257.402    0.213    0.360  100.680    7.107
  257.702    0.204    0.334  101.297    7.113
  258.002    0.198    0.318   86.483    7.118
  258.302    0.229    0.350   87.099    6.991
  258.602    0.233    0.353   87.715    6.491
  258.902    0.215    0.321   82.159    6.619
  259.202    0.228    0.314   72.900    6.749
  259.502    0.236    0.329   72.281    6.630
  259.802    0.225    0.354   75.984    6.633
  260.102    0.220    0.354   79.069    6.395
  260.402    0.285    0.339   79.685    6.165
  260.702    0.298    0.335   59.316    5.724
  261.001    0.275    0.334   54.377    5.216
  261.301    0.266    0.353   58.080    5.123
  261.601    0.265    0.348   61.782    5.226
  261.901    0.259    0.340   64.867    5.227
  262.201    0.270    0.350   68.570    5.330
  262.501    0.278    0.372   72.889    5.236
  262.801    0.280    0.371   70.419    5.339
  263.101    0.254    0.364   68.566    5.443
  263.401    0.220    0.342   69.800    5.871
  263.701    0.218    0.323   69.799    5.985
  264.001    0.252    0.316   68.564    5.878
  264.301    0.278    0.353   69.180    5.357
  264.601    0.298    0.339   72.882    4.703
  264.901    0.296    0.332   74.115    4.450
  265.201    0.287    0.365   73.497    4.453
  265.501    0.288    0.379   74.731    4.714
  265.801    0.276    0.361   84.606    4.990
  266.101    0.243    0.332   95.715    5.184
  266.401    0.234    0.371   92.627    5.285
  266.701    0.257    0.346   74.727    5.191
  267.001    0.283    0.304   43.248    4.912
  267.301    0.298    0.298   31.520    4.561
  267.601    0.304    0.297   37.691    4.236
  267.901    0.314    0.311   43.245    4.159
  268.201    0.318    0.318   44.478    4.086
  268.501    0.312    0.323   36.453    4.088
  268.801    0.301    0.325   32.132    4.091
  269.101    0.293    0.317   32.748    4.172
  269.401    0.293    0.329   33.364    4.097
  269.701    0.299    0.317   33.363    4.024
  270.001    0.302    0.308   33.362    3.953
  270.301    0.301    0.301   33.361    3.883
  270.601    0.297    0.307   32.126    3.885
  270.901    0.298    0.328   30.890    3.816
  271.201    0.309    0.329   32.741    3.818
  271.501    0.301    0.327   44.468    3.822
  271.801    0.291    0.327   51.873    3.896
  272.101    0.292    0.325   50.021    4.047
  272.401    0.286    0.351   58.661    4.284
  272.701    0.293    0.346   70.387    4.536
  273.001    0.294    0.328   83.965    4.891
  273.301    0.244    0.360  115.442    5.793
  273.601    0.213    0.453  117.910    6.247
  273.901    0.182    0.448  112.972    6.613
  274.201    0.177    0.434  112.970    6.744
  274.501    0.178    0.423  114.821    6.748
  274.801    0.176    0.402  116.055    6.753
  275.101    0.180    0.448  108.811    6.520
  275.401    0.184    0.471  110.041    6.524
  275.701    0.182    0.440  111.885    6.533
  276.001    0.172    0.440  114.959    6.419
  276.301    0.164    0.439  113.115    6.188
  276.601    0.187    0.426  109.426    5.966
  276.901    0.179    0.421  108.811    5.754
  277.201    0.169    0.421  110.041    5.655
  277.501    0.175    0.446  113.115    5.658
  277.801    0.193    0.469  117.418    5.456
  278.101    0.195    0.488  118.033    5.260
  278.401    0.187    0.490  116.189    5.073
  278.701    0.180    0.469  116.803    4.894
  279.001    0.172    0.463  118.648    4.806
  279.301    0.181    0.463  119.877    4.637
  279.601    0.176    0.469  119.262    4.639
  279.901    0.174    0.466  116.803    4.643
  280.201    0.179    0.478  115.574    4.564
  280.501    0.175    0.483  114.959    4.483
  280.801    0.170    0.468  115.574    4.406
  281.101    0.175    0.456  117.418    4.409
  281.401    0.170    0.442  117.418    4.498
  281.701    0.214    0.414   95.287    4.675
  282.001    0.268    0.355   57.787    4.678
  282.301    0.270    0.335   46.721    4.346
  282.601    0.252    0.319   57.172    4.037
  282.901    0.239    0.328   72.541    3.966
  283.201    0.234    0.346   85.451    4.121
  283.501    0.236    0.339   86.680    4.286
  283.801    0.263    0.356   85.451    4.290
  284.101    0.249    0.368   82.992    4.293
  284.401    0.244    0.344   76.844    4.218
  284.701    0.272    0.320   75.000    3.993
  285.001    0.271    0.325   82.377    3.921
  285.301    0.256    0.305   78.074    3.713
  285.600    0.242    0.299   76.230    3.580
  285.900    0.236    0.310   81.762    3.583
  286.200    0.238    0.329   81.147    3.519
  286.500    0.278    0.310   49.795    3.658
  286.800    0.341    0.323   36.270    3.947
  287.100    0.430    0.501   58.402    5.433
  287.400    0.563    0.592   62.090    9.544
  287.700    0.584    0.587   49.180   10.690
  288.000    0.318    0.546   51.025    9.932
  288.300    0.135    0.488   65.779    9.226
  288.600    0.102    0.355   95.287    8.727
  288.900    0.091    0.361  100.820    7.522
  289.200    0.092    0.361   98.975    6.985
  289.500    0.096    0.361   94.672    6.490
  289.800    0.136    0.361   90.984    6.257
  290.100    0.178    0.346   80.533    6.148
  290.400    0.191    0.331   72.541    6.152
  290.700    0.194    0.368   69.467    5.934
  291.000    0.199    0.366   71.311    5.721
  291.300    0.178    0.357   73.770    5.620
  291.600    0.162    0.359   78.074    5.734
  291.900    0.184    0.372   76.230    5.958
  292.200    0.202    0.395   72.541    5.857
  292.500    0.210    0.405   78.689    5.753
  292.800    0.223    0.379   79.303    5.343
  293.100    0.253    0.342   60.246    4.690
  293.400    0.266    0.364   47.336    3.967
  293.700    0.269    0.351   44.877    3.549
  294.000    0.285    0.353   43.033    3.358
  294.300    0.284    0.359   39.959    3.299
  294.600    0.311    0.347   30.738    3.181
  294.900    0.322    0.333   23.361    3.128
  295.200    0.296    0.321   20.902    3.130
  295.500    0.250    0.389   35.656    3.314
  295.800    0.200    0.441  128.484    3.643
  296.100    0.186    0.480  133.402    4.318
  296.400    0.189    0.459   82.377    4.486
  296.700    0.200    0.347   67.623    4.409
  297.000    0.227    0.303   48.566    4.173
  297.300    0.287    0.407   51.025    4.177
  297.600    0.274    0.380   51.639    4.104
  297.900    0.257    0.353   47.951    3.603
  298.200    0.273    0.369   36.885    3.047
  298.500    0.289    0.342   17.828    2.625
