~VERSION INFORMATION
 VERS.                 2.0:   CWLS LOG ASCII STANDARD -VERSION 2.0
 WRAP.                  NO:   ONE LINE PER DEPTH STEP
~WELL INFORMATION BLOCK
#MNEM.UNIT           DATA                    DESCRIPTION OF MNEMONIC
#---------    -------------------            -------------------------------
# Generated from Intellog Unique Number	CC_80_83/WELL/2306
NULL.         -999.25                        : NULL_VALUE
WELL.         GULF RESDELN                   : Well_name    - WELL              
LOC .         07-33-083-07W4                 : Location     - LOCATION          
UWI .         00/07-33-083-07W4/0            : Uwi          - UNIQUE WELL ID    
ENTR.         DW                             : Entered      - ENTERED BY        
SRVC.         SCHLUMBERGER                   : Scn          - SERVICE COMPANY   
DATE.         25 JAN 79                      : Date         - LOG DATE
STRT.M        130                            : top_depth    - START DEPTH       
STOP.M        405.095                        : bot_depth    - STOP DEPTH        
STEP.M        0.3                            : increment    - STEP LENGTH       
~CURVE INFORMATION BLOCK
#MNEM UNIT       ERCB CURVE CODE    CURVE DESCRIPTION
#-----------   ------------------   ----------------------------------
DEPT.M        00 001 00 00         : DEPTH        - DEPTH                       
DPHI.V/V      00 890 00 00         : PHID         - DENSITY POROSITY (LIMESTONE)
NPHI.V/V      00 330 00 00         : PHIN         - NEUTRON POROSITY (LIMESTONE)
GR  .API      00 310 00 00         : GR           - GAMMA RAY                   
ILD .OHMM     00 120 00 00         : RESD         - DEEP RESISTIVITY (DIL)      
~PARAMETER INFORMATION       
#MNEM.UNIT           DATA             DESCRIPTION OF MNEMONIC
#---------         -----------     ------------------------------
GL  .M        613.79               : gl           - GROUND LEVEL ELEVATION      
EREF.M        617.06               : kb           - ELEVATION OF DEPTH REFERENCE
DATM.M        617.06               : datum        - DATUM ELEVATION             
TDD .M        407                  : tdd          - TOTAL DEPTH DRILLER         
RUN .         ONE                  : Run          - RUN NUMBER                  
ENG .         BILL                 : Engineer     - RECORDING ENGINEER          
WIT .         JIM                  : Witness      - WITNESSED BY                
MUD .         GEL                  : Mud_type     - MUD TYPE                    
MATR.         LIMESTONE            : Logunit      - NEUTRON MATRIX              
TMAX.C        0                    : BHT          - MAXIMUM RECORDED TEMPERATURE
BHTD.M        407                  : BHTDEP       - MAXIMUM RECORDED TEMPERATURE
MATR.         1                    : LOGUNIT      - NEUTRON MATRIX              
RMT .C        25                   : MDTP         - TEMPERATURE OF MUD          
NEUT.         1                    : NEUTRON      - NEUTRON TYPE                
RESI.         0                    : RESIST       - RESISTIVITY TYPE            
RMC .OHMM     0.25                 : RMC          - RESISTIVITY OF MUD CAKE     
RMF .OHMM     0.25                 : RMF          - RESISTIVITY OF MUD FILTRATE 
SUFT.C        4                    : SUFT         - SURFACE TEMPERATURE         
~A  DEPTH     PHID     PHIN       GR     RESD
# ...
  338.798    0.233    0.345   87.083   11.062
  339.098    0.213    0.360   87.060   11.062
  339.398    0.202    0.372   90.734   10.651
  339.698    0.188    0.370   90.715   10.451
  339.998    0.192    0.369   86.996   10.651
  340.298    0.229    0.373   83.894   11.273
  340.598    0.245    0.380   75.864   12.160
  340.898    0.235    0.378   69.683   13.622
  341.198    0.269    0.386   62.883   16.775
  341.498    0.268    0.380   57.319   20.657
  341.798    0.257    0.368   63.455   27.962
  342.098    0.267    0.372   67.130   36.446
  342.398    0.278    0.384   68.955   54.231
  342.698    0.302    0.386   70.782   65.530
  342.998    0.302    0.382   70.146   83.808
  343.298    0.304    0.368   59.037   90.399
  343.598    0.298    0.361   56.551   88.704
  343.898    0.285    0.356   61.456   73.410
  344.198    0.264    0.356   72.521   61.913
  344.498    0.249    0.351   62.646   58.496
  344.798    0.179    0.326   62.007   55.267
  345.098    0.134    0.324   55.826   50.277
  345.398    0.157    0.313   44.716   45.738
  345.698    0.236    0.352   46.538   39.312
  345.998    0.264    0.388   53.293   31.325
  346.298    0.263    0.380   63.129   24.493
  346.598    0.253    0.364   72.964   19.151
  346.898    0.265    0.375   80.948   17.095
  347.198    0.262    0.371   81.544   15.260
  347.498    0.235    0.361   77.827   11.932
  347.798    0.205    0.359   82.117    9.875
  348.098    0.199    0.369  100.575    8.487
  348.398    0.191    0.434  108.562    7.576
  348.698    0.208    0.443  109.766    7.158
  348.997    0.204    0.418  109.750    7.024
  349.297    0.180    0.407  114.038    7.024
  349.597    0.198    0.417  114.013    7.295
  349.897    0.211    0.413  110.916    8.019
  350.197    0.220    0.400  105.965    8.649
  350.497    0.224    0.401  105.325    9.155
  350.797    0.187    0.404  102.226    9.330
  351.097    0.176    0.396   90.500    9.508
  351.397    0.190    0.369   78.775    9.875
  351.697    0.226    0.356   68.897   10.855
  351.997    0.229    0.353   64.563   12.160
  352.297    0.233    0.353   73.782   13.116
  352.597    0.265    0.363   70.680   13.116
  352.897    0.258    0.377   71.888   12.629
  353.197    0.232    0.374   79.876   11.062
  353.497    0.185    0.378   90.327    9.508
  353.797    0.172    0.377  102.624    8.649
  354.097    0.188    0.387  107.531    8.019
  354.397    0.188    0.399  108.122    7.868
  354.697    0.181    0.415  106.870    7.868
  354.997    0.183    0.400  103.149    8.172
  355.297    0.193    0.378   98.201    8.487
  355.597    0.206    0.385   91.406    8.815
  355.897    0.208    0.408   83.375    9.508
  356.197    0.210    0.396   87.666    9.508
  356.497    0.215    0.386   85.177    9.508
  356.797    0.208    0.386   83.311    9.508
  357.097    0.213    0.388   84.518    9.508
  357.397    0.221    0.396   87.579    9.155
  357.697    0.219    0.402   93.099    9.155
  357.997    0.220    0.408   91.848    9.508
  358.297    0.213    0.416   86.279    9.875
  358.597    0.201    0.406   83.794    9.875
  358.897    0.177    0.354   81.924    9.690
  359.197    0.197    0.354   89.294    9.330
  359.497    0.228    0.377   94.817    8.815
  359.797    0.191    0.391   94.795    8.649
  360.097    0.197    0.394   96.007    8.328
  360.397    0.206    0.398   91.055    8.172
  360.697    0.199    0.401   86.721    8.019
  360.997    0.177    0.392   87.311    8.172
  361.297    0.189    0.387   89.142    8.172
  361.597    0.188    0.378   90.353    8.172
  361.897    0.191    0.374   92.795    8.019
  362.197    0.206    0.379  101.397    7.721
  362.497    0.207    0.399  105.072    7.295
  362.797    0.216    0.407  106.896    6.892
  363.097    0.215    0.413  107.490    6.763
  363.397    0.209    0.429  107.469    6.636
  363.697    0.203    0.445  104.984    6.390
  363.997    0.193    0.444  102.499    6.270
  364.297    0.199    0.441  107.404    6.152
  364.597    0.191    0.436  107.997    6.037
  364.897    0.209    0.444  112.289    6.037
  365.197    0.186    0.472  112.878    6.037
  365.497    0.202    0.471  111.627    6.152
  365.797    0.203    0.461  110.372    6.636
  366.097    0.201    0.451  109.732    6.763
  366.397    0.188    0.445  108.483    7.024
  366.697    0.193    0.433  104.766    7.158
  366.997    0.206    0.428  104.745    7.295
  367.297    0.227    0.432   97.947    7.295
  367.597    0.241    0.426   90.531    7.576
  367.897    0.251    0.420   81.270    7.721
  368.197    0.245    0.417   74.471    8.328
  368.497    0.239    0.393   77.531   10.063
  368.797    0.234    0.400   75.660   13.622
  369.097    0.267    0.425   56.544   16.460
  369.397    0.301    0.420   53.441   18.094
  369.697    0.285    0.381   68.204   18.792
  369.997    0.252    0.383   79.887   19.151
  370.297    0.271    0.415   71.856   21.864
  370.597    0.286    0.420   63.210   32.533
  370.897    0.311    0.414   59.491   26.924
  371.197    0.323    0.393   64.398   23.141
  371.497    0.318    0.383   66.225   21.864
  371.797    0.300    0.399   64.354   24.493
  372.097    0.301    0.434   52.014   35.762
  372.397    0.337    0.445   34.126   72.034
  372.697    0.333    0.419   37.800   76.242
  372.997    0.328    0.402   44.555   69.358
  373.297    0.320    0.395   48.227   40.828
  373.596    0.311    0.385   42.665   27.962
  373.896    0.303    0.376   47.569   22.707
  374.196    0.278    0.376   56.789   18.440
  374.496    0.304    0.411   50.607   17.095
  374.796    0.295    0.400   49.969   15.849
  375.096    0.258    0.368   57.337   14.974
  375.396    0.267    0.365   59.778   13.622
  375.696    0.260    0.358   62.840   11.489
  375.996    0.239    0.356   69.593   10.451
  376.296    0.254    0.367   64.028   10.063
  376.596    0.283    0.386   50.455   11.708
  376.896    0.319    0.402   43.654   15.552
  377.196    0.325    0.404   46.712   18.094
  377.496    0.305    0.389   52.234   16.460
  377.796    0.276    0.367   58.989   14.418
  378.096    0.240    0.376   65.746   10.063
  378.396    0.223    0.365   73.115    8.328
  378.696    0.222    0.372   77.406    7.721
  378.996    0.211    0.372   81.080    7.024
  379.296    0.205    0.364   75.513    7.158
  379.596    0.236    0.360   63.172    8.019
  379.896    0.281    0.396   53.910    8.983
  380.196    0.291    0.383   53.887    9.155
  380.496    0.280    0.372   64.337    8.328
  380.796    0.263    0.343   77.866    7.868
  381.096    0.230    0.347   77.843    6.892
  381.396    0.205    0.356   79.669    6.152
  381.696    0.191    0.364   79.033    5.704
  381.996    0.214    0.370   75.316    5.597
  382.296    0.204    0.407   58.046    5.492
  382.596    0.212    0.427   39.544    5.813
  382.896    0.311    0.465   27.203    6.763
  383.196    0.354    0.453   20.405    8.328
  383.496    0.351    0.434   17.300   16.460
  383.796    0.348    0.428   18.511   23.141
  384.096    0.345    0.417   18.491   34.434
  384.396    0.342    0.400   19.086   41.608
  384.696    0.345    0.404   20.296   44.039
  384.996    0.348    0.413   20.887   47.502
  385.296    0.355    0.417   22.099   53.214
  385.596    0.356    0.417   22.691   57.399
  385.896    0.350    0.416   22.671   64.301
  386.196    0.345    0.409   20.187   70.683
  386.496    0.338    0.415   15.848   72.034
  386.796    0.347    0.424   14.598   63.096
  387.096    0.336    0.425   13.958   55.267
  387.396    0.345    0.425   13.939   47.502
  387.696    0.359    0.427   13.919   41.608
  387.996    0.359    0.421   15.127   25.924
  388.296    0.351    0.409   16.336   17.095
  388.596    0.349    0.407   17.549   12.629
  388.896    0.350    0.426   19.375   12.392
  389.196    0.358    0.451   19.968   13.116
  389.496    0.366    0.495   19.946   15.552
  389.796    0.364    0.461   18.691   19.517
  390.096    0.355    0.454   19.284   26.419
  390.396    0.350    0.428   21.727   26.924
  390.696    0.350    0.425   24.788   27.438
