~VERSION INFORMATION
 VERS.                 2.0:   CWLS LOG ASCII STANDARD -VERSION 2.0
 WRAP.                  NO:   ONE LINE PER DEPTH STEP
~WELL INFORMATION BLOCK
#MNEM.UNIT           DATA                    DESCRIPTION OF MNEMONIC
#---------    -------------------            -------------------------------
# Generated from Intellog Unique Number	CN_94_101/WELL/2572
WELL.         PARAMOUNT RESOURCES LTD.       : Well_name    - WELL
LOC .         00/07-24-094-19W4/0            : Location     - LOCATION
UWI .         00/07-24-094-19W4/0            : Uwi          - UNIQUE WELL ID
ENTR.         JOETTE                         : Entered      - ENTERED BY
SRVC.         COMPUTALOG                     : Scn          - SERVICE COMPANY
DATE.         06\12\92                       : Date         - LOG DATE
STRT.M        90                             : top_depth    - START DEPTH
STOP.M        277                            : bot_depth    - STOP DEPTH
STEP.M        0.25                           : increment    - STEP LENGTH
 NULL. -999.2500:NULL Value
~CURVE INFORMATION BLOCK
#MNEM UNIT       ERCB CURVE CODE    CURVE DESCRIPTION
#-----------   ------------------   ----------------------------------
DEPT.M        00 001 00 00         : DEPTH        - DEPTH
CALI.MM       00 280 01 00         : CAL          - CALIPER
GR  .API      00 310 00 00         : GR           - GAMMA RAY
NPHI.V/V      00 330 00 00         : PHIN         - NEUTRON POROSITY (SANDSTONE)
DPHI.V/V      00 890 00 00         : PHID         - DENSITY POROSITY (SANDSTONE)
ILD .OHMM     00 120 00 00         : RESD         - DEEP RESISTIVITY (DIL)
~PARAMETER INFORMATION
#MNEM.UNIT           DATA             DESCRIPTION OF MNEMONIC
#---------         -----------     ------------------------------
GL  .M        557.4                : gl           - GROUND LEVEL ELEVATION
EREF.M        560.8                : kb           - ELEVATION OF DEPTH REFERENCE
DATM.M        560.8                : datum        - DATUM ELEVATION
TDD .M        280.1                : tdd          - TOTAL DEPTH DRILLER
RUN .         ONE                  : Run          - RUN NUMBER
ENG .         JO                   : Engineer     - RECORDING ENGINEER
WIT .         TIM                  : Witness      - WITNESSED BY
MUD .         GEL                  : Mud_type     - MUD TYPE
MATR.         SANDSTONE            : Logunit      - NEUTRON MATRIX
TMAX.C        32                   : BHT          - MAXIMUM RECORDED TEMPERATURE
BHTD.M        280.1                : BHTDEP       - MAXIMUM RECORDED TEMPERATURE
RMT .C        19                   : MDTP         - TEMPERATURE OF MUD
MUDD.KG/M     1130                 : MWT          - MUD DENSITY
NEUT.         1                    : NEUTRON      - NEUTRON TYPE
RESI.         0                    : RESIST       - RESISTIVITY TYPE
RM  .OHMM     5.3                  : RM           - RESISTIVITY OF MUD
RMC .OHMM     5.3                  : RMC          - RESISTIVITY OF MUD CAKE
RMF .OHMM     5.3                  : RMF          - RESISTIVITY OF MUD FILTRATE
SUFT.C        4                    : SUFT         - SURFACE TEMPERATURE
~A  DEPTH      CAL       GR     PHIN     PHID     RESD
# ...
  236.000  179.527  102.469    0.405    0.190    4.679
  236.250  186.728  105.556    0.388    0.171    4.417
  236.500  187.757  104.321    0.341    0.130    5.140
  236.750  178.498   83.951    0.288    0.052    6.097
  237.000  168.210   64.815    0.252    0.066    7.232
  237.250  165.123   62.346    0.288    0.116    9.256
  237.500  168.210   64.815    0.339    0.143   10.979
  237.750  171.296   70.988    0.358    0.171   12.300
  238.000  175.412   95.679    0.373    0.188   13.015
  238.250  176.440   98.765    0.380    0.194   13.258
  238.500  176.440  100.000    0.388    0.197   13.002
  238.750  176.440  102.469    0.389    0.197   12.750
  239.000  176.440  104.321    0.383    0.197   12.035
  239.250  176.440  108.025    0.373    0.198   10.936
  239.500  178.498  109.877    0.363    0.198   10.525
  239.750  179.527  111.728    0.353    0.197    9.564
  240.000  180.556  109.877    0.348    0.195    9.202
  240.250  181.584  106.790    0.359    0.197    9.024
  240.500  182.613  103.704    0.367    0.199    8.849
  240.750  183.642  103.704    0.363    0.198    8.844
  241.000  182.613  103.704    0.366    0.192    8.839
  241.250  181.584  103.704    0.372    0.187    8.835
  241.500  179.527  102.469    0.377    0.184    8.829
  241.750  176.440  104.938    0.380    0.183    8.824
  242.000  176.440  106.790    0.374    0.184    8.820
  242.250  177.469  105.556    0.369    0.183    8.817
  242.500  178.498  103.704    0.367    0.156    8.811
  242.750  178.498  102.469    0.357    0.151    8.976
  243.000  178.498   99.383    0.343    0.134    9.319
  243.250  179.527   95.062    0.334    0.178    9.862
  243.500  178.498   92.593    0.336    0.201   10.841
  243.750  177.469   93.210    0.355    0.203   11.915
  244.000  176.440   95.679    0.375    0.201   12.139
  244.250  175.412   99.383    0.383    0.203   11.902
  244.500  174.383  101.852    0.375    0.210   11.453
  244.750  172.325  101.852    0.371    0.219   10.808
  245.000  170.267  102.469    0.366    0.227   10.801
  245.250  169.239   99.383    0.363    0.234   10.797
  245.500  169.239   95.062    0.366    0.236   11.211
  245.750  169.239   93.827    0.368    0.238   11.640
  246.000  169.239   92.593    0.362    0.242   12.319
  246.250  169.239   87.654    0.357    0.240   13.035
  246.500  169.239   85.185    0.366    0.232   13.534
  246.750  171.296   86.420    0.388    0.227   14.051
  247.000  173.354   88.889    0.401    0.232   14.042
  247.250  172.325   92.593    0.387    0.230   12.761
  247.500  168.210   89.506    0.363    0.210   12.755
  247.750  165.123   83.951    0.342    0.171   14.022
  248.000  164.095   77.160    0.329    0.196   15.709
  248.250  166.152   80.864    0.345    0.210   16.938
  248.500  171.296   83.951    0.366    0.220   16.934
  248.750  178.498   87.037    0.358    0.213   15.685
  249.000  178.498   87.654    0.361    0.200   12.959
  249.250  175.412   84.568    0.362    0.166   11.338
  249.500  174.383   79.012    0.346    0.057   10.907
  249.750  172.325   72.222    0.262    0.024   12.221
  250.000  169.239   63.580    0.243   -0.001   15.347
  250.250  169.239   59.259    0.217   -0.025   18.203
  250.500  168.210   60.494    0.188    0.020   20.009
  250.750  168.210   64.815    0.275    0.056   20.775
  251.000  169.239   74.074    0.308    0.116   18.880
  251.250  170.267   84.568    0.340    0.152   12.181
  251.500  174.383  100.000    0.369    0.182   11.070
  251.750  181.584  104.938    0.403    0.189   10.062
  252.000  183.642  106.790    0.410    0.182    8.636
  252.250  184.671  104.938    0.409    0.180    7.555
  252.500  184.671  104.321    0.416    0.192    7.408
  252.750  183.642  103.704    0.419    0.198    7.264
  253.000  181.584  103.704    0.414    0.198    7.262
  253.250  181.584  103.704    0.459    0.193    7.396
  253.500  180.556  104.321    0.448    0.175    7.536
  253.750  180.556  103.086    0.429    0.137    7.823
  254.000  179.527  103.086    0.412    0.169    7.968
  254.250  179.527  103.086    0.415    0.190    7.965
  254.500  178.498  111.111    0.421    0.196    7.812
  254.750  176.440  116.049    0.409    0.189    7.659
  255.000  173.354  109.259    0.405    0.154    7.510
  255.250  165.123  107.407    0.420    0.156    7.507
  255.500  163.066  107.407    0.411    0.189    7.360
  255.750  168.210  108.025    0.388    0.203    7.498
  256.000  181.584  110.494    0.388    0.208    7.496
  256.250  184.671  111.111    0.401    0.198    7.635
  256.500  182.613  112.963    0.394    0.195    7.926
  256.750  181.584  115.432    0.384    0.198    8.073
  257.000  179.527  116.667    0.384    0.198    8.226
  257.250  178.498  117.901    0.394    0.191    8.380
  257.500  176.440  117.901    0.401    0.183    8.700
  257.750  175.412  116.667    0.398    0.164    8.863
  258.000  174.383  110.494    0.385    0.152    9.200
  258.250  174.383  107.407    0.382    0.179    9.022
  258.500  173.354  112.346    0.395    0.194    8.849
  258.750  173.354  120.370    0.407    0.196    8.195
  259.000  174.383  125.926    0.420    0.191    7.885
  259.250  175.412  127.778    0.411    0.189    7.302
  259.500  176.440  125.309    0.407    0.195    7.026
  259.750  176.440  124.691    0.407    0.204    6.891
  260.000  177.469  123.457    0.405    0.203    6.505
  260.250  177.469  119.753    0.401    0.189    6.380
  260.500  178.498  111.728    0.400    0.143    6.376
  260.750  179.527  108.025    0.406    0.177    6.619
  261.000  179.527  108.025    0.432    0.204    6.744
  261.250  180.556  111.111    0.448    0.211    7.133
  261.500  186.728  115.432    0.440    0.199    7.269
  261.750  180.556  117.284    0.442    0.168    7.404
  262.000  174.383  113.580    0.448    0.132    7.262
  262.250  172.325  107.407    0.431    0.022    6.599
  262.500  170.267  101.235    0.410    0.079    6.229
  262.750  168.210   98.765    0.416    0.185    6.107
  263.000  170.267  105.556    0.395    0.188    6.106
  263.250  172.325  109.259    0.393    0.183    6.102
  263.500  174.383  114.815    0.398    0.177    6.098
  263.750  177.469  116.049    0.400    0.178    5.981
  264.000  178.498  117.284    0.391    0.178    5.978
  264.250  176.440  117.901    0.396    0.172    5.975
  264.500  173.354  116.667    0.411    0.159    5.859
  264.750  172.325  114.198    0.396    0.143    5.856
  265.000  175.412  110.494    0.372    0.121    5.853
  265.250  179.527  100.000    0.361    0.090    5.850
  265.500  175.412   88.889    0.379    0.146    5.736
  265.750  170.267   93.827    0.411    0.179    5.212
  266.000  168.210  103.704    0.430    0.177    4.829
  266.250  167.181  111.111    0.440    0.170    4.388
  266.500  166.152  111.728    0.449    0.159    3.987
  266.750  166.152  104.321    0.448    0.147    3.693
  267.000  166.152  103.704    0.437    0.121    3.692
  267.250  166.152  103.704    0.440    0.095    3.906
  267.500  166.152  103.086    0.435    0.147    4.376
  267.750  164.095   96.914    0.399    0.228    5.191
  268.000  159.979   70.988    0.364    0.319    6.519
  268.250  155.864   64.198    0.283    0.330    8.187
  268.500  158.951   64.198    0.290    0.320   11.745
  268.750  164.095   64.198    0.288    0.325   13.411
  269.000  179.527   64.198    0.270    0.336   20.758
  269.250  179.527   64.198    0.254    0.342   23.705
  269.500  174.383   64.198    0.242    0.340   27.588
  269.750  170.267   62.346    0.241    0.337   32.718
  270.000  168.210   61.111    0.246    0.336   35.968
  270.250  165.123   60.494    0.258    0.340   38.061
  270.500  165.123   60.494    0.272    0.342   41.826
  270.750  165.123   60.494    0.286    0.338   41.804
  271.000  165.123   59.877    0.317    0.321   41.001
  271.250  166.152   59.877    0.351    0.299   40.212
  271.500  169.239   60.494    0.400    0.290   38.691
  271.750  174.383   61.111    0.400    0.278   37.937
  272.000  176.440   61.111    0.394    0.263   37.913
  272.250  176.440   61.111    0.389    0.244   40.118
