~VERSION INFORMATION
 VERS.                 2.0:   CWLS LOG ASCII STANDARD -VERSION 2.0
 WRAP.                  NO:   ONE LINE PER DEPTH STEP
~WELL INFORMATION BLOCK
#MNEM.UNIT           DATA                    DESCRIPTION OF MNEMONIC
#---------    -------------------            -------------------------------
# Generated from Intellog Unique Number	CX_WELLS/WELL/3308
WELL.         PETROREP ET AL HOUSE           : Well_name    - WELL
LOC .         00/04-26-084-15W4/0            : Location     - LOCATION
UWI .         00/04-26-084-15W400            : Uwi          - UNIQUE WELL ID
ENTR.         T                              : Entered      - ENTERED BY
SRVC.         SCHLUMBERGER                   : Scn          - SERVICE COMPANY
DATE.         03/06/92                       : Date         - LOG DATE
STRT.M        95                             : top_depth    - START DEPTH
STOP.M        240                            : bot_depth    - STOP DEPTH
STEP.M        0.25                           : increment    - STEP LENGTH
 NULL. -999.2500:NULL Value
~CURVE INFORMATION BLOCK
#MNEM UNIT       ERCB CURVE CODE    CURVE DESCRIPTION
#-----------   ------------------   ----------------------------------
DEPT.M        00 001 00 00         : DEPTH        - DEPTH
GR  .API      00 310 00 00         : GR           - GAMMA RAY
NPHI.V/V      00 330 00 00         : PHIN         - NEUTRON POROSITY (SANDSTONE)
DPHI.V/V      00 890 00 00         : PHID         - DENSITY POROSITY (SANDSTONE)
ILD .OHMM     00 120 00 00         : RESD         - DEEP RESISTIVITY (DIL)
~PARAMETER INFORMATION
#MNEM.UNIT           DATA             DESCRIPTION OF MNEMONIC
#---------         -----------     ------------------------------
GL  .M        527.7                : gl           - GROUND LEVEL ELEVATION
EREF.M        531.2                : kb           - ELEVATION OF DEPTH REFERENCE
DATM.M        531.2                : datum        - DATUM ELEVATION
TDD .M        242                  : tdd          - TOTAL DEPTH DRILLER
RUN .         ONE                  : Run          - RUN NUMBER
ENG .         JO                   : Engineer     - RECORDING ENGINEER
WIT .         TIM                  : Witness      - WITNESSED BY
MUD .         GEL                  : Mud_type     - MUD TYPE
MATR.         SANDSTONE            : Logunit      - NEUTRON MATRIX
TMAX.C        19                   : BHT          - MAXIMUM RECORDED TEMPERATURE
BHTD.M        242                  : BHTDEP       - MAXIMUM RECORDED TEMPERATURE
RMT .C        20                   : MDTP         - TEMPERATURE OF MUD
MUDD.KG/M     1                    : MWT          - MUD DENSITY
NEUT.         1                    : NEUTRON      - NEUTRON TYPE
RESI.         0                    : RESIST       - RESISTIVITY TYPE
RM  .OHMM     3.12                 : RM           - RESISTIVITY OF MUD
RMC .OHMM     4.5                  : RMC          - RESISTIVITY OF MUD CAKE
RMF .OHMM     4.5                  : RMF          - RESISTIVITY OF MUD FILTRATE
SUFT.C        4                    : SUFT         - SURFACE TEMPERATURE
~A  DEPTH       GR     PHIN     PHID     RESD
# ...
  182.000   80.459    0.386    0.283    8.828
  182.250   79.865    0.386    0.284    8.848
  182.500   79.270    0.395    0.282    8.873
  182.750   79.304    0.401    0.279    8.888
  183.000   79.967    0.412    0.274    8.909
  183.250   80.629    0.418    0.269    8.924
  183.500   81.920    0.423    0.265    8.944
  183.750   82.583    0.429    0.259    8.970
  184.000   84.502    0.433    0.250    8.990
  184.250   87.687    0.437    0.240    9.010
  184.500   91.483    0.440    0.230    8.533
  184.750   95.288    0.443    0.221    7.777
  185.000   95.951    0.447    0.218    7.231
  185.250   95.985    0.449    0.212    7.108
  185.500   94.142    0.449    0.205    6.868
  185.750   93.539    0.446    0.196    6.747
  186.000   94.210    0.441    0.194    6.766
  186.250   94.872    0.433    0.200    6.654
  186.500   94.906    0.427    0.228    6.666
  186.750   94.906    0.427    0.238    6.685
  187.000   91.823    0.429    0.252    6.700
  187.250   89.972    0.428    0.257    6.715
  187.500   87.501    0.425    0.257    6.863
  187.750   86.286    0.422    0.255    6.874
  188.000   85.055    0.417    0.259    7.156
  188.250   83.824    0.410    0.264    7.305
  188.500   81.361    0.401    0.274    7.603
  188.750   80.749    0.382    0.306    8.376
  189.000   79.526    0.337    0.330    9.588
  189.250   79.569    0.313    0.341   10.969
  189.500   79.594    0.305    0.348   12.557
  189.750   79.637    0.310    0.353   14.089
  190.000   79.043    0.331    0.347   15.239
  190.250   79.076    0.351    0.327   14.153
  190.500   79.111    0.360    0.307   12.906
  190.750   79.773    0.372    0.302   11.769
  191.000   80.444    0.380    0.297   11.152
  191.250   81.089    0.393    0.294   10.561
  191.500   84.894    0.401    0.287   10.381
  191.750   88.699    0.400    0.279    9.652
  192.000   86.848    0.374    0.277    9.141
  192.250   83.119    0.369    0.279    8.657
  192.500   81.260    0.362    0.286    9.178
  192.750   78.160    0.376    0.252   10.110
  193.000   76.937    0.398    0.186   11.138
  193.250   76.971    0.402    0.162   12.040
  193.500   80.147    0.408    0.229   12.786
  193.750   82.067    0.416    0.259   13.052
  194.000   85.234    0.423    0.277   13.324
  194.250   88.419    0.420    0.279   12.150
  194.500   87.833    0.415    0.278   10.878
  194.750   87.867    0.413    0.277    9.739
  195.000   87.893    0.412    0.276    9.218
  195.250   88.555    0.410    0.275    8.566
  195.500   89.218    0.409    0.273    8.586
  195.750   89.252    0.410    0.269    8.601
  196.000   87.400    0.414    0.262    8.952
  196.250   86.177    0.417    0.259    9.318
  196.500   85.583    0.421    0.258    9.705
  196.750   86.891    0.422    0.257    9.722
  197.000   88.802    0.420    0.255    9.930
  197.250   91.350    0.422    0.252    9.589
  197.500   95.155    0.428    0.249    8.916
  197.750   97.694    0.437    0.248    8.434
  198.000  101.499    0.434    0.243    7.691
  198.250   98.390    0.431    0.234    7.017
  198.500   94.654    0.424    0.226    6.645
  198.750   89.031    0.422    0.225    6.536
  199.000   89.694    0.418    0.224    6.672
  199.250   94.127    0.417    0.222    6.945
  199.500   99.189    0.417    0.222    7.366
  199.750  103.631    0.420    0.222    8.279
  200.000  104.922    0.428    0.222    8.608
  200.250  104.973    0.436    0.223    9.131
  200.500  104.990    0.445    0.223    8.812
  200.750  105.024    0.449    0.225    8.199
  201.000  105.075    0.441    0.226    8.054
  201.250  105.092    0.432    0.226    7.485
  201.500  105.126    0.431    0.224    6.959
  201.750  105.177    0.435    0.223    6.713
  202.000  105.202    0.436    0.218    6.361
  202.250  105.236    0.433    0.210    6.375
  202.500  107.784    0.432    0.213    6.515
  202.750  110.324    0.427    0.218    6.527
  203.000  109.729    0.421    0.220    6.666
  203.250  104.735    0.412    0.220    6.678
  203.500   99.742    0.401    0.219    7.360
  203.750   95.385    0.389    0.215    8.113
  204.000   96.668    0.387    0.210    8.596
  204.250   99.224    0.383    0.206    9.656
  204.500  101.772    0.380    0.211   10.242
  204.750  103.063    0.378    0.216   10.661
  205.000  103.097    0.388    0.216   10.686
  205.250  102.502    0.401    0.216   10.131
  205.500  102.536    0.406    0.213   10.143
  205.750  103.190    0.409    0.209    9.789
  206.000  104.481    0.410    0.207    9.275
  206.250  102.647    0.411    0.211    8.946
  206.500  101.407    0.412    0.219    8.482
  206.750   98.307    0.413    0.222    8.338
  207.000   96.456    0.415    0.227    8.352
  207.250   94.604    0.408    0.233    8.535
  207.500   94.001    0.391    0.238    8.713
  207.750   93.415    0.352    0.249    9.599
  208.000   93.441    0.340    0.262   10.376
  208.250   92.855    0.317    0.276   11.437
  208.500   91.012    0.322    0.291   12.840
  208.750   90.401    0.332    0.303   13.880
  209.000   88.549    0.346    0.321   14.447
  209.250   87.326    0.359    0.283   14.209
  209.500   85.475    0.373    0.252   13.464
  209.750   84.881    0.373    0.276   13.234
  210.000   84.915    0.354    0.286   13.016
  210.250   84.329    0.348    0.310   13.046
  210.500   83.106    0.355    0.315   13.083
  210.750   82.503    0.363    0.320   13.113
  211.000   81.280    0.380    0.315   12.889
  211.250   81.323    0.392    0.286   12.439
  211.500   80.728    0.402    0.266   12.234
  211.750   80.779    0.413    0.265   11.593
  212.000   80.796    0.418    0.269   11.395
  212.250   80.839    0.422    0.273   10.991
  212.500   80.244    0.419    0.277   10.620
  212.750   80.278    0.414    0.277   10.632
  213.000   79.684    0.412    0.279   10.656
  213.250   79.726    0.409    0.277   10.486
  213.500   79.743    0.408    0.275   10.504
  213.750   79.786    0.407    0.265   10.528
  214.000   79.811    0.405    0.253   10.558
  214.250   81.119    0.405    0.248   10.384
  214.500   82.393    0.408    0.238   10.402
  214.750   83.684    0.410    0.223   10.230
  215.000   85.603    0.409    0.228   10.067
  215.250   88.151    0.407    0.229    9.716
  215.500   90.708    0.409    0.234    9.732
  215.750   88.856    0.412    0.240    9.393
  216.000   87.642    0.412    0.244    9.599
  216.250   87.659    0.412    0.240    9.992
  216.500   88.967    0.416    0.220   10.205
  216.750   89.621    0.424    0.219   10.240
  217.000   90.912    0.419    0.216   10.252
  217.250   90.946    0.413    0.214    9.900
  217.500   90.360    0.415    0.215    9.554
  217.750   90.377    0.419    0.219    9.215
  218.000   91.056    0.420    0.220    8.889
  218.250   92.967    0.423    0.224    8.578
  218.500   96.772    0.435    0.229    7.976
  218.750  102.462    0.446    0.236    7.278
  219.000  107.532    0.450    0.240    6.884
  219.250  110.700    0.451    0.242    6.160
  219.500  112.628    0.450    0.244    5.621
  219.750  113.299    0.447    0.244    5.421
  220.000  114.582    0.445    0.244    5.440
  220.250  115.873    0.440    0.240    5.550
  220.500  115.898    0.435    0.234    5.780
  220.750  110.904    0.421    0.225    6.248
  221.000  103.405    0.410    0.198    6.755
  221.250   99.040    0.403    0.187   10.261
  221.500   97.809    0.397    0.174   16.506
  221.750   95.957    0.393    0.170   19.623
  222.000   96.000    0.389    0.194   18.584
  222.250   97.282    0.389    0.195   17.609
  222.500   97.945    0.399    0.194   16.657
  222.750   97.987    0.405    0.198   15.775
  223.000   98.013    0.397    0.191   14.116
  223.250   96.170    0.374    0.186   13.360
  223.500   94.310    0.344    0.187   11.738
  223.750   89.945    0.332    0.231   10.908
  224.000   83.066    0.319    0.273   10.521
  224.250   73.673    0.299    0.295   10.551
  224.500   63.023    0.277    0.322   10.989
  224.750   55.516    0.265    0.339   11.425
  225.000   54.310    0.255    0.349   12.586
  225.250   54.327    0.249    0.352   14.963
