~VERSION INFORMATION
 VERS.                 2.0:   CWLS LOG ASCII STANDARD -VERSION 2.0
 WRAP.                  NO:   ONE LINE PER DEPTH STEP
~WELL INFORMATION BLOCK
#MNEM.UNIT           DATA                    DESCRIPTION OF MNEMONIC
#---------    -------------------            -------------------------------
# Generated from Intellog Unique Number	CN_91_93/WELL/2699
WELL.         07-14-091-18W4                 : Well_name    - WELL
LOC .         00/07-14-091-18W4/0            : Location     - LOCATION
UWI .         00/07-14-091-18W400            : Uwi          - UNIQUE WELL ID
ENTR.         JOETTE                         : Entered      - ENTERED BY
SRVC.         SCHLUMBERGER                   : Scn          - SERVICE COMPANY
DATE.         02/09/92                       : Date         - LOG DATE
STRT.M        100                            : top_depth    - START DEPTH
STOP.M        240                            : bot_depth    - STOP DEPTH
STEP.M        0.25                           : increment    - STEP LENGTH
 NULL. -999.2500:NULL Value
~CURVE INFORMATION BLOCK
#MNEM UNIT       ERCB CURVE CODE    CURVE DESCRIPTION
#-----------   ------------------   ----------------------------------
DEPT.M        00 001 00 00         : DEPTH        - DEPTH
GR  .API      00 310 00 00         : GR           - GAMMA RAY
CALI.MM       00 280 01 00         : CAL          - CALIPER
NPHI.V/V      00 330 00 00         : PHIN         - NEUTRON POROSITY (SANDSTONE)
DPHI.V/V      00 890 00 00         : PHID         - DENSITY POROSITY (SANDSTONE)
ILD .OHMM     00 120 00 00         : RESD         - DEEP RESISTIVITY (DIL)
~PARAMETER INFORMATION
#MNEM.UNIT           DATA             DESCRIPTION OF MNEMONIC
#---------         -----------     ------------------------------
GL  .M        507.02               : gl           - GROUND LEVEL ELEVATION
EREF.M        509.87               : kb           - ELEVATION OF DEPTH REFERENCE
DATM.M        509.87               : datum        - DATUM ELEVATION
TDD .M        248                  : tdd          - TOTAL DEPTH DRILLER
RUN .         ONE                  : Run          - RUN NUMBER
ENG .         JO                   : Engineer     - RECORDING ENGINEER
WIT .         TIM                  : Witness      - WITNESSED BY
MUD .         GEL                  : Mud_type     - MUD TYPE
MATR.         SANDSTONE            : Logunit      - NEUTRON MATRIX
TMAX.C        17                   : BHT          - MAXIMUM RECORDED TEMPERATURE
BHTD.M        248                  : BHTDEP       - MAXIMUM RECORDED TEMPERATURE
RMT .C        6                    : MDTP         - TEMPERATURE OF MUD
MUDD.KG/M     1050                 : MWT          - MUD DENSITY
NEUT.         1                    : NEUTRON      - NEUTRON TYPE
RESI.         0                    : RESIST       - RESISTIVITY TYPE
RM  .OHMM     7.92                 : RM           - RESISTIVITY OF MUD
RMC .OHMM     7.3                  : RMC          - RESISTIVITY OF MUD CAKE
RMF .OHMM     7.14                 : RMF          - RESISTIVITY OF MUD FILTRATE
SUFT.C        4                    : SUFT         - SURFACE TEMPERATURE
~A  DEPTH       GR      CAL     PHIN     PHID     RESD
# ...
  209.500   48.243  213.429    0.404    0.308   61.378
  209.750   47.064  214.975    0.420    0.311   57.579
  210.000   45.580  216.006    0.401    0.313   52.518
  210.250   44.697  216.545    0.398    0.310   47.473
  210.500   45.017  216.578    0.404    0.300   43.713
  210.750   44.438  216.109    0.408    0.304   42.163
  211.000   43.249  215.637    0.410    0.310   43.836
  211.250   43.271  214.173    0.393    0.303   47.291
  211.500   46.300  213.705    0.403    0.297   48.687
  211.750   54.747  213.733    0.402    0.279   50.611
  212.000   55.968  213.771    0.404    0.251   50.200
  212.250   55.085  213.799    0.416    0.252   47.542
  212.500   53.901  214.338    0.392    0.248   41.777
  212.750   55.127  214.872    0.376    0.224   33.758
  213.000   58.757  215.912    0.363    0.186   22.865
  213.250   63.892  216.952    0.370    0.171   20.659
  213.500   69.328  217.478    0.408    0.201   17.327
  213.750   73.866  218.518    0.408    0.216   14.267
  214.000   77.195  220.052    0.414    0.228   11.639
  214.250   80.522  217.084    0.426    0.231   10.420
  214.500   91.677  212.106    0.429    0.221    9.777
  214.750   92.301  212.636    0.429    0.208    9.431
  215.000   88.708  214.178    0.431    0.233    9.623
  215.250   84.215  215.707    0.416    0.239   10.094
  215.500   86.040  219.250    0.401    0.225   10.013
  215.750   97.799  226.312    0.406    0.237    9.135
  216.000  101.126  228.857    0.441    0.241    8.733
  216.250   99.340  225.371    0.445    0.238    8.990
  216.500   92.741  221.898    0.424    0.240    9.881
  216.750   85.840  220.422    0.368    0.244   12.967
  217.000   76.833  219.456    0.368    0.244   15.787
  217.250   73.242  219.493    0.429    0.260   17.351
  217.500   80.784  219.530    0.422    0.260   18.548
  217.750   82.912  220.056    0.415    0.211   19.102
  218.000   85.640  220.089    0.408    0.200   19.125
  218.250   88.970  220.126    0.429    0.204   18.109
  218.500   86.284  220.159    0.426    0.206   16.831
  218.750   83.894  220.192    0.401    0.222   17.825
  219.000   81.206  220.229    0.396    0.243   19.771
  219.250   70.996  220.258    0.394    0.189   26.931
  219.500   67.405  219.798    0.327    0.152   34.674
  219.750   60.807  219.826    0.305    0.136   48.562
  220.000   58.119  219.362    0.283    0.187   52.389
  220.250   56.033  219.395    0.252    0.210   58.129
  220.500   60.265  219.428    0.255    0.232   65.090
  220.750   62.995  219.457    0.291    0.276   67.035
  221.000   61.513  219.494    0.324    0.310   66.490
  221.250   60.023  219.527    0.353    0.347   62.969
  221.500   61.252  219.564    0.387    0.323   59.072
  221.750   60.664  219.588    0.392    0.309   56.987
  222.000   55.870  219.625    0.394    0.279   59.783
  222.250   44.757  219.662    0.412    0.266   86.893
  222.500   33.945  220.193    0.425    0.285  132.342
  222.750   30.053  221.233    0.408    0.295  409.228
  223.000   30.073  224.780    0.378    0.297  471.224
  223.250   32.803  226.811    0.369    0.306  532.685
  223.500   34.633  229.359    0.373    0.309  495.002
  223.750   34.046  226.881    0.388    0.306  435.050
  224.000   32.865  222.902    0.382    0.306  393.261
  224.250   32.581  220.941    0.373    0.297  355.369
  224.500   34.105  220.941    0.377    0.313  292.612
  224.750   36.537  220.493    0.370    0.316  234.258
  225.000   38.964  218.520    0.371    0.313  187.572
  225.250   40.486  218.578    0.384    0.314  150.190
  225.500   42.612  218.089    0.406    0.311  109.543
  225.750   44.740  218.089    0.384    0.314   72.790
  226.000   45.374  217.669    0.368    0.308   61.644
  226.250   47.187  217.694    0.363    0.302   56.235
  226.500   51.424  217.719    0.375    0.305   52.755
  226.750   53.550  217.752    0.402    0.301   49.953
  227.000   55.977  217.793    0.404    0.303   49.953
  227.250   57.197  217.830    0.419    0.298   48.269
  227.500   60.828  217.855    0.423    0.275   43.604
  227.750   62.954  217.888    0.418    0.279   39.416
  228.000   63.277  217.929    0.396    0.284   36.288
  228.250   65.704  218.463    0.381    0.273   34.042
  228.500   69.941  218.492    0.364    0.255   31.351
  228.750   69.958  218.492    0.394    0.249   29.405
  229.000   69.379  219.076    0.403    0.259   26.576
  229.250   69.093  219.096    0.391    0.266   24.932
  229.500   67.309  219.125    0.394    0.258   26.400
  229.750   64.922  218.661    0.412    0.262   28.480
  230.000   63.741  218.200    0.392    0.272   28.480
  230.250   61.953  218.225    0.382    0.279   30.495
  230.500   60.471  217.761    0.408    0.286   33.190
  230.750   61.092  217.789    0.415    0.297   35.479
  231.000   62.012  217.822    0.422    0.287   35.870
  231.250   61.733  217.859    0.418    0.288   36.587
  231.500   58.749  217.395    0.420    0.276   36.972
  231.750   58.764  217.395    0.419    0.268   35.667
  232.000   59.087  216.980    0.419    0.282   32.241
  232.250   60.313  216.487    0.416    0.292   29.407
  232.500   61.834  216.022    0.419    0.293   27.587
  232.750   64.562  216.055    0.423    0.294   26.126
  233.000   68.198  216.092    0.434    0.299   25.678
  233.250   69.118  216.121    0.446    0.294   25.948
  233.500   66.128  216.659    0.443    0.282   25.948
  233.750   62.841  217.194    0.455    0.276   26.261
  234.000   61.356  216.224    0.453    0.292   27.041
  234.250   61.373  213.749    0.457    0.298   27.330
  234.500   66.809  214.284    0.424    0.293   24.245
  234.750   80.068  216.832    0.423    0.309   11.847
  235.000   88.517  216.832    0.427    0.280    8.481
  235.250   93.048  217.391    0.427    0.255    6.604
  235.500   98.183  219.434    0.468    0.249    5.969
  235.750   99.710  217.461    0.472    0.246    6.560
  236.000   97.322  215.990    0.477    0.152    8.062
  236.250   90.722  214.514    0.473    0.118   12.053
  236.500   82.919  214.054    0.346    0.184   20.338
  236.750   83.842  215.595    0.390    0.203   25.950
  237.000   79.651  216.627    0.407    0.252   27.483
  237.250   79.975  217.663    0.413    0.271   27.777
  237.500   82.396  218.197    0.409    0.260   26.548
  237.750   83.625  217.223    0.420    0.262   23.547
  238.000   83.943  216.257    0.404    0.251   21.084
  238.250   87.576  215.287    0.385    0.244   19.786
  238.500   91.805  214.317    0.392    0.235   19.625
  238.750   90.922  213.849    0.387    0.231   19.835
  239.000   77.703  214.387    0.381    0.234   19.674
  239.250   60.572  214.917    0.386    0.237   18.986
  239.500   57.586  215.460    0.407    0.242   17.971
  239.750   58.207  215.994    0.393    0.239   18.167
  240.000   58.225  216.525    0.375    0.226   18.530
