~VERSION INFORMATION
 VERS.                 2.0:   CWLS LOG ASCII STANDARD -VERSION 2.0
 WRAP.                  NO:   ONE LINE PER DEPTH STEP
~WELL INFORMATION BLOCK
#MNEM.UNIT           DATA                    DESCRIPTION OF MNEMONIC
#---------    -------------------            -------------------------------
# Generated from Intellog Unique Number	CW_79_81/WELL/642
WELL.         07-36-079-21W4                 : Well_name    - WELL
LOC .         00/07-36-079-21W4/0            : Location     - LOCATION
UWI .         00/07-36-079-21W4/0            : Uwi          - UNIQUE WELL ID
ENTR.         MAX                            : Entered      - ENTERED BY
SRVC.         SCHLUMBERGER                   : Scn          - SERVICE COMPANY
STRT.M        215                            : top_depth    - START DEPTH
STOP.M        417                            : bot_depth    - STOP DEPTH
STEP.M        0.25                           : increment    - STEP LENGTH
 NULL. -999.2500:NULL Value
~CURVE INFORMATION BLOCK
#MNEM UNIT       ERCB CURVE CODE    CURVE DESCRIPTION
#-----------   ------------------   ----------------------------------
DEPT.M        00 001 00 00         : DEPTH        - DEPTH
ILD .OHMM     00 120 00 00         : RESD         - DEEP RESISTIVITY (DIL)
NPHI.V/V      00 330 00 00         : PHIN         - NEUTRON POROSITY (SANDSTONE)
DPHI.V/V      00 890 00 00         : PHID         - DENSITY POROSITY (SANDSTONE)
CALI.MM       00 280 01 00         : CAL          - CALIPER
GR  .API      00 310 00 00         : GR           - GAMMA RAY
~PARAMETER INFORMATION
#MNEM.UNIT           DATA             DESCRIPTION OF MNEMONIC
#---------         -----------     ------------------------------
GL  .M        572.05               : gl           - GROUND LEVEL ELEVATION
EREF.M        575.35               : kb           - ELEVATION OF DEPTH REFERENCE
DATM.M        572.05               : datum        - DATUM ELEVATION
TDD .M        420                  : tdd          - TOTAL DEPTH DRILLER
RUN .         ONE                  : Run          - RUN NUMBER
ENG .         BILL                 : Engineer     - RECORDING ENGINEER
WIT .         JIM                  : Witness      - WITNESSED BY
MUD .         GEL                  : Mud_type     - MUD TYPE
MATR.         SANDSTONE            : Logunit      - NEUTRON MATRIX
TMAX.C        29.4                 : BHT          - MAXIMUM RECORDED TEMPERATURE
BHTD.M        420                  : BHTDEP       - MAXIMUM RECORDED TEMPERATURE
RMT .C        23                   : MDTP         - TEMPERATURE OF MUD
MUDD.KG/M     1130                 : MWT          - MUD DENSITY
NEUT.         1                    : NEUTRON      - NEUTRON TYPE
RESI.         0                    : RESIST       - RESISTIVITY TYPE
RM  .OHMM     6.08                 : RM           - RESISTIVITY OF MUD
RMC .OHMM     0.25                 : RMC          - RESISTIVITY OF MUD CAKE
RMF .OHMM     5.02                 : RMF          - RESISTIVITY OF MUD FILTRATE
SUFT.C        -10                  : SUFT         - SURFACE TEMPERATURE
~A  DEPTH     RESD     PHIN     PHID      CAL       GR
# ...
  397.500    9.116    0.386    0.148  159.129  101.303
  397.750    8.170    0.392    0.108  159.162  104.314
  398.000    7.596    0.398    0.132  159.694  103.434
  398.250    7.128    0.426    0.135  159.720  100.159
  398.500    7.200    0.434    0.120  159.255   95.088
  398.750    7.974    0.390    0.097  158.279   90.017
  399.000    9.595    0.334    0.082  154.820   97.518
  399.250   10.530    0.339    0.082  153.848  108.915
  399.500   10.346    0.366    0.088  154.384  114.019
  399.750    9.533    0.422    0.111  156.405  116.731
  400.000    8.543    0.427    0.129  156.937  116.751
  400.250    7.448    0.420    0.147  156.970  117.966
  400.500    7.185    0.414    0.146  156.993  118.884
  400.750    7.195    0.406    0.153  156.523  119.201
  401.000    7.264    0.457    0.145  156.058  118.019
  401.250    7.971    0.469    0.171  156.091   98.877
  401.500   11.216    0.454    0.157  155.618   86.023
  401.750   14.261    0.353    0.137  155.651   77.961
  402.000   16.236    0.329    0.153  155.178   79.473
  402.250   17.981    0.343    0.155  155.215   83.382
  402.500   18.848    0.347    0.133  155.244   84.901
  402.750   18.014    0.335    0.126  155.266   87.012
  403.000   14.591    0.326    0.105  155.266   89.724
  403.250   12.037    0.326    0.118  155.340   92.735
  403.500   11.191    0.357    0.131  155.355   96.945
  403.750    9.490    0.373    0.137  155.385   97.861
  404.000    9.490    0.373    0.140  155.425   98.180
  404.250    8.131    0.369    0.130  155.447  101.790
  404.500    7.088    0.387    0.137  155.979  102.107
  404.750    6.068    0.445    0.147  156.005  101.823
  405.000    6.186    0.479    0.143  156.035  100.646
  405.250    6.602    0.509    0.161  156.064   97.371
  405.500    8.017    0.471    0.150  156.094   92.298
  405.750    8.717    0.414    0.159  156.626   85.730
  406.000   10.683    0.410    0.158  156.659   82.757
  406.250   12.052    0.424    0.154  156.692   81.878
  406.500   12.629    0.420    0.175  156.692   80.096
  406.750   13.733    0.411    0.157  156.748   71.433
  407.000   13.733    0.409    0.139  156.777   58.280
  407.250   14.406    0.426    0.148  156.803   35.548
  407.500   16.249    0.429    0.147  156.833   30.477
  407.750   19.372    0.423    0.124  154.371   28.397
  408.000   21.455    0.411    0.199  153.403   35.301
  408.250   26.538    0.403    0.222  154.929   38.612
  408.500   30.213    0.438    0.255  153.466   41.026
  408.750   29.149    0.535    0.321  152.997   48.226
  409.000   27.859    0.566    0.473  153.521   60.222
  409.250   28.141    0.532    0.421  153.052   71.612
  409.500   28.954    0.508    0.370  154.582   82.410
  409.750   29.793    0.531    0.375  156.104   88.413
  410.000   30.373    0.570    0.478  156.138   90.526
  410.250   30.117    0.564    0.453  155.665   95.936
  410.500   27.747    0.545    0.485  154.201   98.044
  410.750   21.072    0.545    0.490  151.237  109.444
  411.000   18.887    0.521    0.446  151.766  116.342
  411.250   17.239    0.480    0.245  154.290  120.850
  411.500   16.328    0.515    0.266  154.319  119.375
  411.750   16.343    0.566    0.243  154.352  117.892
  412.000   17.448    0.578    0.236  154.877  117.011
  412.250   18.625    0.510    0.251  154.914  117.331
  412.500   19.518    0.486    0.308  154.437  118.548
  412.750   19.898    0.623    0.384  154.966  118.568
  413.000   20.285    0.634    0.412  153.998  118.568
  413.250   20.873    0.610    0.440  150.546  118.601
  413.500   21.675    0.584    0.463  151.573  117.721
  413.750   22.712    0.563    0.482  153.595  117.738
  414.000   23.805    0.559    0.452  157.116  117.754
  414.250   24.947    0.574    0.500  158.643  118.073
  414.500   26.630    0.619    0.549  154.685  118.392
  414.750   29.222    0.634    0.595  152.212  119.308
  415.000   31.773    0.647    0.575  150.254  120.226
  415.250   30.651    0.634    0.539  150.778  119.940
  415.500   28.764    0.606    0.507  150.309  117.565
  415.750   25.545    0.569    0.543  150.837  113.692
  416.000   23.317    0.623    0.571  151.868  104.727
  416.250   21.288    0.638    0.202  153.890   98.760
  416.500   20.160    0.644    0.178  153.923   95.186
  416.750   19.095    0.627    0.189  154.448   92.510
  417.000   18.087    0.296    0.158  155.486   91.341
