~VERSION INFORMATION
 VERS.                 2.0:   CWLS LOG ASCII STANDARD -VERSION 2.0
 WRAP.                  NO:   ONE LINE PER DEPTH STEP
~WELL INFORMATION BLOCK
#MNEM.UNIT           DATA                    DESCRIPTION OF MNEMONIC
#---------    -------------------            -------------------------------
# Generated from Intellog Unique Number	CS_69_70/WELL/799
WELL.         AEC FISHER                     : Well_name    - WELL
LOC .         00/06-06-069-04W4/0            : Location     - LOCATION
UWI .         00/06-06-069-04W4/0            : Uwi          - UNIQUE WELL ID
ENTR.         SP                             : Entered      - ENTERED BY
SRVC.         SCHLUMBERGER                   : Scn          - SERVICE COMPANY
STRT.M        340                            : top_depth    - START DEPTH
STOP.M        595                            : bot_depth    - STOP DEPTH
STEP.M        0.25                           : increment    - STEP LENGTH
 NULL. -999.2500:NULL Value
~CURVE INFORMATION BLOCK
#MNEM UNIT       ERCB CURVE CODE    CURVE DESCRIPTION
#-----------   ------------------   ----------------------------------
DEPT.M        00 001 00 00         : DEPTH        - DEPTH
ILD .OHMM     00 120 00 00         : RESD         - DEEP RESISTIVITY (DIL)
DPHI.V/V      00 890 00 00         : PHID         - DENSITY POROSITY (LIMESTONE)
NPHI.V/V      00 330 00 00         : PHIN         - NEUTRON POROSITY (LIMESTONE)
GR  .API      00 310 00 00         : GR           - GAMMA RAY
~PARAMETER INFORMATION
#MNEM.UNIT           DATA             DESCRIPTION OF MNEMONIC
#---------         -----------     ------------------------------
GL  .M        695.6                : gl           - GROUND LEVEL ELEVATION
EREF.M        699.3                : kb           - ELEVATION OF DEPTH REFERENCE
DATM.M        695.6                : datum        - DATUM ELEVATION
TDD .M        600                  : tdd          - TOTAL DEPTH DRILLER
RUN .         ONE                  : Run          - RUN NUMBER
ENG .         BILL                 : Engineer     - RECORDING ENGINEER
WIT .         JIM                  : Witness      - WITNESSED BY
MUD .         GEL                  : Mud_type     - MUD TYPE
MATR.         LIMESTONE            : Logunit      - NEUTRON MATRIX
TMAX.C        22                   : BHT          - MAXIMUM RECORDED TEMPERATURE
BHTD.M        600                  : BHTDEP       - MAXIMUM RECORDED TEMPERATURE
MATR.         1                    : LOGUNIT      - NEUTRON MATRIX
RMT .C        25                   : MDTP         - TEMPERATURE OF MUD
NEUT.         1                    : NEUTRON      - NEUTRON TYPE
RESI.         0                    : RESIST       - RESISTIVITY TYPE
RMC .OHMM     0.25                 : RMC          - RESISTIVITY OF MUD CAKE
RMF .OHMM     0.25                 : RMF          - RESISTIVITY OF MUD FILTRATE
SUFT.C        15                   : SUFT         - SURFACE TEMPERATURE
~A  DEPTH     RESD     PHID     PHIN       GR
# ...
  514.000    8.112    0.269    0.364   73.754
  514.250    6.670    0.284    0.369   67.215
  514.500    6.401    0.279    0.372   65.556
  514.750    6.167    0.287    0.382   63.471
  515.000    5.985    0.309    0.395   64.375
  515.250    5.831    0.310    0.401   73.085
  515.500    5.724    0.304    0.396   79.785
  515.750    5.641    0.298    0.405   82.823
  516.000    5.611    0.288    0.394   85.009
  516.250    5.644    0.274    0.396   88.960
  516.500    5.775    0.262    0.400   92.001
  516.750    6.032    0.253    0.388   94.978
  517.000    6.337    0.264    0.375   87.219
  517.250    6.683    0.266    0.368   83.487
  517.500    6.877    0.260    0.363   83.171
  517.750    7.063    0.250    0.360   88.343
  518.000    7.186    0.231    0.356   95.227
  518.250    7.256    0.212    0.375   98.631
  518.500    7.259    0.214    0.396   90.629
  518.750    7.261    0.229    0.385   80.308
  519.000    7.443    0.240    0.370   70.780
  519.250    8.353    0.255    0.367   61.071
  519.500    9.845    0.283    0.394   52.336
  519.750   11.515    0.309    0.403   47.506
  520.000   13.804    0.306    0.387   44.932
  520.250   15.403    0.311    0.379   42.297
  520.500   19.985    0.318    0.370   39.237
  520.750   28.817    0.310    0.366   55.390
  521.000   31.377    0.304    0.361   65.383
  521.250   29.605    0.296    0.362   71.045
  521.500   19.161    0.299    0.373   70.057
  521.750   12.927    0.326    0.384   71.997
  522.000   10.431    0.333    0.379   76.012
  522.250    8.690    0.323    0.393   79.905
  522.500    7.392    0.315    0.399   81.662
  522.750    6.742    0.307    0.397   83.175
  523.000    6.386    0.297    0.395   84.995
  523.250    6.281    0.285    0.390   83.763
  523.500    6.282    0.272    0.393   77.896
  523.750    6.284    0.287    0.404   72.090
  524.000    6.310    0.285    0.405   67.258
  524.250    6.348    0.279    0.390   63.526
  524.500    6.422    0.277    0.376   60.343
  524.750    6.646    0.284    0.361   58.502
  525.000    7.141    0.290    0.363   57.514
  525.250    7.835    0.310    0.364   57.869
  525.500    8.293    0.300    0.358   64.444
  525.750    8.680    0.268    0.348   69.252
  526.000    8.814    0.252    0.341   73.145
  526.250    8.540    0.243    0.335   76.490
  526.500    8.319    0.235    0.332   77.759
  526.750    7.939    0.221    0.368   74.332
  527.000    7.619    0.283    0.390   64.987
  527.250    7.257    0.304    0.419   57.046
  527.500    6.925    0.079    0.388   49.409
  527.750    7.059   -0.001    0.340   43.846
  528.000    7.346   -0.013    0.204   52.620
  528.250    7.660    0.045    0.254   68.469
  528.500    7.662    0.285    0.378   80.901
  528.750    7.216    0.296    0.397   83.574
  529.000    6.964    0.288    0.384   81.611
  529.250    6.836    0.272    0.376   78.915
  529.500    6.890    0.255    0.368   74.024
  529.750    7.503    0.245    0.364   68.461
  530.000    7.897    0.244    0.363   75.217
  530.250    8.391    0.238    0.356   79.844
  530.500    8.650    0.228    0.359   83.860
  530.750    8.867    0.218    0.376   88.605
  531.000    8.558    0.208    0.388   93.107
  531.250    7.954    0.199    0.379   96.269
  531.500    7.663    0.192    0.362   99.553
  531.750    7.579    0.186    0.342  103.201
  532.000    7.667    0.189    0.352  107.642
  532.250    7.598    0.207    0.395  112.207
  532.500    7.416    0.213    0.438  112.317
  532.750    7.253    0.209    0.432  106.694
  533.000    7.173    0.200    0.383  102.352
  533.250    7.564    0.197    0.356   99.838
  533.500    7.962    0.188    0.343   98.912
  533.750    8.302    0.175    0.347   95.302
  534.000    8.526    0.212    0.355   85.713
  534.250    8.675    0.230    0.321   78.870
  534.500    8.793    0.215    0.301   84.591
  534.750    8.746    0.173    0.303   93.732
  535.000    8.699    0.150    0.347   96.709
  535.250    8.637    0.181    0.387   84.681
  535.500    8.788    0.227    0.410   66.980
  535.750    8.907    0.272    0.383   65.565
  536.000    9.113    0.234    0.360   75.801
  536.250    9.272    0.193    0.343   81.524
  536.500    9.346    0.178    0.334   84.380
  536.750    9.384    0.181    0.342   87.479
  537.000    9.316    0.189    0.350   85.699
  537.250    9.214    0.194    0.343   83.857
  537.500    9.096    0.198    0.345   83.663
  537.750    8.980    0.200    0.353   82.005
  538.000    8.898    0.198    0.360   74.003
  538.250    8.802    0.213    0.356   67.952
  538.500    8.738    0.225    0.339   66.537
  538.750    8.659    0.203    0.327   75.737
  539.000    8.629    0.155    0.337   87.681
  539.250    8.648    0.133    0.357   85.596
  539.500    8.765    0.142    0.352   79.607
  539.750    8.868    0.171    0.346   72.945
  540.000    8.837    0.198    0.342   67.504
  540.250    8.774    0.218    0.338   63.164
  540.500    8.662    0.229    0.340   58.089
  540.750    8.439    0.236    0.345   56.126
  541.000    8.253    0.248    0.350   61.421
  541.250    8.116    0.242    0.352   66.473
  541.500    8.242    0.233    0.349   69.878
  541.750    8.214    0.228    0.344   69.744
  542.000    8.093    0.226    0.340   69.306
  542.250    7.871    0.235    0.373   67.953
  542.500    7.770    0.247    0.370   62.025
  542.750    7.628    0.253    0.346   67.503
  543.000    7.530    0.235    0.331   70.176
  543.250    7.434    0.216    0.344   68.090
  543.500    7.353    0.227    0.358   64.784
  543.750    7.313    0.248    0.374   61.785
  544.000    7.206    0.276    0.382   64.578
  544.250    7.194    0.280    0.385   68.228
  544.500    7.183    0.253    0.385   71.510
  544.750    7.171    0.228    0.384   68.143
  545.000    7.201    0.207    0.365   64.777
  545.250    7.217    0.231    0.356   63.363
  545.500    7.260    0.268    0.351   67.073
  545.750    7.276    0.264    0.351   67.244
  546.000    7.306    0.252    0.360   68.148
  546.250    7.364    0.228    0.363   76.432
  546.500    7.408    0.203    0.359   81.118
  546.750    7.424    0.180    0.368   70.736
  547.000    7.329    0.200    0.369   63.711
  547.250    7.249    0.233    0.349   67.542
  547.500    7.170    0.249    0.336   74.484
  547.750    7.091    0.238    0.354   75.998
  548.000    7.054    0.235    0.367   73.179
  548.250    7.056    0.236    0.355   71.522
  548.500    7.058    0.233    0.349   70.353
  548.750    7.087    0.241    0.344   70.158
  549.000    7.116    0.244    0.342   72.282
  549.250    7.199    0.235    0.344   73.063
  549.500    7.283    0.225    0.344   71.038
  549.750    7.326    0.218    0.345   63.891
  550.000    6.767    0.274    0.370   52.315
  550.250    6.592    0.284    0.379   48.333
  550.500    6.302    0.294    0.388   45.507
  550.750    6.104    0.309    0.393   44.196
  551.000    5.891    0.326    0.387   42.585
  551.250    5.632    0.341    0.382   47.960
  551.500    5.601    0.310    0.379   54.553
  551.750    5.787    0.285    0.383   57.191
  552.000    6.057    0.271    0.396   54.972
  552.250    6.451    0.281    0.390   57.616
  552.500    6.664    0.265    0.368   60.739
  552.750    6.949    0.253    0.352   63.565
  553.000    7.276    0.242    0.366   64.263
  553.250    7.250    0.251    0.347   62.829
  553.500    7.239    0.259    0.346   61.764
  553.750    7.214    0.263    0.363   58.696
  554.000    7.122    0.275    0.377   60.243
  554.250    6.977    0.288    0.361   63.490
  554.500    6.862    0.264    0.347   64.066
  554.750    6.774    0.251    0.344   57.533
  555.000    6.725    0.258    0.344   51.364
  555.250    6.690    0.271    0.346   50.481
  555.500    6.641    0.281    0.347   55.249
  555.750    6.519    0.267    0.346   59.712
  556.000    6.232    0.254    0.349   59.498
  556.250    6.060    0.260    0.370   50.230
  556.500    6.062    0.290    0.384   45.944
  556.750    6.346    0.321    0.375   42.996
  557.000    6.581    0.301    0.359   50.562
  557.250    6.658    0.283    0.348   60.126
