~VERSION INFORMATION
 VERS.                 2.0:   CWLS LOG ASCII STANDARD -VERSION 2.0
 WRAP.                  NO:   ONE LINE PER DEPTH STEP
~WELL INFORMATION BLOCK
#MNEM.UNIT           DATA                    DESCRIPTION OF MNEMONIC
#---------    -------------------            -------------------------------
# Generated from Intellog Unique Number	CC_80_83/WELL/1179
NULL.         -999.25                        : NULL_VALUE
WELL.         CHEVRON ALGAR                  : Well_name    - WELL
LOC .         07-08-081-17W4                 : Location     - LOCATION          
UWI .         00/07-08-081-17W400            : Uwi          - UNIQUE WELL ID    
ENTR.         DW                             : Entered      - ENTERED BY        
SRVC.         SCHLUMBERGER                   : Scn          - SERVICE COMPANY   
DATE.         24 FEB 74                      : Date         - LOG DATE
STRT.M        88.392                         : top_depth    - START DEPTH       
STOP.M        256.03                         : bot_depth    - STOP DEPTH        
STEP.M        0.3048                         : increment    - STEP LENGTH       
~CURVE INFORMATION BLOCK
#MNEM UNIT       ERCB CURVE CODE    CURVE DESCRIPTION
#-----------   ------------------   ----------------------------------
DEPT.M        00 001 00 00         : DEPTH        - DEPTH                       
DPHI.V/V      00 890 00 00         : PHID         - DENSITY POROSITY (LIMESTONE)
NPHI.V/V      00 330 00 00         : PHIN         - NEUTRON POROSITY (LIMESTONE)
GR  .API      00 310 00 00         : GR           - GAMMA RAY                   
ILD .OHMM     00 120 00 00         : RESD         - DEEP RESISTIVITY (DIL)      
~PARAMETER INFORMATION       
#MNEM.UNIT           DATA             DESCRIPTION OF MNEMONIC
#---------         -----------     ------------------------------
GL  .M        482.498              : gl           - GROUND LEVEL ELEVATION      
EREF.M        485.851              : kb           - ELEVATION OF DEPTH REFERENCE
DATM.M        485.851              : datum        - DATUM ELEVATION             
TDD .M        257.251              : tdd          - TOTAL DEPTH DRILLER         
RUN .         ONE                  : Run          - RUN NUMBER                  
ENG .         BILL                 : Engineer     - RECORDING ENGINEER          
WIT .         JIM                  : Witness      - WITNESSED BY                
MUD .         GEL                  : Mud_type     - MUD TYPE                    
MATR.         LIMESTONE            : Logunit      - NEUTRON MATRIX              
TMAX.C        22.7778              : BHT          - MAXIMUM RECORDED TEMPERATURE
BHTD.M        257.251              : BHTDEP       - MAXIMUM RECORDED TEMPERATURE
MATR.         1                    : LOGUNIT      - NEUTRON MATRIX              
RMT .C        25                   : MDTP         - TEMPERATURE OF MUD          
NEUT.         1                    : NEUTRON      - NEUTRON TYPE                
RESI.         0                    : RESIST       - RESISTIVITY TYPE            
RMC .OHMM     0.25                 : RMC          - RESISTIVITY OF MUD CAKE     
RMF .OHMM     0.25                 : RMF          - RESISTIVITY OF MUD FILTRATE 
SUFT.C        15                   : SUFT         - SURFACE TEMPERATURE         
~A  DEPTH     PHID     PHIN       GR     RESD
   88.392    0.308    0.464   56.555   15.082
   88.697    0.290    0.436   52.862   17.502
   89.002    0.251    0.413   47.938   18.153
   89.306    0.054    0.373   49.163   18.136
   89.611    0.054    0.321   54.077   16.809
   89.916    0.132    0.435   62.064   15.295
   90.221    0.303    0.446   66.979   13.914
   90.526    0.274    0.438   73.739   13.146
   90.830    0.258    0.463   87.260   10.687
   91.135    0.251    0.478   94.017    9.366
   91.440    0.237    0.504   94.627    8.525
   91.745    0.238    0.528   94.008    6.801
   92.050    0.245    0.530   90.930    6.671
   92.354    0.263    0.523   87.236    7.317
   92.659    0.263    0.482   87.232    8.030
   92.964    0.253    0.463   85.383   10.232
   93.269    0.263    0.461   83.535   13.034
   93.574    0.273    0.458   86.605   13.778
   93.878    0.273    0.477   87.830   14.831
   94.183    0.264    0.501   86.596   15.102
   94.488    0.276    0.509   82.903   14.531
   94.793    0.307    0.504   77.365   13.218
   95.098    0.274    0.512   79.204   12.723
   95.402    0.253    0.495   82.274   12.479
   95.707    0.242    0.476   81.656   12.938
   96.012    0.262    0.495   69.969   13.174
   96.317    0.301    0.459   57.669   13.406
   96.622    0.309    0.445   57.049   12.432
   96.927    0.294    0.428   71.186   10.896
   97.231    0.272    0.426   82.247    9.370
   97.536    0.206    0.485   87.162    9.019
   97.841    0.246    0.474   77.934    8.846
   98.146    0.229    0.445   79.775    9.342
   98.451    0.209    0.438   85.303    9.692
   98.755    0.233    0.429   85.299    9.687
   99.060    0.241    0.472   89.597    7.876
   99.365    0.242    0.490   93.283    6.650
   99.670    0.240    0.505  100.656    5.509
   99.975    0.229    0.541  111.103    4.739
  100.279    0.219    0.555  117.247    4.393
  100.584    0.225    0.536  119.086    4.229
  100.889    0.239    0.555  119.697    4.068
  101.194    0.245    0.548  117.848    4.141
  101.498    0.228    0.543  112.924    4.217
  101.803    0.196    0.565  111.691    4.212
  102.108    0.167    0.581  107.383    3.978
  102.413    0.140    0.594   99.386    3.757
  102.718    0.081    0.553  106.145    4.045
  103.022    0.206    0.561  116.592    4.277
  103.327    0.246    0.493  114.743    5.873
  103.632    0.258    0.466  107.361    7.345
  103.937    0.252    0.456   98.748    8.366
  104.242    0.235    0.461  100.588    8.203
  104.547    0.225    0.478  107.962    7.463
  104.851    0.262    0.504  114.720    7.050
  105.156    0.219    0.514  111.642    7.040
  105.461    0.228    0.483  106.105    7.303
  105.766    0.251    0.489   98.108    7.721
  106.071    0.259    0.478   90.725    9.475
  106.375    0.276    0.442   86.417   11.201
  106.680    0.270    0.436   91.329   11.841
  106.985    0.290    0.459   90.097   12.050
  107.290    0.296    0.482   86.403   12.043
  107.595    0.295    0.513   81.481   12.260
  107.899    0.300    0.488   67.335   12.951
  108.204    0.306    0.450   56.264   13.948
  108.509    0.320    0.448   48.882   15.297
  108.814    0.329    0.459   48.262   16.170
  109.119    0.323    0.464   45.184   16.774
  109.423    0.308    0.472   43.950   17.070
  109.728    0.319    0.470   51.938   17.058
  110.033    0.331    0.452   56.852   17.363
  110.338    0.327    0.463   58.693   17.344
  110.643    0.334    0.479   56.228   17.013
  110.947    0.337    0.469   53.764   17.317
  111.252    0.326    0.454   53.758   17.628
  111.557    0.320    0.463   54.985   17.285
  111.862    0.316    0.473   56.826   16.944
  112.167    0.328    0.484   59.280   16.934
  112.471    0.336    0.488   59.891   16.920
  112.776    0.337    0.493   58.657   16.589
  113.081    0.338    0.470   56.193   16.564
  113.386    0.321    0.459   54.343   16.552
  113.691    0.330    0.479   53.722   16.543
  113.995    0.336    0.500   53.720   16.526
  114.300    0.347    0.506   55.560   15.905
  114.605    0.339    0.479   59.858   15.312
  114.910    0.338    0.465   62.314   15.874
  115.215    0.336    0.476   57.391   15.864
  115.519    0.304    0.480   53.698   15.846
  115.824    0.260    0.454   51.849   15.837
  116.129    0.154    0.365   50.615   15.238
  116.434    0.197    0.341   53.069   14.389
  116.739    0.269    0.439   60.442   13.855
  117.043    0.322    0.475   62.898   12.141
  117.348    0.333    0.485   63.508   11.047
  117.653    0.332    0.489   61.044    9.679
  117.958    0.321    0.486   59.810    9.316
  118.263    0.303    0.491   61.035    9.136
  118.567    0.309    0.503   61.643    8.953
  118.872    0.319    0.497   62.869    8.782
  119.177    0.313    0.500   64.096    8.939
  119.482    0.296    0.497   63.475    8.768
  119.787    0.314    0.483   59.783    8.279
  120.091    0.312    0.480   61.622    7.971
  120.396    0.296    0.512   65.308    7.389
  120.701    0.288    0.523   68.376    6.720
  121.006    0.280    0.528   69.601    6.469
  121.311    0.283    0.505   70.826    6.344
  121.615    0.293    0.494   70.822    6.339
  121.920    0.299    0.507   69.589    6.823
  122.225    0.323    0.503   63.436    7.346
  122.530    0.319    0.503   65.891    7.480
  122.835    0.286    0.521   73.263    7.198
  123.139    0.286    0.515   75.719    6.798
  123.444    0.292    0.511   76.944    6.423
  123.749    0.271    0.496   76.325    5.841
  124.054    0.260    0.506   76.319    5.837
  124.359    0.278    0.523   75.086    6.054
  124.663    0.281    0.519   68.933    6.281
  124.968    0.278    0.521   72.618    6.891
  125.273    0.271    0.530   71.384    7.703
  125.578    0.293    0.532   65.846    8.451
  125.883    0.364    0.549   60.309    9.989
  126.187    0.418    0.582   47.393   11.164
  126.492    0.551    0.612   44.930   11.585
  126.797    0.522    0.647   55.377   12.015
  127.102    0.457    0.686   65.209   12.459
  127.407    0.284    0.478   72.582   12.451
  127.711    0.298    0.490   79.340   11.975
  128.016    0.297    0.502   81.180   11.968
  128.321    0.297    0.501   78.716   12.413
  128.626    0.285    0.500   76.868   12.878
  128.931    0.295    0.505   68.871   13.109
  129.235    0.311    0.511   59.029   13.597
  129.540    0.324    0.472   52.876   14.362
  129.845    0.311    0.457   49.184   14.620
  130.150    0.312    0.449   46.104   14.608
  130.455    0.339    0.448   46.099   14.327
  130.759    0.338    0.450   47.326   14.045
  131.064    0.334    0.459   47.320   13.778
  131.369    0.327    0.476   47.316   13.507
  131.674    0.321    0.467   45.465   13.498
  131.979    0.329    0.461   44.849   13.992
  132.283    0.324    0.444   42.999   14.246
  132.588    0.333    0.439   45.454   14.504
  132.893    0.327    0.465   47.909   14.768
  133.198    0.329    0.487   47.289   15.026
  133.503    0.340    0.488   44.826   15.300
  133.807    0.321    0.482   44.820   15.005
  134.112    0.328    0.468   45.431   14.707
  134.417    0.330    0.451   46.657   14.425
  134.722    0.335    0.448   47.882   13.880
  135.027    0.350    0.448   50.951   13.361
  135.331    0.359    0.462   51.561   13.104
  135.636    0.359    0.451   51.556   13.083
  135.941    0.341    0.450   52.781   13.075
  136.246    0.345    0.482   52.164   13.314
  136.550    0.354    0.477   49.085   13.547
  136.855    0.351    0.476   50.924   13.538
  137.160    0.351    0.483   51.536   13.278
  137.465    0.342    0.478   51.531   13.266
  137.770    0.361    0.492   48.452   13.494
  138.074    0.378    0.505   45.373   13.748
  138.379    0.368    0.524   44.139   13.479
  138.684    0.353    0.547   42.905   13.213
  138.989    0.355    0.532   42.901   12.961
  139.294    0.362    0.520   43.512   12.940
  139.598    0.365    0.549   44.737   12.932
  139.903    0.362    0.541   42.272   12.925
  140.208    0.367    0.515   42.268   12.912
  140.513    0.372    0.514   43.492   12.900
  140.818    0.370    0.516   45.948   13.131
  141.122    0.372    0.496   47.788   13.370
