~VERSION INFORMATION
 VERS.                 2.0:   CWLS LOG ASCII STANDARD -VERSION 2.0
 WRAP.                  NO:   ONE LINE PER DEPTH STEP
~WELL INFORMATION BLOCK
#MNEM.UNIT           DATA                    DESCRIPTION OF MNEMONIC
#---------    -------------------            -------------------------------
# Generated from Intellog Unique Number	CW_79_81/WELL/194
NULL.         -999.25                        : NULL_VALUE
WELL.         SHELL MISTAHAE 06-12           : Well_name    - WELL              
LOC .         06-12-081-04W5                 : Location     - LOCATION          
UWI .         00/06-12-081-04W5/0            : Uwi          - UNIQUE WELL ID    
ENTR.         JJ                             : Entered      - ENTERED BY        
SRVC.         SCHLUMBERGER                   : Scn          - SERVICE COMPANY   
DATE.         3 MAR 78                       : Date         - LOG DATE          
STRT.M        368.808                        : top_depth    - START DEPTH       
STOP.M        496.808                        : bot_depth    - STOP DEPTH        
STEP.M        0.25                           : increment    - STEP LENGTH       
~CURVE INFORMATION BLOCK
#MNEM UNIT       ERCB CURVE CODE    CURVE DESCRIPTION
#-----------   ------------------   ----------------------------------
DEPT.M        00 001 00 00         : DEPTH        - DEPTH                       
ILD .OHMM     00 120 00 00         : RESD         - DEEP RESISTIVITY (DIL)      
GR  .API      00 310 00 00         : GR           - GAMMA RAY                   
DELT.US/F     00 520 00 00         : DELT         - SONIC TRAVEL TIME           
~PARAMETER INFORMATION       
#MNEM.UNIT           DATA             DESCRIPTION OF MNEMONIC
#---------         -----------     ------------------------------
GL  .M        593.872              : gl           - GROUND LEVEL ELEVATION      
EREF.M        598.048              : kb           - ELEVATION OF DEPTH REFERENCE
DATM.M        598.048              : datum        - DATUM ELEVATION             
TDD .M        498.653              : tdd          - TOTAL DEPTH DRILLER         
RUN .         ONE                  : Run          - RUN NUMBER                  
MATR.         SANDSTONE            : Logunit      - NEUTRON MATRIX              
TMAX.C        25.5556              : BHT          - MAXIMUM RECORDED TEMPERATURE
BHTD.M        500.177              : BHTDEP       - MAXIMUM RECORDED TEMPERATURE
RMT .C        12.2222              : MDTP         - TEMPERATURE OF MUD          
MUDD.KG/M     1128                 : MWT          - MUD DENSITY                 
NEUT.         1                    : NEUTRON      - NEUTRON TYPE                
RESI.         0                    : RESIST       - RESISTIVITY TYPE            
RM  .OHMM     5.56                 : RM           - RESISTIVITY OF MUD          
RMC .OHMM     0                    : RMC          - RESISTIVITY OF MUD CAKE     
RMF .OHMM     6.24                 : RMF          - RESISTIVITY OF MUD FILTRATE 
SUFT.C        5                    : SUFT         - SURFACE TEMPERATURE         
~A  DEPTH     RESD       GR     DELT
  368.808    7.061   60.749  269.061
  369.058    6.351   68.918  381.088
  369.308    6.389   84.335  422.408
  369.558    6.829   90.600  432.063
  369.808    7.024   84.027  419.645
  370.058    6.787   82.921  368.595
  370.308    6.286   84.825  370.869
  370.558    5.833   87.957  415.431
  370.808    5.514   90.659  427.432
  371.058    5.446   93.055  425.636
  371.308    5.389   87.894  418.874
  371.558    5.304   81.383  411.008
  371.808    5.327   81.382  408.592
  372.058    5.378   87.709  408.935
  372.308    5.461   92.376  412.175
  372.558    5.483   89.612  417.209
  372.808    5.516   89.550  419.484
  373.058    5.539   92.191  417.067
  373.308    5.593   93.050  411.823
  373.558    5.647   92.620  409.959
  373.808    5.766   91.513  409.887
  374.058    5.887   90.469  408.644
  374.308    5.965   89.240  407.607
  374.558    6.012   88.625  407.744
  374.808    5.971   93.231  408.293
  375.058    5.953   97.039  407.601
  375.308    5.923   99.926  407.461
  375.558    5.926   97.960  407.736
  375.808    5.929   93.721  408.907
  376.058    5.932   89.114  411.457
  376.308    5.914   84.445  406.971
  376.558    5.917   81.742  405.590
  376.808    5.963   85.611  408.002
  377.058    6.167   91.937  411.933
  377.308    6.424   91.384  413.448
  377.558    7.084   87.882  413.792
  377.808    7.783   87.267  416.204
  378.058    8.985   83.152  418.271
  378.308    9.890   78.913  410.336
  378.558   10.379   73.937  397.297
  378.808   10.557   69.452  384.533
  379.058   10.051   66.933  378.392
  379.308    8.975   61.651  379.562
  379.558    7.796   66.871  382.872
  379.808    7.051   72.829  379.835
  380.058    6.568   77.005  374.866
  380.308    6.440   79.400  373.760
  380.558    6.551   77.189  378.035
  380.808    6.506   77.188  382.724
  381.058    6.217   79.829  383.343
  381.308    5.996   79.214  382.859
  381.558    5.815   75.774  384.030
  381.808    5.755   77.002  384.717
  382.058    5.811   82.468  382.646
  382.308    5.899   90.760  384.438
  382.558    6.101   93.647  390.299
  382.808    6.286   93.585  395.195
  383.058    6.406   91.864  401.333
  383.308    6.456   90.021  400.710
  383.558    6.412   86.949  391.671
  383.808    6.299   86.888  397.257
  384.058    6.210   90.634  406.430
  384.308    6.056   90.633  401.255
  384.558    5.927   92.107  400.770
  384.808    5.844   93.949  401.320
  385.058    5.783   94.502  398.972
  385.308    5.764   88.850  397.108
  385.558    5.756   82.707  397.727
  385.808    5.728   81.110  398.553
  386.058    5.731   85.347  394.550
  386.308    5.786   87.128  392.410
  386.558    5.897   84.302  396.478
  386.808    6.009   84.978  400.477
  387.058    6.034   87.311  396.405
  387.308    5.949   87.495  394.127
  387.558    5.866   93.330  397.298
  387.808    5.826   94.251  400.745
  388.058    5.872   92.653  403.917
  388.308    5.951   92.591  405.708
  388.558    6.064   91.362  403.499
  388.808    6.259   89.212  399.289
  389.058    6.532   85.772  392.872
  389.308    6.906   82.086  392.594
  389.558    7.395   78.584  397.766
  389.808    8.035   76.495  392.728
  390.058    8.764   73.239  388.518
  390.308    9.213   69.062  385.964
  390.558    9.633   66.174  375.339
  390.808    9.746   66.174  366.231
  391.058    9.538   64.638  382.992
  391.308    9.081   66.910  397.063
  391.558    8.584   73.912  402.994
  391.808    8.588   80.914  407.545
  392.058    9.146   83.800  402.231
  392.308   10.309   79.992  388.915
  392.558   11.142   73.296  381.187
  392.808   11.374   72.374  382.220
  393.058   10.909   74.585  387.323
  393.308   10.069   71.267  392.288
  393.558    9.091   77.655  397.529
  393.808    8.358   79.313  403.390
  394.058    8.440   79.865  404.492
  394.308    7.861   80.172  401.455
  394.558    7.335   80.233  398.004
  394.808    7.393   81.768  391.449
  395.058    7.744   83.856  392.551
  395.308    8.141   82.996  400.896
  395.558    8.388   78.695  410.000
  395.808    8.439   76.299  411.998
  396.058    8.169   76.606  409.651
  396.308    7.707   76.544  411.581
  396.558    6.907   73.780  413.717
  396.808    6.375   73.779  407.438
  397.058    6.378   78.263  402.607
  397.308    6.595   80.842  403.364
  397.558    7.101   84.220  401.775
  397.808    7.888   84.711  398.876
  398.058    8.715   81.516  394.253
  398.308    9.470   76.663  396.182
  398.558   10.386   71.503  400.457
  398.808   11.079   68.001  384.244
  399.058   12.768   62.718  357.132
  399.308   14.341   58.111  269.590
  399.558   15.671   52.582  235.373
  399.808   15.677   50.248  228.886
  400.058   14.362   49.510  232.954
  400.308   12.453   50.001  245.576
  400.558   10.937   51.720  259.716
  400.808    9.226   56.757  268.958
  401.058    8.044   62.100  283.788
  401.308    7.315   65.478  306.550
  401.558    7.004   68.917  351.250
  401.808    7.583   72.480  380.083
  402.058    8.707   76.594  399.879
  402.308    9.760   76.901  413.398
  402.558   10.902   74.014  420.156
  402.808   12.044   74.320  420.844
  403.058   12.850   77.207  420.153
  403.308   12.370   77.145  418.978
  403.558   10.706   75.793  417.251
  403.808    9.148   79.110  416.422
  404.058    8.304   78.004  413.936
  404.308    7.580   75.177  410.969
  404.558    7.191   78.494  403.654
  404.808    6.759   83.100  394.892
  405.058    6.069   79.046  302.452
  405.308    5.489   70.139  284.997
  405.558    4.983   72.350  326.385
  405.808    4.607   79.413  349.838
  406.058    4.419   84.326  412.128
  406.308    4.277   89.670  410.677
  406.558    4.133   89.915  407.847
  406.808    4.030   86.352  399.774
  407.058    4.003   84.509  398.255
  407.308    4.027   83.771  403.841
  407.558    4.119   82.481  411.703
  407.808    4.174   80.208  419.634
  408.058    4.222   79.040  417.976
  408.308    4.279   78.487  416.871
  408.558    4.353   78.732  416.593
  408.808    4.502   80.943  416.177
  409.058    4.604   85.181  416.244
  409.308    4.735   86.163  416.380
  409.558    4.987   86.408  416.930
  409.808    5.499   88.127  414.928
  410.058    6.635   90.953  404.993
  410.308    7.534   91.996  395.057
  410.558    8.941   88.433  385.742
  410.808   10.456   85.177  379.670
  411.058   11.679   83.211  381.600
  411.308   11.599   77.621  383.943
  411.558   10.243   79.033  387.804
  411.808    9.612   81.736  390.492
  412.058    9.740   80.875  392.284
  412.308   10.165   82.594  394.628
  412.558   10.648   83.638  396.489
  412.808   11.154   82.409  399.108
  413.058   11.578   80.320  402.280
  413.308   11.906   79.091  406.072
  413.558   11.891   79.337  411.796
  413.808   11.177   81.363  396.755
  414.058    9.780   74.115  362.400
  414.308    8.465   65.760  319.490
  414.558    7.899   61.092  302.932
  414.808    7.845   64.347  348.804
  415.058    7.806   68.646  390.951
  415.308    7.753   68.522  402.815
  415.558    7.616   66.864  370.253
  415.808    7.358   65.942  313.477
  416.058    6.891   69.749  321.753
  416.308    6.120   74.909  368.522
  416.558    5.566   76.874  397.562
  416.808    5.437   77.426  404.597
  417.058    5.706   76.259  405.698
  417.308    6.350   74.047  392.383
  417.558    7.184   71.651  338.919
  417.808    8.010   69.623  328.845
  418.058    8.882   68.394  328.568
  418.308    9.235   68.639  315.804
  418.558    9.006   70.666  299.039
  418.808    7.968   72.938  342.980
  419.058    6.758   75.702  367.329
  419.308    6.090   78.466  380.986
  419.558    5.652   80.308  390.228
  419.808    5.352   81.352  395.468
  420.058    5.286   80.675  393.397
  420.308    5.328   79.385  395.602
  420.558    5.369   79.446  395.255
  420.808    5.543   81.165  393.667
  421.058    5.617   82.639  392.286
  421.308    5.437   83.867  390.904
  421.558    5.215   86.017  390.281
  421.808    4.805   91.421  392.832
  422.058    4.377   94.922  398.004
  422.308    4.025   98.116  404.003
  422.558    3.976   97.993  410.762
  422.808    4.007   91.112  422.625
