~VERSION INFORMATION
 VERS.                 2.0:   CWLS LOG ASCII STANDARD -VERSION 2.0
 WRAP.                  NO:   ONE LINE PER DEPTH STEP
~WELL INFORMATION BLOCK
#MNEM.UNIT           DATA                    DESCRIPTION OF MNEMONIC
#---------    -------------------            -------------------------------
# Generated from Intellog Unique Number	CS_77_79/WELL/917
WELL.         ICGR GRAHAM                    : Well_name    - WELL
LOC .         00/08-09-079-05W4/0            : Location     - LOCATION
UWI .         00/08-09-079-05W4/0            : Uwi          - UNIQUE WELL ID
ENTR.         JHS                            : Entered      - ENTERED BY
SRVC.         SCHLUMBERGER                   : Scn          - SERVICE COMPANY
STRT.M        95                             : top_depth    - START DEPTH
STOP.M        330                            : bot_depth    - STOP DEPTH
STEP.M        0.25                           : increment    - STEP LENGTH
 NULL. -999.2500:NULL Value
~CURVE INFORMATION BLOCK
#MNEM UNIT       ERCB CURVE CODE    CURVE DESCRIPTION
#-----------   ------------------   ----------------------------------
DEPT.M        00 001 00 00         : DEPTH        - DEPTH
DPHI.V/V      00 890 00 00         : PHID         - DENSITY POROSITY (LIMESTONE)
NPHI.V/V      00 330 00 00         : PHIN         - NEUTRON POROSITY (LIMESTONE)
GR  .API      00 310 00 00         : GR           - GAMMA RAY
ILD .OHMM     00 120 00 00         : RESD         - DEEP RESISTIVITY (DIL)
RHOB.KG/M3    00 350 00 00         : DENS         - BULK DENSITY
~PARAMETER INFORMATION
#MNEM.UNIT           DATA             DESCRIPTION OF MNEMONIC
#---------         -----------     ------------------------------
GL  .M        510.2                : gl           - GROUND LEVEL ELEVATION
EREF.M        513.2                : kb           - ELEVATION OF DEPTH REFERENCE
DATM.M        513.2                : datum        - DATUM ELEVATION
TDD .M        339                  : tdd          - TOTAL DEPTH DRILLER
RUN .         ONE                  : Run          - RUN NUMBER
ENG .         BILL                 : Engineer     - RECORDING ENGINEER
WIT .         JIM                  : Witness      - WITNESSED BY
MUD .         GEL                  : Mud_type     - MUD TYPE
MATR.         LIMESTONE            : Logunit      - NEUTRON MATRIX
TMAX.C        24                   : BHT          - MAXIMUM RECORDED TEMPERATURE
BHTD.M        339                  : BHTDEP       - MAXIMUM RECORDED TEMPERATURE
MATR.         1                    : LOGUNIT      - NEUTRON MATRIX
RMT .C        25                   : MDTP         - TEMPERATURE OF MUD
NEUT.         1                    : NEUTRON      - NEUTRON TYPE
RESI.         0                    : RESIST       - RESISTIVITY TYPE
RMC .OHMM     0.25                 : RMC          - RESISTIVITY OF MUD CAKE
RMF .OHMM     0.25                 : RMF          - RESISTIVITY OF MUD FILTRATE
SUFT.C        15                   : SUFT         - SURFACE TEMPERATURE
~A  DEPTH     PHID     PHIN       GR     RESD     DENS
# ...
  204.500    0.241    0.524   94.651    5.155    0.000
  204.750    0.237    0.521   92.863    4.697    0.000
  205.000    0.253    0.514   95.951    4.122    0.000
  205.250    0.269    0.563   97.810    3.484    0.000
  205.500    0.288    0.592   98.477    3.000    0.000
  205.750    0.289    0.569   98.507    2.584    0.000
  206.000    0.284    0.562   96.709    2.538    0.000
  206.250    0.277    0.579   94.322    2.589    0.000
  206.500    0.273    0.602   94.351    2.744    0.000
  206.750    0.268    0.593   95.007    2.906    0.000
  207.000    0.260    0.580   96.256    3.079    0.000
  207.250    0.239    0.554   99.344    3.200    0.000
  207.500    0.231    0.554  100.607    3.390    0.000
  207.750    0.235    0.603   98.812    3.727    0.000
  208.000    0.252    0.582   95.193    4.257    0.000
  208.250    0.269    0.540   89.137    5.049    0.000
  208.500    0.269    0.500   89.790    5.767    0.000
  208.750    0.268    0.491   90.436    6.107    0.000
  209.000    0.278    0.481   90.478    6.592    0.000
  209.250    0.278    0.478   89.296    6.984    0.000
  209.500    0.276    0.485   86.906    7.260    0.000
  209.750    0.282    0.480   83.280    7.405    0.000
  210.000    0.266    0.475   81.485    7.846    0.000
  210.250    0.261    0.488   80.915    8.154    0.000
  210.500    0.255    0.499   73.640    8.639    0.000
  210.750    0.227    0.495   68.796    8.981    0.000
  211.000    0.219    0.477   70.665    9.161    0.000
  211.250    0.267    0.468   74.977    9.171    0.000
  211.500    0.296    0.479   76.235    9.355    0.000
  211.750    0.267    0.494   73.836   10.490    0.000
  212.000    0.275    0.497   69.001   11.536    0.000
  212.250    0.280    0.347   61.717   12.449    0.000
  212.500    0.136    0.297   51.389   13.185    0.000
  212.750    0.071    0.270   53.865   13.971    0.000
  213.000    0.079    0.306   64.888   14.248    0.000
  213.250    0.286    0.421   70.412   13.485    0.000
  213.500    0.282    0.421   71.668   13.003    0.000
  213.750    0.271    0.417   71.709   12.536    0.000
  214.000    0.279    0.425   73.580   12.086    0.000
  214.250    0.298    0.444   77.284   11.874    0.000
  214.500    0.301    0.456   78.542   11.666    0.000
  214.750    0.281    0.457   75.525   11.675    0.000
  215.000    0.253    0.470   69.471   11.690    0.000
  215.250    0.253    0.478   67.679   11.703    0.000
  215.500    0.269    0.471   68.334   11.938    0.000
  215.750    0.204    0.445   67.767   12.183    0.000
  216.000    0.177    0.433   67.796   12.196    0.000
  216.250    0.214    0.448   72.716   11.985    0.000
  216.500    0.289    0.463   74.588   11.992    0.000
  216.750    0.254    0.429   72.794   11.781    0.000
  217.000    0.239    0.432   69.788   11.358    0.000
  217.250    0.261    0.453   68.602   10.752    0.000
  217.500    0.295    0.466   69.856   10.559    0.000
  217.750    0.304    0.461   77.822    9.992    0.000
  218.000    0.290    0.459   82.745    9.279    0.000
  218.250    0.279    0.471   82.172    8.777    0.000
  218.500    0.272    0.490   82.212    8.306    0.000
  218.750    0.264    0.483   84.076    8.008    0.000
  219.000    0.258    0.474   87.166    7.579    0.000
  219.250    0.247    0.500   90.258    7.585    0.000
  219.500    0.236    0.486   91.516    7.594    0.000
  219.750    0.233    0.456   92.165    7.461    0.000
  220.000    0.239    0.447   90.377    7.467    0.000
  220.250    0.252    0.467   86.759    7.479    0.000
  220.500    0.277    0.475   83.143    7.210    0.000
  220.750    0.292    0.462   81.344    6.694    0.000
  221.000    0.286    0.453   81.992    6.333    0.000
  221.250    0.257    0.459   87.524    5.770    0.000
  221.500    0.249    0.480   90.614    5.260    0.000
  221.750    0.246    0.517   91.266    5.166    0.000
  222.000    0.239    0.506   88.855    5.370    0.000
  222.250    0.260    0.511   86.461    5.478    0.000
  222.500    0.266    0.506   87.716    5.695    0.000
  222.750    0.259    0.493   93.247    6.033    0.000
  223.000    0.254    0.505   92.677    5.928    0.000
  223.250    0.254    0.513   89.665    5.823    0.000
  223.500    0.258    0.510   87.267    5.511    0.000
  223.750    0.264    0.513   89.136    5.412    0.000
  224.000    0.272    0.520   90.395    5.122    0.000
  224.250    0.259    0.512   91.046    4.755    0.000
  224.500    0.251    0.521   92.909    4.415    0.000
  224.750    0.261    0.558   91.735    4.256    0.000
  225.000    0.286    0.559   89.944    4.262    0.000
  225.250    0.294    0.519   88.761    4.188    0.000
  225.500    0.280    0.503   83.918    3.889    0.000
  225.750    0.266    0.543   80.909    3.749    0.000
  226.000    0.268    0.578   88.275    3.683    0.000
  226.250    0.277    0.505   88.914    3.757    0.000
  226.500    0.279    0.466   88.972    4.133 2233.060
  226.750    0.295    0.440   90.217    4.546 2206.040
  227.000    0.293    0.491   90.862    5.191 2208.310
  227.250    0.270    0.505   89.687    5.929 2248.140
  227.500    0.255    0.479   86.070    6.398 2273.320
  227.750    0.246    0.463   87.320    6.907 2290.160
  228.000    0.250    0.457   91.025    7.048 2281.940
  228.250    0.281    0.441   88.010    7.190 2229.850
  228.500    0.293    0.431   81.954    7.195 2209.110
  228.750    0.272    0.501   79.554    7.206 2244.760
  229.000    0.238    0.488   78.981    7.776 2303.390
  229.250    0.135    0.388   65.606    8.552 2479.020
  229.500    0.032    0.330   61.377    8.562 2654.660
  229.750    0.002    0.278   80.928    8.104 2707.050
  230.000    0.021    0.464  101.092    7.524 2673.740
  230.250    0.252    0.511  105.398    6.985 2279.010
  230.500    0.272    0.498   92.021    6.015 2245.710
  230.750    0.278    0.497   82.304    5.691 2235.400
  231.000    0.268    0.506   81.736    5.386 2252.250
  231.250    0.272    0.513   81.163    5.290 2244.040
  231.500    0.268    0.502   79.380    5.198 2252.570
  231.750    0.263    0.508   80.638    5.106 2261.030
  232.000    0.269    0.531   83.112    4.833 2250.740
  232.250    0.268    0.513   83.152    4.571 2250.870
  232.500    0.273    0.493   81.970    4.578 2242.630
  232.750    0.274    0.508   78.962    4.668 2240.690
  233.000    0.263    0.493   79.003    4.947 2259.630
  233.250    0.271    0.465   79.652    5.239 2247.230
  233.500    0.305    0.450   77.857    5.764 2188.900
  233.750    0.313    0.471   74.251    6.105 2174.390
  234.000    0.312    0.479   73.059    6.347 2176.610
  234.250    0.315    0.467   73.108    6.473 2170.500
  234.500    0.312    0.474   73.747    6.603 2176.920
  234.750    0.301    0.461   74.400    6.367 2195.850
  235.000    0.286    0.442   77.484    5.911 2221.030
  235.250    0.238    0.453   83.014    5.287 2302.660
  235.500    0.221    0.486   83.062    4.727 2332.060
  235.750    0.228    0.504   84.316    4.228 2319.660
  236.000    0.251    0.519   86.189    3.641 2280.110
  236.250    0.268    0.603   83.168    3.195 2250.980
  236.500    0.299    0.591   81.989    2.803 2198.900
  236.750    0.299    0.552   83.255    2.460 2199.060
  237.000    0.295    0.537   81.467    2.328 2205.420
  237.250    0.302    0.555   79.068    2.245 2193.040
  237.500    0.308    0.584   77.883    2.206 2182.750
  237.750    0.309    0.577   77.306    2.207 2180.780
  238.000    0.297    0.561   77.956    2.252 2201.830
  238.250    0.284    0.548   78.003    2.298 2224.930
  238.500    0.276    0.546   79.255    2.344 2237.610
  238.750    0.279    0.574   82.951    2.483 2233.590
  239.000    0.276    0.591   81.160    2.630 2237.880
  239.250    0.261    0.511   82.420    2.893 2263.090
  239.500    0.248    0.490   87.337    3.181 2286.200
  239.750    0.244    0.518   90.431    3.499 2292.620
  240.000    0.249    0.526   89.864    3.997 2284.400
  240.250    0.243    0.487   86.854    4.395 2294.980
  240.500    0.250    0.461   83.848    4.926 2282.620
  240.750    0.255    0.429   83.876    5.627 2274.360
