~VERSION INFORMATION
 VERS.                 2.0:   CWLS LOG ASCII STANDARD -VERSION 2.0
 WRAP.                  NO:   ONE LINE PER DEPTH STEP
~WELL INFORMATION BLOCK
#MNEM.UNIT           DATA                    DESCRIPTION OF MNEMONIC
#---------    -------------------            -------------------------------
# Generated from Intellog Unique Number	CS_69_70/WELL/2885
NULL.         -999.25                        : NULL_VALUE
WELL.         AEC KIRBY                      : Well_name    - WELL              
LOC .         00/08-33-070-04W4/0            : Location     - LOCATION          
UWI .         00/08-33-070-04W4/0            : Uwi          - UNIQUE WELL ID    
ENTR.         TIM                            : Entered      - ENTERED BY        
SRVC.         SCHLUMBERGER                   : Scn          - SERVICE COMPANY   
DATE.         01/30/92                       : Date         - LOG DATE          
STRT.M        285                            : top_depth    - START DEPTH       
STOP.M        485                            : bot_depth    - STOP DEPTH        
STEP.M        0.25                           : increment    - STEP LENGTH       
~CURVE INFORMATION BLOCK
#MNEM UNIT       ERCB CURVE CODE    CURVE DESCRIPTION
#-----------   ------------------   ----------------------------------
DEPT.M        00 001 00 00         : DEPTH        - DEPTH                       
GR  .API      00 310 00 00         : GR           - GAMMA RAY                   
ILD .OHMM     00 120 00 00         : RESD         - DEEP RESISTIVITY (DIL)      
DPHI.V/V      00 890 00 00         : PHID         - DENSITY POROSITY (SANDSTONE)
NPHI.V/V      00 330 00 00         : PHIN         - NEUTRON POROSITY (SANDSTONE)
~PARAMETER INFORMATION       
#MNEM.UNIT           DATA             DESCRIPTION OF MNEMONIC
#---------         -----------     ------------------------------
GL  .M        660.7                : gl           - GROUND LEVEL ELEVATION      
EREF.M        664.3                : kb           - ELEVATION OF DEPTH REFERENCE
DATM.M        664.3                : datum        - DATUM ELEVATION             
TDD .M        497                  : tdd          - TOTAL DEPTH DRILLER         
RUN .         ONE                  : Run          - RUN NUMBER                  
ENG .         JO                   : Engineer     - RECORDING ENGINEER          
WIT .         TIM                  : Witness      - WITNESSED BY                
MUD .         GEL                  : Mud_type     - MUD TYPE                    
MATR.         SANDSTONE            : Logunit      - NEUTRON MATRIX              
TMAX.C        23                   : BHT          - MAXIMUM RECORDED TEMPERATURE
BHTD.M        497                  : BHTDEP       - MAXIMUM RECORDED TEMPERATURE
RMT .C        17                   : MDTP         - TEMPERATURE OF MUD          
MUDD.KG/M     1090                 : MWT          - MUD DENSITY                 
NEUT.         1                    : NEUTRON      - NEUTRON TYPE                
RESI.         0                    : RESIST       - RESISTIVITY TYPE            
RM  .OHMM     6.4                  : RM           - RESISTIVITY OF MUD          
RMC .OHMM     5.6                  : RMC          - RESISTIVITY OF MUD CAKE     
RMF .OHMM     4.9                  : RMF          - RESISTIVITY OF MUD FILTRATE 
SUFT.C        4                    : SUFT         - SURFACE TEMPERATURE         
~A  DEPTH       GR     RESD     PHID     PHIN
# ...
  372.000   59.985    2.334    0.360    0.439
  372.250   57.549    2.291    0.357    0.436
  372.500   56.337    2.249    0.355    0.439
  372.750   55.739    2.208    0.355    0.443
  373.000   55.752    2.208    0.354    0.445
  373.250   56.387    2.209    0.351    0.449
  373.500   57.633    2.252    0.350    0.454
  373.750   60.107    2.339    0.351    0.456
  374.000   63.818    2.430    0.351    0.455
  374.250   65.055    2.477    0.351    0.454
  374.500   66.301    2.478    0.350    0.460
  374.750   66.318    2.479    0.342    0.467
  375.000   64.496    2.480    0.340    0.463
  375.250   63.279    2.389    0.342    0.449
  375.500   60.839    2.389    0.336    0.443
  375.750   59.012    2.345    0.335    0.440
  376.000   57.190    2.303    0.340    0.438
  376.250   55.974    2.303    0.343    0.440
  376.500   59.677    2.304    0.364    0.519
  376.750   75.057    2.349    0.444    0.567
  377.000   78.764    2.394    0.461    0.588
  377.250   80.010    2.440    0.382    0.485
  377.500   81.874    2.535    0.270    0.477
  377.750   83.111    2.584    0.298    0.479
  378.000   84.971    2.951    0.303    0.480
  378.250   86.216    3.369    0.305    0.483
  378.500   86.852    3.499    0.295    0.490
  378.750   86.250    3.635    0.288    0.500
  379.000   85.042    3.706    0.283    0.501
  379.250   85.055    3.778    0.281    0.490
  379.500   85.080    3.851    0.276    0.482
  379.750   85.092    3.852    0.267    0.486
  380.000   85.105    4.002    0.296    0.490
  380.250   85.744    4.080    0.334    0.497
  380.500   83.918    4.081    0.356    0.501
  380.750   82.706    4.160    0.361    0.509
  381.000   85.180    4.241    0.328    0.535
  381.250   87.650    4.242    0.340    0.514
  381.500   91.358    4.244    0.304    0.492
  381.750   91.374    4.166    0.284    0.477
  382.000   90.162    4.167    0.262    0.473
  382.250   90.179    4.091    0.254    0.472
  382.500   92.039    3.940    0.251    0.497
  382.750   95.127    3.586    0.247    0.530
  383.000   98.835    3.326    0.242    0.538
  383.250   99.457    3.028    0.242    0.542
  383.500  101.317    2.756    0.243    0.555
  383.750  103.796    2.508    0.244    0.564
  384.000  105.045    2.283    0.244    0.523
  384.250  105.058    2.118    0.244    0.505
  384.500  106.308    1.965    0.244    0.532
  384.750  106.939    2.119    0.244    0.537
  385.000  107.570    2.420    0.246    0.543
  385.250  107.587    2.561    0.247    0.537
  385.500  105.760    2.661    0.248    0.534
  385.750  104.544    2.662    0.248    0.537
  386.000  102.104    2.564    0.250    0.546
  386.250   98.434    2.565    0.251    0.548
  386.500   95.993    2.518    0.253    0.550
  386.750  100.925    2.716    0.255    0.561
  387.000  103.408    2.821    0.265    0.585
  387.250  102.187    3.044    0.294    0.587
  387.500   99.132    3.284    0.310    0.563
  387.750   95.463    3.476    0.327    0.550
  388.000   89.954    3.680    0.337    0.534
  388.250   86.895    3.823    0.304    0.500
  388.500   83.840    4.047    0.341    0.518
  388.750   81.399    4.204    0.370    0.519
  389.000   82.030    4.451    0.387    0.488
  389.250   83.894    4.713    0.322    0.465
  389.500   86.369    4.895    0.289    0.468
  389.750   88.233    4.895    0.285    0.476
  390.000   88.864    4.457    0.299    0.463
  390.250   88.266    4.375    0.304    0.456
  390.500   85.207    4.460    0.300    0.450
  390.750   81.538    4.633    0.285    0.444
  391.000   76.648    4.813    0.252    0.437
  391.250   74.813    5.000    0.224    0.448
  391.500   72.372    5.293    0.215    0.456
  391.750   74.847    5.710    0.212    0.456
  392.000   77.935    6.045    0.215    0.456
  392.250   77.956    6.400    0.251    0.456
  392.500   77.359    6.775    0.295    0.450
  392.750   76.147    7.172    0.309    0.423
  393.000   74.316    7.886    0.325    0.407
  393.250   73.104    8.038    0.339    0.390
  393.500   73.121    8.351    0.358    0.385
  393.750   73.756    8.513    0.361    0.385
  394.000   74.387    8.516    0.357    0.390
  394.250   73.790    8.359    0.354    0.396
  394.500   73.806    8.205    0.352    0.424
  394.750   73.823    8.054    0.345    0.441
  395.000   72.615    7.614    0.324    0.450
  395.250   70.789    7.474    0.299    0.458
  395.500   70.191    7.198    0.291    0.468
  395.750   73.280    6.934    0.289    0.480
  396.000   76.369    6.555    0.287    0.496
  396.250   80.072    6.313    0.282    0.521
  396.500   81.317    6.197    0.275    0.495
  396.750   83.177    5.969    0.265    0.453
  397.000   85.647    5.538    0.257    0.462
  397.250   89.969    5.436    0.260    0.478
  397.500   90.600    5.335    0.266    0.486
  397.750   89.388    5.237    0.270    0.484
  398.000   87.561    5.141    0.267    0.480
  398.250   90.650    5.046    0.261    0.487
  398.500   91.895    4.862    0.255    0.523
  398.750   91.912    4.863    0.260    0.551
  399.000   91.929    4.596    0.274    0.578
  399.250   92.560    4.029    0.278    0.592
  399.500   98.721    3.465    0.268    0.612
  399.750   98.737    2.980    0.273    0.601
  400.000   97.529    2.662    0.279    0.565
  400.250   97.546    2.613    0.286    0.567
  400.500  100.025    2.614    0.277    0.574
  400.750  101.262    2.665    0.262    0.565
  401.000  101.893    2.665    0.250    0.565
  401.250  101.304    2.769    0.250    0.571
  401.500  100.702    2.822    0.256    0.560
  401.750  100.719    3.045    0.265    0.541
  402.000  100.121    3.224    0.292    0.508
  402.250   96.452    3.478    0.304    0.467
  402.500   89.715    3.681    0.314    0.424
  402.750   84.198    4.047    0.319    0.430
  403.000   80.532    4.450    0.324    0.440
  403.250   79.320    4.986    0.321    0.449
  403.500   78.719    5.378    0.313    0.451
  403.750   75.672    6.257    0.285    0.456
  404.000   73.841    7.279    0.193    0.462
  404.250   70.176    9.134    0.150    0.455
  404.500   68.341   11.038    0.108    0.341
  404.750   65.901   12.602    0.074    0.354
  405.000   67.146   13.854    0.096    0.396
  405.250   72.692   12.850    0.156    0.437
  405.500   77.014   11.696    0.222    0.450
  405.750   78.259   10.446    0.272    0.450
  406.000   78.276    8.817    0.304    0.450
  406.250   78.293    7.876    0.309    0.454
  406.500   77.695    7.443    0.312    0.460
  406.750   78.326    6.775    0.276    0.458
  407.000   80.805    6.284    0.271    0.453
  407.250   80.212    6.168    0.278    0.447
  407.500   78.995    5.832    0.288    0.444
  407.750   77.783    5.723    0.293    0.444
  408.000   77.186    5.618    0.289    0.441
  408.250   78.427    5.515    0.278    0.437
  408.500   80.901    5.517    0.278    0.444
  408.750   81.537    5.519    0.284    0.455
  409.000   78.477    5.520    0.295    0.483
  409.250   75.431    5.523    0.305    0.498
  409.500   74.825    5.524    0.312    0.500
  409.750   79.146    5.526    0.307    0.499
  410.000   81.010    5.633    0.284    0.492
  410.250   81.637    5.636    0.270    0.458
  410.500   82.272    5.744    0.257    0.447
  410.750   79.832    5.856    0.251    0.439
  411.000   78.624    5.970    0.245    0.443
  411.250   80.480    6.202    0.163    0.450
  411.500   78.035    6.565    0.156    0.445
  411.750   76.208    6.951    0.199    0.438
  412.000   76.840    7.219    0.240    0.432
  412.250   78.085    7.788    0.286    0.423
  412.500   77.487    8.562    0.330    0.408
  412.750   74.432    9.777    0.321    0.392
  413.000   71.377   10.547    0.314    0.373
  413.250   70.169   10.752    0.327    0.364
  413.500   72.644    9.973    0.308    0.406
  413.750   76.957    9.077    0.253    0.434
  414.000   82.503    8.419    0.239    0.441
  414.250   84.363    7.519    0.227    0.458
  414.500   82.541    6.468    0.210    0.472
  414.750   77.638    6.114    0.119    0.329
  415.000   81.960    6.001    0.135    0.359
  415.250   93.654    6.003    0.169    0.383
