~VERSION INFORMATION
 VERS.                 2.0:   CWLS LOG ASCII STANDARD -VERSION 2.0
 WRAP.                  NO:   ONE LINE PER DEPTH STEP
~WELL INFORMATION BLOCK
#MNEM.UNIT           DATA                    DESCRIPTION OF MNEMONIC
#---------    -------------------            -------------------------------
# Generated from Intellog Unique Number	CS_71_72/WELL/840
WELL.         MAYNARD ET AL TWEEDIE          : Well_name    - WELL
LOC .         00/09-13-072-12W4/0            : Location     - LOCATION
UWI .         00/09-13-072-12W4/0            : Uwi          - UNIQUE WELL ID
ENTR.         SP                             : Entered      - ENTERED BY
SRVC.         SCHLUMBERGER                   : Scn          - SERVICE COMPANY
STRT.M        290                            : top_depth    - START DEPTH
STOP.M        525                            : bot_depth    - STOP DEPTH
STEP.M        0.25                           : increment    - STEP LENGTH
 NULL. -999.2500:NULL Value
~CURVE INFORMATION BLOCK
#MNEM UNIT       ERCB CURVE CODE    CURVE DESCRIPTION
#-----------   ------------------   ----------------------------------
DEPT.M        00 001 00 00         : DEPTH        - DEPTH
GR  .API      00 310 00 00         : GR           - GAMMA RAY
NPHI.V/V      00 330 00 00         : PHIN         - NEUTRON POROSITY (LIMESTONE)
DPHI.V/V      00 890 00 00         : PHID         - DENSITY POROSITY (LIMESTONE)
ILD .OHMM     00 120 00 00         : RESD         - DEEP RESISTIVITY (DIL)
~PARAMETER INFORMATION
#MNEM.UNIT           DATA             DESCRIPTION OF MNEMONIC
#---------         -----------     ------------------------------
GL  .M        639.4                : gl           - GROUND LEVEL ELEVATION
EREF.M        642.75               : kb           - ELEVATION OF DEPTH REFERENCE
DATM.M        639.4                : datum        - DATUM ELEVATION
TDD .M        540                  : tdd          - TOTAL DEPTH DRILLER
RUN .         ONE                  : Run          - RUN NUMBER
ENG .         BILL                 : Engineer     - RECORDING ENGINEER
WIT .         JIM                  : Witness      - WITNESSED BY
MUD .         GEL                  : Mud_type     - MUD TYPE
MATR.         LIMESTONE            : Logunit      - NEUTRON MATRIX
TMAX.C        10                   : BHT          - MAXIMUM RECORDED TEMPERATURE
BHTD.M        540                  : BHTDEP       - MAXIMUM RECORDED TEMPERATURE
MATR.         1                    : LOGUNIT      - NEUTRON MATRIX
RMT .C        25                   : MDTP         - TEMPERATURE OF MUD
NEUT.         1                    : NEUTRON      - NEUTRON TYPE
RESI.         0                    : RESIST       - RESISTIVITY TYPE
RMC .OHMM     0.25                 : RMC          - RESISTIVITY OF MUD CAKE
RMF .OHMM     0.25                 : RMF          - RESISTIVITY OF MUD FILTRATE
SUFT.C        15                   : SUFT         - SURFACE TEMPERATURE
~A  DEPTH       GR     PHIN     PHID     RESD
# ...
  333.500  103.598    0.459    0.351    6.944
  333.750  112.053    0.472    0.351    6.864
  334.000  117.493    0.488    0.354    6.785
  334.250  121.119    0.494    0.332    6.785
  334.500  123.544    0.478    0.326    7.027
  334.750  113.322    0.463    0.320    7.188
  335.000  104.908    0.451    0.320    7.590
  335.250  100.705    0.442    0.328    7.832
  335.500   95.298    0.434    0.326    8.154
  335.750   94.115    0.430    0.329    8.396
  336.000   99.552    0.434    0.320    8.477
  336.250  104.989    0.438    0.310    8.397
  336.500  111.034    0.434    0.294    8.317
  336.750  114.667    0.432    0.274    7.997
  337.000  117.091    0.446    0.266    7.837
  337.250  119.518    0.452    0.264    7.115
  337.500  120.744    0.457    0.264    6.633
  337.750  120.762    0.465    0.263    6.232
  338.000  120.172    0.450    0.259    5.430
  338.250  119.591    0.450    0.264    4.948
  338.500  118.399    0.465    0.265    4.548
  338.750  113.596    0.485    0.255    4.468
  339.000  111.205    0.506    0.254    4.629
  339.250  114.240    0.529    0.262    4.710
  339.500  115.459    0.539    0.266    5.113
  339.750  116.080    0.519    0.259    5.354
  340.000  112.480    0.511    0.257    5.917
  340.250  111.893    0.496    0.263    6.078
  340.500  111.911    0.481    0.277    6.561
  340.750  110.122    0.473    0.290    6.883
  341.000  109.536    0.470    0.295    7.044
  341.250  110.152    0.473    0.295    6.965
  341.500  113.184    0.473    0.307    6.725
  341.750  116.213    0.470    0.295    6.725
  342.000  119.850    0.464    0.291    6.726
  342.250  121.667    0.459    0.289    6.727
  342.500  123.494    0.458    0.285    6.807
  342.750  122.912    0.462    0.280    7.049
  343.000  124.141    0.465    0.275    7.210
  343.250  124.151    0.453    0.272    7.371
  343.500  124.163    0.448    0.264    7.452
  343.750  116.350    0.443    0.263    7.132
  344.000  112.751    0.455    0.274    6.892
  344.250  115.178    0.460    0.286    6.571
  344.500  119.421    0.462    0.296    6.491
  344.750  120.031    0.454    0.308    6.412
  345.000  117.037    0.443    0.293    6.412
  345.250  111.635    0.440    0.287    6.734
  345.500  108.038    0.446    0.287    7.137
  345.750  104.438    0.456    0.295    7.539
  346.000  101.445    0.462    0.295    7.781
  346.250   99.654    0.461    0.286    8.103
  346.500   98.468    0.457    0.272    8.344
  346.750   97.283    0.455    0.270    8.666
  347.000   96.094    0.448    0.275    8.426
  347.250   97.915    0.446    0.282    7.784
  347.500  100.945    0.453    0.290    7.142
  347.750  105.180    0.457    0.299    6.902
  348.000  111.826    0.462    0.295    6.661
  348.250  114.248    0.468    0.291    6.582
  348.500  111.861    0.477    0.286    6.743
  348.750  106.463    0.486    0.308    6.904
  349.000  104.665    0.496    0.315    7.146
  349.250  102.872    0.504    0.326    7.468
  349.500  102.889    0.513    0.324    7.629
  349.750  105.918    0.519    0.315    7.871
  350.000  108.949    0.499    0.314    8.353
  350.250  105.353    0.465    0.324    8.836
  350.500   99.345    0.442    0.331    9.399
  350.750   95.144    0.442    0.343    9.721
  351.000   89.737    0.446    0.355    9.962
  351.250   93.383    0.452    0.366    9.883
  351.500   94.001    0.445    0.357    9.723
  351.750   94.617    0.438    0.351    9.563
  352.000   95.233    0.436    0.343    9.483
  352.250   95.858    0.431    0.332    9.404
  352.500   96.470    0.432    0.326    9.404
  352.750   95.885    0.436    0.321    9.405
  353.000   94.096    0.436    0.339    9.486
  353.250   88.693    0.439    0.343    9.486
  353.500   85.099    0.443    0.347    9.568
  353.750   83.909    0.443    0.353    9.568
  354.000   82.719    0.431    0.339    9.569
  354.250   83.336    0.421    0.339    9.650
  354.500   85.762    0.417    0.345    9.651
  354.750   90.605    0.406    0.333    9.651
  355.000   93.627    0.403    0.317    9.492
  355.250   98.468    0.421    0.287    9.412
  355.500   99.687    0.429    0.286    9.252
  355.750   99.101    0.438    0.290    9.092
  356.000   98.516    0.452    0.293    9.012
  356.250   99.139    0.460    0.296    8.932
  356.500   99.760    0.453    0.299    9.014
  356.750  100.384    0.448    0.303    9.014
  357.000  100.392    0.437    0.324    9.015
  357.250   99.206    0.430    0.330    8.935
  357.500   96.214    0.425    0.323    8.775
  357.750   95.024    0.417    0.330    8.776
  358.000   94.439    0.412    0.319    8.777
  358.250   93.853    0.413    0.313    8.857
  358.500   92.668    0.414    0.319    9.019
  358.750   91.482    0.414    0.329    9.180
  359.000   90.894    0.408    0.343    9.341
  359.250   90.909    0.406    0.321    9.583
  359.500   92.133    0.409    0.318    9.744
  359.750   93.353    0.414    0.313    9.826
  360.000   90.357    0.416    0.316    9.906
  360.250   84.353    0.420    0.343    9.827
  360.500   81.959    0.422    0.357    9.827
  360.750   79.568    0.425    0.373    9.587
  361.000   79.587    0.428    0.373    9.347
  361.250   80.208    0.430    0.362    9.187
  361.500   79.621    0.432    0.364    9.027
  361.750   78.428    0.436    0.376    8.947
  362.000   79.049    0.440    0.391    8.707
  362.250   81.480    0.444    0.384    8.547
  362.500   85.113    0.446    0.345    8.387
  362.750   88.748    0.448    0.314    8.227
  363.000   89.362    0.450    0.306    8.147
  363.250   90.584    0.450    0.315    7.987
  363.500   90.604    0.449    0.321    7.988
  363.750   90.013    0.449    0.329    8.149
  364.000   86.419    0.445    0.333    8.311
  364.250   84.629    0.445    0.330    8.391
  364.500   84.046    0.456    0.320    8.553
  364.750   84.057    0.462    0.312    8.714
  365.000   87.690    0.467    0.304    8.715
  365.250   96.150    0.462    0.305    8.957
  365.500   98.568    0.447    0.318    9.118
  365.750  102.800    0.433    0.323    9.520
  366.000   94.384    0.427    0.353    9.922
  366.250   81.152    0.418    0.358   10.405
  366.500   66.707    0.407    0.367   10.646
  366.750   59.496    0.402    0.371   10.888
  367.000   60.117    0.408    0.366   10.969
  367.250   63.156    0.418    0.368   10.649
  367.500   64.985    0.426    0.373   10.649
  367.750   64.993    0.430    0.378   10.730
  368.000   65.608    0.440    0.386   10.892
  368.250   65.628    0.431    0.388   10.973
  368.500   66.246    0.424    0.379   11.375
  368.750   65.061    0.413    0.375   11.537
  369.000   62.670    0.409    0.371   11.617
  369.250   61.478    0.401    0.365   11.778
  369.500   58.492    0.391    0.360   11.779
  369.750   57.300    0.381    0.360   11.780
  370.000   56.105    0.375    0.364   11.540
  370.250   53.717    0.385    0.367   11.379
  370.500   53.733    0.398    0.369   11.059
  370.750   57.967    0.405    0.375   10.980
  371.000   62.804    0.420    0.378   10.820
  371.250   67.644    0.434    0.357   10.740
  371.500   69.464    0.441    0.367   10.580
  371.750   67.675    0.445    0.353   10.500
  372.000   64.082    0.443    0.357   10.501
  372.250   62.292    0.434    0.360   10.501
  372.500   61.704    0.427    0.368   10.502
  372.750   62.320    0.418    0.368   10.422
  373.000   64.753    0.409    0.366   10.504
  373.250   66.572    0.404    0.364   10.584
  373.500   67.192    0.406    0.359   10.665
  373.750   66.011    0.412    0.354   10.988
  374.000   64.818    0.418    0.352   11.149
  374.250   64.228    0.418    0.351   11.310
  374.500   61.236    0.419    0.352   11.230
  374.750   58.848    0.419    0.357   11.150
  375.000   58.257    0.419    0.356   11.071
  375.250   57.675    0.417    0.370   10.750
  375.500   58.293    0.410    0.373   10.189
  375.750   57.708    0.402    0.366   10.029
  376.000   57.721    0.396    0.370    9.869
  376.250   58.346    0.382    0.358    9.789
  376.500   60.772    0.384    0.361    9.870
  376.750   62.592    0.402    0.374   10.272
