~VERSION INFORMATION
 VERS.                 2.0:   CWLS LOG ASCII STANDARD -VERSION 2.0
 WRAP.                  NO:   ONE LINE PER DEPTH STEP
~WELL INFORMATION BLOCK
#MNEM.UNIT           DATA                    DESCRIPTION OF MNEMONIC
#---------    -------------------            -------------------------------
# Generated from Intellog Unique Number	CW_82_90/WELL/3427
WELL.         TEXEX CORN                     : Well_name    - WELL
LOC .         00/07-14-089-25W4/0            : Location     - LOCATION
UWI .         00/07-14-089-25W4/0            : Uwi          - UNIQUE WELL ID
ENTR.         MAX                            : Entered      - ENTERED BY
SRVC.         SCHLUMBERGER                   : Scn          - SERVICE COMPANY
STRT.M        167.64                         : top_depth    - START DEPTH
STOP.M        337.14                         : bot_depth    - STOP DEPTH
STEP.M        0.25                           : increment    - STEP LENGTH
 NULL. -999.2500:NULL Value
~CURVE INFORMATION BLOCK
#MNEM UNIT       ERCB CURVE CODE    CURVE DESCRIPTION
#-----------   ------------------   ----------------------------------
DEPT.M        00 001 00 00         : DEPTH        - DEPTH
ILD .OHMM     00 120 00 00         : RESD         - DEEP RESISTIVITY (DIL)
NPHI.V/V      00 330 00 00         : PHIN         - NEUTRON POROSITY (SANDSTONE)
DPHI.V/V      00 890 00 00         : PHID         - DENSITY POROSITY (SANDSTONE)
CALI.MM       00 280 01 00         : CAL          - CALIPER
GR  .API      00 310 00 00         : GR           - GAMMA RAY
~PARAMETER INFORMATION
#MNEM.UNIT           DATA             DESCRIPTION OF MNEMONIC
#---------         -----------     ------------------------------
GL  .M        597.713              : gl           - GROUND LEVEL ELEVATION
EREF.M        601.066              : kb           - ELEVATION OF DEPTH REFERENCE
DATM.M        597.713              : datum        - DATUM ELEVATION
TDD .M        338.633              : tdd          - TOTAL DEPTH DRILLER
RUN .         ONE                  : Run          - RUN NUMBER
ENG .         BILL                 : Engineer     - RECORDING ENGINEER
WIT .         JIM                  : Witness      - WITNESSED BY
MUD .         GEL                  : Mud_type     - MUD TYPE
MATR.         SANDSTONE            : Logunit      - NEUTRON MATRIX
TMAX.C        22.7778              : BHT          - MAXIMUM RECORDED TEMPERATURE
BHTD.M        338.633              : BHTDEP       - MAXIMUM RECORDED TEMPERATURE
MATR.         1                    : LOGUNIT      - NEUTRON MATRIX
RMT .C        17.7778              : MDTP         - TEMPERATURE OF MUD
NEUT.         1                    : NEUTRON      - NEUTRON TYPE
RESI.         0                    : RESIST       - RESISTIVITY TYPE
RMC .OHMM     4.42                 : RMC          - RESISTIVITY OF MUD CAKE
RMF .OHMM     2.42                 : RMF          - RESISTIVITY OF MUD FILTRATE
SUFT.C        -26.1111             : SUFT         - SURFACE TEMPERATURE
~A  DEPTH     RESD     PHIN     PHID      CAL       GR
# ...
  204.140   20.088    0.431    0.336  214.293   43.944
  204.390   19.895    0.436    0.336  213.252   43.332
  204.640   19.885    0.435    0.349  212.711   43.299
  204.890   19.875    0.430    0.358  212.667   44.154
  205.140   19.865    0.423    0.354  213.618   43.828
  205.390   19.855    0.416    0.352  212.577   43.805
  205.640   19.845    0.422    0.346  214.013   44.949
  205.890   19.835    0.433    0.344  214.464   46.675
  206.140   19.823    0.442    0.350  213.923   48.111
  206.390   19.815    0.440    0.355  214.864   49.255
  206.640   19.805    0.434    0.355  214.819   50.691
  206.890   19.613    0.433    0.350  214.774   51.835
  207.140   19.426    0.429    0.345  215.715   51.224
  207.390   19.416    0.426    0.346  215.670   49.731
  207.640   19.231    0.430    0.346  214.628   48.823
  207.890   19.046    0.438    0.347  214.589   49.967
  208.140   19.035    0.433    0.348  214.043   50.526
  208.390   18.855    0.425    0.349  213.999   50.792
  208.640   18.504    0.416    0.352  212.963   50.177
  208.890   18.495    0.410    0.351  212.417   49.858
  209.140   18.484    0.415    0.337  212.372   50.417
  209.390   18.474    0.417    0.332  212.327   50.972
  209.640   18.298    0.412    0.325  212.277   50.653
  209.890   17.956    0.411    0.314  212.227   50.627
  210.140   17.786    0.415    0.323  213.161   50.593
  210.390   17.615    0.420    0.328  214.614   50.570
  210.640   17.287    0.429    0.332  215.549   50.248
  210.890   17.279    0.431    0.334  215.009   50.218
  211.140   17.114    0.424    0.335  215.459   51.069
  211.390   16.950    0.419    0.321  215.916   52.217
  211.640   16.942    0.426    0.318  215.860   53.939
  211.890   16.932    0.440    0.320  215.820   54.794
  212.140   16.618    0.423    0.323  215.770   56.223
  212.390   16.308    0.427    0.322  215.720   57.952
  212.640   16.006    0.445    0.309  215.680   58.807
  212.890   15.566    0.467    0.318  216.125   60.243
  213.140   15.138    0.464    0.322  216.075   61.673
  213.390   14.586    0.432    0.328  217.522   62.525
  213.640   14.316    0.410    0.332  218.958   63.668
  213.890   14.180    0.406    0.331  218.412   65.105
  214.140   14.434    0.415    0.314  217.376   66.831
  214.390   14.961    0.420    0.313  216.830   70.608
  214.640   15.509    0.430    0.318  216.296   73.510
  214.890   16.226    0.457    0.323  216.245   76.114
  215.140   16.975    0.437    0.344  216.195   79.888
  215.390   16.965    0.434    0.345  216.156   82.498
  215.640   16.055    0.435    0.330  215.599   84.805
  215.890   14.782    0.434    0.319  215.070   86.823
  216.140   12.422    0.432    0.316  214.529   89.144
  216.390   11.231    0.427    0.306  214.974   93.799
  216.640   10.246    0.422    0.274  217.407   96.991
  216.890    9.349    0.418    0.237  218.353  101.057
  217.140    8.528    0.418    0.234  217.306  101.905
  217.390    8.525    0.425    0.229  219.249   99.834
  217.640    8.836    0.420    0.223  219.198   96.583
  217.890    9.244    0.412    0.229  216.676   96.260
  218.140    9.670    0.412    0.242  215.635   97.118
  218.390    9.842    0.407    0.247  215.089  100.889
  218.640    9.839    0.407    0.249  215.044  101.740
  218.890    9.833    0.414    0.246  214.994  101.424
  219.140    9.739    0.423    0.245  215.450  100.517
  219.390    9.559    0.425    0.247  215.405  100.194
  219.640    9.296    0.420    0.240  214.859  100.750
  219.890    9.041    0.419    0.227  214.809  101.604
  220.140    8.712    0.420    0.220  214.764  100.112
  220.390    8.628    0.424    0.210  215.220   96.571
  220.640    8.782    0.434    0.214  216.161   93.619
  220.890    8.859    0.435    0.224  217.101   91.833
  221.140    8.773    0.429    0.257  218.537   92.392
  221.390    8.455    0.426    0.255  220.969   95.584
  221.640    7.106    0.435    0.252  222.906   98.779
  221.890    5.864    0.457    0.241  225.339  101.087
  222.140    4.666    0.472    0.246  227.771  101.645
  222.390    3.957    0.489    0.285  232.185  102.204
  222.640    3.610    0.497    0.260  232.636  103.345
  222.890    3.448    0.520    0.251  232.084  104.199
  223.140    3.353    0.537    0.259  232.040  104.755
  223.390    3.382    0.538    0.254  231.505  104.140
  223.640    3.603    0.538    0.247  227.986  102.068
  223.890    4.205    0.514    0.235  223.483   98.817
  224.140    5.476    0.480    0.264  220.955   94.698
  224.390    6.569    0.466    0.211  218.428   91.450
  224.640    7.667    0.451    0.180  216.401   91.416
  224.890    8.169    0.464    0.256  215.360   94.026
  225.140    8.240    0.464    0.275  214.825   96.045
  225.390    8.235    0.459    0.272  214.763   96.311
  225.640    8.383    0.456    0.268  214.223   96.284
  225.890    8.689    0.457    0.287  214.178   96.255
  226.140    8.765    0.460    0.288  214.139   95.936
  226.390    8.602    0.460    0.283  214.089   92.688
  226.640    8.290    0.459    0.267  214.038   89.739
  226.890    7.844    0.459    0.252  213.999   87.953
  227.140    7.354    0.469    0.245  214.450   88.219
  227.390    7.218    0.479    0.234  214.889   88.775
  227.640    6.956    0.484    0.207  215.841   88.160
  227.890    6.827    0.488    0.184  219.748   89.593
  228.140    6.886    0.488    0.286  222.670   92.203
  228.390    6.946    0.489    0.283  224.118   95.395
  228.640    6.942    0.487    0.260  221.094   98.002
  228.890    7.001    0.480    0.242  220.064   98.557
  229.140    6.999    0.468    0.246  220.515   97.656
  229.390    7.188    0.467    0.247  219.969  101.137
  229.640    7.251    0.454    0.234  214.970  105.792
  229.890    7.585    0.436    0.193  210.461  104.303
  230.140    7.792    0.443    0.157  210.906  104.273
  230.390    7.931    0.448    0.254  216.316  103.661
  230.640    8.073    0.448    0.270  217.262   94.854
  230.890    8.369    0.452    0.287  217.212   84.292
  231.140    8.916    0.461    0.286  216.666   79.291
  231.390    9.327    0.468    0.281  216.120   77.213
  231.640    9.582    0.468    0.273  216.576   76.303
  231.890    9.577    0.454    0.256  215.541   75.698
  232.140    9.485    0.431    0.240  214.499   74.787
  232.390    9.309    0.405    0.205  216.436   76.223
  232.640    8.971    0.429    0.226  215.395   79.711
  232.890    8.804    0.470    0.299  216.831   80.852
  233.140    9.380    0.470    0.308  215.795   79.947
  233.390   10.460    0.452    0.308  214.760   78.747
  233.640   12.433    0.441    0.291  216.195   76.965
  233.890   14.120    0.428    0.275  217.147   75.473
  234.140   15.746    0.409    0.246  216.095   73.684
  234.390   15.595    0.371    0.126  215.560   72.494
  234.640   13.594    0.241    0.048  215.025   70.124
  234.890   10.915    0.248    0.025  215.955   71.853
  235.140    8.764    0.266    0.060  216.912   74.749
  235.390    6.973    0.306    0.104  216.856   79.114
  235.640    6.479    0.365    0.188  217.802   93.132
  235.890    6.656    0.463    0.246  217.757   92.513
  236.140    6.774    0.474    0.281  214.740   88.686
  236.390    6.959    0.479    0.296  214.199   88.949
  236.640    7.213    0.483    0.305  213.654   91.260
  236.890    7.277    0.481    0.311  212.117   90.063
  237.140    7.339    0.480    0.312  210.580   87.696
  237.390    7.336    0.479    0.307  209.550   83.860
  237.640    7.466    0.479    0.298  209.995   82.962
  237.890    7.463    0.480    0.297  210.947   81.759
  238.140    7.527    0.483    0.304  211.887   79.977
  238.390    7.524    0.492    0.311  212.828   79.658
  238.640    6.928    0.521    0.319  213.284   77.580
  238.890    5.665    0.535    0.323  209.270   79.312
  239.140    3.931    0.531    0.312  210.711   86.012
  239.390    3.304    0.523    0.298  225.034   95.345
  239.640    2.959    0.532    0.289  234.397   99.418
  239.890    2.725    0.546    0.278  235.349  102.899
  240.140    2.555    0.559    0.268  235.788  104.924
  240.390    2.462    0.575    0.259  235.254  104.601
