~VERSION INFORMATION
 VERS.                 2.0:   CWLS LOG ASCII STANDARD -VERSION 2.0
 WRAP.                  NO:   ONE LINE PER DEPTH STEP
~WELL INFORMATION BLOCK
#MNEM.UNIT           DATA                    DESCRIPTION OF MNEMONIC
#---------    -------------------            -------------------------------
# Generated from Intellog Unique Number	CS_77_79/WELL/894
WELL.         AMOCO LEISMER                  : Well_name    - WELL
LOC .         00/07-11-078-09W4/0            : Location     - LOCATION
UWI .         00/07-11-078-09W4/0            : Uwi          - UNIQUE WELL ID
ENTR.         JHS                            : Entered      - ENTERED BY
SRVC.         SCHLUMBERGER                   : Scn          - SERVICE COMPANY
STRT.M        167.640                        : top_depth    - START DEPTH
STOP.M        399.140                        : bot_depth    - STOP DEPTH
STEP.M        0.25                           : increment    - STEP LENGTH
 NULL. -999.2500:NULL Value
~CURVE INFORMATION BLOCK
#MNEM UNIT       ERCB CURVE CODE    CURVE DESCRIPTION
#-----------   ------------------   ----------------------------------
DEPT.M        00 001 00 00         : DEPTH        - DEPTH
RHOB.KG/M3    00 350 00 00         : DENS         - BULK DENSITY
GR  .API      00 310 00 00         : GR           - GAMMA RAY
DPHI.V/V      00 890 00 00         : PHID         - DENSITY POROSITY (SANDSTONE)
NPHI.V/V      00 330 00 00         : PHIN         - NEUTRON POROSITY (SANDSTONE)
ILD .OHMM     00 120 00 00         : RESD         - DEEP RESISTIVITY (DIL)
~PARAMETER INFORMATION
#MNEM.UNIT           DATA             DESCRIPTION OF MNEMONIC
#---------         -----------     ------------------------------
GL  .M        597.164              : gl           - GROUND LEVEL ELEVATION
EREF.M        600.669              : kb           - ELEVATION OF DEPTH REFERENCE
DATM.M        600.669              : datum        - DATUM ELEVATION
TDD .M        405.384              : tdd          - TOTAL DEPTH DRILLER
RUN .         ONE                  : Run          - RUN NUMBER
ENG .         BILL                 : Engineer     - RECORDING ENGINEER
WIT .         JIM                  : Witness      - WITNESSED BY
MUD .         GEL                  : Mud_type     - MUD TYPE
MATR.         SANDSTONE            : Logunit      - NEUTRON MATRIX
TMAX.C        21.1111              : BHT          - MAXIMUM RECORDED TEMPERATURE
BHTD.M        405.384              : BHTDEP       - MAXIMUM RECORDED TEMPERATURE
MATR.         1                    : LOGUNIT      - NEUTRON MATRIX
RMT .C        25                   : MDTP         - TEMPERATURE OF MUD
NEUT.         1                    : NEUTRON      - NEUTRON TYPE
RESI.         0                    : RESIST       - RESISTIVITY TYPE
RMC .OHMM     0.25                 : RMC          - RESISTIVITY OF MUD CAKE
RMF .OHMM     0.25                 : RMF          - RESISTIVITY OF MUD FILTRATE
SUFT.C        15                   : SUFT         - SURFACE TEMPERATURE
~A  DEPTH     DENS       GR     PHID     PHIN     RESD
# ...
  204.140    0.000   53.432    0.280    0.429   23.262
  204.390    0.000   52.624    0.307    0.438   22.354
  204.640    0.000   55.297    0.322    0.432   21.401
  204.890    0.000   57.478    0.333    0.421   20.676
  205.140    0.000   59.121    0.336    0.416   20.475
  205.390    0.000   59.026    0.327    0.426   20.511
  205.640    0.000   60.785    0.344    0.426   19.994
  205.890    0.000   62.671    0.322    0.396   19.056
  206.140    0.000   67.421    0.293    0.413   17.283
  206.390    0.000   74.490    0.306    0.397   14.626
  206.640    0.000   81.429    0.290    0.405   13.437
  206.890    0.000   86.041    0.269    0.423   13.412
  207.140    0.000   85.667    0.253    0.423   13.757
  207.390    0.000   81.071    0.259    0.413   14.410
  207.640    0.000   79.450    0.270    0.428   14.768
  207.890    0.000   84.064    0.274    0.442   14.425
  208.140    0.000   89.823    0.262    0.451   13.239
  208.390    0.000   94.623    0.234    0.433   11.388
  208.640    0.000   98.157    0.234    0.430    9.798
  208.890    0.000  105.948    0.247    0.454    7.756
  209.140    0.000  120.060    0.211    0.468    6.486
  209.390    0.000  130.870    0.194    0.482    5.470
  209.640    0.000  128.952    0.178    0.500    5.141
  209.890    0.000  125.148    0.155    0.506    4.975
  210.140    0.000  122.754    0.144    0.499    5.148
  210.390    0.000  119.229    0.133    0.479    5.451
  210.640    0.000  122.712    0.133    0.468    5.917
  210.890    0.000  128.003    0.178    0.461    6.698
  211.140    0.000  122.321    0.227    0.440    7.883
  211.390    0.000  112.095    0.255    0.425    9.567
  211.640    0.000  109.486    0.270    0.432   11.309
  211.890    0.000  113.401    0.283    0.450   13.431
  212.140    0.000  115.028    0.302    0.455   14.271
  212.390    0.000  110.611    0.289    0.434   13.537
  212.640    0.000  103.572    0.265    0.426   12.603
  212.890    0.000  103.618    0.238    0.435   11.714
  213.140    0.000  106.184    0.231    0.450   10.649
  213.390    0.000  108.500    0.238    0.459   10.627
  213.640    0.000  107.212    0.257    0.457   10.816
  213.890    0.000  109.043    0.248    0.423   10.981
  214.140    0.000  107.742    0.248    0.406   11.689
  214.390    0.000  104.463    0.238    0.398   11.862
  214.640    0.000  103.945    0.230    0.401   11.586
  214.890    0.000   99.525    0.201    0.418   11.254
  215.140    0.000   95.996    0.209    0.440   11.036
  215.390    0.000   90.601    0.234    0.453   11.379
  215.640    0.000   83.758    0.242    0.458   12.316
  215.890    0.000   79.738    0.252    0.427   13.634
  216.140    0.000   84.598    0.238    0.412   14.387
  216.390    0.000   92.527    0.208    0.416   14.135
  216.640    0.000   98.411    0.193    0.432   13.399
  216.890    0.000  104.889    0.201    0.445   11.550
  217.140    0.000  107.640    0.241    0.458   10.964
  217.390    0.000  110.134    0.219    0.455    9.833
  217.640    0.000  112.392    0.234    0.463    9.002
  217.890    0.000  114.414    0.224    0.473    7.796
  218.140    0.000  114.575    0.216    0.484    7.258
  218.390    0.000  111.736    0.194    0.494    6.745
  218.640    0.000  106.928    0.199    0.497    6.777
  218.890    0.000   98.778    0.228    0.486    7.110
  219.140    0.000   94.707    0.261    0.468    8.071
  219.390    0.000   90.586    0.267    0.441    9.219
  219.640    0.000   95.192    0.245    0.415   10.215
  219.890    0.000   98.503    0.228    0.420   10.877
  220.140    0.000   99.343    0.212    0.429   10.865
  220.390    0.000  102.408    0.215    0.431   10.077
  220.640    0.000  109.055    0.220    0.444    9.206
  220.890    0.000  115.608    0.220    0.455    8.349
  221.140    0.000  120.266    0.225    0.469    7.538
  221.390    0.000  119.867    0.243    0.459    6.916
  221.640    0.000  114.331    0.252    0.472    6.791
  221.890    0.000  107.830    0.232    0.485    7.016
  222.140    0.000  103.818    0.224    0.504    7.649
  222.390    0.000   96.841    0.238    0.509    9.046
  222.640    0.000   94.734    0.251    0.492   10.304
  222.890    0.000   93.079    0.232    0.477   11.198
  223.140    0.000   92.281    0.229    0.471   11.579
  223.390    0.000   89.386    0.247    0.476   11.069
  223.640    0.000   87.043    0.231    0.486   10.257
  223.890    0.000   95.021    0.221    0.505    9.986
  224.140    0.000   97.694    0.246    0.513    9.810
  224.390    0.000   95.229    0.296    0.523   10.184
  224.640    0.000   91.678    0.302    0.509   11.191
  224.890    0.000   92.140    0.282    0.458   11.632
  225.140    0.000   93.510    0.274    0.466   11.588
  225.390    0.000   95.918    0.250    0.463   11.015
  225.640    0.000   94.505    0.235    0.467   10.559
  225.890    0.000   89.066    0.249    0.494   10.417
  226.140    0.000   76.350    0.309    0.511   11.297
  226.390    0.000   56.347    0.384    0.547   13.266
  226.640    0.000   50.370    0.441    0.596   17.136
  226.890    0.000   52.427    0.407    0.549   20.542
  227.140    0.000   54.794    0.313    0.406   24.086
  227.390    0.000   57.151    0.290    0.421   26.804
  227.640    0.000   56.903    0.293    0.421   27.016
  227.890    0.000   58.067    0.299    0.401   24.896
  228.140    0.000   63.668    0.274    0.402   21.903
  228.390    0.000   66.469    0.276    0.423   20.173
  228.640    0.000   67.217    0.256    0.418   19.456
  228.890    0.000   62.970    0.253    0.412   19.245
  229.140    0.000   60.369    0.243    0.410   18.442
  229.390    0.000   56.278    0.240    0.426   18.478
  229.640    0.000   55.351    0.243    0.425   18.179
  229.890    0.000   57.013    0.246    0.426   18.187
  230.140    0.000   57.927    0.247    0.433   18.182
  230.390    0.000   59.305    0.235    0.430   17.856
  230.640    0.000   61.024    0.240    0.421   17.859
  230.890    0.000   63.912    0.251    0.421   18.228
  231.140    0.000   63.285    0.260    0.424   18.556
  231.390    0.000   57.218    0.261    0.426   19.030
  231.640    0.000   57.303    0.247    0.426   19.612
  231.890    0.000   58.384    0.273    0.431   20.210
  232.140    0.000   57.721    0.286    0.432   20.781
  232.390    0.000   56.180    0.272    0.423   21.085
  232.640    0.000   58.558    0.260    0.409   21.550
  232.890    0.000   61.789    0.263    0.403   22.003
  233.140    0.000   62.959    0.276    0.405   21.934
  233.390    0.000   60.142    0.276    0.410   22.446
  233.640    0.000   58.599    0.283    0.407   22.418
  233.890   -0.000   58.127    0.291    0.399   22.852
  234.140    0.000   56.633    0.287    0.395   22.833
  234.390   -0.000   58.630    0.311    0.399   22.839
  234.640   -0.000   60.993    0.305    0.392   22.893
  234.890   -0.000   60.149    0.286    0.401   22.416
  235.140    0.000   59.298    0.292    0.408   22.061
  235.390    0.000   59.884    0.292    0.394   22.058
  235.640    0.000   62.032    0.292    0.409   22.090
  235.890   -0.000   64.011    0.302    0.408   22.809
  236.140   -0.000   65.773    0.293    0.406   23.515
  236.390   -0.000   66.091    0.281    0.421   24.250
  236.640    0.000   68.923    0.279    0.414   24.677
  236.890    0.000   68.799    0.288    0.401   24.659
  237.140    0.000   66.500    0.299    0.393   24.666
  237.390   -0.000   62.720    0.296    0.389   23.920
  237.640   -0.000   65.064    0.296    0.399   23.194
  237.890    0.000   64.409    0.297    0.414   22.951
  238.140    0.000   61.319    0.290    0.428   22.746
  238.390    0.000   62.225    0.283    0.434   23.001
  238.640   -0.000   63.768    0.284    0.425   23.762
  238.890   -0.000   60.432    0.305    0.414   24.491
  239.140   -0.000   60.191    0.318    0.411   25.219
  239.390    0.000   62.038    0.314    0.417   25.185
  239.640    0.000   64.883    0.326    0.427   25.026
  239.890    0.000   66.126    0.325    0.427   24.779
  240.140   -0.000   65.268    0.315    0.433   25.263
  240.390   -0.000   64.099    0.311    0.441   25.392
