~VERSION INFORMATION
 VERS.                 2.0:   CWLS LOG ASCII STANDARD -VERSION 2.0
 WRAP.                  NO:   ONE LINE PER DEPTH STEP
~WELL INFORMATION BLOCK
#MNEM.UNIT           DATA                    DESCRIPTION OF MNEMONIC
#---------    -------------------            -------------------------------
# Generated from Intellog Unique Number	CS_77_79/WELL/869
WELL.         AMOCO                          : Well_name    - WELL
LOC .         00/06-11-077-09W4/0            : Location     - LOCATION
UWI .         00/06-11-077-09W4/0            : Uwi          - UNIQUE WELL ID
ENTR.         SP                             : Entered      - ENTERED BY
SRVC.         SCHLUMBERGER                   : Scn          - SERVICE COMPANY
STRT.M        228.6                          : top_depth    - START DEPTH
STOP.M        438.6                          : bot_depth    - STOP DEPTH
STEP.M        0.25                           : increment    - STEP LENGTH
 NULL. -999.2500:NULL Value
~CURVE INFORMATION BLOCK
#MNEM UNIT       ERCB CURVE CODE    CURVE DESCRIPTION
#-----------   ------------------   ----------------------------------
DEPT.M        00 001 00 00         : DEPTH        - DEPTH
GR  .API      00 310 00 00         : GR           - GAMMA RAY
DPHI.V/V      00 890 00 00         : PHID         - DENSITY POROSITY (SANDSTONE)
NPHI.V/V      00 330 00 00         : PHIN         - NEUTRON POROSITY (SANDSTONE)
ILD .OHMM     00 120 00 00         : RESD         - DEEP RESISTIVITY (DIL)
~PARAMETER INFORMATION
#MNEM.UNIT           DATA             DESCRIPTION OF MNEMONIC
#---------         -----------     ------------------------------
GL  .M        631.7                : gl           - GROUND LEVEL ELEVATION
EREF.M        635.8                : kb           - ELEVATION OF DEPTH REFERENCE
DATM.M        631.7                : datum        - DATUM ELEVATION
TDD .M        442                  : tdd          - TOTAL DEPTH DRILLER
RUN .         ONE                  : Run          - RUN NUMBER
ENG .         BILL                 : Engineer     - RECORDING ENGINEER
WIT .         JIM                  : Witness      - WITNESSED BY
MUD .         GEL                  : Mud_type     - MUD TYPE
MATR.         SANDSTONE            : Logunit      - NEUTRON MATRIX
TMAX.C        60                   : BHT          - MAXIMUM RECORDED TEMPERATURE
BHTD.M        2072                 : BHTDEP       - MAXIMUM RECORDED TEMPERATURE
MATR.         1                    : LOGUNIT      - NEUTRON MATRIX
RMT .C        25                   : MDTP         - TEMPERATURE OF MUD
NEUT.         1                    : NEUTRON      - NEUTRON TYPE
RESI.         0                    : RESIST       - RESISTIVITY TYPE
RMC .OHMM     0.25                 : RMC          - RESISTIVITY OF MUD CAKE
RMF .OHMM     0.25                 : RMF          - RESISTIVITY OF MUD FILTRATE
SUFT.C        15                   : SUFT         - SURFACE TEMPERATURE
~A  DEPTH       GR     PHID     PHIN     RESD
# ...
  315.600   94.255    0.301    0.495    7.198
  315.850   93.039    0.283    0.476    7.134
  316.100   93.975    0.280    0.467    6.909
  316.350   96.406    0.285    0.468    6.792
  316.600   97.376    0.288    0.474    6.707
  316.850   97.347    0.273    0.476    6.563
  317.100   97.408    0.266    0.492    6.613
  317.350   96.731    0.258    0.506    7.143
  317.600   95.580    0.254    0.497    7.865
  317.850   92.504    0.248    0.487    8.534
  318.100   84.121    0.232    0.473    8.841
  318.350   73.274    0.191    0.456    8.961
  318.600   67.446    0.080    0.350    8.904
  318.850   67.593    0.189    0.430    8.449
  319.100   78.335    0.230    0.444    8.104
  319.350   85.396    0.265    0.475    7.459
  319.600   94.641    0.260    0.474    7.197
  319.850   98.270    0.256    0.481    7.190
  320.100   98.493    0.259    0.488    7.350
  320.350  100.816    0.268    0.493    7.337
  320.600  102.155    0.267    0.501    7.334
  320.850  100.657    0.258    0.495    7.303
  321.100  100.769    0.256    0.500    7.206
  321.350  100.758    0.257    0.518    7.262
  321.600  100.763    0.251    0.508    7.677
  321.850   99.894    0.230    0.514    8.160
  322.100   91.025    0.155    0.482    8.432
  322.350   84.336    0.080    0.340    8.500
  322.600   78.613    0.171    0.388    8.500
  322.850   82.602    0.220    0.440    8.444
  323.100   92.573    0.247    0.479    8.177
  323.350   97.268    0.257    0.489    7.312
  323.600   97.111    0.256    0.473    6.868
  323.850   98.847    0.252    0.476    6.591
  324.100  101.480    0.250    0.491    6.400
  324.350  102.513    0.253    0.491    6.236
  324.600  104.646    0.255    0.499    6.136
  324.850  105.339    0.251    0.506    6.143
  325.100  106.018    0.252    0.492    6.008
  325.350  106.017    0.245    0.490    6.024
  325.600  103.823    0.223    0.487    5.809
  325.850  102.991    0.238    0.501    5.583
  326.100  102.913    0.256    0.503    5.177
  326.350  102.382    0.277    0.493    4.857
  326.600   99.944    0.284    0.487    4.091
  326.850   99.610    0.296    0.540    3.532
  327.100  101.127    0.354    0.552    2.945
  327.350   96.527    0.353    0.567    2.472
  327.600   93.728    0.380    0.591    2.232
  327.850   89.504    0.411    0.583    2.167
  328.100   88.165    0.421    0.589    2.313
  328.350   87.324    0.403    0.601    2.538
  328.600   88.062    0.364    0.582    3.062
  328.850   89.826    0.315    0.561    3.719
  329.100   93.982    0.324    0.545    4.640
  329.350   95.022    0.310    0.527    5.794
  329.600   91.768    0.314    0.507    7.400
  329.850   89.892    0.319    0.485    8.830
  330.100   84.986    0.332    0.463    9.700
  330.350   81.884    0.340    0.444   10.357
  330.600   79.310    0.327    0.413   11.136
  330.850   77.758    0.301    0.327   11.413
  331.100   79.548    0.343    0.335   11.876
  331.350   82.942    0.365    0.366   12.419
  331.600   85.363    0.354    0.401   13.153
  331.850   85.111    0.334    0.425   14.270
  332.100   84.653    0.321    0.368   15.113
  332.350   81.060    0.389    0.295   15.581
  332.600   76.917    0.439    0.246   15.619
  332.850   73.482    0.481    0.184   15.627
  333.100   71.695    0.467    0.223   13.774
  333.350   68.251    0.451    0.268   11.348
  333.600   66.454    0.433    0.334    8.767
  333.850   64.088    0.401    0.385    7.767
  334.100   64.003    0.369    0.423    7.357
  334.350   63.474    0.359    0.450    7.136
  334.600   62.991    0.360    0.472    6.880
  334.850   64.066    0.361    0.462    6.658
  335.100   66.678    0.354    0.466    6.759
  335.350   67.161    0.360    0.475    6.746
  335.600   66.834    0.364    0.474    6.888
  335.850   65.948    0.367    0.478    6.882
  336.100   64.396    0.366    0.471    6.882
  336.350   64.487    0.368    0.466    6.886
  336.600   65.094    0.367    0.468    6.754
  336.850   66.033    0.361    0.462    6.770
  337.100   66.833    0.366    0.466    6.650
  337.350   67.489    0.362    0.474    6.716
  337.600   67.426    0.355    0.470    6.764
  337.850   67.395    0.354    0.462    6.768
  338.100   67.098    0.357    0.456    6.769
  338.350   66.736    0.362    0.472    6.769
  338.600   64.178    0.363    0.479    6.770
  338.850   63.375    0.357    0.462    6.769
  339.100   64.419    0.357    0.465    6.769
  339.350   65.070    0.357    0.469    6.643
  339.600   64.323    0.362    0.462    6.651
  339.850   64.351    0.365    0.466    6.653
  340.100   65.143    0.367    0.468    6.654
  340.350   68.358    0.367    0.479    6.655
  340.600   69.608    0.372    0.489    6.656
  340.850   70.064    0.376    0.483    6.657
  341.100   69.037    0.373    0.479    6.654
  341.350   69.164    0.369    0.477    6.762
  341.600   67.509    0.360    0.466    6.779
  341.850   66.573    0.361    0.455    6.782
  342.100   65.372    0.358    0.451    6.879
  342.350   65.048    0.354    0.445    6.900
  342.600   63.657    0.351    0.451    7.041
  342.850   61.867    0.354    0.459    7.177
  343.100   60.535    0.356    0.463    7.164
  343.350   60.668    0.350    0.458    7.298
  343.600   60.886    0.344    0.461    7.303
  343.850   62.603    0.338    0.452    7.307
  344.100   63.505    0.334    0.440    7.309
  344.350   64.223    0.346    0.454    7.310
  344.600   64.112    0.354    0.460    7.311
  344.850   64.056    0.361    0.455    7.312
  345.100   64.570    0.367    0.454    7.309
  345.350   65.957    0.362    0.461    7.308
  345.600   65.498    0.354    0.455    7.287
  345.850   65.304    0.356    0.455    7.205
  346.100   65.903    0.360    0.463    7.318
  346.350   67.615    0.365    0.463    7.334
  346.600   68.990    0.359    0.462    7.174
  346.850   70.011    0.363    0.468    7.191
  347.100   69.699    0.369    0.466    7.265
  347.350   69.379    0.370    0.466    7.340
  347.600   68.413    0.366    0.464    7.456
  347.850   67.099    0.367    0.450    7.676
  348.100   68.127    0.371    0.459    7.738
  348.350   65.877    0.374    0.470    7.737
  348.600   66.004    0.377    0.471    7.691
  348.850   67.019    0.382    0.467    7.602
  349.100   67.583    0.383    0.462    7.687
  349.350   68.406    0.383    0.457    7.931
  349.600   68.760    0.377    0.471    8.172
  349.850   68.074    0.378    0.476    8.848
  350.100   66.681    0.376    0.479    9.733
  350.350   63.594    0.370    0.468   10.329
  350.600   61.834    0.365    0.430   10.978
  350.850   60.850    0.358    0.428   11.376
  351.100   58.815    0.340    0.437   11.609
  351.350   58.029    0.292    0.461   10.429
  351.600   56.704    0.270    0.257    9.281
  351.850   55.095    0.075    0.236    8.740
  352.100   55.029    0.146    0.232    8.425
  352.350   58.469    0.192    0.261    7.765
  352.600   63.200    0.301    0.295    7.449
  352.850   67.427    0.356    0.454    7.161
  353.100   67.520    0.369    0.461    6.727
  353.350   66.474    0.377    0.445    6.592
  353.600   66.248    0.381    0.449    6.457
  353.850   66.210    0.368    0.466    6.480
  354.100   65.930    0.374    0.471    6.342
  354.350   65.579    0.372    0.452    6.356
  354.600   64.935    0.368    0.442    6.263
  354.850   66.002    0.366    0.454    6.203
  355.100   67.991    0.363    0.464    6.129
  355.350   68.634    0.367    0.476    6.141
  355.600   67.804    0.371    0.485    6.008
  355.850   66.187    0.374    0.481    6.020
  356.100   65.811    0.368    0.473    5.955
  356.350   65.562    0.366    0.492    5.912
  356.600   65.498    0.372    0.497    6.003
  356.850   66.449    0.375    0.479    6.446
  357.100   67.466    0.370    0.462    6.770
  357.350   68.601    0.354    0.460    7.698
  357.600   66.513    0.332    0.449    7.976
  357.850   60.510    0.302    0.366    8.224
  358.100   59.899    0.268    0.317    7.877
  358.350   62.310    0.208    0.293    7.463
  358.600   69.005    0.282    0.405    6.983
  358.850   73.769    0.353    0.443    6.531
