~VERSION INFORMATION
 VERS.                 2.0:   CWLS LOG ASCII STANDARD -VERSION 2.0
 WRAP.                  NO:   ONE LINE PER DEPTH STEP
~WELL INFORMATION BLOCK
#MNEM.UNIT           DATA                    DESCRIPTION OF MNEMONIC
#---------    -------------------            -------------------------------
# Generated from Intellog Unique Number	CS_67_68/WELL/2182
WELL.         07-36-067-03W4                 : Well_name    - WELL
LOC .         00/07-36-067-03W4/0            : Location     - LOCATION
UWI .         00/07-36-067-03W4/0            : Uwi          - UNIQUE WELL ID
ENTR.         SP                             : Entered      - ENTERED BY
SRVC.         SCHLUMBERGER                   : Scn          - SERVICE COMPANY
STRT.M        370                            : top_depth    - START DEPTH
STOP.M        616                            : bot_depth    - STOP DEPTH
STEP.M        0.25                           : increment    - STEP LENGTH
 NULL. -999.2500:NULL Value
~CURVE INFORMATION BLOCK
#MNEM UNIT       ERCB CURVE CODE    CURVE DESCRIPTION
#-----------   ------------------   ----------------------------------
DEPT.M        00 001 00 00         : DEPTH        - DEPTH
GR  .API      00 310 00 00         : GR           - GAMMA RAY
DPHI.V/V      00 890 00 00         : PHID         - DENSITY POROSITY (LIMESTONE)
NPHI.V/V      00 330 00 00         : PHIN         - NEUTRON POROSITY (LIMESTONE)
CALI.MM       00 280 01 00         : CAL          - CALIPER
ILD .OHMM     00 120 00 00         : RESD         - DEEP RESISTIVITY (DIL)
~PARAMETER INFORMATION
#MNEM.UNIT           DATA             DESCRIPTION OF MNEMONIC
#---------         -----------     ------------------------------
GL  .M        701.08               : gl           - GROUND LEVEL ELEVATION
EREF.M        704.28               : kb           - ELEVATION OF DEPTH REFERENCE
DATM.M        704.28               : datum        - DATUM ELEVATION
TDD .M        622                  : tdd          - TOTAL DEPTH DRILLER
RUN .         ONE                  : Run          - RUN NUMBER
ENG .         BILL                 : Engineer     - RECORDING ENGINEER
WIT .         JIM                  : Witness      - WITNESSED BY
MUD .         GEL                  : Mud_type     - MUD TYPE
MATR.         LIMESTONE            : Logunit      - NEUTRON MATRIX
TMAX.C        28.8                 : BHT          - MAXIMUM RECORDED TEMPERATURE
BHTD.M        622.2                : BHTDEP       - MAXIMUM RECORDED TEMPERATURE
MATR.         1                    : LOGUNIT      - NEUTRON MATRIX
RMT .C        25                   : MDTP         - TEMPERATURE OF MUD
NEUT.         1                    : NEUTRON      - NEUTRON TYPE
RESI.         0                    : RESIST       - RESISTIVITY TYPE
RMC .OHMM     0.25                 : RMC          - RESISTIVITY OF MUD CAKE
RMF .OHMM     0.25                 : RMF          - RESISTIVITY OF MUD FILTRATE
SUFT.C        15                   : SUFT         - SURFACE TEMPERATURE
~A  DEPTH       GR     PHID     PHIN      CAL     RESD
# ...
  443.000   73.397    0.269    0.418  162.080    7.588
  443.250   73.342    0.287    0.434  160.678    7.458
  443.500   74.012    0.301    0.445  160.484    7.412
  443.750   76.918    0.293    0.454  160.997    7.395
  444.000   72.814    0.284    0.466  161.408    7.405
  444.250   68.042    0.300    0.464  161.819    7.373
  444.500   63.814    0.325    0.451  162.131    7.343
  444.750   61.642    0.340    0.462  162.339    7.298
  445.000   64.066    0.351    0.477  162.349    7.281
  445.250   65.945    0.350    0.486  161.853    7.264
  445.500   66.796    0.346    0.475  161.457    7.206
  445.750   75.810    0.324    0.470  160.761    7.082
  446.000   81.619    0.304    0.465  160.065    6.987
  446.250   86.884    0.283    0.457  159.367    6.867
  446.500   83.867    0.262    0.465  159.074    6.863
  446.750   80.969    0.261    0.479  159.383    6.937
  447.000   78.193    0.267    0.476  160.400    7.238
  447.250   75.236    0.271    0.466  161.415    7.883
  447.500   72.701    0.283    0.463  162.129    8.522
  447.750   69.623    0.303    0.460  162.036    9.599
  448.000   66.120    0.151    0.472  162.245   10.712
  448.250   61.289    0.093    0.435  163.564   11.430
  448.500   58.452    0.075    0.230  165.588   10.985
  448.750   58.215    0.242    0.250  166.099    9.368
  449.000   62.272    0.299    0.380  163.389    8.513
  449.250   65.602    0.329    0.425  161.884    7.851
  449.500   67.722    0.327    0.443  160.381    7.703
  449.750   70.206    0.305    0.443  159.080    7.599
  450.000   68.397    0.283    0.436  158.382    7.567
  450.250   65.621    0.288    0.431  157.989    7.535
  450.500   65.505    0.316    0.425  157.895    7.447
  450.750   68.110    0.317    0.428  158.104    7.373
  451.000   70.231    0.301    0.444  158.416    7.302
  451.250   71.869    0.305    0.457  158.524    7.203
  451.500   72.902    0.319    0.459  159.140    7.160
  451.750   73.390    0.322    0.445  159.551    7.103
  452.000   73.274    0.302    0.444  160.062    7.032
  452.250   72.432    0.290    0.460  160.272    7.016
  452.500   69.233    0.288    0.470  160.379    6.974
  452.750   66.940    0.300    0.471  160.589    6.918
  453.000   66.643    0.308    0.468  161.102    6.889
  453.250   67.192    0.305    0.454  161.815    6.950
  453.500   69.132    0.301    0.452  162.126    7.077
  453.750   66.537    0.299    0.472  161.732    7.234
  454.000   61.644    0.311    0.467  161.135    7.381
  454.250   60.742    0.327    0.467  160.741    7.474
  454.500   63.045    0.335    0.461  160.748    7.512
  454.750   65.468    0.324    0.446  161.059    7.219
  455.000   69.524    0.290    0.447  161.470    6.848
  455.250   72.734    0.266    0.461  161.984    6.569
  455.500   72.074    0.254    0.470  162.393    6.481
  455.750   67.665    0.259    0.460  162.502    6.928
  456.000   63.316    0.266    0.452  161.502    7.862
  456.250   56.430    0.274    0.473  160.402   10.516
  456.500   52.021    0.256    0.152  160.210   12.739
  456.750   48.519    0.018    0.132  160.621   13.721
  457.000   45.863    0.000    0.123  161.233   14.183
  457.250   49.194    0.000    0.119  161.848   13.229
  457.500   54.942    0.006    0.145  162.056   10.469
  457.750   60.933    0.170    0.346  161.561    9.131
  458.000   64.505    0.250    0.405  160.562    7.614
  458.250   66.868    0.286    0.450  159.261    6.945
  458.500   68.808    0.278    0.466  158.866    6.838
  458.750   70.749    0.277    0.473  158.573    6.938
  459.000   71.720    0.270    0.474  158.378    7.198
  459.250   71.604    0.257    0.462  158.386    7.385
  459.500   69.855    0.314    0.466  158.293    7.634
  459.750   65.568    0.342    0.474  157.999    7.891
  460.000   59.043    0.350    0.472  157.707    8.050
  460.250   59.290    0.336    0.467  157.612    8.092
  460.500   61.471    0.329    0.466  157.825    8.042
  460.750   60.207    0.338    0.469  158.033    7.933
  461.000   64.202    0.343    0.472  158.142    7.755
  461.250   69.104    0.324    0.484  158.052    7.466
  461.500   73.764    0.317    0.466  158.059    7.311
  461.750   76.490    0.307    0.446  158.368    7.252
  462.000   74.622    0.292    0.443  158.377    7.262
  462.250   70.878    0.299    0.479  158.182    7.300
  462.500   67.678    0.292    0.470  158.091    7.351
  462.750   66.836    0.279    0.462  158.099    7.293
  463.000   68.655    0.287    0.464  158.210    7.114
  463.250   70.897    0.310    0.474  158.115    6.979
  463.500   72.958    0.323    0.464  158.224    6.770
  463.750   74.232    0.305    0.456  158.232    6.555
  464.000   73.150    0.293    0.472  158.141    6.455
  464.250   69.950    0.278    0.481  158.249    6.451
  464.500   63.304    0.306    0.466  158.259    6.436
  464.750   59.983    0.334    0.456  158.468    6.384
  465.000   68.454    0.349    0.444  158.981    6.381
  465.250   73.537    0.309    0.454  159.492    6.319
  465.500   78.016    0.284    0.462  160.207    6.281
  465.750   80.983    0.265    0.473  160.717    6.278
  466.000   76.031    0.253    0.486  161.935    6.263
  466.250   76.701    0.257    0.467  161.741    6.260
  466.500   79.607    0.264    0.449  161.245    6.221
  466.750   82.635    0.276    0.435  160.952    6.184
  467.000   85.301    0.262    0.428  160.860    6.146
  467.250   82.101    0.254    0.438  160.969    6.120
  467.500   81.078    0.262    0.448  161.079    6.083
  467.750   79.693    0.270    0.459  161.287    5.990
  468.000   73.531    0.277    0.452  161.600    5.953
  468.250   70.634    0.289    0.438  162.112    5.939
  468.500   71.122    0.288    0.424  162.723    5.980
  468.750   71.974    0.275    0.434  163.436    6.033
  469.000   72.402    0.267    0.463  164.050    6.087
  469.250   71.258    0.261    0.451  164.058    6.084
  469.500   68.361    0.269    0.440  163.360    6.081
  469.750   65.222    0.294    0.463  162.058    6.089
  470.000   62.929    0.315    0.454  161.361    6.075
  470.250   62.633    0.323    0.441  161.370    6.037
  470.500   66.205    0.306    0.430  161.579    6.013
  470.750   72.981    0.281    0.422  162.797    5.942
  471.000   77.944    0.266    0.415  164.216    5.873
  471.250   75.410    0.249    0.429  165.636    5.848
  471.500   72.210    0.254    0.445  166.550    5.801
  471.750   69.312    0.244    0.459  165.955    5.799
  472.000   69.499    0.236    0.439  164.956    5.817
  472.250   73.132    0.234    0.420  164.460    5.847
  472.500   76.704    0.228    0.411  164.870    5.856
  472.750   80.336    0.225    0.420  166.289    5.885
  473.000   85.722    0.227    0.431  167.407    5.893
  473.250   90.020    0.232    0.442  168.725    5.879
  473.500   92.806    0.234    0.470  169.841    5.866
  473.750   92.811    0.224    0.495  170.354    5.840
  474.000   89.793    0.217    0.517  170.664    5.837
  474.250   86.352    0.211    0.506  170.776    5.867
  474.500   84.482    0.210    0.486  170.984    5.909
  474.750   85.092    0.223    0.481  171.192    6.073
  475.000   86.972    0.236    0.490  171.403    6.185
  475.250   88.246    0.241    0.454  171.512    6.263
  475.500   89.340    0.230    0.434  172.125    6.260
  475.750   89.828    0.224    0.457  173.240    6.221
  476.000   90.921    0.221    0.474  175.566    6.115
  476.250   92.377    0.219    0.481  176.885    6.055
  476.500   94.195    0.217    0.487  177.699    6.030
  476.750   97.223    0.217    0.484  178.010    6.026
  477.000   92.030    0.226    0.475  178.020    5.990
  477.250   89.858    0.232    0.476  178.026    5.930
  477.500   88.290    0.217    0.466  177.532    5.873
  477.750   87.208    0.214    0.450  176.632    5.794
  478.000   86.547    0.220    0.445  175.129    5.652
  478.250   85.040    0.226    0.457  173.625    5.524
  478.500   81.841    0.239    0.470  172.930    5.460
  478.750   77.674    0.228    0.461  172.635    5.396
  479.000   72.843    0.207    0.473  173.449    5.303
  479.250   66.862    0.225    0.497  173.760    5.261
