~VERSION INFORMATION
 VERS.                 2.0:   CWLS LOG ASCII STANDARD -VERSION 2.0
 WRAP.                  NO:   ONE LINE PER DEPTH STEP
~WELL INFORMATION BLOCK
#MNEM.UNIT           DATA                    DESCRIPTION OF MNEMONIC
#---------    -------------------            -------------------------------
# Generated from Intellog Unique Number	CS_69_70/WELL/771
NULL.         -999.25                        : NULL_VALUE
WELL.         SULPETRO LIMITED               : Well_name    - WELL              
LOC .         00/06-16-070-09W4/0            : Location     - LOCATION          
UWI .         00/06-16-070-09W4/0            : Uwi          - UNIQUE WELL ID    
ENTR.         SP                             : Entered      - ENTERED BY        
SRVC.         SCHLUMBERGER                   : Scn          - SERVICE COMPANY   
STRT.M        260                            : top_depth    - START DEPTH       
STOP.M        480                            : bot_depth    - STOP DEPTH        
STEP.M        0.25                           : increment    - STEP LENGTH       
~CURVE INFORMATION BLOCK
#MNEM UNIT       ERCB CURVE CODE    CURVE DESCRIPTION
#-----------   ------------------   ----------------------------------
DEPT.M        00 001 00 00         : DEPTH        - DEPTH                       
ILD .OHMM     00 120 00 00         : RESD         - DEEP RESISTIVITY (DIL)      
DPHI.V/V      00 890 00 00         : PHID         - DENSITY POROSITY (LIMESTONE)
NPHI.V/V      00 330 00 00         : PHIN         - NEUTRON POROSITY (LIMESTONE)
GR  .API      00 310 00 00         : GR           - GAMMA RAY                   
~PARAMETER INFORMATION       
#MNEM.UNIT           DATA             DESCRIPTION OF MNEMONIC
#---------         -----------     ------------------------------
GL  .M        600.87               : gl           - GROUND LEVEL ELEVATION      
EREF.M        603.87               : kb           - ELEVATION OF DEPTH REFERENCE
DATM.M        600.87               : datum        - DATUM ELEVATION             
TDD .M        489                  : tdd          - TOTAL DEPTH DRILLER         
RUN .         ONE                  : Run          - RUN NUMBER                  
ENG .         BILL                 : Engineer     - RECORDING ENGINEER          
WIT .         JIM                  : Witness      - WITNESSED BY                
MUD .         GEL                  : Mud_type     - MUD TYPE                    
MATR.         LIMESTONE            : Logunit      - NEUTRON MATRIX              
TMAX.C        22                   : BHT          - MAXIMUM RECORDED TEMPERATURE
BHTD.M        489                  : BHTDEP       - MAXIMUM RECORDED TEMPERATURE
MATR.         1                    : LOGUNIT      - NEUTRON MATRIX              
RMT .C        25                   : MDTP         - TEMPERATURE OF MUD          
NEUT.         1                    : NEUTRON      - NEUTRON TYPE                
RESI.         0                    : RESIST       - RESISTIVITY TYPE            
RMC .OHMM     0.25                 : RMC          - RESISTIVITY OF MUD CAKE     
RMF .OHMM     0.25                 : RMF          - RESISTIVITY OF MUD FILTRATE 
SUFT.C        15                   : SUFT         - SURFACE TEMPERATURE         
~A  DEPTH     RESD     PHID     PHIN       GR
# ...
  303.500    8.521    0.123    0.267   88.938
  303.750    8.254    0.159    0.218   96.986
  304.000    7.787    0.208    0.308  101.258
  304.250    7.347    0.249    0.364  106.711
  304.500    7.144    0.237    0.390  109.315
  304.750    7.105    0.232    0.400  112.670
  305.000    7.107    0.228    0.375  113.357
  305.250    7.217    0.245    0.359  109.850
  305.500    7.247    0.262    0.378  105.227
  305.750    7.235    0.270    0.386  101.224
  306.000    7.115    0.254    0.361  103.274
  306.250    7.050    0.247    0.386  106.811
  306.500    7.039    0.239    0.412  108.799
  306.750    7.028    0.232    0.422  107.515
  307.000    7.084    0.247    0.406  102.707
  307.250    7.125    0.263    0.399   97.160
  307.500    7.181    0.262    0.394   92.847
  307.750    7.225    0.253    0.377   92.490
  308.000    7.226    0.249    0.366   93.428
  308.250    7.201    0.255    0.392   94.615
  308.500    7.135    0.260    0.412   97.223
  308.750    7.123    0.262    0.411   99.769
  309.000    7.085    0.254    0.423   99.905
  309.250    6.812    0.244    0.423   99.114
  309.500    6.282    0.237    0.423   99.682
  309.750    5.718    0.228    0.445  103.341
  310.000    5.425    0.218    0.494  106.195
  310.250    5.689    0.246    0.520  109.111
  310.500    6.783    0.265    0.456  106.158
  310.750    8.027    0.281    0.415   97.832
  311.000    8.642    0.292    0.393   90.740
  311.250    8.499    0.294    0.378   87.231
  311.500    7.576    0.291    0.400   89.653
  311.750    6.831    0.284    0.437   92.322
  312.000    6.605    0.276    0.454   92.890
  312.250    6.758    0.285    0.451   87.526
  312.500    7.007    0.302    0.443   79.693
  312.750    7.403    0.319    0.440   75.813
  313.000    7.837    0.329    0.419   73.910
  313.250    8.049    0.326    0.386   72.563
  313.500    8.144    0.325    0.371   74.431
  313.750    8.161    0.316    0.404   77.966
  314.000    8.116    0.305    0.436   81.562
  314.250    7.909    0.290    0.432   86.025
  314.500    7.894    0.277    0.414   88.506
  314.750    7.793    0.271    0.403   91.175
  315.000    7.752    0.266    0.413   92.731
  315.250    7.696    0.263    0.434   92.003
  315.500    7.684    0.264    0.396   90.717
  315.750    7.670    0.262    0.378   90.668
  316.000    7.673    0.251    0.388   93.031
  316.250    7.646    0.239    0.403   95.391
  316.500    7.648    0.242    0.374   97.256
  316.750    7.738    0.255    0.358   98.380
  317.000    7.874    0.262    0.351   99.382
  317.250    8.380    0.264    0.346   98.282
  317.500    8.510    0.271    0.353   95.577
  317.750    8.545    0.274    0.372   93.553
  318.000    8.516    0.274    0.386   93.009
  318.250    8.487    0.262    0.371   94.502
  318.500    8.505    0.253    0.401   97.294
  318.750    8.554    0.244    0.426  101.883
  319.000    8.428    0.238    0.427  104.240
  319.250    8.212    0.232    0.399  106.353
  319.500    8.121    0.229    0.425  104.204
  319.750    7.793    0.232    0.438  100.694
  320.000    7.338    0.242    0.414   98.235
  320.250    7.015    0.252    0.384  108.443
  320.500    6.581    0.230    0.367  117.475
  320.750    6.472    0.198    0.373  121.256
  321.000    6.436    0.181    0.395  121.516
  321.250    6.814    0.186    0.436  108.925
  321.500    7.267    0.214    0.419   93.863
  321.750    7.664    0.238    0.390   82.878
  322.000    7.857    0.269    0.392   72.387
  322.250    8.040    0.295    0.430   71.165
  322.500    8.257    0.310    0.457   69.447
  322.750    8.609    0.320    0.424   66.865
  323.000    9.063    0.321    0.408   73.673
  323.250    9.185    0.317    0.385  103.404
  323.500    9.399    0.313    0.368  135.358
  323.750    9.402    0.310    0.355  156.191
  324.000    9.421    0.308    0.396  174.121
  324.250    9.232    0.301    0.390  192.483
  324.500    9.198    0.291    0.378  193.546
  324.750    9.081    0.283    0.377  164.026
  325.000    8.847    0.283    0.390  119.926
  325.250    8.732    0.287    0.371   93.866
  325.500    8.767    0.291    0.368   83.499
  325.750    8.605    0.289    0.374   79.991
  326.000    8.384    0.286    0.375   83.590
  326.250    8.168    0.282    0.373   87.741
  326.500    7.897    0.275    0.380   91.519
  326.750    7.636    0.249    0.385   99.317
  327.000    7.466    0.223    0.396  111.445
  327.250    7.233    0.210    0.399  115.470
  327.500    7.126    0.204    0.391  118.199
  327.750    6.891    0.206    0.397  119.450
  328.000    6.802    0.205    0.414  119.274
  328.250    6.778    0.202    0.418  115.706
  328.500    6.728    0.201    0.405  113.245
  328.750    6.655    0.205    0.389  110.601
  329.000    6.644    0.208    0.378  109.501
  329.250    6.658    0.205    0.367  107.971
  329.500    6.698    0.202    0.379  105.759
  329.750    6.814    0.212    0.381  101.260
  330.000    6.973    0.224    0.376   94.229
  330.250    7.216    0.238    0.366   85.593
  330.500    7.369    0.256    0.357   81.158
  330.750    7.469    0.272    0.380   79.501
  331.000    7.513    0.282    0.406   82.665
  331.250    7.376    0.284    0.401   87.435
  331.500    7.280    0.270    0.388   89.486
  331.750    7.269    0.255    0.402   85.545
  332.000    7.381    0.247    0.397   74.745
  332.250    7.785    0.275    0.412   66.232
  332.500    8.366    0.302    0.421   61.178
  332.750    9.551    0.315    0.419   58.041
  333.000   10.015    0.316    0.400   56.879
  333.250   10.501    0.318    0.388   57.941
  333.500   10.972    0.323    0.403   62.405
  333.750   11.099    0.326    0.447   64.702
  334.000   11.019    0.329    0.468   65.517
  334.250   10.919    0.327    0.461   65.344
  334.500   10.759    0.326    0.465   63.690
  334.750   10.601    0.325    0.452   63.147
  335.000   10.485    0.325    0.435   63.344
  335.250    9.487    0.324    0.422   63.790
  335.500    9.436    0.325    0.416   63.865
  335.750    9.457    0.327    0.409   63.383
  336.000    9.460    0.332    0.394   62.531
  336.250    9.498    0.332    0.388   61.619
  336.500    9.538    0.332    0.395   61.818
  336.750    9.557    0.331    0.405   62.825
  337.000    9.597    0.333    0.398   63.637
  337.250    9.598    0.336    0.404   64.881
  337.500    9.583    0.339    0.423   66.996
  337.750    9.568    0.340    0.447   67.808
  338.000    9.535    0.329    0.462   68.130
  338.250    9.466    0.322    0.452   66.720
  338.500    9.432    0.325    0.445   65.498
  338.750    9.347    0.327    0.438   64.401
  339.000    9.349    0.328    0.433   63.669
  339.250    9.370    0.328    0.419   62.446
  339.500    9.372    0.329    0.408   60.671
  339.750    9.412    0.329    0.430   60.246
  340.000    9.449    0.331    0.416   60.198
  340.250    9.451    0.332    0.381   60.647
  340.500    9.401    0.330    0.370   60.223
  340.750    9.457    0.329    0.378   58.075
  341.000    9.477    0.327    0.404   56.480
  341.250    9.498    0.326    0.425   56.061
  341.500    9.500    0.325    0.439   57.432
  341.750    9.557    0.323    0.423   60.534
  342.000    9.541    0.322    0.429   61.101
  342.250    9.562    0.321    0.437   60.747
  342.500    9.511    0.320    0.457   60.817
  342.750    9.460    0.319    0.439   61.202
  343.000    9.410    0.318    0.433   61.899
  343.250    9.412    0.317    0.437   62.032
  343.500    9.414    0.320    0.414   62.355
  343.750    9.399    0.328    0.399   62.301
  344.000    9.402    0.332    0.401   61.266
  344.250    9.422    0.334    0.409   60.536
  344.500    9.424    0.335    0.436   60.611
  344.750    9.445    0.335    0.439   61.674
  345.000    9.448    0.330    0.421   62.859
  345.250    9.450    0.324    0.425   63.119
  345.500    9.417    0.324    0.411   59.486
  345.750    9.402    0.330    0.396   56.473
  346.000    9.370    0.334    0.401   54.447
  346.250    9.372    0.337    0.422   55.694
  346.500    9.375    0.336    0.445   57.746
  346.750    9.378    0.332    0.459   59.428
