~VERSION INFORMATION
 VERS.                 2.0:   CWLS LOG ASCII STANDARD -VERSION 2.0
 WRAP.                  NO:   ONE LINE PER DEPTH STEP
~WELL INFORMATION BLOCK
#MNEM.UNIT           DATA                    DESCRIPTION OF MNEMONIC
#---------    -------------------            -------------------------------
# Generated from Intellog Unique Number	CS_69_70/WELL/782
WELL.         UNIVERSAL EXPLORATIONS LT      : Well_name    - WELL
LOC .         00/06-30-069-09W4/0            : Location     - LOCATION
UWI .         00/06-30-069-09W4/0            : Uwi          - UNIQUE WELL ID
ENTR.         SP                             : Entered      - ENTERED BY
SRVC.         SCHLUMBERGER                   : Scn          - SERVICE COMPANY
STRT.M        420                            : top_depth    - START DEPTH
STOP.M        635                            : bot_depth    - STOP DEPTH
STEP.M        0.25                           : increment    - STEP LENGTH
 NULL. -999.2500:NULL Value
~CURVE INFORMATION BLOCK
#MNEM UNIT       ERCB CURVE CODE    CURVE DESCRIPTION
#-----------   ------------------   ----------------------------------
DEPT.M        00 001 00 00         : DEPTH        - DEPTH
ILD .OHMM     00 120 00 00         : RESD         - DEEP RESISTIVITY (DIL)
DPHI.V/V      00 890 00 00         : PHID         - DENSITY POROSITY (LIMESTONE)
NPHI.V/V      00 330 00 00         : PHIN         - NEUTRON POROSITY (LIMESTONE)
GR  .API      00 310 00 00         : GR           - GAMMA RAY
~PARAMETER INFORMATION
#MNEM.UNIT           DATA             DESCRIPTION OF MNEMONIC
#---------         -----------     ------------------------------
GL  .M        749.7                : gl           - GROUND LEVEL ELEVATION
EREF.M        753.2                : kb           - ELEVATION OF DEPTH REFERENCE
DATM.M        749.7                : datum        - DATUM ELEVATION
TDD .M        643                  : tdd          - TOTAL DEPTH DRILLER
RUN .         ONE                  : Run          - RUN NUMBER
ENG .         BILL                 : Engineer     - RECORDING ENGINEER
WIT .         JIM                  : Witness      - WITNESSED BY
MUD .         GEL                  : Mud_type     - MUD TYPE
MATR.         LIMESTONE            : Logunit      - NEUTRON MATRIX
TMAX.C        22                   : BHT          - MAXIMUM RECORDED TEMPERATURE
BHTD.M        643                  : BHTDEP       - MAXIMUM RECORDED TEMPERATURE
MATR.         1                    : LOGUNIT      - NEUTRON MATRIX
RMT .C        25                   : MDTP         - TEMPERATURE OF MUD
NEUT.         1                    : NEUTRON      - NEUTRON TYPE
RESI.         0                    : RESIST       - RESISTIVITY TYPE
RMC .OHMM     0.25                 : RMC          - RESISTIVITY OF MUD CAKE
RMF .OHMM     0.25                 : RMF          - RESISTIVITY OF MUD FILTRATE
SUFT.C        15                   : SUFT         - SURFACE TEMPERATURE
~A  DEPTH     RESD     PHID     PHIN       GR
  420.000    2.695    0.275    0.528   94.285
  420.250    2.751    0.272    0.523   95.446
  420.500    2.766    0.268    0.517   97.644
  420.750    2.787    0.271    0.499  100.762
  421.000    2.792    0.228    0.487  102.044
  421.250    2.861    0.202    0.480  102.528
  421.500    2.872    0.201    0.479  102.952
  421.750    2.893    0.218    0.476  102.702
  422.000    2.948    0.235    0.468  101.963
  422.250    2.976    0.246    0.461  101.285
  422.500    2.987    0.242    0.464  100.729
  422.750    2.867    0.228    0.476  104.092
  423.000    2.959    0.222    0.485  103.108
  423.250    3.043    0.225    0.490   99.857
  423.500    3.107    0.234    0.500   97.465
  423.750    3.130    0.238    0.473   95.990
  424.000    3.066    0.235    0.462   98.068
  424.250    2.965    0.229    0.478  100.696
  424.500    2.873    0.228    0.486   97.507
  424.750    2.778    0.230    0.491   96.094
  425.000    2.716    0.230    0.498   97.804
  425.250    2.671    0.229    0.506  103.186
  425.500    2.666    0.234    0.515  104.774
  425.750    2.681    0.245    0.522  106.360
  426.000    2.716    0.247    0.534  106.295
  426.250    2.830    0.242    0.506  104.821
  426.500    2.960    0.236    0.491  103.163
  426.750    3.061    0.242    0.482  101.321
  427.000    3.131    0.251    0.463   99.664
  427.250    3.166    0.254    0.453   98.741
  427.500    3.208    0.229    0.451   97.573
  427.750    3.220    0.196    0.445   96.956
  428.000    3.214    0.169    0.434   97.378
  428.250    3.137    0.156    0.450   98.599
  428.500    3.039    0.198    0.479   98.717
  428.750    2.994    0.223    0.508   96.324
  429.000    3.196    0.239    0.477   92.524
  429.250    4.182    0.246    0.414   87.070
  429.500    5.875    0.274    0.361   80.697
  429.750    7.687    0.309    0.231   73.835
  430.000    9.405    0.355    0.213   66.422
  430.250   12.942    0.366    0.194   55.336
  430.500   15.863    0.380    0.173   50.372
  430.750   16.102    0.396    0.153   45.591
  431.000   12.034    0.412    0.196   44.607
  431.250    9.423    0.410    0.238   47.601
  431.500    8.071    0.377    0.268   53.842
  431.750    6.697    0.325    0.297   57.266
  432.000    5.843    0.302    0.335   59.894
  432.250    5.598    0.293    0.353   62.706
  432.500    5.413    0.280    0.369   68.823
  432.750    5.343    0.242    0.382   75.921
  433.000    5.423    0.207    0.414   99.549
  433.250    5.557    0.213    0.408   99.055
  433.500    5.736    0.227    0.417   95.620
  433.750    5.877    0.241    0.420   94.269
  434.000    6.010    0.250    0.416   94.693
  434.250    6.044    0.250    0.417  100.260
  434.500    6.056    0.235    0.395  103.010
  434.750    6.090    0.227    0.388  105.822
  435.000    6.228    0.222    0.393  107.103
  435.250    6.147    0.215    0.422  108.568
  435.500    6.090    0.216    0.417  109.665
  435.750    6.068    0.219    0.425  107.394
  436.000    6.057    0.215    0.436  105.125
  436.250    6.182    0.217    0.412  104.814
  436.500    6.358    0.224    0.395   97.033
  436.750    6.527    0.237    0.388   86.682
  437.000    6.466    0.261    0.401   75.534
  437.250    6.069    0.284    0.412   66.835
  437.500    5.749    0.304    0.418   61.688
  437.750    5.497    0.322    0.425   57.029
  438.000    5.375    0.334    0.393   57.575
  438.250    5.375    0.338    0.379   63.632
  438.500    5.396    0.338    0.382   64.117
  438.750    5.426    0.318    0.374   60.133
  439.000    5.508    0.283    0.363   62.516
  439.250    5.529    0.259    0.367   75.246
  439.500    5.477    0.246    0.409   83.445
  439.750    5.406    0.232    0.437   92.196
  440.000    5.277    0.194    0.441  103.457
  440.250    5.055    0.170    0.438  107.921
  440.500    4.692    0.173    0.440  110.427
  440.750    4.338    0.174    0.456  114.279
  441.000    4.041    0.166    0.483  118.254
  441.250    3.799    0.177    0.496  123.268
  441.500    3.526    0.199    0.504  125.285
  441.750    3.359    0.216    0.500  126.566
  442.000    3.094    0.226    0.505  127.664
  442.250    3.083    0.225    0.526  127.476
  442.500    3.071    0.225    0.559  123.001
  442.750    3.573    0.226    0.561  103.649
  443.000    3.967    0.265    0.497   74.624
  443.250    4.420    0.299    0.427   52.455
  443.500    4.746    0.330    0.405   43.022
  443.750    4.991    0.352    0.393   39.527
  444.000    5.076    0.364    0.382   37.624
  444.250    5.104    0.376    0.367   37.864
  444.500    5.172    0.384    0.392   41.471
  444.750    5.201    0.387    0.413   48.508
  445.000    5.191    0.385    0.437   53.708
  445.250    5.114    0.380    0.452   52.417
  445.500    5.114    0.377    0.452   48.799
  445.750    5.067    0.380    0.449   47.265
  446.000    4.900    0.381    0.424   47.321
  446.250    4.882    0.369    0.410   49.459
  446.500    4.891    0.360    0.408   59.862
  446.750    4.882    0.354    0.408   66.348
  447.000    4.882    0.351    0.396   69.037
  447.250    4.873    0.347    0.390   67.746
  447.500    4.801    0.343    0.385   66.334
  447.750    4.873    0.341    0.392   63.267
  448.000    4.937    0.340    0.394   57.507
  448.250    4.974    0.340    0.383   53.523
  448.500    5.002    0.340    0.376   49.110
  448.750    5.040    0.340    0.370   44.146
  449.000    5.087    0.340    0.368   41.386
  449.250    5.145    0.341    0.366   39.727
  449.500    5.203    0.344    0.374   41.621
  449.750    5.252    0.347    0.380   43.147
  450.000    5.311    0.349    0.390   43.571
  450.250    5.371    0.353    0.403   42.709
  450.500    5.411    0.357    0.416   42.643
  450.750    5.361    0.354    0.400   43.740
  451.000    5.351    0.352    0.391   44.653
  451.250    5.382    0.354    0.390   45.445
  451.500    5.432    0.358    0.393   46.481
  451.750    5.493    0.354    0.378   48.558
  452.000    5.524    0.347    0.369   56.941
  452.250    5.494    0.341    0.368   61.957
  452.500    5.453    0.338    0.386   57.911
  452.750    5.412    0.338    0.397   55.151
  453.000    5.372    0.343    0.401   63.412
  453.250    5.362    0.350    0.404   70.081
  453.500    5.373    0.349    0.406   73.995
  453.750    5.403    0.334    0.404   75.643
  454.000    5.454    0.324    0.410   77.046
  454.250    5.495    0.314    0.420   80.409
  454.500    5.546    0.313    0.427   85.485
  454.750    5.557    0.312    0.436   87.808
  455.000    5.536    0.304    0.441   89.640
  455.250    5.495    0.298    0.434   88.043
  455.500    5.235    0.292    0.427   86.692
  455.750    4.968    0.287    0.434   87.911
  456.000    4.831    0.281    0.442   86.743
  456.250    4.858    0.293    0.445   82.147
  456.500    4.969    0.304    0.434   75.345
  456.750    5.139    0.313    0.426   72.096
  457.000    5.265    0.320    0.423   72.581
  457.250    5.374    0.318    0.419   78.025
  457.500    5.435    0.315    0.418   82.000
  457.750    5.486    0.314    0.425   84.996
  458.000    5.527    0.317    0.433   87.134
  458.250    5.695    0.320    0.434   84.864
  458.500    6.057    0.322    0.449   81.001
  458.750    6.763    0.318    0.469   79.038
  459.000    7.721    0.296    0.362   73.583
  459.250    8.799    0.002    0.278   62.864
  459.500    9.679   -0.010    0.187   57.533
  459.750   10.410    0.031    0.252   62.059
  460.000    9.518    0.260    0.385   69.524
  460.250    8.197    0.290    0.417   75.825
  460.500    7.234    0.309    0.441   83.412
  460.750    6.528    0.321    0.456   86.408
  461.000    5.913    0.324    0.470   88.301
  461.250    5.612    0.315    0.480   86.703
  461.500    5.427    0.311    0.447   85.475
  461.750    5.297    0.307    0.439   84.123
  462.000    5.209    0.309    0.444   82.526
  462.250    5.189    0.317    0.464   81.971
  462.500    5.209    0.322    0.481   84.966
  462.750    5.248    0.323    0.458   89.002
  463.000    5.268    0.320    0.448   85.936
  463.250    5.278    0.322    0.441   84.278
