~VERSION INFORMATION
 VERS.                 2.0:   CWLS LOG ASCII STANDARD -VERSION 2.0
 WRAP.                  NO:   ONE LINE PER DEPTH STEP
~WELL INFORMATION BLOCK
#MNEM.UNIT           DATA                    DESCRIPTION OF MNEMONIC
#---------    -------------------            -------------------------------
# Generated from Intellog Unique Number	CS_77_79/WELL/879
WELL.         HB THORNBURY EV                : Well_name    - WELL
LOC .         00/06-20-078-11W4/0            : Location     - LOCATION
UWI .         00/06-20-078-11W4/0            : Uwi          - UNIQUE WELL ID
ENTR.         JHS                            : Entered      - ENTERED BY
SRVC.         SCHLUMBERGER                   : Scn          - SERVICE COMPANY
STRT.M        259.080                        : top_depth    - START DEPTH
STOP.M        493.580                        : bot_depth    - STOP DEPTH
STEP.M        0.25                           : increment    - STEP LENGTH
 NULL. -999.2500:NULL Value
~CURVE INFORMATION BLOCK
#MNEM UNIT       ERCB CURVE CODE    CURVE DESCRIPTION
#-----------   ------------------   ----------------------------------
DEPT.M        00 001 00 00         : DEPTH        - DEPTH
RHOB.KG/M3    00 350 00 00         : DENS         - BULK DENSITY
GR  .API      00 310 00 00         : GR           - GAMMA RAY
DPHI.V/V      00 890 00 00         : PHID         - DENSITY POROSITY (SANDSTONE)
NPHI.V/V      00 330 00 00         : PHIN         - NEUTRON POROSITY (SANDSTONE)
ILD .OHMM     00 120 00 00         : RESD         - DEEP RESISTIVITY (DIL)
~PARAMETER INFORMATION
#MNEM.UNIT           DATA             DESCRIPTION OF MNEMONIC
#---------         -----------     ------------------------------
GL  .M        704.088              : gl           - GROUND LEVEL ELEVATION
EREF.M        721.462              : kb           - ELEVATION OF DEPTH REFERENCE
DATM.M        721.462              : datum        - DATUM ELEVATION
TDD .M        498.348              : tdd          - TOTAL DEPTH DRILLER
RUN .         ONE                  : Run          - RUN NUMBER
ENG .         BILL                 : Engineer     - RECORDING ENGINEER
WIT .         JIM                  : Witness      - WITNESSED BY
MUD .         GEL                  : Mud_type     - MUD TYPE
MATR.         SANDSTONE            : Logunit      - NEUTRON MATRIX
TMAX.C        60                   : BHT          - MAXIMUM RECORDED TEMPERATURE
BHTD.M        498.348              : BHTDEP       - MAXIMUM RECORDED TEMPERATURE
MATR.         1                    : LOGUNIT      - NEUTRON MATRIX
RMT .C        25                   : MDTP         - TEMPERATURE OF MUD
NEUT.         1                    : NEUTRON      - NEUTRON TYPE
RESI.         0                    : RESIST       - RESISTIVITY TYPE
RMC .OHMM     0.25                 : RMC          - RESISTIVITY OF MUD CAKE
RMF .OHMM     0.25                 : RMF          - RESISTIVITY OF MUD FILTRATE
SUFT.C        15                   : SUFT         - SURFACE TEMPERATURE
~A  DEPTH     DENS       GR     PHID     PHIN     RESD
# ...
  441.580 2320.550  100.264    0.228    0.517    3.518
  441.830 2303.780   98.154    0.238    0.511    3.669
  442.080 2275.500   98.644    0.254    0.499    3.777
  442.330 2243.180   99.586    0.273    0.503    3.901
  442.580 2234.830  101.223    0.278    0.515    3.942
  442.830 2267.910  101.891    0.259    0.531    4.120
  443.080 2254.220  100.047    0.267    0.505    4.263
  443.330 2290.760   97.655    0.245    0.493    4.483
  443.580 2326.620   98.612    0.224    0.482    4.655
  443.830 2371.760  100.766    0.198    0.467    5.052
  444.080 2371.000  101.257    0.198    0.491    5.195
  444.330 2326.370   99.322    0.224    0.514    5.407
  444.580 2306.990   98.143    0.236    0.470    5.620
  444.830 2325.930   96.732    0.225    0.433    5.885
  445.080 2306.100   93.789    0.236    0.439    6.283
  445.330 2313.030   84.088    0.232    0.445    7.036
  445.580 2280.440   80.708    0.251    0.430    7.763
  445.830 2231.660   83.537    0.280    0.417    9.161
  446.080 2189.510   88.073    0.304    0.439   11.505
  446.330 2155.230   91.245    0.324    0.446   14.964
  446.580 2196.230   91.016    0.300    0.433   17.442
  446.830 2210.660   89.342    0.292    0.450   19.968
  447.080 2181.590   91.073    0.309    0.455   19.587
  447.330 2184.680   95.839    0.307    0.435   18.661
  447.580 2207.970  100.283    0.294    0.421   15.940
  447.830 2279.060  102.032    0.252    0.421   14.099
  448.080 2263.770   98.217    0.261    0.442   13.706
  448.330 2224.900   90.977    0.284    0.452   15.043
  448.580 2212.590   89.346    0.291    0.427   16.501
  448.830 2244.790   91.111    0.272    0.428   17.704
  449.080 2262.770   91.631    0.262    0.426   19.826
  449.330 2234.640   92.387    0.278    0.435   20.440
  449.580 2185.720   94.585    0.307    0.454   19.415
  449.830 2154.570   97.651    0.325    0.444   17.473
  450.080 2090.420  104.975    0.362    0.429   15.843
  450.330 1953.250  107.645    0.443    0.438   13.344
  450.580 1898.180  107.116    0.475    0.447   11.130
  450.830 2373.470  106.700    0.197    0.442    9.740
  451.080 2402.500  111.217    0.180    0.444    8.532
  451.330 2380.030  114.950    0.193    0.461    7.350
  451.580 2344.320  115.423    0.214    0.493    7.346
  451.830 2328.740  112.421    0.223    0.490    7.653
  452.080 2354.660  104.244    0.208    0.468    8.599
  452.330 2308.320   93.996    0.235    0.477   10.257
  452.580 2238.030   82.526    0.276    0.477   13.325
  452.830 2223.130   77.249    0.285    0.456   16.953
  453.080 2243.980   73.939    0.273    0.425   21.539
  453.330 2251.660   71.476    0.268    0.412   27.453
  453.580 2281.820   73.060    0.250    0.404   31.645
  453.830 2294.780   77.395    0.243    0.393   30.003
  454.080 2336.660   84.616    0.218    0.384   26.848
  454.330 2366.040   93.279    0.201    0.378   18.842
  454.580 2349.630   94.187    0.211    0.395   13.592
  454.830 2307.930   91.799    0.235    0.440   13.202
  455.080 2296.350   92.296    0.242    0.428   13.090
  455.330 2307.030   92.939    0.236    0.429   13.500
  455.580 2304.360   93.448    0.237    0.420   13.873
  455.830 2309.790   97.541    0.234    0.388   13.601
  456.080 2354.190   98.925    0.208    0.364   13.200
  456.330 2351.300   96.063    0.210    0.362   12.804
  456.580 2330.660   91.911    0.222    0.374   12.656
  456.830 2273.150   88.980    0.255    0.392   12.455
  457.080 2249.760   85.490    0.269    0.418   13.457
  457.330 2149.520   84.011    0.328    0.447   13.810
  457.580 2296.840   82.805    0.242    0.432   15.350
  457.830 2277.810   81.531    0.253    0.419   16.777
  458.080 2287.050   82.057    0.247    0.412   17.679
  458.330 2326.030   88.959    0.225    0.402   17.307
  458.580 2330.790   91.063    0.222    0.411   14.955
  458.830 2244.050   89.367    0.272    0.460   12.450
  459.080 2226.410   83.436    0.283    0.489   11.998
  459.330 2164.070   64.421    0.319    0.448   12.631
  459.580 2146.030   64.629    0.330    0.406   16.458
  459.830 2177.480   69.248    0.311    0.409   24.183
  460.080 2212.110   69.767    0.291    0.425   34.197
  460.330 2207.520   67.413    0.294    0.424   39.855
  460.580 2214.640   67.385    0.290    0.402   37.217
  460.830 2219.130   68.565    0.287    0.402   30.132
  461.080 2216.320   67.834    0.289    0.417   25.852
  461.330 2204.170   67.911    0.296    0.419   27.212
  461.580 2188.960   70.995    0.305    0.427   33.773
  461.830 2174.320   72.031    0.313    0.435   39.050
  462.080 2175.820   72.596    0.312    0.444   51.452
  462.330 2163.290   75.911    0.320    0.453   59.799
  462.580 2173.590   79.064    0.314    0.448   59.380
  462.830 2145.410   80.959    0.330    0.433   52.144
  463.080 2151.240   79.954    0.327    0.428   45.743
  463.330 2175.190   79.688    0.313    0.423   40.056
  463.580 2180.440   79.103    0.310    0.429   36.705
  463.830 2190.200   79.986    0.304    0.416   33.346
  464.080 2207.060   81.640    0.294    0.411   30.302
  464.330 2187.620   82.631    0.305    0.424   28.313
  464.580 2219.590   82.861    0.287    0.436   26.357
  464.830 2229.350   85.199    0.281    0.421   23.069
  465.080 2265.740   90.228    0.260    0.403   19.957
  465.330 2301.630   95.414    0.239    0.396   15.377
  465.580 2322.880  100.426    0.226    0.387   12.659
  465.830 2326.950  104.381    0.224    0.385   11.888
  466.080 2318.330  101.773    0.229    0.379   11.756
  466.330 2326.960   97.923    0.224    0.372   11.761
  466.580 2315.660   95.520    0.231    0.368   11.950
  466.830 2274.600   98.585    0.255    0.376   12.738
  467.080 2260.890  105.027    0.263    0.384   13.185
  467.330 2274.620  109.194    0.255    0.408   12.927
  467.580 2321.680  110.075    0.227    0.396   12.428
  467.830 2307.350  107.227    0.235    0.394   11.894
  468.080 2293.440  103.869    0.244    0.405   11.752
  468.330 2294.640   98.837    0.243    0.408   11.375
  468.580 2292.650   97.348    0.244    0.412   11.384
  468.830 2292.910  100.533    0.244    0.419   11.395
  469.080 2315.350  104.430    0.231    0.419   11.203
  469.330 2306.820  109.675    0.236    0.423   10.761
  469.580 2293.840  115.221    0.243    0.416   10.345
  469.830 2325.290  121.071    0.225    0.413    9.725
  470.080 2316.110  124.339    0.230    0.420    9.138
  470.330 2306.060  122.902    0.236    0.419    8.996
  470.580 2331.270  117.030    0.221    0.405    8.999
  470.830 2325.490  110.963    0.225    0.397    9.060
  471.080 2286.080  108.909    0.248    0.403    9.169
  471.330 2270.370  109.173    0.257    0.432    8.879
  471.580 2264.790  111.484    0.260    0.464    8.811
  471.830 2325.870  111.307    0.225    0.484    8.686
  472.080 2384.300  109.154    0.190    0.398    8.876
  472.330 2368.230  104.502    0.200    0.376    8.890
  472.580 2403.060  108.951    0.179    0.360    9.175
  472.830 2376.030  114.018    0.195    0.353    9.368
  473.080 2392.000  118.279    0.186    0.361    9.566
  473.330 2374.530  117.119    0.196    0.379    9.552
  473.580 2399.590  112.459    0.182    0.375    9.542
  473.830 2388.580  105.000    0.188    0.380    9.746
  474.080 2393.470   97.576    0.185    0.398    9.994
  474.330 2427.330   89.181    0.165    0.385   10.711
  474.580 2485.740   87.500    0.131    0.346   11.300
  474.830 2535.620   89.874    0.102    0.313   11.408
  475.080 2457.580   92.008    0.148    0.338   11.040
  475.330 2353.970   93.415    0.208    0.379   10.915
  475.580 2350.870   94.460    0.210    0.381   10.698
  475.830 2368.540   94.791    0.200    0.389   10.719
  476.080 2353.080   96.814    0.209    0.392   10.726
  476.330 2332.090   99.741    0.221    0.372   10.710
  476.580 2363.090  101.965    0.203    0.346   10.943
  476.830 2352.640  104.890    0.209    0.348   11.096
  477.080 2351.500  108.550    0.210    0.358   11.061
  477.330 2384.020  110.748    0.191    0.365   10.947
  477.580 2409.860  111.403    0.176    0.366   10.625
  477.830 2414.190  110.705    0.173    0.362   10.371
