~VERSION INFORMATION
 VERS.                 2.0:   CWLS LOG ASCII STANDARD -VERSION 2.0
 WRAP.                  NO:   ONE LINE PER DEPTH STEP
~WELL INFORMATION BLOCK
#MNEM.UNIT           DATA                    DESCRIPTION OF MNEMONIC
#---------    -------------------            -------------------------------
# Generated from Intellog Unique Number	CX_WELLS/WELL/3016
WELL.         TRITON ET AL DIVIDE            : Well_name    - WELL
LOC .         00/06-22-082-12W4/0            : Location     - LOCATION
UWI .         00/06-22-082-12W400            : Uwi          - UNIQUE WELL ID
ENTR.         T                              : Entered      - ENTERED BY
SRVC.         SCHLUMBERGER                   : Scn          - SERVICE COMPANY
DATE.         03/04/92                       : Date         - LOG DATE
STRT.M        295                            : top_depth    - START DEPTH
STOP.M        515                            : bot_depth    - STOP DEPTH
STEP.M        0.25                           : increment    - STEP LENGTH
 NULL. -999.2500:NULL Value
~CURVE INFORMATION BLOCK
#MNEM UNIT       ERCB CURVE CODE    CURVE DESCRIPTION
#-----------   ------------------   ----------------------------------
DEPT.M        00 001 00 00         : DEPTH        - DEPTH
GR  .API      00 310 00 00         : GR           - GAMMA RAY
NPHI.V/V      00 330 00 00         : PHIN         - NEUTRON POROSITY (SANDSTONE)
DPHI.V/V      00 890 00 00         : PHID         - DENSITY POROSITY (SANDSTONE)
ILD .OHMM     00 120 00 00         : RESD         - DEEP RESISTIVITY (OTHER)
~PARAMETER INFORMATION
#MNEM.UNIT           DATA             DESCRIPTION OF MNEMONIC
#---------         -----------     ------------------------------
GL  .M        740.69               : gl           - GROUND LEVEL ELEVATION
EREF.M        744.42               : kb           - ELEVATION OF DEPTH REFERENCE
DATM.M        744.42               : datum        - DATUM ELEVATION
TDD .M        526                  : tdd          - TOTAL DEPTH DRILLER
RUN .         ONE                  : Run          - RUN NUMBER
ENG .         JO                   : Engineer     - RECORDING ENGINEER
WIT .         TIM                  : Witness      - WITNESSED BY
MUD .         GEL                  : Mud_type     - MUD TYPE
MATR.         SANDSTONE            : Logunit      - NEUTRON MATRIX
TMAX.C        24                   : BHT          - MAXIMUM RECORDED TEMPERATURE
BHTD.M        526                  : BHTDEP       - MAXIMUM RECORDED TEMPERATURE
RMT .C        24                   : MDTP         - TEMPERATURE OF MUD
MUDD.KG/M     1                    : MWT          - MUD DENSITY
NEUT.         1                    : NEUTRON      - NEUTRON TYPE
RESI.         2.65                 : RESIST       - RESISTIVITY TYPE
RM  .OHMM     2.65                 : RM           - RESISTIVITY OF MUD
RMC .OHMM     1.52                 : RMC          - RESISTIVITY OF MUD CAKE
RMF .OHMM     2.86                 : RMF          - RESISTIVITY OF MUD FILTRATE
SUFT.C        4                    : SUFT         - SURFACE TEMPERATURE
~A  DEPTH       GR     PHIN     PHID     RESD
# ...
  338.500   86.969    0.450    0.256   13.766
  338.750   92.318    0.449    0.261   14.045
  339.000   95.280    0.445    0.266   14.039
  339.250   92.276    0.450    0.260   13.749
  339.500   92.851    0.453    0.251   13.468
  339.750   97.598    0.448    0.250   13.190
  340.000  101.759    0.444    0.248   12.919
  340.250  100.545    0.439    0.243   12.913
  340.500   91.573    0.433    0.240   12.911
  340.750   95.132    0.426    0.237   12.907
  341.000   98.686    0.421    0.239   12.902
  341.250   99.261    0.413    0.247   12.896
  341.500   97.450    0.401    0.257   12.893
  341.750   95.638    0.399    0.266   13.154
  342.000   95.026    0.405    0.273   13.422
  342.250   96.198    0.411    0.274   13.696
  342.500   95.580    0.417    0.268   14.556
  342.750   91.382    0.423    0.271   15.160
  343.000   87.178    0.422    0.275   15.470
  343.250   83.582    0.410    0.279   16.781
  343.500   76.395    0.384    0.287   17.479
  343.750   68.616    0.377    0.289   19.352
  344.000   59.644    0.384    0.277   20.157
  344.250   49.474    0.407    0.283   22.320
  344.500   48.856    0.418    0.307   24.215
  344.750   44.663    0.428    0.313   24.710
  345.000   42.255    0.427    0.319   26.806
  345.250   45.212    0.423    0.329   27.349
  345.500   47.583    0.416    0.334   27.903
  345.750   49.948    0.411    0.338   28.475
  346.000   49.927    0.406    0.340   29.052
  346.250   48.110    0.405    0.340   29.040
  346.500   47.492    0.403    0.341   29.035
  346.750   48.068    0.400    0.341   28.438
  347.000   49.240    0.399    0.343   28.428
  347.250   51.009    0.397    0.343   27.841
  347.500   53.971    0.398    0.341   27.832
  347.750   56.934    0.399    0.339   27.259
  348.000   53.327    0.402    0.338   27.248
  348.250   49.129    0.403    0.337   27.239
  348.500   49.108    0.407    0.337   27.230
  348.750   51.468    0.409    0.337   27.224
  349.000   52.054    0.416    0.337   27.213
  349.250   52.629    0.421    0.337   27.201
  349.500   52.011    0.425    0.337   27.195
  349.750   51.394    0.431    0.337   27.188
  350.000   51.372    0.436    0.337   27.177
  350.250   51.948    0.437    0.337   27.170
  350.500   53.120    0.443    0.335   27.161
  350.750   52.497    0.450    0.332   27.150
  351.000   50.089    0.460    0.333   27.141
  351.250   49.476    0.465    0.333   27.132
  351.500   52.438    0.448    0.327   27.123
  351.750   51.820    0.432    0.313   28.245
  352.000   50.004    0.404    0.309   29.417
  352.250   48.789    0.389    0.307   31.264
  352.500   46.978    0.357    0.234   32.565
  352.750   43.376    0.322    0.168   33.914
  353.000   42.156    0.254    0.126   32.541
  353.250   49.301    0.278    0.154   30.593
  353.500   51.666    0.407    0.201   29.360
  353.750   48.656    0.421    0.325   28.171
  354.000   44.458    0.423    0.335   27.591
  354.250   42.647    0.428    0.335   27.023
  354.500   46.808    0.429    0.336   27.012
  354.750   50.964    0.430    0.339   27.006
  355.000   52.732    0.434    0.342   26.995
  355.250   50.916    0.437    0.350   26.984
  355.500   51.491    0.444    0.355   26.979
  355.750   53.260    0.451    0.349   26.968
  356.000   53.239    0.455    0.341   26.957
  356.250   52.621    0.455    0.344   26.953
  356.500   51.412    0.451    0.349   26.942
  356.750   49.590    0.440    0.345   26.933
  357.000   48.982    0.434    0.337   26.922
  357.250   50.154    0.437    0.337   26.368
  357.500   50.133    0.438    0.339   26.359
  357.750   50.112    0.443    0.338   26.353
  358.000   50.086    0.447    0.343   26.344
  358.250   50.070    0.439    0.345   26.335
  358.500   48.844    0.433    0.342   26.325
  358.750   48.221    0.433    0.339   25.783
  359.000   47.614    0.438    0.337   25.773
  359.250   46.399    0.441    0.335   25.768
  359.500   45.184    0.439    0.333   25.758
  359.750   44.566    0.440    0.336   25.747
  360.000   43.943    0.442    0.336   25.737
  360.250   44.513    0.442    0.336   25.732
  360.500   45.099    0.441    0.337   25.722
  360.750   46.868    0.438    0.338   25.711
  361.000   51.616    0.438    0.341   25.707
  361.250   53.981    0.441    0.343   25.699
  361.500   55.159    0.445    0.343   25.688
  361.750   53.944    0.448    0.340   25.680
  362.000   50.939    0.451    0.326   25.671
  362.250   49.128    0.454    0.312   26.193
  362.500   49.698    0.450    0.301   26.726
  362.750   51.462    0.442    0.290   26.717
  363.000   52.048    0.435    0.273   27.261
  363.250   52.618    0.400    0.302   28.390
  363.500   54.392    0.422    0.329   29.564
  363.750   55.564    0.427    0.338   30.786
  364.000   53.156    0.422    0.329   31.415
  364.250   56.715    0.408    0.332   32.054
  364.500   60.274    0.387    0.334   32.043
  364.750   59.656    0.362    0.273   30.748
  365.000   53.066    0.355    0.256   30.113
  365.250   48.862    0.381    0.295   30.106
  365.500   56.007    0.427    0.335   29.489
  365.750   59.566    0.437    0.333   28.882
  366.000   61.932    0.443    0.331   28.285
  366.250   61.309    0.456    0.329   27.703
  366.500   60.099    0.472    0.328   27.692
  366.750   57.691    0.468    0.326   27.681
  367.000   59.460    0.459    0.326   27.676
  367.250   63.019    0.454    0.327   27.665
  367.500   61.208    0.448    0.330   27.654
  367.750   58.203    0.445    0.331   27.649
  368.000   57.580    0.442    0.332   27.078
  368.250   60.547    0.444    0.332   25.455
  368.500   62.913    0.448    0.333   24.936
  368.750   61.698    0.453    0.326   22.968
  369.000   61.677    0.458    0.308   20.726
  369.250   66.429    0.464    0.304   19.091
  369.500   67.005    0.470    0.307   17.947
  369.750   72.354    0.477    0.312   17.580
  370.000   76.504    0.477    0.319   17.572
  370.250   72.312    0.458    0.325   17.931
  370.500   65.130    0.448    0.336   18.296
  370.750   60.926    0.441    0.337   19.051
  371.000   63.297    0.471    0.328   19.440
  371.250   65.061    0.482    0.322   19.837
  371.500   64.443    0.452    0.319   20.238
  371.750   62.029    0.445    0.320   20.233
  372.000   60.820    0.441    0.320   20.225
  372.250   63.186    0.440    0.322   20.219
  372.500   65.546    0.442    0.322   20.212
  372.750   64.326    0.445    0.321   19.796
  373.000   63.122    0.458    0.319   18.995
  373.250   67.272    0.485    0.318   18.604
  373.500   69.644    0.500    0.317   18.221
  373.750   72.606    0.498    0.317   17.848
  374.000   72.585    0.475    0.318   17.842
  374.250   67.188    0.464    0.318   17.475
  374.500   66.564    0.452    0.316   17.469
  374.750   67.742    0.452    0.311   17.462
  375.000   69.516    0.492    0.310   17.456
  375.250   72.478    0.489    0.308   17.450
  375.500   73.645    0.474    0.308   17.805
  375.750   71.237    0.460    0.313   17.796
  376.000   69.431    0.457    0.320   17.792
  376.250   70.007    0.455    0.305   17.073
  376.500   70.577    0.444    0.298   16.383
  376.750   71.158    0.420    0.298   15.721
  377.000   69.341    0.412    0.298   15.086
  377.250   68.126    0.438    0.291   15.081
  377.500   67.514    0.442    0.283   15.077
  377.750   68.675    0.445    0.274   14.766
  378.000   71.648    0.453    0.269   14.760
  378.250   79.379    0.456    0.265   14.457
  378.500   84.131    0.444    0.257   13.592
  378.750   85.309    0.448    0.253   12.777
  379.000   83.498    0.450    0.249   11.770
  379.250   83.466    0.456    0.242   11.064
  379.500   85.826    0.458    0.239   11.062
  379.750   86.412    0.489    0.237   11.057
  380.000   85.789    0.499    0.239   11.055
  380.250   82.779    0.508    0.262   11.052
  380.500   80.978    0.502    0.269   11.508
  380.750   75.586    0.494    0.291   11.504
  381.000   80.936    0.487    0.298   11.738
  381.250   85.683    0.482    0.311   11.735
  381.500   82.086    0.494    0.307   11.492
  381.750   77.888    0.495    0.293   10.586
