~VERSION INFORMATION
 VERS.                 2.0:   CWLS LOG ASCII STANDARD -VERSION 2.0
 WRAP.                  NO:   ONE LINE PER DEPTH STEP
~WELL INFORMATION BLOCK
#MNEM.UNIT           DATA                    DESCRIPTION OF MNEMONIC
#---------    -------------------            -------------------------------
# Generated from Intellog Unique Number	CW_79_81/WELL/2455
WELL.         06-29-080-24W4                 : Well_name    - WELL
LOC .         00/06-29-080-24W4/0            : Location     - LOCATION
UWI .         00/06-29-080-24W4/0            : Uwi          - UNIQUE WELL ID
ENTR.         MAX                            : Entered      - ENTERED BY
SRVC.         WESTERN ATLAS                  : Scn          - SERVICE COMPANY
STRT.M        198.12                         : top_depth    - START DEPTH
STOP.M        426.37                         : bot_depth    - STOP DEPTH
STEP.M        0.25                           : increment    - STEP LENGTH
 NULL. -999.2500:NULL Value
~CURVE INFORMATION BLOCK
#MNEM UNIT       ERCB CURVE CODE    CURVE DESCRIPTION
#-----------   ------------------   ----------------------------------
DEPT.M        00 001 00 00         : DEPTH        - DEPTH
ILD .OHMM     00 120 00 00         : RESD         - DEEP RESISTIVITY (DIL)
NPHI.V/V      00 330 00 00         : PHIN         - NEUTRON POROSITY (SANDSTONE)
DPHI.V/V      00 890 00 00         : PHID         - DENSITY POROSITY (SANDSTONE)
GR  .API      00 310 00 00         : GR           - GAMMA RAY
CALI.MM       00 280 01 00         : CAL          - CALIPER
~PARAMETER INFORMATION
#MNEM.UNIT           DATA             DESCRIPTION OF MNEMONIC
#---------         -----------     ------------------------------
GL  .M        546.811              : gl           - GROUND LEVEL ELEVATION
EREF.M        552.907              : kb           - ELEVATION OF DEPTH REFERENCE
DATM.M        546.811              : datum        - DATUM ELEVATION
TDD .M        426.72               : tdd          - TOTAL DEPTH DRILLER
RUN .         ONE                  : Run          - RUN NUMBER
ENG .         BILL                 : Engineer     - RECORDING ENGINEER
WIT .         JIM                  : Witness      - WITNESSED BY
MUD .         GEL                  : Mud_type     - MUD TYPE
MATR.         SANDSTONE            : Logunit      - NEUTRON MATRIX
TMAX.C        26.6667              : BHT          - MAXIMUM RECORDED TEMPERATURE
BHTD.M        426.72               : BHTDEP       - MAXIMUM RECORDED TEMPERATURE
MATR.         1                    : LOGUNIT      - NEUTRON MATRIX
RMT .C        16.6667              : MDTP         - TEMPERATURE OF MUD
NEUT.         1                    : NEUTRON      - NEUTRON TYPE
RESI.         0                    : RESIST       - RESISTIVITY TYPE
RMC .OHMM     1                    : RMC          - RESISTIVITY OF MUD CAKE
RMF .OHMM     1.2                  : RMF          - RESISTIVITY OF MUD FILTRATE
SUFT.C        -20.5556             : SUFT         - SURFACE TEMPERATURE
~A  DEPTH     RESD     PHIN     PHID       GR      CAL
# ...
  271.120   12.405    0.416    0.289   58.636  301.676
  271.370   11.496    0.406    0.282   59.617  299.298
  271.620   10.454    0.410    0.278   60.668  296.858
  271.870    9.592    0.415    0.273   62.632  292.938
  272.120    8.313    0.409    0.267   64.943  282.681
  272.370    7.388    0.406    0.257   67.494  280.173
  272.620    6.933    0.406    0.244   70.406  287.522
  272.870    6.946    0.403    0.230   74.730  293.451
  273.120    7.223    0.401    0.186   78.253  286.416
  273.370    7.936    0.393    0.175   72.853  280.487
  273.620    8.546    0.396    0.200   69.588  273.646
  273.870    9.134    0.405    0.247   67.511  266.907
  274.120    9.666    0.415    0.283   65.968  261.382
  274.370    9.759    0.419    0.261   65.159  258.209
  274.620    9.138    0.419    0.246   67.940  257.874
  274.870    8.262    0.458    0.234   71.553  256.366
  275.120    6.973    0.474    0.211   74.994  254.564
  275.370    6.143    0.478    0.189   80.281  252.855
  275.620    5.752    0.479    0.180   85.925  251.038
  275.870    5.582    0.478    0.191   86.891  248.010
  276.120    5.721    0.467    0.191   86.705  246.439
  276.370    5.938    0.464    0.192   87.713  242.108
  276.620    6.132    0.472    0.184   89.078  230.850
  276.870    6.343    0.479    0.177   89.374  223.910
  277.120    6.564    0.478    0.175   89.494  226.919
  277.370    6.732    0.472    0.180   92.855  242.091
  277.620    6.792    0.463    0.192   93.905  253.093
  277.870    6.852    0.458    0.203   89.211  264.446
  278.120    6.876    0.463    0.211   84.521  273.699
  278.370    6.887    0.475    0.210   83.034  279.225
  278.620    6.873    0.482    0.201   85.106  279.519
  278.870    6.765    0.461    0.199   87.720  272.873
  279.120    6.675    0.459    0.195   85.061  271.302
  279.370    6.543    0.446    0.190   84.171  267.373
  279.620    6.412    0.433    0.186   83.814  267.980
  279.870    6.307    0.442    0.179   85.656  266.874
  280.120    6.215    0.466    0.168   89.161  263.255
  280.370    6.084    0.459    0.162   91.309  262.378
  280.620    6.048    0.441    0.164   89.880  265.382
  280.870    6.101    0.421    0.161   90.188  273.138
  281.120    6.055    0.420    0.159   90.483  277.271
  281.370    5.934    0.411    0.156   90.062  277.964
  281.620    5.763    0.398    0.154   90.235  273.821
  281.870    5.528    0.416    0.156   94.936  260.629
  282.120    5.332    0.422    0.161   97.971  254.462
  282.370    5.227    0.423    0.157   97.318  265.806
  282.620    5.122    0.416    0.156   99.335  273.843
  282.870    5.058    0.410    0.156   99.632  277.364
  283.120    4.994    0.409    0.156   97.731  277.070
  283.370    4.756    0.416    0.155   97.479  277.008
  283.620    4.456    0.411    0.151   99.519  284.240
  283.870    4.272    0.424    0.147   99.578  275.488
  284.120    4.210    0.445    0.136  100.353  272.462
  284.370    4.232    0.453    0.130   99.466  272.361
  284.620    4.308    0.450    0.134   97.504  273.471
  284.870    4.429    0.460    0.156   97.743  275.773
  285.120    4.539    0.455    0.187   96.327  278.797
  285.370    4.578    0.455    0.208   95.199  278.496
  285.620    4.519    0.437    0.211   92.113  276.083
  285.870    4.461    0.435    0.190   88.962  269.748
  286.120    4.435    0.450    0.159   86.343  261.198
  286.370    4.432    0.448    0.161   84.212  255.525
  286.620    4.543    0.439    0.186   87.482  254.802
  286.870    4.714    0.430    0.192   88.965  258.107
  287.120    5.051    0.417    0.197   90.093  260.818
  287.370    5.478    0.410    0.188   91.101  270.969
  287.620    5.903    0.410    0.175   91.933  284.547
  287.870    6.276    0.404    0.186   92.197  284.977
  288.120    6.580    0.411    0.188   92.005  282.558
  288.370    6.683    0.410    0.190   90.877  281.874
  288.620    6.718    0.402    0.182   89.571  281.167
  288.870    6.704    0.395    0.175   88.206  281.860
  289.120    6.653    0.392    0.162   86.839  282.855
  289.370    6.542    0.386    0.126   85.382  280.225
  289.620    6.404    0.389    0.138   84.956  278.685
  289.870    6.187    0.397    0.154   88.337  278.755
  290.120    6.075    0.410    0.170   89.757  279.752
  290.370    5.997    0.414    0.172   90.644  281.258
  290.620    5.964    0.408    0.164   91.654  281.462
  290.870    6.088    0.408    0.160   92.729  277.003
  291.120    6.237    0.413    0.154   93.031  276.270
  291.370    6.429    0.404    0.159   89.767  278.771
  291.620    6.417    0.423    0.156   88.288  277.972
  291.870    6.358    0.447    0.151   88.703  277.062
  292.120    6.321    0.457    0.146   90.539  275.845
  292.370    6.277    0.437    0.147   93.296  270.170
  292.620    6.241    0.426    0.150   96.078  267.322
  292.870    6.118    0.414    0.166   97.555  264.207
  293.120    5.897    0.412    0.167   99.215  263.201
  293.370    5.550    0.409    0.165   99.158  263.899
  293.620    5.166    0.405    0.167   97.202  264.999
  293.870    4.872    0.407    0.182   94.152  264.742
  294.120    4.807    0.417    0.207   90.504  266.929
  294.370    5.781    0.393    0.166   87.478  267.441
  294.620    6.834    0.367    0.115   81.238  273.673
  294.870    8.226    0.350    0.073   75.831  281.214
  295.120   10.203    0.339    0.043   74.050  287.551
  295.370   12.651    0.315    0.020   76.851  292.765
  295.620   14.202    0.310    0.031   73.945  296.230
  295.870   11.393    0.328    0.035   80.656  296.721
  296.120   10.286    0.370    0.101   83.621  298.728
  296.370    9.291    0.401    0.146   85.576  300.441
  296.620    8.312    0.406    0.149   87.477  301.651
  296.870    7.730    0.394    0.148   88.161  303.267
  297.120    7.630    0.396    0.149   86.479  300.848
  297.370    7.473    0.387    0.153   87.725  300.154
  297.620    7.483    0.379    0.152   89.153  297.636
  297.870    7.549    0.378    0.152   90.043  293.305
  298.120    7.603    0.385    0.152   90.276  288.674
  298.370    7.616    0.399    0.151   89.903  285.866
  298.620    7.629    0.409    0.149   87.746  281.375
  298.870    7.695    0.415    0.147   87.799  280.249
  299.120    7.680    0.415    0.145   86.258  281.255
  299.370    7.665    0.410    0.142   85.486  283.977
  299.620    7.662    0.403    0.142   86.372  286.695
  299.870    7.597    0.399    0.150   88.588  286.574
  300.120    7.496    0.384    0.155   89.880  287.526
  300.370    7.507    0.381    0.153   91.837  286.410
  300.620    7.560    0.389    0.153   92.376  286.816
  300.870    7.571    0.400    0.155   91.723  287.519
  301.120    7.514    0.405    0.158   91.008  288.211
  301.370    7.421    0.395    0.156   92.871  290.284
  301.620    7.432    0.392    0.147   95.893  294.166
  301.870    7.552    0.415    0.148   95.477  293.051
  302.120    7.591    0.411    0.152   93.459  293.766
  302.370    7.630    0.399    0.159   91.379  293.876
  302.620    7.752    0.389    0.165   90.072  290.856
  302.870    8.089    0.389    0.169   89.480  281.696
  303.120    8.287    0.388    0.173   88.540  279.717
  303.370    8.124    0.379    0.161   85.507  282.621
  303.620    7.962    0.391    0.146   86.395  283.723
  303.870    7.802    0.399    0.139   89.542  286.043
  304.120    7.647    0.395    0.141   92.809  289.673
  304.370    7.520    0.391    0.144   93.490  292.210
  304.620    7.644    0.396    0.141   93.070  294.397
  304.870    8.050    0.397    0.140   91.693  294.909
  305.120    8.525    0.392    0.143   89.790  292.391
  305.370    9.046    0.385    0.152   84.862  286.659
  305.620    9.681    0.379    0.167   77.675  279.719
  305.870   10.882    0.384    0.191   72.084  276.473
  306.120   12.122    0.399    0.185   71.162  279.948
  306.370   13.412    0.412    0.183   73.351  282.841
  306.620   14.774    0.400    0.200   73.053  286.971
  306.870   15.813    0.392    0.218   70.739  291.306
  307.120   16.276    0.397    0.221   68.364  295.229
  307.370   16.081    0.401    0.201   69.732  298.972
