~VERSION INFORMATION
 VERS.                 2.0:   CWLS LOG ASCII STANDARD -VERSION 2.0
 WRAP.                  NO:   ONE LINE PER DEPTH STEP
~WELL INFORMATION BLOCK
#MNEM.UNIT           DATA                    DESCRIPTION OF MNEMONIC
#---------    -------------------            -------------------------------
# Generated from Intellog Unique Number	CS_67_68/WELL/781
WELL.         SUNDANCE OIL CANADA LTD        : Well_name    - WELL
LOC .         00/07-29-068-16W4/0            : Location     - LOCATION
UWI .         00/07-29-068-16W4/0            : Uwi          - UNIQUE WELL ID
ENTR.         SP                             : Entered      - ENTERED BY
SRVC.         SCHLUMBERGER                   : Scn          - SERVICE COMPANY
STRT.M        292.608                        : top_depth    - START DEPTH
STOP.M        511.858                        : bot_depth    - STOP DEPTH
STEP.M        0.25                           : increment    - STEP LENGTH
 NULL. -999.2500:NULL Value
~CURVE INFORMATION BLOCK
#MNEM UNIT       ERCB CURVE CODE    CURVE DESCRIPTION
#-----------   ------------------   ----------------------------------
DEPT.M        00 001 00 00         : DEPTH        - DEPTH
GR  .API      00 310 00 00         : GR           - GAMMA RAY
DPHI.V/V      00 890 00 00         : PHID         - DENSITY POROSITY (SANDSTONE)
NPHI.V/V      00 330 00 00         : PHIN         - NEUTRON POROSITY (SANDSTONE)
ILD .OHMM     00 120 00 00         : RESD         - DEEP RESISTIVITY (DIL)
~PARAMETER INFORMATION
#MNEM.UNIT           DATA             DESCRIPTION OF MNEMONIC
#---------         -----------     ------------------------------
GL  .M        563.575              : gl           - GROUND LEVEL ELEVATION
EREF.M        567.111              : kb           - ELEVATION OF DEPTH REFERENCE
DATM.M        563.575              : datum        - DATUM ELEVATION
TDD .M        514.502              : tdd          - TOTAL DEPTH DRILLER
RUN .         ONE                  : Run          - RUN NUMBER
ENG .         BILL                 : Engineer     - RECORDING ENGINEER
WIT .         JIM                  : Witness      - WITNESSED BY
MUD .         GEL                  : Mud_type     - MUD TYPE
MATR.         SANDSTONE            : Logunit      - NEUTRON MATRIX
TMAX.C        23.8889              : BHT          - MAXIMUM RECORDED TEMPERATURE
BHTD.M        514.502              : BHTDEP       - MAXIMUM RECORDED TEMPERATURE
MATR.         1                    : LOGUNIT      - NEUTRON MATRIX
RMT .C        25                   : MDTP         - TEMPERATURE OF MUD
NEUT.         1                    : NEUTRON      - NEUTRON TYPE
RESI.         0                    : RESIST       - RESISTIVITY TYPE
RMC .OHMM     0.25                 : RMC          - RESISTIVITY OF MUD CAKE
RMF .OHMM     0.25                 : RMF          - RESISTIVITY OF MUD FILTRATE
SUFT.C        15                   : SUFT         - SURFACE TEMPERATURE
~A  DEPTH       GR     PHID     PHIN     RESD
# ...
  466.608   58.778    0.117    0.378    9.927
  466.858   44.056    0.099    0.398   11.446
  467.108   34.303    0.051    0.286   13.037
  467.358   36.737   -0.014    0.172   14.943
  467.608   46.358   -0.032    0.167   16.268
  467.858   60.992   -0.031    0.214   17.218
  468.108   75.704   -0.023    0.265   16.030
  468.358   97.543    0.004    0.241   11.983
  468.608   79.622    0.041    0.253   11.077
  468.858   57.870    0.073    0.302   13.150
  469.108   41.581    0.112    0.359   15.657
  469.358   33.346    0.091    0.325   18.052
  469.608   34.580   -0.021    0.177   20.105
  469.858   36.866   -0.023    0.131   21.820
  470.108   37.557   -0.028    0.113   22.755
  470.358   40.255   -0.029    0.111   23.179
  470.608   46.412   -0.027    0.113   23.314
  470.858   52.163   -0.022    0.111   23.252
  471.108   57.622   -0.017    0.114   23.127
  471.358   55.595   -0.011    0.131   23.038
  471.608   50.090   -0.005    0.147   23.140
  471.858   48.112   -0.005    0.141   23.416
  472.108   48.361   -0.006    0.133   23.743
  472.358   50.129   -0.007    0.133   23.490
  472.608   51.901   -0.007    0.162   22.611
  472.858   52.691   -0.005    0.192   21.122
  473.108   51.797    0.005    0.213   18.810
  473.358   51.173    0.017    0.229   16.564
  473.608   51.522    0.038    0.235   15.512
  473.858   51.704    0.053    0.239   14.419
  474.108   50.813    0.046    0.241   13.645
  474.358   47.997    0.047    0.241   12.767
  474.608   48.845    0.057    0.242   12.414
  474.858   50.589    0.047    0.247   13.887
  475.108   52.657    0.033    0.254   13.567
  475.358   53.022    0.040    0.261   13.491
  475.608   50.958    0.055    0.265   13.518
  475.858   48.731    0.069    0.268   13.625
  476.108   47.175    0.077    0.267   13.708
  476.358   44.844    0.081    0.265   13.837
  476.608   42.762    0.069    0.260   13.729
  476.858   46.765    0.061    0.250   13.407
  477.108   47.724    0.060    0.242   12.873
  477.358   45.305    0.067    0.233   12.384
  477.608   45.539    0.063    0.227   11.772
  477.858   44.448    0.072    0.226   11.474
  478.108   42.173    0.092    0.241   11.272
  478.358   42.044    0.101    0.258   11.364
  478.608   43.014    0.096    0.273   11.479
  478.858   45.090    0.085    0.268   11.560
  479.108   47.185    0.074    0.258   11.482
  479.358   49.850    0.052    0.252   11.264
  479.608   51.977    0.050    0.242   10.974
  479.858   53.694    0.062    0.231   10.656
  480.108   54.964    0.058    0.227   10.565
  480.358   52.811    0.060    0.246   10.808
  480.608   52.318    0.069    0.256   11.305
  480.858   53.890    0.074    0.249   11.602
  481.108   54.613    0.067    0.242   12.090
  481.358   51.845    0.050    0.242   12.650
  481.608   33.482    0.065    0.268   13.148
  481.858   25.242    0.085    0.270   13.458
  482.108   20.791    0.084    0.253   13.474
  482.358   21.185    0.066    0.238   13.295
  482.608   23.915    0.042    0.244   13.109
  482.858   24.411    0.042    0.290   13.079
  483.108   21.373    0.077    0.328   12.985
  483.358   24.101    0.104    0.355   12.408
  483.608   32.240    0.108    0.323   11.400
  483.858   39.583    0.082    0.293   10.475
  484.108   48.343    0.082    0.280    9.290
  484.358   49.744    0.100    0.287    8.159
  484.608   43.942    0.106    0.297    7.654
  484.858   46.954    0.102    0.305    7.529
  485.108   48.695    0.096    0.295    7.647
  485.358   49.494    0.091    0.279    8.118
  485.608   49.241    0.098    0.267    8.689
  485.858   42.272    0.060    0.253    9.283
  486.108   28.013    0.029    0.237   10.547
  486.358   32.155    0.021    0.223   12.070
  486.608   43.910    0.006    0.216   13.068
  486.858   52.876    0.004    0.211   14.215
  487.108   59.412    0.012    0.207   14.809
  487.358   65.036    0.004    0.221   14.850
  487.608   71.955    0.025    0.238   13.844
  487.858   76.336    0.040    0.246   12.985
  488.108   72.352    0.052    0.285   12.646
  488.358   55.170    0.077    0.319   12.809
  488.608   41.013    0.086    0.318   13.048
  488.858   41.139    0.072    0.306   12.343
  489.108   50.653    0.059    0.288   10.940
  489.358   60.776    0.085    0.281   10.054
  489.608   67.150    0.117    0.296    9.159
  489.858   58.817    0.108    0.311    8.404
  490.108   54.606    0.121    0.320    7.926
  490.358   56.008    0.125    0.306    7.810
  490.608   57.851    0.105    0.292    7.930
  490.858   57.000    0.107    0.287    8.298
  491.108   51.999    0.102    0.294    8.653
  491.358   45.598    0.119    0.296    9.079
  491.608   40.303    0.104    0.299    9.344
  491.858   36.869    0.105    0.306    9.775
  492.108   34.067    0.134    0.311   10.129
  492.358   30.174    0.096    0.301   10.519
  492.608   25.864    0.075    0.292   10.916
  492.858   32.607    0.078    0.283   11.360
  493.108   39.982    0.080    0.276   11.850
  493.358   45.614    0.053    0.256   12.570
  493.608   47.020    0.024    0.238   13.432
  493.858   43.603   -0.009    0.218   14.579
  494.108   42.675    0.007    0.197   16.137
  494.358   44.666    0.042    0.184   18.351
  494.608   39.776    0.047    0.177   21.009
  494.858   42.539    0.035    0.174   23.885
  495.108   49.091    0.023    0.163   26.709
  495.358   36.602    0.007    0.141   28.164
  495.608   24.879    0.014    0.156   29.071
  495.858   19.730    0.018    0.149   29.146
  496.108   17.307    0.003    0.114   28.305
  496.358   16.424   -0.013    0.128   24.099
  496.608   15.251    0.025    0.159   18.156
  496.858   14.723    0.076    0.202   15.503
  497.108   14.595    0.063    0.238   13.338
  497.358   12.564    0.071    0.240   12.121
  497.608   10.464    0.070    0.255   11.350
  497.858    9.618    0.077    0.277   11.140
  498.108   11.259    0.098    0.308   11.499
  498.358   12.617    0.095    0.299   11.916
  498.608   13.749    0.081    0.273   12.426
  498.858   14.971    0.061    0.228   13.131
  499.108   14.637    0.035    0.211   13.370
  499.358   14.375    0.018    0.221   13.116
  499.608   14.990    0.070    0.245   10.568
  499.858   17.270    0.031    0.199    8.834
  500.108   21.856    0.014    0.231    8.117
  500.358   25.835    0.063    0.257    7.744
  500.608   24.140    0.074    0.277    8.346
  500.858   10.551    0.071    0.284    9.848
  501.108    9.550    0.046    0.273   11.594
  501.358    9.671    0.014    0.251   17.537
  501.608   10.599    0.001    0.233   24.477
  501.858   11.575   -0.015    0.218   30.588
  502.108   12.664   -0.021    0.196   35.561
  502.358   12.917   -0.022    0.186   37.373
  502.608   12.541   -0.022    0.179   39.208
  502.858   14.354   -0.022    0.178   40.086
  503.108   15.372   -0.019    0.187   39.743
  503.358   10.813   -0.018    0.200   36.945
  503.608   10.210   -0.017    0.207   33.975
  503.858   10.563   -0.017    0.187   32.053
  504.108   11.572   -0.015    0.194   30.361
  504.358   13.382   -0.014    0.200   28.812
  504.608   14.604   -0.014    0.182   27.589
  504.858   15.115   -0.005    0.174   27.010
  505.108   14.299   -0.000    0.183   26.588
  505.358   13.755   -0.009    0.203   25.259
  505.608   14.442   -0.002    0.226   21.057
  505.858   15.167    0.019    0.229   17.392
  506.108   14.401    0.026    0.231   13.498
  506.358   11.922    0.041    0.259   10.640
  506.608   31.361    0.055    0.299    8.948
  506.858   76.612    0.050    0.271    8.419
  507.108   97.862    0.024    0.251    8.361
  507.358   96.953   -0.003    0.253    8.630
  507.608   95.945    0.031    0.310    8.939
  507.858   95.375    0.071    0.327    9.720
  508.108   95.620    0.090    0.283   10.775
  508.358   96.265    0.031    0.235   13.350
  508.608   99.230    0.002    0.226   15.434
  508.858   99.503    0.046    0.236   16.601
  509.108   98.432    0.040    0.218   15.732
  509.358   97.549    0.021    0.206   15.166
  509.608   97.391   -0.011    0.213   14.671
  509.858   97.222   -0.026    0.214   14.004
