~VERSION INFORMATION
 VERS.                 2.0:   CWLS LOG ASCII STANDARD -VERSION 2.0
 WRAP.                  NO:   ONE LINE PER DEPTH STEP
~WELL INFORMATION BLOCK
#MNEM.UNIT           DATA                    DESCRIPTION OF MNEMONIC
#---------    -------------------            -------------------------------
# Generated from Intellog Unique Number	CW_76_78/WELL/3586
WELL.         06-28-076-19W4                 : Well_name    - WELL
LOC .         00/06-28-076-19W4/0            : Location     - LOCATION
UWI .         00/06-28-076-19W4/0            : Uwi          - UNIQUE WELL ID
ENTR.         JOETTE                         : Entered      - ENTERED BY
SRVC.         SCHLUMBERGER                   : Scn          - SERVICE COMPANY
DATE.         08-26-92                       : Date         - LOG DATE
STRT.M        185                            : top_depth    - START DEPTH
STOP.M        445                            : bot_depth    - STOP DEPTH
STEP.M        0.25                           : increment    - STEP LENGTH
 NULL. -999.2500:NULL Value
~CURVE INFORMATION BLOCK
#MNEM UNIT       ERCB CURVE CODE    CURVE DESCRIPTION
#-----------   ------------------   ----------------------------------
DEPT.M        00 001 00 00         : DEPTH        - DEPTH
ILD .OHMM     00 120 00 00         : RESD         - DEEP RESISTIVITY (DIL)
DPHI.V/V      00 890 00 00         : PHID         - DENSITY POROSITY (SANDSTONE)
NPHI.V/V      00 330 00 00         : PHIN         - NEUTRON POROSITY (SANDSTONE)
GR  .API      00 310 00 00         : GR           - GAMMA RAY
~PARAMETER INFORMATION
#MNEM.UNIT           DATA             DESCRIPTION OF MNEMONIC
#---------         -----------     ------------------------------
GL  .M        573.1                : gl           - GROUND LEVEL ELEVATION
EREF.M        576.4                : kb           - ELEVATION OF DEPTH REFERENCE
DATM.M        576.4                : datum        - DATUM ELEVATION
TDD .M        448                  : tdd          - TOTAL DEPTH DRILLER
RUN .         \                    : Run          - RUN NUMBER
ENG .         BILL                 : Engineer     - RECORDING ENGINEER
WIT .         JIM                  : Witness      - WITNESSED BY
MUD .         GEL                  : Mud_type     - MUD TYPE
MATR.         SANDSTONE            : Logunit      - NEUTRON MATRIX
TMAX.C        23                   : BHT          - MAXIMUM RECORDED TEMPERATURE
BHTD.M        448                  : BHTDEP       - MAXIMUM RECORDED TEMPERATURE
MATR.         1                    : LOGUNIT      - NEUTRON MATRIX
RMT .C        19                   : MDTP         - TEMPERATURE OF MUD
NEUT.         1                    : NEUTRON      - NEUTRON TYPE
RESI.         0                    : RESIST       - RESISTIVITY TYPE
RMC .OHMM     3.53                 : RMC          - RESISTIVITY OF MUD CAKE
RMF .OHMM     7.87                 : RMF          - RESISTIVITY OF MUD FILTRATE
SUFT.C        5                    : SUFT         - SURFACE TEMPERATURE
~A  DEPTH     RESD     PHID     PHIN       GR
# ...
  359.000   14.453    0.275    0.463   54.865
  359.250   13.194    0.289    0.463   55.450
  359.500   12.267    0.302    0.456   56.033
  359.750   11.831    0.306    0.446   71.148
  360.000   11.837    0.291    0.435   72.313
  360.250   11.841    0.270    0.426   65.922
  360.500   11.846    0.234    0.425   63.019
  360.750   11.634    0.213    0.442   65.347
  361.000   11.017    0.251    0.448   70.000
  361.250   10.243    0.264    0.445   73.490
  361.500    9.351    0.259    0.443   79.305
  361.750    8.536    0.247    0.441   81.634
  362.000    7.938    0.246    0.437   81.636
  362.250    7.797    0.252    0.432   81.057
  362.500    7.943    0.258    0.437   78.735
  362.750    8.093    0.257    0.441   74.088
  363.000    8.246    0.256    0.446   72.348
  363.250    8.401    0.258    0.451   72.351
  363.500    8.719    0.267    0.454   72.934
  363.750    8.884    0.275    0.459   72.937
  364.000    9.052    0.277    0.460   72.940
  364.250    9.222    0.275    0.464   74.106
  364.500    9.226    0.276    0.464   74.108
  364.750    9.229    0.279    0.463   71.787
  365.000    9.233    0.276    0.460   67.721
  365.250    9.069    0.268    0.454   63.654
  365.500    9.073    0.260    0.452   60.751
  365.750    9.244    0.262    0.447   64.822
  366.000    9.244    0.263    0.452   65.987
  366.250   10.517    0.257    0.458   64.828
  366.500    9.600    0.244    0.457   66.575
  366.750    9.430    0.235    0.450   68.321
  367.000    9.093    0.229    0.442   66.581
  367.250    8.454    0.229    0.441   66.002
  367.500    7.579    0.235    0.436   68.331
  367.750    8.010    0.247    0.431   70.076
  368.000    8.620    0.253    0.442   72.403
  368.250    9.984    0.201    0.448   64.269
  368.500   12.441    0.138    0.388   42.766
  368.750   17.622    0.082    0.380   44.512
  369.000   24.064    0.052    0.398   48.584
  369.250   26.385    0.051    0.415   53.237
  369.500   24.983    0.058    0.428   55.566
  369.750   20.434    0.084    0.439   54.405
  370.000   14.976    0.133    0.444   54.408
  370.250   12.940    0.207    0.446   58.480
  370.500   10.979    0.219    0.449   64.877
  370.750   10.396    0.224    0.454   65.460
  371.000   10.029    0.227    0.456   66.627
  371.250   10.032    0.243    0.461   68.373
  371.500   10.220    0.246    0.460   71.282
  371.750   11.002    0.237    0.452   74.190
  372.000   11.626    0.237    0.455   75.936
  372.250   12.289    0.232    0.459   75.359
  372.500   12.521    0.225    0.458   73.617
  372.750   12.524    0.213    0.447   68.389
  373.000   12.529    0.200    0.442   65.486
  373.250   12.308    0.205    0.445   64.908
  373.500   12.312    0.209    0.442   65.491
  373.750   12.316    0.209    0.437   67.819
  374.000   12.321    0.209    0.443   70.147
  374.250   12.554    0.208    0.447   69.569
  374.500   12.790    0.205    0.445   69.571
  374.750   13.031    0.207    0.439   71.318
  375.000   12.802    0.213    0.452   74.809
  375.250   12.345    0.216    0.454   77.136
  375.500   11.691    0.216    0.447   81.208
  375.750   11.274    0.213    0.444   77.142
  376.000   10.675    0.208    0.441   77.145
  376.250   10.680    0.197    0.434   81.797
  376.500   10.882    0.199    0.432   84.126
  376.750   10.885    0.211    0.439   85.291
  377.000   11.297    0.220    0.445   87.038
  377.250   11.510    0.224    0.450   89.365
  377.500   11.514    0.220    0.451   88.206
  377.750   11.311    0.214    0.445   87.045
  378.000   11.108    0.203    0.422   85.886
  378.250   10.328    0.171    0.420   88.213
  378.500    9.780    0.159    0.422   91.122
  378.750    9.262    0.167    0.433   91.125
  379.000    9.266    0.178    0.439   87.641
  379.250    9.269    0.188    0.440   88.806
  379.500    9.273    0.183    0.445   94.621
  379.750    9.276    0.186    0.450   99.274
  380.000    9.626    0.192    0.457   95.789
  380.250    9.629    0.186    0.461   90.561
  380.500    9.811    0.181    0.455   95.214
  380.750    9.998    0.177    0.448   99.868
  381.000   10.000    0.181    0.439   96.964
  381.250   10.004    0.176    0.440   92.898
  381.500   10.008    0.171    0.444   88.251
  381.750   10.972    0.175    0.445   90.579
  382.000   11.596    0.169    0.445   90.582
  382.250   11.813    0.128    0.435   90.003
  382.500   12.038    0.088    0.422   87.099
  382.750   12.721    0.053    0.416   83.033
  383.000   14.204    0.099    0.416   81.874
  383.250   15.288    0.108    0.422   84.202
  383.500   16.457    0.115    0.424   84.204
  383.750   17.391    0.120    0.423   81.883
  384.000   19.419    0.128    0.418   80.142
  384.250   18.389    0.101    0.407   78.400
  384.500   17.413    0.089    0.395   72.591
  384.750   16.190    0.072    0.403   72.012
  385.000   15.614    0.083    0.437   77.247
  385.250   15.057    0.112    0.446   81.318
  385.500   14.261    0.144    0.439   80.159
  385.750   13.754    0.117    0.426   79.579
  386.000   13.264    0.101    0.431   79.582
  386.250   12.560    0.123    0.440   81.329
  386.500   11.893    0.166    0.446   87.145
  386.750   10.857    0.167    0.445   88.311
  387.000    9.731    0.171    0.451   84.826
  387.250    9.736    0.148    0.450   81.922
  387.500   10.291    0.134    0.426   81.344
  387.750   10.875    0.149    0.434   85.996
  388.000   11.493    0.165    0.443   86.000
  388.250   11.496    0.176    0.440   84.841
  388.500   11.087    0.179    0.437   84.842
  388.750   10.499    0.185    0.440   86.007
  389.000    9.942    0.189    0.450   86.591
  389.250    9.766    0.150    0.446   86.594
  389.500    9.594    0.133    0.444   86.599
  389.750    9.422    0.148    0.438   86.601
  390.000    8.760    0.162    0.444   86.022
  390.250    7.852    0.166    0.450   86.025
  390.500    6.785    0.162    0.458   86.609
  390.750    5.652    0.160    0.460   87.193
  391.000    4.539    0.162    0.461   87.776
  391.250    3.781    0.168    0.460   88.942
  391.500    3.037    0.198    0.451   93.013
  391.750    2.773    0.226    0.447   94.760
  392.000    2.723    0.255    0.449   90.113
  392.250    2.725    0.272    0.451   88.953
  392.500    2.827    0.273    0.455   92.445
  392.750    2.933    0.240    0.457   91.867
  393.000    3.397    0.205    0.457   88.382
  393.250    3.935    0.176    0.452   83.152
  393.500    5.888    0.141    0.444   77.924
  393.750    9.139    0.062    0.418   76.764
  394.000   10.019    0.046    0.432   81.999
  394.250    9.663    0.060    0.447   83.164
  394.500    9.151    0.091    0.446   83.166
  394.750    8.355    0.121    0.445   83.169
  395.000    7.910    0.149    0.447   87.241
  395.250    7.090    0.154    0.453   90.150
  395.500    6.240    0.163    0.460   89.572
  395.750    5.802    0.161    0.461   87.251
  396.000    5.699    0.155    0.463   86.671
  396.250    5.702    0.151    0.457   86.092
  396.500    5.918    0.157    0.453   85.514
  396.750    6.139    0.160    0.453   87.261
  397.000    6.489    0.152    0.455   86.682
  397.250    6.857    0.149    0.456   82.616
  397.500    7.248    0.151    0.458   79.713
  397.750    7.520    0.152    0.461   82.622
  398.000    8.095    0.151    0.464   82.044
  398.250    8.875    0.147    0.462   83.209
  398.500    9.208    0.141    0.457   85.538
  398.750   10.281    0.125    0.446   83.797
  399.000    9.915    0.127    0.441   84.380
  399.250    9.389    0.132    0.442   89.033
  399.500    8.730    0.146    0.441   94.848
  399.750    8.266    0.155    0.435   98.339
  400.000    7.687    0.162    0.430   96.597
  400.250    7.549    0.161    0.434   94.856
  400.500    7.980    0.156    0.446   97.766
  400.750    8.588    0.150    0.456   93.700
  401.000    9.588    0.140    0.458   87.309
  401.250   43.827    0.101    0.452   71.618
  401.500   87.899    0.074    0.444   55.927
  401.750  115.726    0.058    0.420   43.724
  402.000  111.610    0.049    0.409   33.845
  402.250   98.216    0.039    0.409   25.712
