~VERSION INFORMATION
 VERS.                 2.0:   CWLS LOG ASCII STANDARD -VERSION 2.0
 WRAP.                  NO:   ONE LINE PER DEPTH STEP
~WELL INFORMATION BLOCK
#MNEM.UNIT           DATA                    DESCRIPTION OF MNEMONIC
#---------    -------------------            -------------------------------
# Generated from Intellog Unique Number	CW_76_78/WELL/2571
WELL.         07-07-078-23W4                 : Well_name    - WELL
LOC .         00/07-07-078-23W4/0            : Location     - LOCATION
UWI .         00/07-07-078-23W4/0            : Uwi          - UNIQUE WELL ID
ENTR.         MAX                            : Entered      - ENTERED BY
SRVC.         WESTERN ATLAS                  : Scn          - SERVICE COMPANY
STRT.M        290                            : top_depth    - START DEPTH
STOP.M        562                            : bot_depth    - STOP DEPTH
STEP.M        0.25                           : increment    - STEP LENGTH
 NULL. -999.2500:NULL Value
~CURVE INFORMATION BLOCK
#MNEM UNIT       ERCB CURVE CODE    CURVE DESCRIPTION
#-----------   ------------------   ----------------------------------
DEPT.M        00 001 00 00         : DEPTH        - DEPTH
ILD .OHMM     00 120 00 00         : RESD         - DEEP RESISTIVITY (DIL)
NPHI.V/V      00 330 00 00         : PHIN         - NEUTRON POROSITY (SANDSTONE)
DPHI.V/V      00 890 00 00         : PHID         - DENSITY POROSITY (SANDSTONE)
CALI.MM       00 280 01 00         : CAL          - CALIPER
GR  .API      00 310 00 00         : GR           - GAMMA RAY
~PARAMETER INFORMATION
#MNEM.UNIT           DATA             DESCRIPTION OF MNEMONIC
#---------         -----------     ------------------------------
GL  .M        601.9                : gl           - GROUND LEVEL ELEVATION
EREF.M        606                  : kb           - ELEVATION OF DEPTH REFERENCE
DATM.M        601.9                : datum        - DATUM ELEVATION
TDD .M        566                  : tdd          - TOTAL DEPTH DRILLER
RUN .         ONE                  : Run          - RUN NUMBER
ENG .         BILL                 : Engineer     - RECORDING ENGINEER
WIT .         JIM                  : Witness      - WITNESSED BY
MUD .         GEL                  : Mud_type     - MUD TYPE
MATR.         SANDSTONE            : Logunit      - NEUTRON MATRIX
TMAX.C        27                   : BHT          - MAXIMUM RECORDED TEMPERATURE
BHTD.M        566                  : BHTDEP       - MAXIMUM RECORDED TEMPERATURE
RMT .C        20                   : MDTP         - TEMPERATURE OF MUD
MUDD.KG/M     1110                 : MWT          - MUD DENSITY
NEUT.         1                    : NEUTRON      - NEUTRON TYPE
RESI.         0                    : RESIST       - RESISTIVITY TYPE
RM  .OHMM     5                    : RM           - RESISTIVITY OF MUD
RMC .OHMM     5.5                  : RMC          - RESISTIVITY OF MUD CAKE
RMF .OHMM     4.8                  : RMF          - RESISTIVITY OF MUD FILTRATE
SUFT.C        -20                  : SUFT         - SURFACE TEMPERATURE
~A  DEPTH     RESD     PHIN     PHID      CAL       GR
# ...
  326.500   10.507    0.314    0.234  205.152   61.715
  326.750   10.504    0.324    0.236  205.125   64.982
  327.000   10.695    0.309    0.224  205.602   65.266
  327.250   10.988    0.302    0.220  205.581   61.076
  327.500   11.087    0.312    0.227  205.061   67.321
  327.750   10.786    0.327    0.266  205.034   57.170
  328.000    9.757    0.333    0.271  205.014   55.367
  328.250    8.989    0.343    0.257  205.981   89.345
  328.500    7.841    0.361    0.245  206.448   97.679
  328.750    7.094    0.363    0.239  206.925   99.153
  329.000    6.359    0.360    0.232  207.401   99.139
  329.250    5.598    0.357    0.222  207.871  100.614
  329.500    5.157    0.358    0.222  207.851  102.092
  329.750    4.708    0.360    0.221  208.818  106.849
  330.000    4.622    0.357    0.219  209.791  117.866
  330.250    4.792    0.365    0.243  211.255  118.150
  330.500    5.152    0.382    0.265  212.229  114.258
  330.750    5.199    0.387    0.278  213.199  105.598
  331.000    4.703    0.379    0.260  212.676   97.834
  331.250    3.780    0.374    0.250  211.658   95.433
  331.500    3.238    0.373    0.264  211.138  102.576
  331.750    2.850    0.391    0.263  210.614  111.208
  332.000    2.650    0.401    0.225  210.591  124.312
  332.250    2.486    0.407    0.165  210.570  119.824
  332.500    2.485    0.410    0.157  211.043  120.408
  332.750    2.485    0.409    0.180  211.020  129.338
  333.000    2.462    0.406    0.251  211.490  129.920
  333.250    2.395    0.400    0.211  211.467  124.536
  333.500    2.352    0.418    0.171  210.444  127.505
  333.750    2.394    0.431    0.192  209.432  130.769
  334.000    2.528    0.426    0.259  208.409  134.632
  334.250    3.173    0.424    0.259  208.388  125.375
  334.500    4.282    0.418    0.242  209.858  120.591
  334.750    5.181    0.386    0.234  211.822  110.733
  335.000    5.324    0.385    0.238  215.274  111.617
  335.250    5.179    0.389    0.232  214.751  115.777
  335.500    4.993    0.390    0.232  213.739  123.811
  335.750    4.946    0.390    0.242  213.216  118.730
  336.000    4.857    0.385    0.228  212.693  125.871
  336.250    4.900    0.375    0.216  211.678  128.537
  336.500    5.127    0.369    0.222  209.667  125.843
  336.750    5.513    0.367    0.236  210.137  118.375
  337.000    5.821    0.361    0.238  212.598  100.471
  337.250    6.090    0.372    0.190  213.069   96.581
  337.500    6.315    0.368    0.196  213.051   92.393
  337.750    6.607    0.344    0.234  214.021   86.117
  338.000    7.040    0.357    0.278  214.495   84.611
  338.250    7.233    0.369    0.295  213.477   85.789
  338.500    7.166    0.373    0.303  211.463   85.477
  338.750    6.972    0.369    0.313  209.949   83.972
  339.000    6.364    0.371    0.320  209.428   85.449
  339.250    5.863    0.388    0.305  209.902   93.783
  339.500    5.652    0.394    0.267  210.872   88.700
  339.750    5.914    0.404    0.238  211.345   85.704
  340.000    6.655    0.410    0.270  211.322   82.409
  340.250    8.982    0.389    0.296  211.295   76.434
  340.500   10.199    0.386    0.330  209.781   71.646
  340.750   10.671    0.377    0.308  208.761   76.402
  341.000   11.164    0.372    0.288  208.240   79.071
  341.250   11.265    0.366    0.298  208.714   80.250
  341.500   11.262    0.361    0.312  209.187   81.428
  341.750   11.158    0.350    0.320  210.154   83.801
  342.000   11.155    0.340    0.317  210.134   87.066
  342.250   11.153    0.339    0.320  210.113   82.878
  342.500   11.050    0.347    0.320  209.590   76.603
  342.750   10.948    0.358    0.318  209.569   77.481
  343.000   10.945    0.360    0.324  209.546   79.853
  343.250   11.043    0.360    0.325  209.025   76.859
  343.500   11.346    0.366    0.324  208.499   77.141
  343.750   11.346    0.372    0.318  208.481   79.214
  344.000   11.445    0.396    0.308  208.481   76.513
  344.250   11.445    0.400    0.301  208.425   77.097
  344.500   11.756    0.397    0.299  208.904   76.486
  344.750   11.970    0.383    0.291  208.881   76.471
  345.000   12.411    0.376    0.265  208.854   76.162
  345.250   12.986    0.368    0.267  208.831   74.359
  345.500   13.587    0.354    0.301  209.304   75.237
  345.750   14.346    0.345    0.295  209.778   77.312
  346.000   16.142    0.335    0.307  209.757   77.594
  346.250   18.666    0.311    0.317  209.733   74.599
  346.500   21.194    0.272    0.277  211.692   68.920
  346.750   22.177    0.235    0.058  213.162   69.498
  347.000   22.579    0.208    0.054  213.635   69.486
  347.250   21.571    0.206    0.039  213.609   69.175
  347.500   17.025    0.212    0.041  212.588   72.141
  347.750   15.685    0.241    0.058  212.071   73.618
  348.000   13.934    0.340    0.123  211.550   78.077
  348.250   13.072    0.379    0.234  211.033   79.256
  348.500   12.602    0.392    0.283  209.022   80.134
  348.750   12.599    0.396    0.300  207.507   83.998
  349.000   12.712    0.392    0.311  207.475   77.721
  349.250   13.061    0.387    0.309  207.475   75.916
  349.500   13.297    0.387    0.307  207.925   77.693
  349.750   13.174    0.382    0.321  208.895   73.205
  350.000   13.053    0.361    0.319  208.877   72.594
  350.250   12.698    0.352    0.300  208.854   74.967
  350.500   12.467    0.368    0.291  208.333   77.338
  350.750   12.351    0.380    0.298  207.810   78.218
  351.000   12.238    0.382    0.293  207.292   75.521
  351.250   12.235    0.383    0.279  206.769   75.505
  351.500   12.233    0.388    0.270  206.742   75.193
  351.750   12.119    0.399    0.263  206.716   77.266
  352.000   12.117    0.397    0.252  206.698   76.953
  352.250   12.005    0.390    0.264  206.672   77.832
  352.500   11.894    0.373    0.294  206.648   78.116
  352.750   11.571    0.358    0.311  206.625   78.998
  353.000   11.361    0.357    0.317  206.601   77.195
  353.250   11.053    0.360    0.316  206.581   75.094
  353.500   10.655    0.362    0.315  207.054   83.726
  353.750   10.180    0.365    0.316  207.027   82.218
  354.000    9.637    0.367    0.319  207.001   81.307
  354.250    9.207    0.370    0.323  206.980   83.980
  354.500    9.039    0.374    0.325  206.939   84.560
  354.750    8.875    0.378    0.325  206.436   80.968
  355.000    8.713    0.390    0.305  205.916   79.462
  355.250    8.477    0.388    0.303  205.892   75.873
  355.500    7.809    0.366    0.309  205.866   67.809
  355.750    7.194    0.346    0.327  205.845   69.284
  356.000    6.162    0.347    0.292  205.819   73.744
  356.250    5.231    0.355    0.283  206.286   79.991
  356.500    4.819    0.358    0.283  206.271   82.660
  356.750    4.731    0.362    0.283  206.239   85.327
  357.000    4.996    0.362    0.276  206.221   91.874
  357.250    5.520    0.381    0.259  206.195   95.436
  357.500    6.559    0.380    0.244  206.171   90.055
  357.750    7.448    0.365    0.233  206.648   91.830
  358.000    8.457    0.366    0.239  206.621   87.642
  358.250    9.517    0.379    0.252  207.097   81.665
  358.500   10.232    0.382    0.295  207.568   77.775
  358.750   10.418    0.382    0.302  207.547   77.761
  359.000   10.511    0.370    0.289  207.524   76.254
  359.250   10.509    0.364    0.285  207.497   77.433
  359.500   10.412    0.370    0.276  206.977   77.417
  359.750   10.316    0.360    0.285  206.950   75.316
  360.000   10.128    0.354    0.291  206.924   74.405
  360.250   10.128    0.358    0.291  206.900   77.376
  360.500   10.123    0.373    0.288  206.880   76.764
  360.750   10.028    0.379    0.285  206.859   79.435
  361.000    9.847    0.362    0.283  206.835   80.911
  361.250    9.579    0.369    0.287  206.812   76.722
  361.500    9.320    0.378    0.293  206.785   78.198
  361.750    8.904    0.378    0.293  206.762   78.480
  362.000    8.430    0.375    0.290  206.738   79.661
  362.250    8.201    0.356    0.284  206.715   80.539
  362.500    8.200    0.356    0.287  207.188   81.419
  362.750    8.348    0.359    0.295  207.165   87.966
