~VERSION INFORMATION
 VERS.                 2.0:   CWLS LOG ASCII STANDARD -VERSION 2.0
 WRAP.                  NO:   ONE LINE PER DEPTH STEP
~WELL INFORMATION BLOCK
#MNEM.UNIT           DATA                    DESCRIPTION OF MNEMONIC
#---------    -------------------            -------------------------------
# Generated from Intellog Unique Number	CS_73_76/WELL/1044
WELL.         CANADIAN SUPERIOR OIL LTD.     : Well_name    - WELL
LOC .         00/06-20-076-14W4/0            : Location     - LOCATION
UWI .         00/06-20-076-14W4/0            : Uwi          - UNIQUE WELL ID
ENTR.         SP                             : Entered      - ENTERED BY
SRVC.         SCHLUMBERGER                   : Scn          - SERVICE COMPANY
STRT.M        315                            : top_depth    - START DEPTH
STOP.M        530                            : bot_depth    - STOP DEPTH
STEP.M        0.25                           : increment    - STEP LENGTH
 NULL. -999.2500:NULL Value
~CURVE INFORMATION BLOCK
#MNEM UNIT       ERCB CURVE CODE    CURVE DESCRIPTION
#-----------   ------------------   ----------------------------------
DEPT.M        00 001 00 00         : DEPTH        - DEPTH
DPHI.V/V      00 890 00 00         : PHID         - DENSITY POROSITY (LIMESTONE)
NPHI.V/V      00 330 00 00         : PHIN         - NEUTRON POROSITY (LIMESTONE)
GR  .API      00 310 00 00         : GR           - GAMMA RAY
ILD .OHMM     00 120 00 00         : RESD         - DEEP RESISTIVITY (DIL)
~PARAMETER INFORMATION
#MNEM.UNIT           DATA             DESCRIPTION OF MNEMONIC
#---------         -----------     ------------------------------
GL  .M        694.7                : gl           - GROUND LEVEL ELEVATION
EREF.M        698.7                : kb           - ELEVATION OF DEPTH REFERENCE
DATM.M        694.7                : datum        - DATUM ELEVATION
TDD .M        539                  : tdd          - TOTAL DEPTH DRILLER
RUN .         ONE                  : Run          - RUN NUMBER
ENG .         BILL                 : Engineer     - RECORDING ENGINEER
WIT .         JIM                  : Witness      - WITNESSED BY
MUD .         GEL                  : Mud_type     - MUD TYPE
MATR.         LIMESTONE            : Logunit      - NEUTRON MATRIX
TMAX.C        21                   : BHT          - MAXIMUM RECORDED TEMPERATURE
BHTD.M        539                  : BHTDEP       - MAXIMUM RECORDED TEMPERATURE
MATR.         1                    : LOGUNIT      - NEUTRON MATRIX
RMT .C        25                   : MDTP         - TEMPERATURE OF MUD
NEUT.         1                    : NEUTRON      - NEUTRON TYPE
RESI.         0                    : RESIST       - RESISTIVITY TYPE
RMC .OHMM     0.25                 : RMC          - RESISTIVITY OF MUD CAKE
RMF .OHMM     0.25                 : RMF          - RESISTIVITY OF MUD FILTRATE
SUFT.C        15                   : SUFT         - SURFACE TEMPERATURE
~A  DEPTH     PHID     PHIN       GR     RESD
# ...
  489.000    0.175    0.406   83.915    6.396
  489.250    0.162    0.391   81.508    6.765
  489.500    0.152    0.370   83.939    6.522
  489.750    0.179    0.396   88.185    6.288
  490.000    0.203    0.416   90.615    6.410
  490.250    0.201    0.420   83.975    6.780
  490.500    0.178    0.412   81.569    7.172
  490.750    0.150    0.414   80.973    7.585
  491.000    0.130    0.422   81.591    7.730
  491.250    0.159    0.437   82.814    7.881
  491.500    0.197    0.445   78.591    8.030
  491.750    0.202    0.431   77.998    8.186
  492.000    0.103    0.401   81.034    8.189
  492.250    0.122    0.362   91.328    8.348
  492.500    0.146    0.413   90.130    8.199
  492.750    0.168    0.447   90.753    8.204
  493.000    0.170    0.427   91.365    8.208
  493.250    0.151    0.390   82.907    8.365
  493.500    0.132    0.362   81.106    8.685
  493.750    0.107    0.341   81.722    9.187
  494.000    0.171    0.361   82.943    9.540
  494.250    0.181    0.376   81.746    9.724
  494.500    0.172    0.396   80.548    9.909
  494.750    0.124    0.381   84.793    9.915
  495.000    0.150    0.369   90.857    9.920
  495.250    0.190    0.388   94.499    9.564
  495.500    0.189    0.380   95.718    8.887
  495.750    0.202    0.392   96.943    8.256
  496.000    0.218    0.391   99.373    7.671
  496.250    0.216    0.388   93.938    7.533
  496.500    0.196    0.414   87.902    7.401
  496.750    0.132    0.423   81.866    7.403
  497.000    0.120    0.398   85.507    7.407
  497.250    0.148    0.371   94.593    7.413
  497.500    0.178    0.385   98.838    7.279
  497.750    0.179    0.403   99.455    7.283
  498.000    0.179    0.421   93.417    7.022
  498.250    0.188    0.439   91.011    6.897
  498.500    0.183    0.450   86.182    6.900
  498.750    0.197    0.472   81.962    7.575
  499.000    0.165    0.449   80.763    8.011
  499.250    0.144    0.404   85.615    8.473
  499.500    0.166    0.413   84.415    8.636
  499.750    0.186    0.405   75.960    9.481
  500.000    0.259    0.398   75.972   10.214
  500.250    0.206    0.392   83.241   11.420
  500.500    0.203    0.402   92.329   12.536
  500.750    0.226    0.393   92.944   13.017
  501.000    0.243    0.394   91.141   13.768
  501.250    0.260    0.402   85.105   14.834
  501.500    0.246    0.387   85.115   15.982
  501.750    0.212    0.370   82.104   15.992
  502.000    0.182    0.360   87.559   15.134
  502.250    0.170    0.365   97.249   13.550
  502.500    0.176    0.388  101.496   11.059
  502.750    0.170    0.396  102.112    9.542
  503.000    0.173    0.394   99.705    9.198
  503.250    0.175    0.392   97.902    9.035
  503.500    0.186    0.409   94.285    9.381
  503.750    0.216    0.419   87.040   10.297
  504.000    0.238    0.412   81.001   12.631
  504.250    0.252    0.401   75.570   15.210
  504.500    0.268    0.379   71.953   19.002
  504.750    0.285    0.361   69.545   21.247
  505.000    0.298    0.373   68.346   22.894
  505.250    0.285    0.378   73.197   22.907
  505.500    0.255    0.387   81.680   20.894
  505.750    0.247    0.369   81.085   19.414
  506.000    0.243    0.348   82.310   18.373
  506.250    0.224    0.355   84.134   17.713
  506.500    0.210    0.361   82.935   17.723
  506.750    0.198    0.346   78.110   18.064
  507.000    0.207    0.337   75.701   19.108
  507.250    0.225    0.324   73.899   19.838
  507.500    0.230    0.342   70.886   20.218
  507.750    0.213    0.357   67.873   19.493
  508.000    0.221    0.362   63.650   18.796
  508.250    0.242    0.369   63.662   17.791
  508.500    0.248    0.363   61.860   16.837
  508.750    0.212    0.354   71.549   15.643
  509.000    0.178    0.352   79.427   15.082
  509.250    0.185    0.371   75.206   14.541
  509.500    0.197    0.362   70.982   14.550
  509.750    0.211    0.337   66.758   15.389
  510.000    0.213    0.315   60.722   16.583
  510.250    0.228    0.338   61.342   18.891
  510.500    0.237    0.402   67.400   19.980
  510.750    0.257    0.403   66.201   21.130
  511.000    0.240    0.393   62.583   22.766
  511.250    0.251    0.387   60.782   23.208
  511.500    0.263    0.376   59.584   22.375
  511.750    0.234    0.367   72.298   20.789
  512.000    0.200    0.375   80.778   18.610
  512.250    0.210    0.395   80.790   15.761
  512.500    0.223    0.388   82.011   12.395
  512.750    0.238    0.382   94.121   10.305
  513.000    0.190    0.394   91.109    8.891
  513.250    0.174    0.428   78.419   10.128
  513.500    0.233    0.384   69.356   11.970
  513.750    0.300    0.322   63.925   15.523
  514.000    0.321    0.347   64.541   19.397
  514.250    0.291    0.332   68.787   22.091
  514.500    0.285    0.349   68.800   27.098
  514.750    0.289    0.387   66.391   29.742
  515.000    0.277    0.410   70.033   23.830
  515.250    0.270    0.405   76.095   20.561
  515.500    0.239    0.386   79.131   18.751
  515.750    0.219    0.368   76.724   16.790
  516.000    0.191    0.357   75.528   15.892
  516.250    0.166    0.367   76.747   14.764
  516.500    0.181    0.384   82.203   13.971
  516.750    0.199    0.377   87.659   12.509
  517.000    0.194    0.368   92.509   11.199
  517.250    0.178    0.383   95.545   10.216
  517.500    0.166    0.372  101.004    9.667
  517.750    0.194    0.363  102.828    8.983
  518.000    0.183    0.372  105.868    8.822
  518.250    0.186    0.385  105.876    8.665
  518.500    0.171    0.396  101.051    8.998
  518.750    0.177    0.401   96.829    9.170
  519.000    0.170    0.391   93.210    9.700
  519.250    0.182    0.393   88.989   10.070
  519.500    0.198    0.384   91.422   10.457
  519.750    0.205    0.391   93.245   10.856
  520.000    0.217    0.386   90.234   11.486
  520.250    0.230    0.378   85.407   11.706
  520.500    0.182    0.360   82.998   11.928
  520.750    0.183    0.364   87.248   12.158
  521.000    0.211    0.362   88.467   12.394
  521.250    0.199    0.357   87.271   12.633
  521.500    0.205    0.363   84.260   12.638
  521.750    0.215    0.370   81.246   12.645
  522.000    0.215    0.362   78.837   12.887
  522.250    0.217    0.351   76.428   12.895
  522.500    0.229    0.353   70.996   13.896
  522.750    0.185    0.338   66.169   15.249
  523.000    0.183    0.310   57.712   19.055
  523.250    0.077    0.270   69.822   19.065
  523.500    0.232    0.314   72.254   17.069
  523.750    0.260    0.326   72.873   15.859
  524.000    0.287    0.314   72.887   19.100
  524.250    0.322    0.308   72.894   20.197
  524.500    0.333    0.337   72.302   16.484
  524.750    0.317    0.321   72.316   13.960
  525.000    0.310    0.310   71.721   14.229
  525.250    0.295    0.300   72.344   14.776
  525.500    0.266    0.287   73.563   13.984
  525.750    0.260    0.305   74.781   12.755
  526.000    0.274    0.293   76.608   12.525
  526.250    0.271    0.299   75.409   12.303
  526.500    0.249    0.292   77.236   11.644
  526.750    0.236    0.297   79.062   10.620
  527.000    0.210    0.294   71.213    9.333
  527.250    0.205    0.299   65.779    8.357
  527.500    0.205    0.299   63.978    7.910
  527.750    0.234    0.306   73.667    7.768
  528.000    0.251    0.314   79.728    7.772
  528.250    0.263    0.366   77.924    7.922
  528.500    0.260    0.408   79.754    8.225
  528.750    0.251    0.399   80.367    8.700
  529.000    0.273    0.431   78.564    9.202
  529.250    0.272    0.439   77.370    9.379
  529.500    0.251    0.426   75.566    9.212
  529.750    0.240    0.408   74.366    8.881
  530.000    0.257    0.394   72.564    8.564
