~VERSION INFORMATION
 VERS.                 2.0:   CWLS LOG ASCII STANDARD -VERSION 2.0
 WRAP.                  NO:   ONE LINE PER DEPTH STEP
~WELL INFORMATION BLOCK
#MNEM.UNIT           DATA                    DESCRIPTION OF MNEMONIC
#---------    -------------------            -------------------------------
# Generated from Intellog Unique Number	CW_70_72/WELL/416
NULL.         -999.25                        : NULL_VALUE
WELL.         RAVENNA ET AL CALL             : Well_name    - WELL              
LOC .         04-36-071-19W4                 : Location     - LOCATION          
UWI .         00/04-36-071-19W4/0            : Uwi          - UNIQUE WELL ID    
ENTR.         JAYE                           : Entered      - ENTERED BY        
SRVC.         SCHLUMBERGER                   : Scn          - SERVICE COMPANY   
DATE.         29 MAR 80                      : Date         - LOG DATE          
STRT.M        300                            : top_depth    - START DEPTH       
STOP.M        485                            : bot_depth    - STOP DEPTH        
STEP.M        0.25                           : increment    - STEP LENGTH       
~CURVE INFORMATION BLOCK
#MNEM UNIT       ERCB CURVE CODE    CURVE DESCRIPTION
#-----------   ------------------   ----------------------------------
DEPT.M        00 001 00 00         : DEPTH        - DEPTH                       
DPHI.V/V      00 890 00 00         : PHID         - DENSITY POROSITY (SANDSTONE)
NPHI.V/V      00 330 00 00         : PHIN         - NEUTRON POROSITY (SANDSTONE)
GR  .API      00 310 00 00         : GR           - GAMMA RAY                   
CALI.MM       00 280 01 00         : CAL          - CALIPER                     
ILD .OHMM     00 120 00 00         : RESD         - DEEP RESISTIVITY (DIL)      
~PARAMETER INFORMATION       
#MNEM.UNIT           DATA             DESCRIPTION OF MNEMONIC
#---------         -----------     ------------------------------
GL  .M        587.3                : gl           - GROUND LEVEL ELEVATION      
EREF.M        591                  : kb           - ELEVATION OF DEPTH REFERENCE
DATM.M        587.3                : datum        - DATUM ELEVATION             
TDD .M        509                  : tdd          - TOTAL DEPTH DRILLER         
RUN .         ONE                  : Run          - RUN NUMBER                  
MATR.         SANDSTONE            : Logunit      - NEUTRON MATRIX              
TMAX.C        0                    : BHT          - MAXIMUM RECORDED TEMPERATURE
BHTD.M        507.5                : BHTDEP       - MAXIMUM RECORDED TEMPERATURE
RMT .C        18                   : MDTP         - TEMPERATURE OF MUD          
MUDD.KG/M     0                    : MWT          - MUD DENSITY                 
NEUT.         1                    : NEUTRON      - NEUTRON TYPE                
RESI.         0                    : RESIST       - RESISTIVITY TYPE            
RM  .OHMM     5.73                 : RM           - RESISTIVITY OF MUD          
RMC .OHMM     0                    : RMC          - RESISTIVITY OF MUD CAKE     
RMF .OHMM     4.55                 : RMF          - RESISTIVITY OF MUD FILTRATE 
SUFT.C        0                    : SUFT         - SURFACE TEMPERATURE         
~A  DEPTH     PHID     PHIN       GR      CAL     RESD
# ...
  409.500    0.276    0.451   86.710  175.689    4.014
  409.750    0.254    0.460   89.324  178.078    3.528
  410.000    0.225    0.485   92.372  184.504    3.112
  410.250    0.255    0.541   97.471  195.281    2.861
  410.500    0.236    0.517  102.259  211.235    2.804
  410.750    0.223    0.523  104.127  201.196    2.812
  411.000    0.229    0.522  103.384  212.697    2.883
  411.250    0.269    0.498  100.592  230.309    3.047
  411.500    0.253    0.501  101.031  216.023    3.369
  411.750    0.249    0.498  102.339  211.161    3.732
  412.000    0.226    0.456  102.094  202.261    4.165
  412.250    0.201    0.443  102.595  190.254    4.553
  412.500    0.205    0.466  104.898  189.121    4.885
  412.750    0.201    0.490  105.771  189.542    5.076
  413.000    0.192    0.489  105.091  189.444    5.274
  413.250    0.202    0.478  100.994  189.139    5.439
  413.500    0.222    0.451   98.574  188.214    5.588
  413.750    0.222    0.436   98.640  187.287    5.785
  414.000    0.207    0.435   97.276  186.879    5.965
  414.250    0.188    0.430   95.913  186.574    6.140
  414.500    0.205    0.434   93.431  186.271    6.285
  414.750    0.186    0.441   93.808  186.587    6.372
  415.000    0.187    0.428   93.873  186.593    6.425
  415.250    0.177    0.421   96.487  186.599    6.442
  415.500    0.167    0.415   96.925  186.916    6.446
  415.750    0.184    0.424   94.692  187.027    6.450
  416.000    0.180    0.438   94.323  187.343    6.443
  416.250    0.162    0.436   93.146  187.348    6.398
  416.500    0.173    0.427   92.217  187.353    6.331
  416.750    0.183    0.425   95.328  187.463    6.241
  417.000    0.200    0.420   97.133  187.572    6.117
  417.250    0.217    0.414   94.714  187.683    5.962
  417.500    0.213    0.421   96.954  187.792    5.843
  417.750    0.203    0.403   98.760  187.798    5.686
  418.000    0.203    0.419   98.888  188.012    5.584
  418.250    0.186    0.440   99.202  188.120    5.534
  418.500    0.187    0.457   97.590  188.126    5.466
  418.750    0.169    0.440   96.848  187.822    5.428
  419.000    0.197    0.429   98.840  186.896    5.371
  419.250    0.198    0.430   98.719  184.727    5.304
  419.500    0.217    0.437   96.424  181.730    5.219
  419.750    0.208    0.447   93.693  178.939    5.183
  420.000    0.192    0.444   90.839  176.149    5.158
  420.250    0.203    0.449   89.165  173.877    5.151
  420.500    0.220    0.442   86.310  171.812    5.194
  420.750    0.232    0.423   79.167  171.196    5.326
  421.000    0.244    0.409   72.522  172.548    5.451
  421.250    0.239    0.388   68.301  174.626    5.816
  421.500    0.187    0.343   65.446  175.253    6.727
  421.750    0.096    0.317   65.760  175.571    8.760
  422.000    0.075    0.261   63.713  174.229   10.987
  422.250    0.097    0.256   60.797  172.682   10.995
  422.500    0.145    0.288   61.794  173.102    9.115
  422.750    0.192    0.328   65.899  174.144    7.514
  423.000    0.236    0.420   68.823  174.150    6.567
  423.250    0.250    0.422   67.832  172.602    5.992
  423.500    0.241    0.414   66.718  170.434    5.489
  423.750    0.240    0.420   69.331  170.544    5.210
  424.000    0.244    0.429   71.137  170.965    4.993
  424.250    0.250    0.435   71.016  171.902    4.858
  424.500    0.255    0.438   70.895  172.115    4.753
  424.750    0.240    0.431   71.085  172.017    4.676
  425.000    0.242    0.440   71.275  171.816    4.635
  425.250    0.252    0.451   72.087  171.201    4.561
  425.500    0.259    0.449   75.508  170.379    4.513
  425.750    0.272    0.434   73.088  172.248    4.473
  426.000    0.258    0.429   75.764  170.390    4.460
  426.250    0.249    0.436   77.383  170.397    4.437
  426.500    0.253    0.435   75.522  170.610    4.415
  426.750    0.263    0.427   73.040  170.926    4.394
  427.000    0.248    0.421   73.728  171.244    4.372
  427.250    0.255    0.416   75.720  171.146    4.366
  427.500    0.262    0.418   76.469  171.256    4.345
  427.750    0.248    0.429   76.348  171.365    4.348
  428.000    0.231    0.436   76.662  171.267    4.359
  428.250    0.232    0.441   77.598  170.755    4.370
  428.500    0.229    0.432   78.037  170.658    4.389
  428.750    0.222    0.416   78.351  170.871    4.443
  429.000    0.234    0.424   77.236  171.396    4.538
  429.250    0.240    0.415   77.115  171.712    4.689
  429.500    0.235    0.415   77.554  172.132    4.800
  429.750    0.243    0.427   78.241  172.241    4.830
  430.000    0.257    0.440   79.115  172.351    4.842
  430.250    0.254    0.440   78.124  172.253    4.809
  430.500    0.242    0.434   80.054  172.363    4.777
  430.750    0.253    0.441   78.131  172.578    4.717
  431.000    0.262    0.442   77.079  172.790    4.633
  431.250    0.258    0.434   79.941  173.106    4.592
  431.500    0.268    0.433   81.001  173.319    4.518
  431.750    0.257    0.434   81.439  173.326    4.479
  432.000    0.264    0.433   81.194  173.436    4.432
  432.250    0.251    0.428   78.837  173.443    4.426
  432.500    0.239    0.431   77.660  173.241    4.429
  432.750    0.227    0.428   78.098  173.143    4.491
  433.000    0.250    0.418   78.723  173.252    4.693
  433.250    0.244    0.406   78.354  173.568    5.063
  433.500    0.230    0.396   77.612  173.885    5.598
  433.750    0.206    0.384   77.802  175.652    5.905
  434.000    0.171    0.374   82.466  177.833    5.788
  434.250    0.142    0.380   89.615  179.288    5.351
  434.500    0.183    0.432   98.132  180.227    4.694
  434.750    0.220    0.487  104.598  183.754    4.204
  435.000    0.224    0.507  100.562  190.077    3.902
  435.250    0.208    0.498   99.385  192.879    3.554
  435.500    0.198    0.503   97.401  193.714    3.317
  435.750    0.176    0.509   95.664  194.134    3.179
  436.000    0.124    0.501   93.058  193.932    3.128
  436.250    0.053    0.487   96.293  190.314    3.159
  436.500   -0.001    0.522  102.697  191.667    3.209
  436.750    0.002    0.540  106.739  193.744    3.297
  437.000    0.209    0.556  106.743  196.856    3.426
  437.250    0.206    0.546  104.758  198.520    3.587
  437.500    0.209    0.516  103.829  195.937    3.776
  437.750    0.185    0.499  101.534  197.807    4.006
  438.000    0.175    0.486   97.250  197.398    4.273
  438.250    0.160    0.475   97.254  188.188    4.507
  438.500    0.049    0.457  100.116  187.365    4.657
  438.750    0.104    0.453  101.238  189.649    4.803
  439.000    0.181    0.431   99.626  193.177    4.916
  439.250    0.165    0.424   99.008  195.772    5.032
  439.500    0.177    0.426  100.565  196.502    5.102
  439.750    0.192    0.434  103.303  196.406    5.212
  440.000    0.184    0.446  105.233  198.068    5.285
  440.250    0.165    0.451  105.920  201.491    5.379
  440.500    0.194    0.430  105.861  209.990    5.444
  440.750    0.174    0.408  106.113  198.190    5.488
  441.000    0.159    0.416  107.360  193.742    5.555
  441.250    0.193    0.443  109.289  196.752    5.611
  441.500    0.184    0.452  110.287  197.172    5.679
  441.750    0.170    0.451  110.912  193.760    5.768
  442.000    0.184    0.434  104.329  190.142    6.005
  442.250    0.187    0.418   97.063  186.938    6.287
  442.500    0.172    0.397   88.367  184.044    6.938
  442.750    0.192    0.384   82.716  180.218    7.831
  443.000    0.190    0.386   75.947  178.774    8.740
  443.250    0.121    0.369   71.415  178.780    9.884
  443.500    0.092    0.345   74.090  179.201   10.949
  443.750    0.091    0.330   80.618  179.621   11.484
  444.000    0.146    0.346   80.249  179.834   11.865
  444.250    0.162    0.364   79.072  180.357   12.214
  444.500    0.157    0.375   76.217  180.985   12.430
  444.750    0.169    0.382   74.978  181.405   12.771
  445.000    0.153    0.379   77.530  181.411   13.395
  445.250    0.108    0.349   79.584  181.728   14.210
  445.500    0.088    0.322   81.948  182.355   13.823
  445.750    0.122    0.316   86.302  183.397   12.125
