~VERSION INFORMATION
 VERS.                 2.0:   CWLS LOG ASCII STANDARD -VERSION 2.0
 WRAP.                  NO:   ONE LINE PER DEPTH STEP
~WELL INFORMATION BLOCK
#MNEM.UNIT           DATA                    DESCRIPTION OF MNEMONIC
#---------    -------------------            -------------------------------
# Generated from Intellog Unique Number	CW_73_75/WELL/532
WELL.         NORCEN POR MARTIN HILLS 06-10  : Well_name    - WELL
LOC .         00/06-10-074-25W4/0            : Location     - LOCATION
UWI .         00/06-10-074-25W4/0            : Uwi          - UNIQUE WELL ID
ENTR.         JAYE                           : Entered      - ENTERED BY
SRVC.         COMPUTALOG                     : Scn          - SERVICE COMPANY
DATE.         18 FEB 83                      : Date         - LOG DATE
STRT.M        420                            : top_depth    - START DEPTH
STOP.M        642                            : bot_depth    - STOP DEPTH
STEP.M        0.25                           : increment    - STEP LENGTH
 NULL. -999.2500:NULL Value
~CURVE INFORMATION BLOCK
#MNEM UNIT       ERCB CURVE CODE    CURVE DESCRIPTION
#-----------   ------------------   ----------------------------------
DEPT.M        00 001 00 00         : DEPTH        - DEPTH
ILD .OHMM     00 120 00 00         : RESD         - DEEP RESISTIVITY (DIL)
CALI.MM       00 280 01 00         : CAL          - CALIPER
GR  .API      00 310 00 00         : GR           - GAMMA RAY
NPHI.V/V      00 330 00 00         : PHIN         - NEUTRON POROSITY (SANDSTONE)
DPHI.V/V      00 890 00 00         : PHID         - DENSITY POROSITY (SANDSTONE)
~PARAMETER INFORMATION
#MNEM.UNIT           DATA             DESCRIPTION OF MNEMONIC
#---------         -----------     ------------------------------
GL  .M        677.67               : gl           - GROUND LEVEL ELEVATION
EREF.M        680.97               : kb           - ELEVATION OF DEPTH REFERENCE
DATM.M        677.67               : datum        - DATUM ELEVATION
TDD .M        650                  : tdd          - TOTAL DEPTH DRILLER
RUN .         ONE                  : Run          - RUN NUMBER
ENG .         BOGNER               : Engineer     - RECORDING ENGINEER
BASE.         EDM                  : Branch       - HOME BASE OF LOGGING UNIT
MUD .         GEL CHEM             : Mud_type     - MUD TYPE
MATR.         SANDSTONE            : Logunit      - NEUTRON MATRIX
TMAX.C        35                   : BHT          - MAXIMUM RECORDED TEMPERATURE
BHTD.M        647.2                : BHTDEP       - MAXIMUM RECORDED TEMPERATURE
RMT .C        17.8                 : MDTP         - TEMPERATURE OF MUD
MUDD.KG/M     1140                 : MWT          - MUD DENSITY
NEUT.         1                    : NEUTRON      - NEUTRON TYPE
RESI.         0                    : RESIST       - RESISTIVITY TYPE
RM  .OHMM     3.3                  : RM           - RESISTIVITY OF MUD
RMC .OHMM     3                    : RMC          - RESISTIVITY OF MUD CAKE
RMF .OHMM     5.9                  : RMF          - RESISTIVITY OF MUD FILTRATE
SUFT.C        0                    : SUFT         - SURFACE TEMPERATURE
~A  DEPTH     RESD      CAL       GR     PHIN     PHID
# ...
  602.500    5.598  203.931  105.625    0.461    0.138
  602.750    6.493  203.782   95.213    0.377    0.091
  603.000    7.182  203.520   86.375    0.300    0.071
  603.250    7.562  203.152   90.938    0.314    0.077
  603.500    7.407  203.320   97.640    0.335    0.093
  603.750    7.353  203.685  104.345    0.379    0.117
  604.000    7.741  204.477  107.713    0.386    0.119
  604.250    8.323  205.367  103.469    0.364    0.085
  604.500    8.565  206.159   94.500    0.305    0.059
  604.750    8.748  205.796   76.601    0.294    0.053
  605.000    8.816  205.428   82.171    0.310    0.087
  605.250    8.442  205.170   91.580    0.340    0.121
  605.500    8.021  205.014   97.152    0.378    0.120
  605.750    8.193  204.547   93.975    0.365    0.113
  606.000    8.512  203.342   89.289    0.356    0.103
  606.250    8.910  201.091   90.516    0.360    0.109
  606.500   10.316  200.524   94.075    0.340    0.137
  606.750   11.696  199.416   91.402    0.298    0.177
  607.000   13.696  198.323   67.901    0.289    0.204
  607.250   16.098  197.854   57.992    0.296    0.244
  607.500   17.046  197.803   49.908    0.321    0.277
  607.750   16.259  197.757   37.357    0.341    0.275
  608.000   14.265  197.705   36.510    0.335    0.269
  608.250   11.711  197.545   37.176    0.320    0.269
  608.500    9.836  197.810   38.401    0.307    0.274
  608.750    8.014  198.394   38.874    0.317    0.279
  609.000    7.180  199.285   36.834    0.342    0.282
  609.250    6.531  200.392   35.045    0.349    0.281
  609.500    6.218  201.074   34.255    0.344    0.278
  609.750    6.219  201.128   33.532    0.333    0.274
  610.000    6.280  200.241   33.630    0.341    0.270
  610.250    6.649  198.827   35.739    0.336    0.264
  610.500    6.895  197.629   40.930    0.317    0.260
  610.750    6.819  196.533   43.041    0.314    0.265
  611.000    6.667  196.162   44.521    0.318    0.260
  611.250    6.359  196.327   44.618    0.332    0.255
  611.500    6.170  197.117   44.273    0.344    0.254
  611.750    6.021  197.905   44.621    0.335    0.238
  612.000    5.732  199.115   47.171    0.302    0.212
  612.250    5.478  200.002   50.288    0.305    0.215
  612.500    5.595  201.005   51.831    0.318    0.244
  612.750    5.868  201.480   52.178    0.337    0.263
  613.000    6.381  201.741   51.773    0.328    0.244
  613.250    6.834  201.378   52.248    0.315    0.241
  613.500    7.278  200.806   52.910    0.307    0.237
  613.750    7.779  200.126   52.940    0.295    0.218
  614.000    8.036  199.447   51.716    0.289    0.201
  614.250    8.008  198.346   55.522    0.287    0.200
  614.500    7.740  196.724   61.093    0.296    0.194
  614.750    7.539  195.313   59.176    0.302    0.187
  615.000    7.700  195.052   56.316    0.304    0.193
  615.250    8.566  195.425   56.347    0.306    0.195
  615.500    9.935  196.529   57.265    0.306    0.188
  615.750   10.763  198.058   58.492    0.286    0.166
  616.000   10.806  198.946   59.785    0.277    0.147
  616.250   10.545  199.638   61.082    0.273    0.139
  616.500   10.251  199.894   61.676    0.281    0.171
  616.750   10.022  200.158   62.149    0.305    0.215
  617.000    9.688  200.218   61.301    0.320    0.214
  617.250    9.364  199.852   60.074    0.334    0.211
  617.500    9.138  199.174   60.484    0.348    0.219
  617.750    8.833  198.176   63.476    0.338    0.214
  618.000    8.652  197.080   65.019    0.312    0.208
  618.250    8.427  196.714   64.171    0.299    0.202
  618.500    8.255  196.356   63.578    0.310    0.208
  618.750    8.071  193.889   65.751    0.330    0.208
  619.000    7.905  193.003   66.727    0.333    0.201
  619.250    7.788  193.475   66.064    0.332    0.199
  619.500    7.702  195.313   64.965    0.326    0.205
  619.750    7.616  197.263   66.385    0.323    0.197
  620.000    7.617  197.529   69.186    0.308    0.170
  620.250    7.706  197.164   70.354    0.300    0.141
  620.500    7.841  196.793   71.838    0.301    0.152
  620.750    7.622  196.749   75.859    0.302    0.166
  621.000    7.161  196.692   84.254    0.300    0.181
  621.250    6.502  196.959   94.870    0.299    0.177
  621.500    5.903  197.653  118.361    0.302    0.138
  621.750    6.617  198.015  127.580    0.392    0.113
  622.000    7.545  198.488  111.178    0.523    0.152
  622.250    8.393  198.648   80.634    0.508    0.266
  622.500    9.754  198.708   62.524    0.448    0.252
  622.750   11.017  198.868   65.781    0.433    0.341
  623.000   11.621  199.242   93.644    0.538    0.511
  623.250   11.735  199.929  114.157    0.593    0.502
  623.500   11.759  200.500  137.267    0.478    0.417
  623.750   11.762  201.291  161.010    0.451    0.195
  624.000   11.877  201.764  176.762    0.457    0.156
  624.250   11.970  201.921  235.830    0.475    0.119
  624.500   11.570  202.187  260.461    0.460    0.102
  624.750   10.665  202.882  251.734    0.422    0.089
  625.000    9.794  203.345  243.576    0.380    0.084
  625.250    8.994  203.719  269.985    0.363    0.090
  625.500    8.165  204.087  287.638    0.387    0.095
  625.750    7.744  204.355  215.366    0.469    0.102
  626.000    7.443  204.617  165.988    0.482    0.111
  626.250    7.319  204.779  149.142    0.392    0.122
  626.500    7.210  205.148  148.153    0.352    0.132
  626.750    7.103  204.990  151.857    0.352    0.128
  627.000    6.879  205.057  309.033    0.378    0.126
  627.250    6.700  205.102  313.877    0.373    0.130
  627.500    6.525  205.162  310.414    0.377    0.121
  627.750    6.477  205.420  288.813    0.396    0.117
  628.000    6.467  205.584  178.932    0.378    0.123
  628.250    6.456  205.538  169.442    0.359    0.122
  628.500    6.519  205.281  171.876    0.323    0.118
  628.750    6.595  204.803  177.547    0.323    0.114
  629.000    6.672  204.229  185.496    0.321    0.115
  629.250    6.750  203.135  185.778    0.316    0.123
  629.500    6.777  202.241  182.123    0.319    0.120
  629.750    6.843  201.458  176.759    0.334    0.113
  630.000    6.923  200.780  205.194    0.334    0.111
  630.250    7.004  200.426  265.590    0.326    0.099
  630.500    7.073  200.164  253.188    0.367    0.070
  630.750    7.182  200.229  220.236    0.359    0.070
  631.000    7.392  200.066  177.707    0.341    0.106
  631.250    7.564  200.016  179.187    0.333    0.135
  631.500    7.799  199.960  204.961    0.310    0.171
  631.750    7.950  200.230  227.626    0.323    0.167
  632.000    8.013  200.386  236.847    0.347    0.163
  632.250    8.075  200.445  176.941    0.358    0.162
  632.500    8.077  200.605  147.921    0.288    0.167
  632.750    8.141  200.973  129.806    0.292    0.184
  633.000    8.173  200.820  116.576    0.321    0.184
  633.250    8.175  200.135  103.474    0.306    0.181
  633.500    8.177  197.996   97.284    0.288    0.182
  633.750    8.148  196.787   89.951    0.282    0.192
  634.000    8.150  196.007   79.957    0.270    0.214
  634.250    8.198  195.851   77.888    0.251    0.223
  634.500    8.278  196.537  275.083    0.272    0.184
  634.750    8.296  197.740  252.845    0.297    0.136
  635.000    8.188  199.684  171.187    0.320    0.126
  635.250    7.930  201.634  146.035    0.361    0.129
  635.500    7.549  202.415  124.054    0.354    0.125
  635.750    7.119  202.996  134.733    0.340    0.112
  636.000    6.650  203.156  166.529    0.360    0.109
  636.250    6.319  203.210  198.454    0.386    0.140
  636.500    6.085  202.744  176.282    0.387    0.140
  636.750    5.927  202.167  141.108    0.371    0.125
  637.000    5.850  201.179  139.738    0.361    0.116
  637.250    5.975  200.494  144.072    0.360    0.111
  637.500    6.255  199.508  152.724    0.360    0.094
  637.750    6.585  198.723  175.772    0.360    0.078
  638.000    7.382  198.142  205.031    0.359    0.157
  638.250    8.119  197.359  192.056    0.361    0.220
  638.500    9.100  196.790  171.596    0.427    0.218
  638.750   11.476  195.589  143.655    0.450    0.194
