~VERSION INFORMATION
 VERS.                 2.0:   CWLS LOG ASCII STANDARD -VERSION 2.0
 WRAP.                  NO:   ONE LINE PER DEPTH STEP
~WELL INFORMATION BLOCK
#MNEM.UNIT           DATA                    DESCRIPTION OF MNEMONIC
#---------    -------------------            -------------------------------
# Generated from Intellog Unique Number	CW_70_72/WELL/3014
NULL.         -999.25                        : NULL_VALUE
WELL.         DEKALB ET AL MITSUE 06-35      : Well_name    - WELL              
LOC .         06-35-070-03W5                : Location     - LOCATION          
UWI .         00/06-35-070-03W5/0            : Uwi          - UNIQUE WELL ID    
ENTR.         JAYE                           : Entered      - ENTERED BY        
SRVC.         SCHLUMBERGER                   : Scn          - SERVICE COMPANY   
DATE.         10 FEB 80                      : Date         - LOG DATE          
STRT.M        460                            : top_depth    - START DEPTH       
STOP.M        680                            : bot_depth    - STOP DEPTH        
STEP.M        0.25                           : increment    - STEP LENGTH       
~CURVE INFORMATION BLOCK
#MNEM UNIT       ERCB CURVE CODE    CURVE DESCRIPTION
#-----------   ------------------   ----------------------------------
DEPT.M        00 001 00 00         : DEPTH        - DEPTH                       
ILD .OHMM     00 120 00 00         : RESD         - DEEP RESISTIVITY (DIL)      
CALI.MM       00 280 01 00         : CAL          - CALIPER                     
GR  .API      00 310 00 00         : GR           - GAMMA RAY                   
NPHI.V/V      00 330 00 00         : PHIN         - NEUTRON POROSITY (SANDSTONE)
DPHI.V/V      00 890 00 00         : PHID         - DENSITY POROSITY (SANDSTONE)
~PARAMETER INFORMATION       
#MNEM.UNIT           DATA             DESCRIPTION OF MNEMONIC
#---------         -----------     ------------------------------
GL  .M        617.4                : gl           - GROUND LEVEL ELEVATION      
EREF.M        620.6                : kb           - ELEVATION OF DEPTH REFERENCE
DATM.M        617.4                : datum        - DATUM ELEVATION             
TDD .M        685                  : tdd          - TOTAL DEPTH DRILLER         
RUN .         ONE                  : Run          - RUN NUMBER                  
ENG .         COOK                 : Engineer     - RECORDING ENGINEER          
WIT .         LOWTHER              : Witness      - WITNESSED BY                
BASE.         RD                   : Branch       - HOME BASE OF LOGGING UNIT   
MUD .         GEL CHEM             : Mud_type     - MUD TYPE                    
MATR.         SANDSTONE            : Logunit      - NEUTRON MATRIX              
TMAX.C        31                   : BHT          - MAXIMUM RECORDED TEMPERATURE
BHTD.M        686                  : BHTDEP       - MAXIMUM RECORDED TEMPERATURE
RMT .C        10                   : MDTP         - TEMPERATURE OF MUD          
MUDD.KG/M     1120                 : MWT          - MUD DENSITY                 
NEUT.         1                    : NEUTRON      - NEUTRON TYPE                
RESI.         0                    : RESIST       - RESISTIVITY TYPE            
RM  .OHMM     4.39                 : RM           - RESISTIVITY OF MUD          
RMC .OHMM     0.25                 : RMC          - RESISTIVITY OF MUD CAKE     
RMF .OHMM     2.49                 : RMF          - RESISTIVITY OF MUD FILTRATE 
SUFT.C        0                    : SUFT         - SURFACE TEMPERATURE         
~A  DEPTH     RESD      CAL       GR     PHIN     PHID
# ...
  606.000    2.638  158.537   60.507    0.421    0.278
  606.250    2.630  158.153   60.522    0.419    0.286
  606.500    2.583  158.170   64.196    0.415    0.285
  606.750    2.476  158.510   66.010    0.414    0.283
  607.000    2.374  159.148   65.902    0.420    0.289
  607.250    2.284  159.796   65.543    0.413    0.290
  607.500    2.231  160.128   64.813    0.414    0.287
  607.750    2.212  160.667   63.214    0.422    0.275
  608.000    2.238  161.415   59.318    0.428    0.268
  608.250    2.295  161.954   58.463    0.415    0.255
  608.500    2.384  162.088   57.795    0.398    0.266
  608.750    2.467  162.003   56.074    0.383    0.250
  609.000    2.524  161.715   54.970    0.374    0.235
  609.250    2.637  161.231   53.558    0.373    0.228
  609.500    2.713  161.042   53.633    0.373    0.233
  609.750    2.926  160.440   57.681    0.362    0.235
  610.000    3.011  159.743   60.737    0.359    0.227
  610.250    2.865  159.662   62.423    0.380    0.228
  610.500    2.696  159.687   61.569    0.399    0.248
  610.750    2.589  159.405   58.546    0.411    0.269
  611.000    2.441  158.810   57.937    0.410    0.283
  611.250    2.370  158.412   55.780    0.400    0.268
  611.500    2.311  157.310   51.389    0.394    0.263
  611.750    2.287  157.527   54.692    0.396    0.271
  612.000    2.297  158.179   59.730    0.413    0.282
  612.250    2.359  159.031   62.227    0.422    0.284
  612.500    2.451  159.570   61.186    0.414    0.276
  612.750    2.584  159.487   60.149    0.418    0.267
  613.000    2.699  158.895   58.921    0.418    0.262
  613.250    2.752  158.703   55.645    0.405    0.266
  613.500    2.795  158.314   57.087    0.385    0.263
  613.750    2.813  158.346   60.949    0.388    0.259
  614.000    2.809  158.369   61.520    0.396    0.257
  614.250    2.806  158.595   62.280    0.411    0.260
  614.500    2.787  158.413   62.539    0.413    0.263
  614.750    2.758  158.432   61.440    0.405    0.275
  615.000    2.699  159.181   60.398    0.396    0.286
  615.250    2.597  159.514   61.405    0.412    0.287
  615.500    2.522  159.434   61.046    0.410    0.281
  615.750    2.482  159.979   57.772    0.400    0.276
  616.000    2.493  160.310   56.609    0.400    0.261
  616.250    2.575  160.544   57.801    0.401    0.228
  616.500    2.740  160.665   59.243    0.372    0.208
  616.750    2.971  160.798   60.933    0.352    0.209
  617.000    3.246  160.921   62.930    0.378    0.227
  617.250    3.378  161.049   65.180    0.397    0.237
  617.500    3.324  161.076   67.365    0.414    0.247
  617.750    3.192  160.887   67.439    0.432    0.258
  618.000    2.970  160.503   63.669    0.425    0.269
  618.250    2.733  160.526   60.767    0.419    0.273
  618.500    2.577  160.341   60.348    0.396    0.265
  618.750    2.603  160.261   61.355    0.385    0.249
  619.000    2.698  160.075   65.338    0.401    0.233
  619.250    2.824  160.617   69.633    0.422    0.227
  619.500    2.917  160.641   67.167    0.427    0.233
  619.750    2.913  160.664   70.406    0.412    0.247
  620.000    2.910  160.689   73.274    0.418    0.255
  620.250    2.901  160.397   68.946    0.427    0.247
  620.500    2.892  158.670   61.763    0.422    0.242
  620.750    2.857  158.799   59.483    0.401    0.248
  621.000    2.827  159.038   59.620    0.398    0.245
  621.250    2.813  159.052   61.434    0.415    0.240
  621.500    2.863  159.588   59.463    0.436    0.248
  621.750    2.996  160.137   58.050    0.389    0.241
  622.000    3.188  160.256   60.297    0.363    0.211
  622.250    3.431  160.279   59.569    0.353    0.193
  622.500    3.762  160.518   59.211    0.350    0.208
  622.750    4.080  160.643   60.961    0.381    0.214
  623.000    4.432  160.665   65.627    0.417    0.222
  623.250    4.493  160.687   66.202    0.432    0.239
  623.500    4.058  160.708   65.159    0.394    0.250
  623.750    3.610  160.425   64.678    0.380    0.256
  624.000    3.328  160.752   64.878    0.395    0.253
  624.250    3.148  161.400   66.941    0.415    0.259
  624.500    2.996  162.765   67.139    0.405    0.243
  624.750    2.932  164.755   60.206    0.396    0.232
  625.000    2.912  166.120   61.646    0.405    0.228
  625.250    3.008  166.867   67.553    0.406    0.215
  625.500    3.171  166.995   63.163    0.386    0.185
  625.750    3.458  167.127   58.898    0.294    0.087
  626.000    3.914  167.353   61.144    0.267    0.057
  626.250    4.711  167.276   66.742    0.351    0.088
  626.500    4.724  167.091   73.331    0.392    0.187
  626.750    4.362  166.595   77.876    0.420    0.213
  627.000    4.127  166.310   79.255    0.418    0.211
  627.250    3.905  166.232   74.802    0.388    0.209
  627.500    3.647  166.778   72.272    0.380    0.197
  627.750    3.503  167.103   73.588    0.389    0.187
  628.000    3.493  167.025   76.644    0.392    0.188
  628.250    3.514  166.948   76.781    0.385    0.182
  628.500    3.631  166.556   77.601    0.361    0.176
  628.750    3.736  166.062   80.781    0.358    0.170
  629.000    3.888  165.982   83.029    0.355    0.160
  629.250    4.107  166.004   84.344    0.354    0.148
  629.500    4.354  166.754   77.596    0.368    0.143
  629.750    4.617  166.879   73.701    0.343    0.134
  630.000    4.859  166.803   76.818    0.322    0.119
  630.250    5.019  166.098   83.285    0.307    0.112
  630.500    5.194  165.820   93.596    0.314    0.120
  630.750    5.276  165.846  100.560    0.327    0.130
  631.000    5.280  166.380  102.930    0.330    0.127
  631.250    5.283  166.813  103.441    0.331    0.122
  631.500    5.316  167.671   99.857    0.357    0.126
  631.750    5.492  168.007   88.332    0.380    0.111
  632.000    5.694  168.137   76.249    0.347    0.076
  632.250    7.008  168.151   61.313    0.282    0.046
  632.500   10.110  168.596   55.991    0.232    0.029
  632.750   11.529  168.712   63.077    0.206    0.037
  633.000   11.472  169.055   71.528    0.246    0.078
  633.250    9.833  169.395   81.096    0.365    0.115
  633.500    6.981  169.301   84.958    0.390    0.130
  633.750    5.960  169.429   85.907    0.387    0.121
  634.000    5.283  169.244   86.477    0.391    0.110
  634.250    4.935  168.967   89.156    0.387    0.108
  634.500    4.775  168.986   91.465    0.365    0.111
  634.750    4.922  169.010   90.117    0.364    0.113
  635.000    5.408  168.512   89.387    0.377    0.109
  635.250    5.702  167.605   88.097    0.380    0.102
  635.500    5.879  167.007   89.724    0.378    0.102
  635.750    5.916  167.657   90.667    0.364    0.111
  636.000    5.931  168.096   88.575    0.347    0.109
  636.250    5.958  168.219   86.540    0.362    0.113
  636.500    5.962  168.344   83.452    0.369    0.113
  636.750    5.911  168.262   83.342    0.362    0.108
  637.000    5.859  168.294   89.437    0.358    0.119
  637.250    5.808  168.108   94.787    0.366    0.125
  637.500    5.684  167.924   95.359    0.380    0.113
  637.750    5.614  167.738   91.278    0.375    0.106
  638.000    5.566  167.771   86.640    0.364    0.096
  638.250    5.559  167.999   85.412    0.354    0.090
  638.500    5.626  168.230   85.738    0.340    0.082
  638.750    5.800  168.459   81.594    0.359    0.071
  639.000    6.081  167.860   74.784    0.359    0.050
  639.250    6.412  167.783   76.599    0.295    0.038
  639.500    6.748  167.695   82.941    0.303    0.081
  639.750    6.970  167.723   86.179    0.327    0.084
  640.000    7.173  167.746   79.307    0.315    0.031
  640.250    7.191  167.457   84.659    0.268    0.043
  640.500    7.142  167.072   91.868    0.287    0.066
  640.750    7.028  166.784   94.676    0.310    0.093
  641.000    6.942  166.804   95.060    0.309    0.108
  641.250    6.947  166.836   92.530    0.301    0.091
  641.500    6.990  167.585   87.024    0.298    0.051
  641.750    7.141  168.021   85.053    0.295    0.031
  642.000    7.334  168.659   87.303    0.288    0.028
  642.250    7.647  168.891   89.547    0.282    0.068
