~VERSION INFORMATION
 VERS.                 2.0:   CWLS LOG ASCII STANDARD -VERSION 2.0
 WRAP.                  NO:   ONE LINE PER DEPTH STEP
~WELL INFORMATION BLOCK
#MNEM.UNIT           DATA                    DESCRIPTION OF MNEMONIC
#---------    -------------------            -------------------------------
# Generated from Intellog Unique Number	CW_79_81/WELL/2443
WELL.         04-01-080-22W4                 : Well_name    - WELL
LOC .         00/04-01-080-22W4/0            : Location     - LOCATION
UWI .         00/04-01-080-22W4/0            : Uwi          - UNIQUE WELL ID
ENTR.         MAX                            : Entered      - ENTERED BY
SRVC.         COMPUTALOG                     : Scn          - SERVICE COMPANY
STRT.M        215                            : top_depth    - START DEPTH
STOP.M        474.75                         : bot_depth    - STOP DEPTH
STEP.M        0.25                           : increment    - STEP LENGTH
 NULL. -999.2500:NULL Value
~CURVE INFORMATION BLOCK
#MNEM UNIT       ERCB CURVE CODE    CURVE DESCRIPTION
#-----------   ------------------   ----------------------------------
DEPT.M        00 001 00 00         : DEPTH        - DEPTH
ILD .OHMM     00 120 00 00         : RESD         - DEEP RESISTIVITY (DIL)
NPHI.V/V      00 330 00 00         : PHIN         - NEUTRON POROSITY (SANDSTONE)
DPHI.V/V      00 890 00 00         : PHID         - DENSITY POROSITY (SANDSTONE)
GR  .API      00 310 00 00         : GR           - GAMMA RAY
CALI.MM       00 280 01 00         : CAL          - CALIPER
~PARAMETER INFORMATION
#MNEM.UNIT           DATA             DESCRIPTION OF MNEMONIC
#---------         -----------     ------------------------------
GL  .M        585.4                : gl           - GROUND LEVEL ELEVATION
EREF.M        590                  : kb           - ELEVATION OF DEPTH REFERENCE
DATM.M        585.4                : datum        - DATUM ELEVATION
TDD .M        477                  : tdd          - TOTAL DEPTH DRILLER
RUN .         ONE                  : Run          - RUN NUMBER
ENG .         BILL                 : Engineer     - RECORDING ENGINEER
WIT .         JIM                  : Witness      - WITNESSED BY
MUD .         GEL                  : Mud_type     - MUD TYPE
MATR.         SANDSTONE            : Logunit      - NEUTRON MATRIX
TMAX.C        30                   : BHT          - MAXIMUM RECORDED TEMPERATURE
BHTD.M        477                  : BHTDEP       - MAXIMUM RECORDED TEMPERATURE
MATR.         1                    : LOGUNIT      - NEUTRON MATRIX
RMT .C        20                   : MDTP         - TEMPERATURE OF MUD
NEUT.         1                    : NEUTRON      - NEUTRON TYPE
RESI.         0                    : RESIST       - RESISTIVITY TYPE
RMC .OHMM     8                    : RMC          - RESISTIVITY OF MUD CAKE
RMF .OHMM     10                   : RMF          - RESISTIVITY OF MUD FILTRATE
SUFT.C        -20                  : SUFT         - SURFACE TEMPERATURE
~A  DEPTH     RESD     PHIN     PHID       GR      CAL
# ...
  361.000   36.319    0.149   -0.003   60.197  222.539
  361.250   32.410    0.214    0.034   70.160  222.771
  361.500   27.144    0.313    0.092   80.665  223.104
  361.750   19.508    0.414    0.149   84.950  223.067
  362.000   16.189    0.453    0.227   83.467  222.692
  362.250   15.504    0.428    0.217   81.097  222.726
  362.500   15.527    0.386    0.208   83.035  222.764
  362.750   15.777    0.356    0.202   86.171  222.605
  363.000   16.000    0.346    0.199   86.791  222.546
  363.250   16.117    0.340    0.191   80.940  223.471
  363.500   16.019    0.358    0.183   82.711  223.927
  363.750   16.035    0.382    0.171   88.241  223.958
  364.000   16.143    0.358    0.153   89.821  224.297
  364.250   16.518    0.337    0.141   88.167  224.735
  364.500   17.037    0.344    0.142   85.256  225.071
  364.750   17.083    0.375    0.162   84.975  225.121
  365.000   16.586    0.399    0.189   88.243  225.157
  365.250   15.653    0.378    0.192   92.814  225.591
  365.500   15.279    0.362    0.184   93.255  225.429
  365.750   15.242    0.360    0.173   90.163  225.266
  366.000   15.457    0.372    0.164   84.317  225.302
  366.250   16.066    0.380    0.159   76.628  225.349
  366.500   16.714    0.351    0.157   76.402  225.389
  366.750   17.105    0.336    0.157   80.737  225.424
  367.000   17.224    0.342    0.173   81.477  225.159
  367.250   16.992    0.357    0.189   83.176  224.397
  367.500   16.520    0.371    0.199   87.091  223.340
  367.750   15.915    0.385    0.205   90.942  222.595
  368.000   15.225    0.397    0.199   89.716  222.627
  368.250   14.905    0.398    0.185   92.374  223.468
  368.500   14.760    0.381    0.187   91.619  224.004
  368.750   14.670    0.374    0.190   90.206  224.040
  369.000   14.552    0.387    0.190   89.392  223.379
  369.250   14.338    0.410    0.200   88.139  221.654
  369.500   14.249    0.396    0.215   84.166  220.863
  369.750   14.265    0.378    0.227   79.399  221.700
  370.000   14.124    0.389    0.209   85.051  221.938
  370.250   13.935    0.401    0.198   88.906  221.975
  370.500   13.776    0.397    0.202   87.791  221.911
  370.750   13.694    0.367    0.204   88.032  221.391
  371.000   13.710    0.364    0.203   90.297  220.596
  371.250   13.729    0.372    0.201   90.799  219.840
  371.500   13.748    0.389    0.192   88.966  219.375
  371.750   13.713    0.407    0.188   88.150  220.809
  372.000   13.576    0.413    0.190   89.549  223.443
  372.250   13.237    0.386    0.187   92.614  224.199
  372.500   12.952    0.394    0.168   94.634  223.832
  372.750   12.873    0.396    0.173   92.974  223.068
  373.000   13.009    0.376    0.170   90.601  223.799
  373.250   13.218    0.372    0.168   91.583  224.834
  373.500   13.454    0.389    0.171   94.718  225.274
  373.750   13.939    0.380    0.178   92.598  224.184
  374.000   14.846    0.294    0.161   87.884  222.557
  374.250   16.932    0.270    0.119   90.060  222.193
  374.500   17.661    0.259    0.087   90.802  223.035
  374.750   17.618    0.279    0.112   89.626  223.275
  375.000   17.285    0.317    0.176   87.551  222.511
  375.250   16.423    0.337    0.194   87.946  221.589
  375.500   15.238    0.360    0.198   92.215  220.793
  375.750   15.032    0.379    0.194   93.433  222.429
  376.000   14.914    0.383    0.195   93.755  223.163
  376.250   14.877    0.375    0.193   92.461  222.204
  376.500   14.866    0.368    0.188   90.808  220.248
  376.750   14.736    0.388    0.190   92.881  219.743
  377.000   14.529    0.396    0.190   97.142  221.035
  377.250   14.230    0.375    0.186   95.968  223.066
  377.500   14.090    0.346    0.172   94.974  224.196
  377.750   14.003    0.330    0.166   94.038  224.829
  378.000   13.943    0.333    0.173   92.681  225.168
  378.250   13.941    0.349    0.176   89.325  225.218
  378.500   13.852    0.338    0.159   85.604  225.255
  378.750   13.977    0.337    0.146   89.220  225.289
  379.000   14.017    0.351    0.162   95.351  225.327
  379.250   13.929    0.368    0.176   99.447  225.364
  379.500   13.666    0.384    0.177  100.847  225.301
  379.750   13.154    0.393    0.165  100.693  224.952
  380.000   12.969    0.391    0.162   90.237  224.992
  380.250   12.889    0.381    0.148   91.456  225.027
  380.500   13.094    0.379    0.143   90.341  224.766
  380.750   13.354    0.382    0.144   90.003  224.601
  381.000   13.419    0.387    0.154   92.839  224.733
  381.250   12.973    0.391    0.175  100.383  225.181
  381.500   12.595    0.400    0.169   99.659  225.229
  381.750   12.333    0.423    0.169   99.203  225.260
  382.000   12.281    0.423    0.173   99.466  225.597
  382.250   12.341    0.398    0.169  104.759  225.835
  382.500   12.536    0.370    0.157  112.148  225.772
  382.750   13.049    0.378    0.162  110.658  225.246
  383.000   13.170    0.342    0.168  106.685  224.459
  383.250   13.087    0.325    0.156  103.355  223.695
  383.500   12.718    0.341    0.152  101.639  223.231
  383.750   11.995    0.379    0.151  103.937  223.267
  384.000   11.275    0.411    0.152  108.152  224.204
  384.250   11.143    0.391    0.156  106.453  226.730
  384.500   11.243    0.384    0.151  100.237  227.186
  384.750   11.678    0.377    0.125   99.062  226.023
  385.000   11.801    0.356    0.125   98.067  224.869
  385.250   11.685    0.344    0.145   96.533  224.508
  385.500   11.467    0.341    0.167   94.341  224.840
  385.750   11.314    0.328    0.155   92.869  224.799
  386.000   11.326    0.332    0.156   97.385  224.419
  386.250   11.937    0.364    0.153   97.650  225.659
  386.500   12.716    0.371    0.148   94.854  226.292
  386.750   13.793    0.352    0.131   91.520  226.526
  387.000   15.281    0.318    0.098   89.387  226.266
  387.250   17.477    0.297    0.062   88.717  225.032
  387.500   18.759    0.317    0.097   85.247  224.661
  387.750   19.485    0.347    0.110   81.675  224.296
  388.000   19.586    0.381    0.169   81.876  224.231
  388.250   19.393    0.388    0.217   85.731  224.268
  388.500   19.167    0.373    0.229   89.587  224.306
  388.750   19.024    0.374    0.215   85.814  224.266
  389.000   18.904    0.382    0.210   83.587  223.890
  389.250   18.374    0.391    0.210   84.808  223.526
  389.500   17.762    0.397    0.195   89.442  223.463
  389.750   17.207    0.392    0.171   91.861  223.700
  390.000   16.666    0.375    0.143   91.106  224.135
  390.250   15.924    0.351    0.116   91.193  224.665
  390.500   15.699    0.338    0.104   92.712  225.125
  390.750   15.605    0.334    0.111   91.056  225.555
  391.000   15.766    0.366    0.133   91.199  225.692
  391.250   16.193    0.402    0.158   91.223  225.732
  391.500   16.793    0.421    0.160   88.433  225.773
  391.750   17.348    0.399    0.091   79.353  225.816
  392.000   17.504    0.377    0.070   79.374  225.856
  392.250   17.524    0.364    0.135   87.304  225.492
  392.500   17.937    0.363    0.162   86.610  225.130
  392.750   18.698    0.360    0.171   83.636  224.768
  393.000   19.713    0.345    0.168   80.483  224.404
  393.250   21.126    0.295    0.138   73.355  224.051
  393.500   23.028    0.228    0.086   65.144  224.087
  393.750   26.075    0.218    0.070   64.209  224.126
  394.000   30.478    0.203    0.048   62.912  224.162
  394.250   36.384    0.180    0.029   61.375  224.200
  394.500   42.543    0.154    0.014   59.602  224.240
  394.750   43.468    0.140    0.001   56.773  224.197
  395.000   38.854    0.139    0.001   53.304  223.825
  395.250   35.042    0.149    0.019   56.680  223.864
  395.500   30.537    0.195    0.074   62.752  223.600
  395.750   26.924    0.299    0.144   67.686  223.236
  396.000   24.495    0.405    0.199   69.026  222.973
  396.250   23.243    0.367    0.190   66.447  223.107
  396.500   23.819    0.296    0.161   70.219  223.563
  396.750   25.834    0.196    0.089   67.601  223.594
  397.000   29.530    0.161    0.033   64.628  223.927
  397.250   31.139    0.164    0.011   66.688  223.964
