~VERSION INFORMATION
 VERS.                 2.0:   CWLS LOG ASCII STANDARD -VERSION 2.0
 WRAP.                  NO:   ONE LINE PER DEPTH STEP
~WELL INFORMATION BLOCK
#MNEM.UNIT           DATA                    DESCRIPTION OF MNEMONIC
#---------    -------------------            -------------------------------
# Generated from Intellog Unique Number	CW_79_81/WELL/620
WELL.         PETROREP SANDERS               : Well_name    - WELL
LOC .         00/07-26-080-02W5/0            : Location     - LOCATION
UWI .         00/07-26-080-02W5/0            : Uwi          - UNIQUE WELL ID
ENTR.         MAX                            : Entered      - ENTERED BY
SRVC.         SCHLUMBERGER                   : Scn          - SERVICE COMPANY
STRT.M        256.032                        : top_depth    - START DEPTH
STOP.M        515.032                        : bot_depth    - STOP DEPTH
STEP.M        0.25                           : increment    - STEP LENGTH
 NULL. -999.2500:NULL Value
~CURVE INFORMATION BLOCK
#MNEM UNIT       ERCB CURVE CODE    CURVE DESCRIPTION
#-----------   ------------------   ----------------------------------
DEPT.M        00 001 00 00         : DEPTH        - DEPTH
ILD .OHMM     00 120 00 00         : RESD         - DEEP RESISTIVITY (DIL)
NPHI.V/V      00 330 00 00         : PHIN         - NEUTRON POROSITY (SANDSTONE)
DPHI.V/V      00 890 00 00         : PHID         - DENSITY POROSITY (SANDSTONE)
CALI.MM       00 280 01 00         : CAL          - CALIPER
GR  .API      00 310 00 00         : GR           - GAMMA RAY
~PARAMETER INFORMATION
#MNEM.UNIT           DATA             DESCRIPTION OF MNEMONIC
#---------         -----------     ------------------------------
GL  .M        602.254              : gl           - GROUND LEVEL ELEVATION
EREF.M        605.607              : kb           - ELEVATION OF DEPTH REFERENCE
DATM.M        602.254              : datum        - DATUM ELEVATION
TDD .M        544.068              : tdd          - TOTAL DEPTH DRILLER
RUN .         ONE                  : Run          - RUN NUMBER
ENG .         BILL                 : Engineer     - RECORDING ENGINEER
WIT .         JIM                  : Witness      - WITNESSED BY
MUD .         GEL                  : Mud_type     - MUD TYPE
MATR.         SANDSTONE            : Logunit      - NEUTRON MATRIX
TMAX.C        24.4444              : BHT          - MAXIMUM RECORDED TEMPERATURE
BHTD.M        544.068              : BHTDEP       - MAXIMUM RECORDED TEMPERATURE
RMT .C        18.3333              : MDTP         - TEMPERATURE OF MUD
MUDD.KG/M     1120                 : MWT          - MUD DENSITY
NEUT.         1                    : NEUTRON      - NEUTRON TYPE
RESI.         0                    : RESIST       - RESISTIVITY TYPE
RM  .OHMM     5                    : RM           - RESISTIVITY OF MUD
RMC .OHMM     0                    : RMC          - RESISTIVITY OF MUD CAKE
RMF .OHMM     7                    : RMF          - RESISTIVITY OF MUD FILTRATE
SUFT.C        -20.5556             : SUFT         - SURFACE TEMPERATURE
~A  DEPTH     RESD     PHIN     PHID      CAL       GR
  256.032    4.344    0.465    0.361  163.641   49.591
  256.282    4.344    0.441    0.365  156.991   43.860
  256.532    4.465    0.422    0.374  153.394   44.438
  256.782    4.716    0.429    0.386  155.899   48.620
  257.032    5.120    0.437    0.394  156.369   48.905
  257.282    5.661    0.420    0.407  154.294   47.079
  257.532    6.432    0.403    0.427  152.229   45.859
  257.782    8.934    0.427    0.423  151.176   44.333
  258.032   11.534    0.485    0.415  153.173   44.015
  258.282   12.636    0.492    0.414  155.174   47.295
  258.532   15.730    0.465    0.411  155.139   50.883
  258.782   19.403    0.450    0.407  156.118   52.967
  259.032   21.064    0.434    0.380  159.654   49.938
  259.282   21.650    0.384    0.297  163.691   46.614
  259.532   21.650    0.339    0.250  165.687   41.485
  259.782   21.651    0.220    0.173  174.308   39.058
  260.032   21.261    0.212    0.176  181.907   38.436
  260.282   19.765    0.206    0.175  184.417   37.815
  260.532   17.555    0.192    0.155  184.891   35.089
  260.782   15.879    0.188    0.165  181.799   34.162
  261.032   15.736    0.233    0.222  175.657   34.748
  261.282   20.316    0.290    0.304  171.042   36.227
  261.532   24.607    0.355    0.313  171.008   36.806
  261.782   30.631    0.337    0.259  176.571   36.785
  262.032   47.899    0.336    0.257  207.071   36.163
  262.282   50.596    0.343    0.237  236.039   37.045
  262.532   47.037    0.345    0.201  221.760   39.731
  262.782   42.547    0.200    0.174  182.026   43.017
  263.032   39.553    0.189    0.168  181.474   45.701
  263.282   36.437    0.238    0.192  182.975   50.790
  263.532   33.566    0.286    0.239  187.516   61.887
  263.782   31.779    0.308    0.286  188.503   70.885
  264.032   31.491    0.358    0.311  193.040   86.191
  264.282   33.569    0.319    0.328  188.434  100.597
  264.532   38.493    0.473    0.302  184.324  102.379
  264.782   45.781    0.480    0.243  184.289  102.960
  265.032   49.249    0.491    0.241  184.289  104.740
  265.282   40.294    0.506    0.243  185.220  106.821
  265.532   31.498    0.512    0.243  186.216  106.505
  265.782   25.305    0.501    0.239  187.204  105.583
  266.032   13.362    0.493    0.235  188.696  105.860
  266.282    9.534    0.491    0.236  190.183  102.832
  266.532    7.056    0.478    0.236  191.675  102.210
  266.782    5.174    0.477    0.237  194.181  101.291
  267.032    4.391    0.478    0.242  195.164   96.462
  267.282    4.045    0.452    0.244  195.643   87.723
  267.532    3.795    0.433    0.244  197.130   80.490
  267.782    3.692    0.417    0.246  199.636   76.863
  268.032    3.692    0.401    0.255  200.623   76.840
  268.282    3.626    0.407    0.274  201.602   78.623
  268.532    3.626    0.431    0.285  202.076   86.414
  268.782    3.727    0.441    0.269  202.046   90.303
  269.032    3.865    0.458    0.258  202.011   94.790
  269.282    4.046    0.466    0.259  201.972  101.983
  269.532    4.352    0.484    0.263  201.938  111.582
  269.782    4.725    0.517    0.272  201.907  113.662
  270.032    5.224    0.553    0.278  201.864  112.437
  270.282    5.776    0.561    0.261  201.834  110.015
  270.532    6.046    0.554    0.240  201.286  107.588
  270.782    5.672    0.531    0.265  199.725  106.666
  271.032    5.084    0.532    0.280  197.659  106.645
  271.282    4.557    0.529    0.283  194.566  109.029
  271.532    3.694    0.506    0.269  190.965  112.615
  271.782    3.530    0.504    0.272  189.912  114.097
  272.032    3.281    0.507    0.274  189.882  111.071
  272.282    3.051    0.520    0.248  191.370  108.344
  272.532    2.862    0.520    0.234  192.357  109.227
  272.782    2.685    0.511    0.236  192.831  113.715
  273.032    2.613    0.519    0.251  190.757  117.000
  273.282    2.542    0.543    0.257  190.722  119.081
  273.532    2.519    0.552    0.267  190.179  120.563
  273.782    2.496    0.525    0.250  190.144  121.139
  274.032    2.496    0.531    0.255  189.596  119.921
  274.282    2.519    0.537    0.240  189.048  114.789
  274.532    2.543    0.531    0.250  189.022  114.468
  274.782    2.590    0.501    0.237  188.979  117.155
  275.032    2.613    0.487    0.235  189.966  118.935
  275.282    2.637    0.480    0.249  191.963  117.111
  275.532    2.686    0.493    0.256  191.924  113.181
  275.782    2.736    0.508    0.264  191.389  112.259
  276.032    2.761    0.524    0.272  190.336  111.340
  276.282    2.786    0.520    0.280  189.793  110.115
  276.532    2.890    0.524    0.271  189.745  108.291
  276.782    3.025    0.531    0.275  189.206  103.762
  277.032    3.081    0.533    0.260  188.149   96.830
  277.282    3.109    0.516    0.267  187.105   85.985
  277.532    3.109    0.494    0.260  185.031   78.754
  277.782    3.081    0.480    0.136  181.438   70.619
  278.032    3.053    0.434    0.148  173.257   54.367
  278.282    3.025    0.284    0.171  167.615   45.031
  278.532    2.998    0.278    0.233  165.554   42.000
  278.782    2.998    0.288    0.221  168.059   38.976
  279.032    3.053    0.293    0.222  167.011   35.347
  279.282    3.255    0.296    0.230  161.883   30.220
  279.532    3.907    0.292    0.233  159.809   25.689
  279.782    4.953    0.284    0.220  159.774   24.166
  280.032    6.512    0.256    0.213  160.239   25.345
  280.282   27.276    0.259    0.217  160.722   26.526
  280.532   30.994    0.261    0.217  161.197   25.301
  280.782   30.713    0.248    0.201  161.158   24.382
  281.032   30.159    0.222    0.177  159.596   24.061
  281.282   29.615    0.193    0.161  158.539   24.937
  281.532   30.438    0.190    0.145  159.531   26.124
  281.782   31.570    0.188    0.142  160.514   27.002
  282.032   33.045    0.183    0.136  160.471   27.285
  282.282   34.274    0.192    0.149  160.945   26.360
  282.532   36.535    0.209    0.164  160.406   24.837
  282.782   38.946    0.219    0.210  160.371   24.215
  283.032   42.668    0.235    0.228  160.841   24.794
  283.282   47.606    0.266    0.230  160.802   25.973
  283.532   53.602    0.276    0.239  160.776   26.258
  283.782   60.907    0.247    0.218  160.220   25.934
  284.032   62.600    0.229    0.175  160.194   25.616
  284.282   61.470    0.236    0.191  161.172   27.992
  284.532   58.198    0.273    0.223  161.647   29.477
  284.782   55.605    0.292    0.239  157.545   29.759
  285.032   51.693    0.293    0.248  156.493   29.436
  285.282   48.056    0.279    0.245  157.980   29.415
  285.532   44.675    0.281    0.250  158.459   30.597
  285.782   40.411    0.296    0.255  158.411   31.781
  286.032   38.260    0.324    0.275  157.363   33.561
  286.282   35.245    0.351    0.305  156.824   35.046
  286.532   32.468    0.355    0.322  156.280   37.728
  286.782   29.368    0.359    0.315  155.737   38.907
  287.032   25.848    0.367    0.323  155.698   38.884
  287.282   21.934    0.364    0.319  155.659   38.262
  287.532   19.482    0.352    0.302  156.133   37.343
  287.782   18.277    0.325    0.291  157.116   33.718
  288.032   18.445    0.298    0.278  157.595   32.493
  288.282   20.024    0.312    0.285  159.087   35.779
  288.532   21.346    0.363    0.293  160.066   37.862
  288.782   21.347    0.374    0.302  161.553   38.139
  289.032   21.741    0.355    0.296  162.028   38.720
  289.282   21.741    0.358    0.314  162.506   40.205
  289.532   22.142    0.370    0.325  162.471   39.581
  289.782   23.177    0.371    0.334  160.906   38.656
  290.032   23.604    0.373    0.347  159.349   39.239
  290.282   23.821    0.368    0.343  158.296   41.620
  290.532   23.606    0.363    0.340  158.262   43.406
  290.782   23.606    0.363    0.336  157.709   46.388
  291.032   22.970    0.372    0.319  157.670   50.575
  291.282   22.555    0.379    0.306  157.644   55.967
  291.532   22.556    0.394    0.321  157.605   63.157
  291.782   22.764    0.413    0.346  159.102   60.434
  292.032   23.827    0.427    0.359  159.576   55.004
  292.282   24.046    0.428    0.366  160.050   49.268
