~VERSION INFORMATION
 VERS.                 2.0:   CWLS LOG ASCII STANDARD -VERSION 2.0
 WRAP.                  NO:   ONE LINE PER DEPTH STEP
~WELL INFORMATION BLOCK
#MNEM.UNIT           DATA                    DESCRIPTION OF MNEMONIC
#---------    -------------------            -------------------------------
# Generated from Intellog Unique Number	CS_73_76/WELL/2196
WELL.         PETROFINA CANADA LTD           : Well_name    - WELL
LOC .         00/07-17-076-11W4/0            : Location     - LOCATION
UWI .         00/07-17-076-11W4/0            : Uwi          - UNIQUE WELL ID
ENTR.         SP                             : Entered      - ENTERED BY
SRVC.         SCHLUMBERGER                   : Scn          - SERVICE COMPANY
STRT.M        274.32                         : top_depth    - START DEPTH
STOP.M        511.82                         : bot_depth    - STOP DEPTH
STEP.M        0.25                           : increment    - STEP LENGTH
 NULL. -999.2500:NULL Value
~CURVE INFORMATION BLOCK
#MNEM UNIT       ERCB CURVE CODE    CURVE DESCRIPTION
#-----------   ------------------   ----------------------------------
DEPT.M        00 001 00 00         : DEPTH        - DEPTH
GR  .API      00 310 00 00         : GR           - GAMMA RAY
DPHI.V/V      00 890 00 00         : PHID         - DENSITY POROSITY (SANDSTONE)
NPHI.V/V      00 330 00 00         : PHIN         - NEUTRON POROSITY (SANDSTONE)
ILD .OHMM     00 120 00 00         : RESD         - DEEP RESISTIVITY (DIL)
~PARAMETER INFORMATION
#MNEM.UNIT           DATA             DESCRIPTION OF MNEMONIC
#---------         -----------     ------------------------------
GL  .M        667.817              : gl           - GROUND LEVEL ELEVATION
EREF.M        671.17               : kb           - ELEVATION OF DEPTH REFERENCE
DATM.M        667.817              : datum        - DATUM ELEVATION
TDD .M        532.79               : tdd          - TOTAL DEPTH DRILLER
RUN .         ONE                  : Run          - RUN NUMBER
ENG .         BILL                 : Engineer     - RECORDING ENGINEER
WIT .         JIM                  : Witness      - WITNESSED BY
MUD .         GEL                  : Mud_type     - MUD TYPE
MATR.         SANDSTONE            : Logunit      - NEUTRON MATRIX
TMAX.C        8.88889              : BHT          - MAXIMUM RECORDED TEMPERATURE
BHTD.M        532.79               : BHTDEP       - MAXIMUM RECORDED TEMPERATURE
MATR.         1                    : LOGUNIT      - NEUTRON MATRIX
RMT .C        25                   : MDTP         - TEMPERATURE OF MUD
NEUT.         1                    : NEUTRON      - NEUTRON TYPE
RESI.         0                    : RESIST       - RESISTIVITY TYPE
RMC .OHMM     0.25                 : RMC          - RESISTIVITY OF MUD CAKE
RMF .OHMM     0.25                 : RMF          - RESISTIVITY OF MUD FILTRATE
SUFT.C        15                   : SUFT         - SURFACE TEMPERATURE
~A  DEPTH       GR     PHID     PHIN     RESD
  274.320  110.983    0.220    0.538    3.162
  274.570  113.417    0.220    0.536    3.432
  274.820  114.278    0.208    0.532    3.551
  275.070  111.735    0.213    0.526    3.666
  275.320  111.216    0.194    0.519    3.673
  275.570  114.446    0.198    0.520    3.588
  275.820  117.071    0.201    0.519    3.434
  276.070  116.124    0.211    0.521    3.192
  276.320  115.792    0.217    0.523    2.971
  276.570  113.592    0.219    0.524    2.841
  276.820  112.614    0.222    0.532    2.769
  277.070  113.014    0.227    0.537    2.831
  277.320  116.712    0.230    0.539    2.920
  277.570  118.560    0.227    0.544    3.022
  277.820  117.869    0.226    0.530    3.218
  278.070  117.859    0.222    0.504    3.278
  278.320  119.961    0.227    0.493    3.350
  278.570  122.073    0.213    0.489    3.343
  278.820  122.420    0.190    0.497    3.345
  279.070  118.784    0.194    0.514    3.351
  279.320  113.686    0.202    0.531    3.413
  279.570  110.402    0.202    0.534    3.316
  279.820  105.603    0.199    0.526    3.220
  280.070  103.887    0.195    0.509    3.178
  280.320  105.278    0.189    0.510    3.178
  280.570  104.530    0.184    0.521    3.344
  280.820   99.942    0.174    0.520    3.703
  281.070   94.338    0.158    0.511    4.148
  281.320   88.344    0.129    0.479    4.560
  281.570   93.024    0.101    0.427    4.952
  281.820  104.486    0.137    0.460    5.245
  282.070  109.951    0.194    0.487    5.422
  282.320  110.583    0.197    0.497    5.168
  282.570  107.975    0.200    0.505    4.920
  282.820  104.378    0.204    0.515    4.773
  283.070  102.373    0.215    0.530    4.754
  283.320  103.476    0.225    0.531    4.852
  283.570  101.450    0.224    0.527    5.004
  283.820  101.017    0.234    0.523    5.189
  284.070  105.219    0.230    0.490    5.415
  284.320  105.881    0.224    0.479    5.695
  284.570  103.775    0.217    0.480    5.846
  284.820  106.084    0.214    0.470    5.834
  285.070  111.523    0.204    0.477    5.786
  285.320  110.611    0.204    0.471    5.601
  285.570  110.080    0.212    0.459    5.526
  285.820  111.241    0.216    0.456    5.417
  286.070  110.846    0.208    0.461    5.315
  286.320  110.493    0.208    0.472    5.245
  286.570  108.174    0.204    0.490    5.224
  286.820  105.410    0.192    0.494    5.221
  287.070  104.030    0.204    0.486    5.223
  287.320  103.061    0.213    0.483    5.240
  287.570  104.789    0.214    0.481    5.416
  287.820  105.842    0.212    0.479    5.469
  288.070  101.218    0.220    0.477    5.650
  288.320   98.386    0.224    0.474    5.731
  288.570   95.828    0.217    0.467    5.718
  288.820   93.464    0.228    0.458    5.841
  289.070   95.904    0.240    0.451    5.924
  289.320  100.264    0.232    0.456    5.932
  289.570   97.444    0.230    0.458    6.060
  289.820   95.065    0.223    0.448    6.141
  290.070   95.333    0.226    0.441    6.195
  290.320   96.413    0.224    0.439    6.403
  290.570   97.509    0.241    0.450    6.456
  290.820   96.695    0.249    0.460    6.815
  291.070   92.952    0.242    0.463    7.013
  291.320   91.141    0.236    0.458    7.213
  291.570   86.450    0.233    0.448    7.584
  291.820   83.282    0.225    0.435    7.686
  292.070   87.668    0.212    0.428    7.652
  292.320   91.789    0.204    0.432    7.416
  292.570   94.923    0.202    0.449    7.180
  292.820   95.948    0.209    0.466    7.122
  293.070   95.275    0.215    0.474    6.895
  293.320   91.989    0.224    0.466    6.673
  293.570   90.105    0.233    0.463    6.613
  293.820   91.557    0.246    0.464    6.526
  294.070   95.021    0.239    0.477    6.393
  294.320   98.819    0.220    0.485    6.405
  294.570   92.859    0.206    0.478    6.395
  294.820   86.902    0.211    0.458    6.520
  295.070   80.141    0.227    0.439    6.830
  295.320   75.878    0.231    0.431    7.360
  295.570   69.754    0.240    0.427    8.333
  295.820   64.153    0.247    0.417    9.718
  296.070   60.391    0.259    0.418   11.074
  296.320   61.086    0.260    0.422   11.958
  296.570   63.754    0.266    0.427   12.040
  296.820   65.781    0.263    0.431   11.915
  297.070   66.829    0.257    0.434   11.546
  297.320   67.420    0.267    0.441   11.189
  297.570   67.733    0.281    0.444   11.182
  297.820   68.761    0.277    0.444   11.172
  298.070   70.873    0.272    0.437   10.328
  298.320   75.391    0.284    0.427    9.152
  298.570   87.162    0.240    0.422    7.930
  298.820   95.256    0.227    0.428    7.370
  299.070  100.292    0.214    0.437    6.786
  299.320   99.173    0.224    0.442    6.398
  299.570   99.411    0.225    0.443    6.126
  299.820  102.862    0.220    0.452    5.881
  300.070  109.547    0.206    0.461    5.630
  300.320  112.625    0.222    0.478    5.413
  300.570  107.996    0.222    0.486    5.309
  300.820  101.475    0.213    0.483    5.315
  301.070   98.266    0.211    0.476    5.473
  301.320   97.556    0.219    0.480    5.640
  301.570   96.982    0.228    0.480    5.813
  301.820   96.560    0.238    0.474    5.952
  302.070   94.548    0.250    0.469    5.939
  302.320   96.818    0.243    0.470    5.840
  302.570   98.632    0.230    0.470    5.710
  302.820   96.960    0.228    0.467    5.836
  303.070   95.983    0.222    0.464    6.020
  303.320   90.289    0.235    0.456    6.235
  303.570   84.524    0.257    0.448    6.511
  303.820   80.222    0.274    0.442    6.851
  304.070   80.277    0.269    0.438    7.037
  304.320   83.382    0.259    0.441    7.024
  304.570   84.195    0.261    0.447    6.974
  304.820   84.908    0.264    0.449    6.753
  305.070   86.861    0.259    0.449    6.650
  305.320   88.941    0.253    0.457    6.471
  305.570   87.878    0.250    0.465    6.280
  305.820   87.204    0.256    0.472    6.176
  306.070   88.904    0.265    0.473    6.044
  306.320   88.598    0.254    0.479    6.057
  306.570   87.808    0.246    0.489    6.105
  306.820   84.621    0.241    0.492    6.438
  307.070   80.457    0.236    0.498    6.746
  307.320   75.950    0.253    0.488    6.958
  307.570   75.099    0.272    0.464    7.161
  307.820   82.494    0.272    0.454    7.276
  308.070   85.150    0.273    0.464    7.010
  308.320   85.161    0.270    0.458    6.254
  308.570   90.313    0.268    0.446    5.909
  308.820   95.205    0.250    0.461    5.436
  309.070   97.213    0.240    0.480    5.124
  309.320   94.294    0.238    0.496    5.121
  309.570   89.711    0.248    0.487    5.258
  309.820   86.934    0.243    0.478    5.317
  310.070   87.251    0.246    0.479    5.476
  310.320   87.333    0.253    0.474    5.632
  310.570   82.508    0.270    0.458    5.617
  310.820   79.368    0.273    0.450    5.784
  311.070   76.325    0.282    0.455    5.960
  311.320   73.541    0.300    0.466    6.143
  311.570   72.219    0.283    0.466    6.295
  311.820   83.597    0.262    0.458    6.286
  312.070   92.013    0.246    0.479    6.360
  312.320   91.905    0.254    0.502    6.818
  312.570   96.010    0.261    0.492    7.419
  312.820  102.189    0.264    0.478    8.175
  313.070  107.346    0.256    0.473    9.034
  313.320  110.180    0.255    0.478    9.262
  313.570  109.297    0.253    0.483    9.493
  313.820  107.549    0.248    0.485    9.295
  314.070  106.080    0.256    0.470    9.471
  314.320  105.279    0.268    0.469    9.545
  314.570  106.062    0.268    0.473    9.646
  314.820  107.069    0.265    0.473    9.827
  315.070  108.073    0.269    0.472    9.822
  315.320  109.084    0.265    0.465    9.627
  315.570  109.072    0.260    0.457    8.878
  315.820  109.012    0.257    0.456    8.369
  316.070  107.336    0.255    0.468    7.865
  316.320  105.721    0.247    0.468    7.865
  316.570  102.643    0.248    0.454    7.880
  316.820   99.594    0.255    0.443    8.122
  317.070   97.203    0.269    0.433    8.557
  317.320   96.522    0.262    0.433    8.807
  317.570   97.681    0.255    0.441    9.055
