~VERSION INFORMATION
 VERS.                 2.0:   CWLS LOG ASCII STANDARD -VERSION 2.0
 WRAP.                  NO:   ONE LINE PER DEPTH STEP
~WELL INFORMATION BLOCK
#MNEM.UNIT           DATA                    DESCRIPTION OF MNEMONIC
#---------    -------------------            -------------------------------
# Generated from Intellog Unique Number	CW_70_72/WELL/3014
NULL.         -999.25                        : NULL_VALUE
WELL.         DEKALB ET AL MITSUE 06-35      : Well_name    - WELL              
LOC .         06-35-070-03W5                : Location     - LOCATION          
UWI .         00/06-35-070-03W5/0            : Uwi          - UNIQUE WELL ID    
ENTR.         JAYE                           : Entered      - ENTERED BY        
SRVC.         SCHLUMBERGER                   : Scn          - SERVICE COMPANY   
DATE.         10 FEB 80                      : Date         - LOG DATE          
STRT.M        460                            : top_depth    - START DEPTH       
STOP.M        680                            : bot_depth    - STOP DEPTH        
STEP.M        0.25                           : increment    - STEP LENGTH       
~CURVE INFORMATION BLOCK
#MNEM UNIT       ERCB CURVE CODE    CURVE DESCRIPTION
#-----------   ------------------   ----------------------------------
DEPT.M        00 001 00 00         : DEPTH        - DEPTH                       
ILD .OHMM     00 120 00 00         : RESD         - DEEP RESISTIVITY (DIL)      
CALI.MM       00 280 01 00         : CAL          - CALIPER                     
GR  .API      00 310 00 00         : GR           - GAMMA RAY                   
NPHI.V/V      00 330 00 00         : PHIN         - NEUTRON POROSITY (SANDSTONE)
DPHI.V/V      00 890 00 00         : PHID         - DENSITY POROSITY (SANDSTONE)
~PARAMETER INFORMATION       
#MNEM.UNIT           DATA             DESCRIPTION OF MNEMONIC
#---------         -----------     ------------------------------
GL  .M        617.4                : gl           - GROUND LEVEL ELEVATION      
EREF.M        620.6                : kb           - ELEVATION OF DEPTH REFERENCE
DATM.M        617.4                : datum        - DATUM ELEVATION             
TDD .M        685                  : tdd          - TOTAL DEPTH DRILLER         
RUN .         ONE                  : Run          - RUN NUMBER                  
ENG .         COOK                 : Engineer     - RECORDING ENGINEER          
WIT .         LOWTHER              : Witness      - WITNESSED BY                
BASE.         RD                   : Branch       - HOME BASE OF LOGGING UNIT   
MUD .         GEL CHEM             : Mud_type     - MUD TYPE                    
MATR.         SANDSTONE            : Logunit      - NEUTRON MATRIX              
TMAX.C        31                   : BHT          - MAXIMUM RECORDED TEMPERATURE
BHTD.M        686                  : BHTDEP       - MAXIMUM RECORDED TEMPERATURE
RMT .C        10                   : MDTP         - TEMPERATURE OF MUD          
MUDD.KG/M     1120                 : MWT          - MUD DENSITY                 
NEUT.         1                    : NEUTRON      - NEUTRON TYPE                
RESI.         0                    : RESIST       - RESISTIVITY TYPE            
RM  .OHMM     4.39                 : RM           - RESISTIVITY OF MUD          
RMC .OHMM     0.25                 : RMC          - RESISTIVITY OF MUD CAKE     
RMF .OHMM     2.49                 : RMF          - RESISTIVITY OF MUD FILTRATE 
SUFT.C        0                    : SUFT         - SURFACE TEMPERATURE         
~A  DEPTH     RESD      CAL       GR     PHIN     PHID
  460.000    2.417  201.410  100.811    0.550    0.193
  460.250    2.467  198.746  102.563    0.563    0.201
  460.500    2.519  193.498  100.656    0.575    0.192
  460.750    2.576  187.627   98.061    0.585    0.187
  461.000    2.634  182.272   93.362    0.577    0.193
  461.250    2.709  178.884   92.322    0.550    0.188
  461.500    2.786  177.772   95.809    0.480    0.179
  461.750    2.838  176.761  100.786    0.480    0.173
  462.000    2.875  175.546  104.894    0.485    0.171
  462.250    2.929  173.503  101.806    0.477    0.171
  462.500    2.996  171.458   96.051    0.486    0.174
  462.750    3.133  169.516   86.140    0.503    0.169
  463.000    3.307  167.677   75.174    0.449    0.153
  463.250    3.472  166.256   60.175    0.391    0.157
  463.500    3.578  165.449   62.113    0.393    0.210
  463.750    3.611  164.959   69.757    0.410    0.235
  464.000    3.551  164.979   69.522    0.424    0.260
  464.250    3.414  165.417   62.960    0.440    0.242
  464.500    3.295  165.856   67.565    0.450    0.192
  464.750    3.162  166.091   80.608    0.458    0.184
  465.000    3.120  166.008   89.555    0.461    0.200
  465.250    3.063  165.717   90.003    0.459    0.179
  465.500    3.005  166.465   91.383    0.475    0.164
  465.750    2.944  168.659   96.483    0.500    0.181
  466.000    2.858  171.268   98.297    0.463    0.189
  466.250    2.831  172.846   99.242    0.446    0.204
  466.500    2.857  174.316  105.707    0.509    0.211
  466.750    2.922  179.197  111.864    0.548    0.189
  467.000    2.939  174.984  106.977    0.494    0.174
  467.250    2.921  168.389   96.693    0.423    0.197
  467.500    2.889  165.723   80.330    0.395    0.237
  467.750    2.840  165.545   75.195    0.383    0.254
  468.000    2.825  165.564   71.237    0.379    0.266
  468.250    2.814  166.217   77.085    0.378    0.221
  468.500    2.878  166.651   96.702    0.396    0.197
  468.750    2.938  167.086  107.076    0.447    0.195
  469.000    3.061  167.108  114.782    0.464    0.203
  469.250    3.262  167.129  105.802    0.448    0.197
  469.500    3.521  166.952  100.852    0.434    0.195
  469.750    3.845  167.177   96.773    0.446    0.186
  470.000    4.089  167.615   92.569    0.456    0.169
  470.250    4.300  167.230   92.086    0.464    0.171
  470.500    4.150  167.250   96.258    0.468    0.183
  470.750    3.546  167.692   94.844    0.464    0.209
  471.000    2.797  168.022   62.785    0.449    0.254
  471.250    2.368  167.946   50.330    0.423    0.283
  471.500    1.983  167.756   41.660    0.393    0.303
  471.750    1.746  167.987   31.499    0.360    0.306
  472.000    1.602  167.906   33.748    0.354    0.298
  472.250    1.636  168.136   40.956    0.339    0.274
  472.500    1.785  168.268   64.607    0.349    0.229
  472.750    2.066  168.601   88.319    0.390    0.183
  473.000    2.311  169.347  102.601    0.423    0.153
  473.250    2.485  173.091  112.357    0.458    0.174
  473.500    2.628  175.908  109.764    0.494    0.208
  473.750    2.565  173.964   92.161    0.457    0.257
  474.000    2.467  169.956   82.870    0.416    0.282
  474.250    2.471  168.741   77.671    0.391    0.278
  474.500    2.546  168.041   82.774    0.393    0.258
  474.750    2.785  167.654   89.673    0.389    0.237
  475.000    2.951  167.672   86.834    0.376    0.235
  475.250    2.811  167.700   81.513    0.368    0.240
  475.500    2.398  167.721   77.122    0.390    0.256
  475.750    2.046  167.745   62.868    0.415    0.281
  476.000    1.880  167.766   42.721    0.380    0.295
  476.250    1.681  168.312   28.342    0.357    0.287
  476.500    1.565  168.435   31.335    0.366    0.280
  476.750    1.502  168.463   32.094    0.376    0.286
  477.000    1.474  168.692   30.618    0.364    0.295
  477.250    1.629  168.921   34.232    0.349    0.304
  477.500    1.764  169.253   45.534    0.339    0.233
  477.750    2.026  169.796   67.261    0.347    0.198
  478.000    2.356  170.130   95.813    0.374    0.178
  478.250    2.794  170.130  100.792    0.407    0.184
  478.500    3.251  172.663   96.524    0.394    0.179
  478.750    3.542  173.200   92.570    0.385    0.167
  479.000    3.643  173.425   94.566    0.397    0.165
  479.250    3.725  173.864  102.088    0.414    0.176
  479.500    3.962  174.406  107.995    0.401    0.182
  479.750    4.254  174.430  106.086    0.386    0.174
  480.000    4.167  174.765  101.819    0.372    0.164
  480.250    3.866  175.200  106.238    0.381    0.160
  480.500    3.379  178.945  109.230    0.430    0.185
  480.750    2.772  184.553  112.285    0.573    0.204
  481.000    2.491  188.090  117.261    0.582    0.229
  481.250    2.325  186.773  112.499    0.551    0.251
  481.500    2.265  180.590   98.740    0.495    0.244
  481.750    2.235  169.963   78.717    0.457    0.250
  482.000    2.239  165.026   64.650    0.432    0.268
  482.250    2.194  163.293   55.918    0.425    0.289
  482.500    2.101  163.316   57.233    0.407    0.310
  482.750    1.986  163.337   55.140    0.415    0.318
  483.000    1.921  163.778   52.670    0.423    0.318
  483.250    1.975  164.735   49.148    0.421    0.292
  483.500    2.144  165.171   53.817    0.391    0.200
  483.750    2.320  165.198   55.136    0.347    0.156
  484.000    2.412  165.220   57.131    0.392    0.181
  484.250    2.481  165.341   67.630    0.460    0.205
  484.500    2.490  165.570   65.474    0.457    0.226
  484.750    2.504  165.907   59.531    0.414    0.254
  485.000    2.533  166.033   59.174    0.393    0.254
  485.250    2.663  165.953   63.903    0.411    0.240
  485.500    2.796  166.491   68.197    0.442    0.220
  485.750    2.724  166.932   73.486    0.441    0.208
  486.000    2.673  166.953   79.456    0.425    0.225
  486.250    2.575  166.155   82.756    0.445    0.258
  486.500    2.416  165.253   78.924    0.493    0.291
  486.750    2.310  164.654   68.267    0.451    0.305
  487.000    2.242  164.674   63.691    0.443    0.299
  487.250    2.208  164.078   65.814    0.428    0.294
  487.500    2.179  164.313   63.099    0.420    0.289
  487.750    2.187  164.126   58.213    0.437    0.293
  488.000    2.229  164.666   55.995    0.442    0.293
  488.250    2.280  164.998   55.139    0.419    0.286
  488.500    2.348  165.021   57.883    0.409    0.279
  488.750    2.470  165.353   56.906    0.423    0.284
  489.000    2.612  165.384   55.677    0.434    0.295
  489.250    2.879  165.303   55.197    0.439    0.308
  489.500    3.343  165.116   56.018    0.435    0.315
  489.750    3.817  164.726   54.730    0.441    0.307
  490.000    4.359  164.850   51.828    0.452    0.270
  490.250    5.749  164.355   47.561    0.445    0.137
  490.500    7.710  164.069   42.364    0.239    0.088
  490.750    9.139  163.374   41.820    0.222    0.076
  491.000    8.887  163.192   47.416    0.259    0.157
  491.250    7.047  163.214   51.340    0.298    0.241
  491.500    5.147  163.028   52.844    0.406    0.275
  491.750    3.739  163.256   52.981    0.407    0.292
  492.000    3.038  163.086   54.173    0.393    0.301
  492.250    2.587  162.788   53.880    0.407    0.294
  492.500    2.400  162.610   53.519    0.418    0.298
  492.750    2.273  162.523   54.340    0.421    0.298
  493.000    2.303  162.344   57.083    0.409    0.292
  493.250    2.454  163.309   58.712    0.402    0.294
  493.500    2.893  163.533   58.044    0.427    0.291
  493.750    3.553  163.656   56.071    0.444    0.281
  494.000    4.381  163.685   53.544    0.378    0.260
  494.250    5.051  163.398   50.764    0.253    0.235
  494.500    5.381  162.905   48.482    0.246    0.174
  494.750    5.311  162.823   50.173    0.256    0.202
  495.000    4.846  163.466   50.993    0.328    0.258
  495.250    4.243  164.744   51.131    0.391    0.287
  495.500    3.435  165.069   53.814    0.408    0.283
  495.750    2.914  164.876   54.512    0.406    0.288
  496.000    2.629  165.736   54.090    0.414    0.299
  496.250    2.399  164.936   55.592    0.429    0.304
