~VERSION INFORMATION
 VERS.                 2.0:   CWLS LOG ASCII STANDARD -VERSION 2.0
 WRAP.                  NO:   ONE LINE PER DEPTH STEP
~WELL INFORMATION BLOCK
#MNEM.UNIT           DATA                    DESCRIPTION OF MNEMONIC
#---------    -------------------            -------------------------------
# Generated from Intellog Unique Number	CW_73_75/WELL/532
WELL.         NORCEN POR MARTIN HILLS 06-10  : Well_name    - WELL
LOC .         00/06-10-074-25W4/0            : Location     - LOCATION
UWI .         00/06-10-074-25W4/0            : Uwi          - UNIQUE WELL ID
ENTR.         JAYE                           : Entered      - ENTERED BY
SRVC.         COMPUTALOG                     : Scn          - SERVICE COMPANY
DATE.         18 FEB 83                      : Date         - LOG DATE
STRT.M        420                            : top_depth    - START DEPTH
STOP.M        642                            : bot_depth    - STOP DEPTH
STEP.M        0.25                           : increment    - STEP LENGTH
 NULL. -999.2500:NULL Value
~CURVE INFORMATION BLOCK
#MNEM UNIT       ERCB CURVE CODE    CURVE DESCRIPTION
#-----------   ------------------   ----------------------------------
DEPT.M        00 001 00 00         : DEPTH        - DEPTH
ILD .OHMM     00 120 00 00         : RESD         - DEEP RESISTIVITY (DIL)
CALI.MM       00 280 01 00         : CAL          - CALIPER
GR  .API      00 310 00 00         : GR           - GAMMA RAY
NPHI.V/V      00 330 00 00         : PHIN         - NEUTRON POROSITY (SANDSTONE)
DPHI.V/V      00 890 00 00         : PHID         - DENSITY POROSITY (SANDSTONE)
~PARAMETER INFORMATION
#MNEM.UNIT           DATA             DESCRIPTION OF MNEMONIC
#---------         -----------     ------------------------------
GL  .M        677.67               : gl           - GROUND LEVEL ELEVATION
EREF.M        680.97               : kb           - ELEVATION OF DEPTH REFERENCE
DATM.M        677.67               : datum        - DATUM ELEVATION
TDD .M        650                  : tdd          - TOTAL DEPTH DRILLER
RUN .         ONE                  : Run          - RUN NUMBER
ENG .         BOGNER               : Engineer     - RECORDING ENGINEER
BASE.         EDM                  : Branch       - HOME BASE OF LOGGING UNIT
MUD .         GEL CHEM             : Mud_type     - MUD TYPE
MATR.         SANDSTONE            : Logunit      - NEUTRON MATRIX
TMAX.C        35                   : BHT          - MAXIMUM RECORDED TEMPERATURE
BHTD.M        647.2                : BHTDEP       - MAXIMUM RECORDED TEMPERATURE
RMT .C        17.8                 : MDTP         - TEMPERATURE OF MUD
MUDD.KG/M     1140                 : MWT          - MUD DENSITY
NEUT.         1                    : NEUTRON      - NEUTRON TYPE
RESI.         0                    : RESIST       - RESISTIVITY TYPE
RM  .OHMM     3.3                  : RM           - RESISTIVITY OF MUD
RMC .OHMM     3                    : RMC          - RESISTIVITY OF MUD CAKE
RMF .OHMM     5.9                  : RMF          - RESISTIVITY OF MUD FILTRATE
SUFT.C        0                    : SUFT         - SURFACE TEMPERATURE
~A  DEPTH     RESD      CAL       GR     PHIN     PHID
# ...
  456.500    3.587  198.195  104.135    0.426    0.235
  456.750    3.930  199.408  113.480    0.432    0.228
  457.000    4.201  199.356  114.709    0.435    0.231
  457.250    4.299  198.570  103.983    0.412    0.252
  457.500    4.300  197.052   91.494    0.418    0.251
  457.750    4.228  195.749   81.963    0.429    0.242
  458.000    4.150  194.332   74.824    0.435    0.247
  458.250    4.018  193.132   69.825    0.402    0.283
  458.500    3.818  192.140   65.577    0.385    0.300
  458.750    3.601  191.248   61.206    0.398    0.305
  459.000    3.428  190.465   58.408    0.416    0.308
  459.250    3.307  189.894   56.550    0.430    0.314
  459.500    3.179  190.050   55.703    0.427    0.293
  459.750    3.055  190.735   61.713    0.406    0.274
  460.000    2.887  191.835   71.690    0.427    0.261
  460.250    2.606  193.678   81.538    0.450    0.248
  460.500    2.393  195.516   91.764    0.488    0.240
  460.750    2.287  196.930   98.972    0.484    0.234
  461.000    2.445  197.197   99.008    0.459    0.243
  461.250    2.684  195.682   91.738    0.440    0.271
  461.500    2.940  194.162   79.501    0.437    0.282
  461.750    3.096  192.853   68.900    0.438    0.285
  462.000    3.253  192.697   60.942    0.426    0.292
  462.250    3.367  192.551   60.411    0.406    0.309
  462.500    3.446  192.180   62.204    0.385    0.314
  462.750    3.492  191.715   65.135    0.402    0.307
  463.000    3.526  190.926   70.702    0.418    0.300
  463.250    3.541  190.036   75.708    0.435    0.298
  463.500    3.568  189.362   77.251    0.449    0.299
  463.750    3.617  188.788   77.598    0.436    0.297
  464.000    3.639  188.529   76.311    0.408    0.296
  464.250    3.626  188.267   72.818    0.412    0.295
  464.500    3.626  188.115   63.791    0.410    0.293
  464.750    3.627  188.070   58.037    0.392    0.288
  465.000    3.546  188.120   59.454    0.372    0.283
  465.250    3.263  188.393   66.156    0.378    0.280
  465.500    3.007  188.755   86.829    0.423    0.281
  465.750    2.891  189.336  102.151    0.483    0.289
  466.000    2.869  190.646  112.943    0.491    0.296
  466.250    3.156  192.798  108.196    0.459    0.273
  466.500    3.702  195.267   88.534    0.291    0.183
  466.750    4.555  198.886   71.073    0.194    0.124
  467.000    6.598  202.402   56.195    0.169    0.075
  467.250    9.630  205.289   49.811    0.155    0.039
  467.500   11.558  206.922   56.326    0.164    0.030
  467.750   11.151  207.712   61.264    0.194    0.035
  468.000    9.934  207.762   58.593    0.219    0.029
  468.250    8.296  207.084   57.493    0.219    0.037
  468.500    7.074  205.677   58.406    0.244    0.081
  468.750    6.183  204.154   63.662    0.329    0.173
  469.000    5.303  203.056   82.196    0.353    0.210
  469.250    4.833  201.957   94.310    0.446    0.204
  469.500    4.601  200.752   93.085    0.435    0.207
  469.750    4.464  199.971   89.531    0.413    0.199
  470.000    4.348  202.438   90.636    0.388    0.181
  470.250    4.235  205.427   92.239    0.402    0.174
  470.500    4.117  207.371   89.631    0.418    0.210
  470.750    3.957  207.215   77.331    0.388    0.248
  471.000    3.781  203.916   65.282    0.363    0.279
  471.250    3.641  198.726   59.778    0.377    0.295
  471.500    3.547  194.283   59.496    0.417    0.313
  471.750    3.534  191.815   57.957    0.423    0.330
  472.000    3.623  189.878   52.831    0.420    0.327
  472.250    3.757  189.516   53.304    0.409    0.308
  472.500    3.933  190.827   56.420    0.388    0.293
  472.750    4.157  192.559   58.342    0.369    0.297
  473.000    4.335  194.295   58.690    0.367    0.310
  473.250    4.538  195.393   63.252    0.395    0.307
  473.500    4.760  195.870   71.593    0.419    0.297
  473.750    4.992  196.032   76.470    0.422    0.278
  474.000    5.246  195.774   75.747    0.422    0.266
  474.250    5.389  195.301   69.804    0.416    0.264
  474.500    5.410  195.991   62.159    0.387    0.272
  474.750    5.360  196.567   57.665    0.362    0.286
  475.000    5.311  197.566   54.741    0.367    0.299
  475.250    5.252  198.457   51.816    0.376    0.301
  475.500    5.213  198.939   51.093    0.371    0.291
  475.750    5.156  198.152   54.274    0.365    0.280
  476.000    5.108  197.158   56.569    0.360    0.281
  476.250    5.051  196.268   54.337    0.353    0.286
  476.500    4.976  195.383   49.968    0.349    0.290
  476.750    4.902  194.704   49.186    0.349    0.291
  477.000    4.829  194.336   50.914    0.356    0.295
  477.250    4.821  193.660   57.616    0.370    0.300
  477.500    4.905  193.191   55.826    0.375    0.300
  477.750    5.116  193.250   56.110    0.346    0.288
  478.000    5.438  194.556   60.611    0.312    0.249
  478.250    6.095  197.652   63.349    0.261    0.157
  478.500    7.541  200.647   61.369    0.237    0.124
  478.750    9.225  202.804   60.649    0.230    0.092
  479.000    9.530  204.542   63.261    0.249    0.105
  479.250    8.652  204.589   63.041    0.313    0.147
  479.500    7.534  202.336   64.585    0.341    0.204
  479.750    6.635  198.617   70.029    0.390    0.244
  480.000    5.844  196.159   77.047    0.391    0.263
  480.250    5.265  195.472   78.654    0.388    0.292
  480.500    4.717  195.845   80.639    0.401    0.307
  480.750    4.406  196.741   89.038    0.425    0.309
  481.000    4.666  197.848   90.519    0.441    0.296
  481.250    5.054  198.630   80.802    0.388    0.256
  481.500    5.342  198.900   64.598    0.310    0.199
  481.750    5.313  198.740   55.383    0.355    0.191
  482.000    5.125  198.486   51.452    0.404    0.228
  482.250    4.889  198.117   60.042    0.427    0.273
  482.500    4.654  197.031   66.933    0.398    0.282
  482.750    4.448  195.606   67.219    0.377    0.280
  483.000    4.227  193.670   63.728    0.386    0.299
  483.250    4.070  191.945   65.712    0.392    0.311
  483.500    4.040  190.951   69.144    0.396    0.312
  483.750    4.087  191.003   67.161    0.403    0.301
  484.000    4.198  191.377   63.734    0.412    0.298
  484.250    4.337  192.071   65.031    0.420    0.303
  484.500    4.489  192.852   68.079    0.407    0.299
  484.750    4.620  194.164   69.749    0.397    0.286
  485.000    4.745  195.683   65.127    0.398    0.274
  485.250    4.810  197.103   61.131    0.395    0.284
  485.500    4.811  198.319   59.089    0.387    0.284
  485.750    4.785  199.322   63.777    0.378    0.277
  486.000    4.868  199.690   69.098    0.390    0.277
  486.250    5.020  199.423   67.808    0.402    0.272
  486.500    5.355  198.642   64.444    0.385    0.262
  486.750    5.606  197.329   62.211    0.371    0.284
  487.000    5.661  195.604   62.244    0.371    0.297
  487.250    5.716  195.351   66.116    0.384    0.287
  487.500    5.872  196.031   68.225    0.391    0.265
  487.750    6.182  197.444   67.756    0.383    0.249
  488.000    6.761  199.389   65.714    0.372    0.231
  488.250    6.866  200.504   64.236    0.370    0.257
  488.500    6.636  200.241   66.031    0.389    0.274
  488.750    6.366  197.250   67.199    0.406    0.274
  489.000    6.332  192.899   65.847    0.395    0.251
  489.250    6.541  192.219   64.056    0.375    0.218
  489.500    7.194  193.008   67.106    0.352    0.152
  489.750    8.203  194.849   72.488    0.292    0.124
  490.000    9.827  197.527   71.893    0.228    0.059
  490.250   11.291  200.311   66.705    0.211    0.028
  490.500   11.686  201.834   61.011    0.198    0.017
  490.750   10.833  202.625   55.316    0.204    0.029
  491.000    8.996  202.363   55.037    0.317    0.051
  491.250    7.744  201.792   63.185    0.350    0.107
  491.500    6.965  201.631   77.943    0.372    0.138
  491.750    6.518  201.794   81.061    0.375    0.181
  492.000    6.020  201.325   82.916    0.373    0.183
  492.250    5.666  200.330   86.160    0.371    0.185
  492.500    5.436  199.020   87.515    0.373    0.192
  492.750    5.324  197.294   81.192    0.396    0.199
