~VERSION INFORMATION
 VERS.                 2.0:   CWLS LOG ASCII STANDARD -VERSION 2.0
 WRAP.                  NO:   ONE LINE PER DEPTH STEP
~WELL INFORMATION BLOCK
#MNEM.UNIT           DATA                    DESCRIPTION OF MNEMONIC
#---------    -------------------            -------------------------------
# Generated from Intellog Unique Number	CW_79_81/WELL/2452
WELL.         GULF AMOCO HOOLE               : Well_name    - WELL
LOC .         00/06-20-081-24W4/0            : Location     - LOCATION
UWI .         00/06-20-081-24W4/0            : Uwi          - UNIQUE WELL ID
ENTR.         MAX                            : Entered      - ENTERED BY
SRVC.         COMPUTALOG                     : Scn          - SERVICE COMPANY
STRT.M        210                            : top_depth    - START DEPTH
STOP.M        474.75                         : bot_depth    - STOP DEPTH
STEP.M        0.25                           : increment    - STEP LENGTH
 NULL. -999.2500:NULL Value
~CURVE INFORMATION BLOCK
#MNEM UNIT       ERCB CURVE CODE    CURVE DESCRIPTION
#-----------   ------------------   ----------------------------------
DEPT.M        00 001 00 00         : DEPTH        - DEPTH
ILD .OHMM     00 120 00 00         : RESD         - DEEP RESISTIVITY (DIL)
NPHI.V/V      00 330 00 00         : PHIN         - NEUTRON POROSITY (SANDSTONE)
DPHI.V/V      00 890 00 00         : PHID         - DENSITY POROSITY (SANDSTONE)
GR  .API      00 310 00 00         : GR           - GAMMA RAY
CALI.MM       00 280 01 00         : CAL          - CALIPER
~PARAMETER INFORMATION
#MNEM.UNIT           DATA             DESCRIPTION OF MNEMONIC
#---------         -----------     ------------------------------
GL  .M        599.05               : gl           - GROUND LEVEL ELEVATION
EREF.M        603.3                : kb           - ELEVATION OF DEPTH REFERENCE
DATM.M        599.05               : datum        - DATUM ELEVATION
TDD .M        487                  : tdd          - TOTAL DEPTH DRILLER
RUN .         ONE                  : Run          - RUN NUMBER
ENG .         BILL                 : Engineer     - RECORDING ENGINEER
WIT .         JIM                  : Witness      - WITNESSED BY
MUD .         GEL                  : Mud_type     - MUD TYPE
MATR.         SANDSTONE            : Logunit      - NEUTRON MATRIX
TMAX.C        24                   : BHT          - MAXIMUM RECORDED TEMPERATURE
BHTD.M        487                  : BHTDEP       - MAXIMUM RECORDED TEMPERATURE
MATR.         1                    : LOGUNIT      - NEUTRON MATRIX
RMT .C        17.8                 : MDTP         - TEMPERATURE OF MUD
NEUT.         1                    : NEUTRON      - NEUTRON TYPE
RESI.         0                    : RESIST       - RESISTIVITY TYPE
RMC .OHMM     5                    : RMC          - RESISTIVITY OF MUD CAKE
RMF .OHMM     5.8                  : RMF          - RESISTIVITY OF MUD FILTRATE
SUFT.C        -20                  : SUFT         - SURFACE TEMPERATURE
~A  DEPTH     RESD     PHIN     PHID       GR      CAL
# ...
  356.000    7.206    0.431    0.251   67.880  219.563
  356.250    7.736    0.420    0.222   66.814  218.773
  356.500    8.365    0.411    0.192   65.985  217.589
  356.750    8.364    0.408    0.177   65.610  216.158
  357.000    8.362    0.416    0.187   66.105  214.924
  357.250    8.669    0.429    0.204   67.765  214.530
  357.500    8.989    0.425    0.225   70.848  213.840
  357.750    9.419    0.411    0.244   73.219  213.249
  358.000    9.861    0.392    0.256   74.465  212.854
  358.250    9.917    0.379    0.253   75.542  212.461
  358.500    9.841    0.381    0.247   73.814  212.462
  358.750    9.348    0.395    0.233   71.918  213.253
  359.000    8.732    0.411    0.225   72.867  214.044
  359.250    8.211    0.424    0.220   74.527  214.836
  359.500    7.863    0.428    0.216   76.069  215.429
  359.750    7.704    0.425    0.214   78.312  215.266
  360.000    7.761    0.419    0.217   80.041  214.444
  360.250    7.760    0.407    0.214   77.435  213.260
  360.500    7.717    0.403    0.206   77.139  212.668
  360.750    7.660    0.412    0.204   77.851  212.867
  361.000    7.631    0.428    0.208   78.562  214.053
  361.250    7.685    0.440    0.209   78.711  216.508
  361.500    7.684    0.447    0.205   79.453  216.921
  361.750    7.909    0.444    0.204   81.350  216.922
  362.000    8.010    0.439    0.203   83.070  216.923
  362.250    7.950    0.433    0.201   82.241  216.924
  362.500    7.777    0.427    0.200   80.226  216.925
  362.750    7.597    0.423    0.207   82.766  216.926
  363.000    7.539    0.425    0.212   85.977  216.928
  363.250    7.483    0.430    0.208   87.163  216.534
  363.500    7.468    0.428    0.209   86.749  216.140
  363.750    7.575    0.420    0.211   86.157  215.943
  364.000    7.839    0.408    0.211   85.624  215.845
  364.250    8.418    0.403    0.205   83.807  215.205
  364.500    9.368    0.409    0.190   81.832  213.971
  364.750    9.924    0.416    0.187   78.040  213.182
  365.000   10.516    0.417    0.201   73.180  212.393
  365.250   10.989    0.418    0.214   70.691  211.801
  365.500   11.292    0.421    0.218   71.403  211.407
  365.750   11.626    0.426    0.212   73.390  211.013
  366.000   12.075    0.431    0.217   72.649  211.014
  366.250   12.883    0.428    0.227   74.309  211.015
  366.500   13.387    0.414    0.220   75.970  211.016
  366.750   13.584    0.388    0.183   73.599  211.215
  367.000   13.532    0.355    0.127   66.488  211.611
  367.250   13.273    0.330    0.096   58.329  212.008
  367.500   12.974    0.355    0.153   63.763  212.009
  367.750   12.507    0.373    0.176   68.268  212.010
  368.000   11.990    0.382    0.180   74.196  212.604
  368.250   11.519    0.389    0.163   77.160  213.198
  368.500   11.169    0.399    0.144   75.501  213.396
  368.750   11.006    0.415    0.163   70.385  212.838
  369.000   11.005    0.415    0.181   70.879  212.016
  369.250   11.003    0.412    0.205   73.251  212.412
  369.500   11.001    0.417    0.213   73.844  212.808
  369.750   10.920    0.427    0.216   73.015  213.007
  370.000   10.761    0.436    0.215   72.127  213.008
  370.250   10.571    0.435    0.211   74.143  213.174
  370.500   10.411    0.426    0.232   77.107  213.998
  370.750   10.485    0.418    0.230   77.819  213.209
  371.000   10.560    0.419    0.224   79.242  212.124
  371.250   10.520    0.424    0.217   80.665  211.335
  371.500   10.309    0.426    0.211   81.614  210.941
  371.750    9.864    0.420    0.207   81.704  210.464
  372.000    9.497    0.416    0.209   80.964  210.054
  372.250    9.222    0.420    0.210   80.253  210.055
  372.500    9.005    0.427    0.209   79.898  209.760
  372.750    8.907    0.433    0.207   80.492  209.564
  373.000    8.906    0.433    0.205   81.381  209.663
  373.250    8.904    0.419    0.210   79.881  210.224
  373.500    8.903    0.418    0.210   75.930  211.049
  373.750    8.902    0.417    0.204   74.508  211.840
  374.000    8.900    0.420    0.201   76.465  211.742
  374.250    8.867    0.426    0.201   79.310  210.163
  374.500    8.785    0.429    0.201   81.148  208.386
  374.750    8.604    0.417    0.199   80.675  210.396
  375.000    8.346    0.409    0.196   80.675  214.513
  375.250    8.164    0.421    0.195   80.676  216.490
  375.500    8.031    0.428    0.193   81.744  216.985
  375.750    7.943    0.429    0.193   82.337  217.381
  376.000    7.898    0.424    0.194   82.101  218.271
  376.250    7.908    0.414    0.196   81.815  219.540
  376.500    7.968    0.406    0.199   81.569  219.953
  376.750    8.083    0.408    0.207   81.095  217.979
  377.000    8.468    0.421    0.216   79.911  215.115
  377.250    9.068    0.431    0.225   78.489  213.733
  377.500    9.759    0.431    0.233   77.008  213.833
  377.750   10.271    0.424    0.246   74.559  212.797
  378.000   10.269    0.411    0.256   70.608  211.563
  378.250   10.494    0.398    0.255   68.475  211.169
  378.500   11.014    0.392    0.246   68.476  212.257
  378.750   11.794    0.398    0.235   68.832  214.234
  379.000   12.801    0.414    0.228   68.596  216.211
  379.250   14.063    0.427    0.234   67.697  216.838
  379.500   14.495    0.406    0.248   67.945  216.015
  379.750   13.870    0.388    0.245   67.709  215.621
  380.000   12.615    0.379    0.239   67.117  216.116
  380.250   11.085    0.384    0.232   68.658  217.501
  380.500    9.675    0.397    0.224   72.215  219.477
  380.750    8.677    0.402    0.209   74.913  221.619
  381.000    8.943    0.402    0.205   74.172  222.443
  381.250    9.818    0.395    0.203   70.854  222.840
  381.500   11.009    0.385    0.195   69.491  222.643
  381.750   12.291    0.364    0.169   68.307  222.051
  382.000   13.310    0.335    0.128   65.641  221.361
  382.250   13.554    0.297    0.084   59.062  220.967
  382.500   12.855    0.280    0.075   54.617  220.968
  382.750   10.593    0.308    0.094   52.722  221.364
  383.000    9.925    0.338    0.139   57.582  221.464
  383.250   10.029    0.363    0.169   63.747  221.466
  383.500   10.730    0.371    0.166   68.963  221.467
  383.750   12.542    0.343    0.134   73.637  221.468
  384.000   14.855    0.313    0.109   70.921  221.469
  384.250   16.775    0.244    0.085   61.202  221.470
  384.500   17.144    0.210    0.061   54.505  221.471
  384.750   16.205    0.204    0.040   48.341  221.472
  385.000   14.660    0.218    0.033   44.667  221.276
  385.250   12.865    0.245    0.062   51.167  220.323
  385.500   11.931    0.282    0.095   57.589  219.500
  385.750   11.167    0.307    0.112   64.465  218.316
  386.000   10.573    0.329    0.115   68.318  217.725
  386.250   10.047    0.346    0.115   69.504  217.923
  386.500    9.584    0.358    0.119   69.683  218.715
  386.750    9.156    0.371    0.137   72.213  219.671
  387.000    8.750    0.386    0.173   74.189  220.495
  387.250    8.559    0.402    0.186   75.375  220.892
  387.500    8.465    0.403    0.183   76.917  220.991
  387.750    8.434    0.401    0.177   78.340  220.597
  388.000    8.432    0.406    0.173   79.822  219.907
  388.250    8.456    0.423    0.170   82.342  219.513
  388.500    8.584    0.414    0.169   83.084  219.514
  388.750    8.709    0.410    0.187   84.507  218.725
  389.000    8.883    0.413    0.193   84.685  217.936
  389.250    9.077    0.421    0.193   84.330  217.344
  389.500    9.193    0.425    0.191   83.916  217.049
  389.750    9.059    0.413    0.197   83.680  216.968
  390.000    9.057    0.401    0.200   83.680  216.558
  390.250    9.122    0.392    0.197   83.681  216.164
  390.500    9.137    0.390    0.180   83.504  216.066
  390.750    9.103    0.397    0.160   84.097  217.252
  391.000    9.052    0.414    0.148   86.231  219.427
  391.250    9.037    0.437    0.147   90.253  221.009
  391.500    8.967    0.450    0.154   89.019  221.010
  391.750    9.097    0.434    0.158   84.989  221.011
  392.000    9.279    0.420    0.175   82.026  221.012
  392.250    9.516    0.409    0.188   80.960  221.013
