~VERSION INFORMATION
 VERS.                 2.0:   CWLS LOG ASCII STANDARD -VERSION 2.0
 WRAP.                  NO:   ONE LINE PER DEPTH STEP
~WELL INFORMATION BLOCK
#MNEM.UNIT           DATA                    DESCRIPTION OF MNEMONIC
#---------    -------------------            -------------------------------
# Generated from Intellog Unique Number	CW_73_75/WELL/199
WELL.         GLEN ISLE ET AL MITSUE 02-01   : Well_name    - WELL
LOC .         00/02-01-074-05W5/0            : Location     - LOCATION
UWI .         00/02-01-074-05W5/0            : Uwi          - UNIQUE WELL ID
ENTR.         JAYE                           : Entered      - ENTERED BY
SRVC.         WESTERN ATLAS                  : Scn          - SERVICE COMPANY
DATE.         8 DEC 88                       : Date         - LOG DATE
STRT.M        370                            : top_depth    - START DEPTH
STOP.M        630                            : bot_depth    - STOP DEPTH
STEP.M        0.25                           : increment    - STEP LENGTH
 NULL. -999.2500:NULL Value
~CURVE INFORMATION BLOCK
#MNEM UNIT       ERCB CURVE CODE    CURVE DESCRIPTION
#-----------   ------------------   ----------------------------------
DEPT.M        00 001 00 00         : DEPTH        - DEPTH
GR  .API      00 310 00 00         : GR           - GAMMA RAY
NPHI.V/V      00 330 00 00         : PHIN         - NEUTRON POROSITY (SANDSTONE)
DPHI.V/V      00 890 00 00         : PHID         - DENSITY POROSITY (SANDSTONE)
ILD .OHMM     00 120 00 00         : RESD         - DEEP RESISTIVITY (DIL)
CALI.MM       00 280 01 00         : CAL          - CALIPER
~PARAMETER INFORMATION
#MNEM.UNIT           DATA             DESCRIPTION OF MNEMONIC
#---------         -----------     ------------------------------
GL  .M        589.5                : gl           - GROUND LEVEL ELEVATION
EREF.M        593.84               : kb           - ELEVATION OF DEPTH REFERENCE
DATM.M        589.5                : datum        - DATUM ELEVATION
TDD .M        1650                 : tdd          - TOTAL DEPTH DRILLER
RUN .         ONE                  : Run          - RUN NUMBER
ENG .         YEAGER               : Engineer     - RECORDING ENGINEER
WIT .         PUTZ                 : Witness      - WITNESSED BY
BASE.         LEDUC                : Branch       - HOME BASE OF LOGGING UNIT
MATR.         SANDSTONE            : Logunit      - NEUTRON MATRIX
TMAX.C        51                   : BHT          - MAXIMUM RECORDED TEMPERATURE
BHTD.M        1650.3               : BHTDEP       - MAXIMUM RECORDED TEMPERATURE
RMT .C        51                   : MDTP         - TEMPERATURE OF MUD
MUDD.KG/M     1125                 : MWT          - MUD DENSITY
NEUT.         1                    : NEUTRON      - NEUTRON TYPE
RESI.         0                    : RESIST       - RESISTIVITY TYPE
RM  .OHMM     6.27                 : RM           - RESISTIVITY OF MUD
RMC .OHMM     4.87                 : RMC          - RESISTIVITY OF MUD CAKE
RMF .OHMM     8.75                 : RMF          - RESISTIVITY OF MUD FILTRATE
SUFT.C        0                    : SUFT         - SURFACE TEMPERATURE
~A  DEPTH       GR     PHIN     PHID     RESD      CAL
# ...
  589.000   63.133    0.297    0.182   16.329  232.800
  589.250   53.712    0.268    0.219   18.636  232.457
  589.500   51.786    0.261    0.208   16.932  232.108
  589.750   46.295    0.249    0.186   14.293  232.088
  590.000   52.480    0.252    0.162   12.472  232.349
  590.250   61.923    0.269    0.170   11.353  233.234
  590.500   54.096    0.270    0.156   11.102  234.330
  590.750   52.173    0.277    0.162   11.243  235.214
  591.000   68.311    0.300    0.208   11.555  234.664
  591.250   60.977    0.321    0.258   12.118  231.869
  591.500   45.351    0.313    0.271   13.478  229.373
  591.750   34.758    0.302    0.263   15.524  227.499
  592.000   29.213    0.308    0.257   17.109  226.640
  592.250   25.870    0.290    0.239   18.377  226.405
  592.500   19.830    0.258    0.145   19.701  226.263
  592.750   14.827    0.103    0.066   20.852  226.130
  593.000   20.704    0.131    0.055   21.469  226.396
  593.250   20.686    0.165    0.144   21.942  226.872
  593.500   24.781    0.276    0.204   22.592  227.248
  593.750   29.431    0.281    0.085   23.133  227.727
  594.000   28.116    0.169    0.011   23.383  227.891
  594.250   23.548    0.105    0.010   23.079  228.275
  594.500   19.533    0.121    0.084   22.077  228.230
  594.750   24.920    0.145    0.094   20.394  228.199
  595.000   24.042    0.169    0.094   18.564  227.959
  595.250   23.341    0.201    0.101   16.080  227.716
  595.500   29.038    0.226    0.113   13.229  227.273
  595.750   35.958    0.249    0.166   11.045  226.938
  596.000   39.623    0.279    0.172   10.335  226.291
  596.250   46.054    0.305    0.153   10.014  225.745
  596.500   38.598    0.314    0.180    9.830  224.689
  596.750   30.897    0.306    0.248    9.845  223.923
  597.000   24.302    0.299    0.288    9.825  223.273
  597.250   20.471    0.302    0.294    9.750  222.527
  597.500   25.182    0.308    0.280    9.676  221.771
  597.750   25.280    0.318    0.272    9.603  221.225
  598.000   18.873    0.326    0.267    9.478  220.979
  598.250   25.791    0.322    0.260    9.441  221.057
  598.500   24.910    0.317    0.264    9.456  221.318
  598.750   20.528    0.318    0.278    9.488  221.803
  599.000   23.216    0.321    0.294    9.521  222.480
  599.250   23.680    0.321    0.294    9.571  223.369
  599.500   20.340    0.316    0.278    9.639  224.560
  599.750   27.878    0.320    0.263    9.761  225.855
  600.000   47.949    0.351    0.262    9.904  227.662
  600.250   54.872    0.353    0.239   10.197  229.985
  600.500   42.192    0.314    0.215   10.518  232.722
  600.750   30.743    0.270    0.171   10.731  234.836
  601.000   41.536    0.274    0.142   10.867  236.747
  601.250   47.599    0.268    0.118   10.844  237.933
  601.500   38.974    0.252    0.099   10.605  239.441
  601.750   55.544    0.237    0.086    9.997  240.634
  602.000   64.928    0.238    0.077    9.510  241.515
  602.250   65.582    0.253    0.075    9.249  242.303
  602.500   58.800    0.274    0.149    9.332  242.878
  602.750   67.505    0.292    0.209    9.859  243.050
  603.000   69.513    0.320    0.255   10.609  242.509
  603.250   53.084    0.356    0.270   11.909  241.746
  603.500   46.307    0.313    0.269   13.270  240.591
  603.750   42.226    0.309    0.268   12.765  239.736
  604.000   36.431    0.320    0.273   11.200  239.292
  604.250   33.334    0.317    0.278   10.027  239.456
  604.500   54.882    0.298    0.269    8.496  240.137
  604.750   65.923    0.298    0.236    7.677  242.459
  605.000   67.192    0.306    0.194    6.823  245.401
  605.250   82.040    0.314    0.134    6.396  246.689
  605.500   75.939    0.305    0.149    6.007  247.474
  605.750   68.850    0.315    0.173    5.704  247.746
  606.000   62.316    0.342    0.215    5.651  247.310
  606.250   86.319    0.388    0.266    6.025  246.551
  606.500   84.335    0.372    0.245    6.627  245.085
  606.750   89.905    0.339    0.212    7.145  242.078
  607.000   87.914    0.373    0.203    7.534  238.763
  607.250   74.991    0.400    0.245    7.574  234.836
  607.500   64.092    0.348    0.278    7.434  232.341
  607.750   51.168    0.318    0.292    6.982  230.877
  608.000   64.051    0.309    0.270    6.426  232.184
  608.250   64.402    0.310    0.240    5.828  233.672
  608.500   66.037    0.298    0.218    5.657  236.923
  608.750   75.046    0.294    0.200    5.988  238.312
  609.000   85.842    0.307    0.216    6.734  234.595
  609.250   86.249    0.338    0.248    7.657  226.360
  609.500   66.076    0.363    0.261    8.408  220.695
  609.750   41.782    0.369    0.268    9.265  218.816
  610.000   26.337    0.319    0.288    9.646  217.657
  610.250   25.341    0.335    0.301    9.450  217.319
  610.500   25.620    0.338    0.314    8.810  217.389
  610.750   23.142    0.340    0.295    7.844  219.496
  611.000   18.756    0.343    0.249    7.300  223.663
  611.250   48.659    0.324    0.226    6.983  228.542
  611.500   65.782    0.328    0.217    6.729  234.750
  611.750   81.123    0.313    0.222    6.545  241.476
  612.000   72.805    0.332    0.277    6.365  244.821
  612.250   56.992    0.356    0.317    6.236  248.788
  612.500   47.201    0.362    0.305    6.132  252.121
  612.750   66.966    0.315    0.244    6.120  255.987
  613.000   71.495    0.326    0.238    6.118  259.426
  613.250   65.449    0.343    0.251    6.150  262.772
  613.500   60.327    0.305    0.238    6.149  266.115
  613.750   63.748    0.291    0.215    6.147  269.471
  614.000   54.878    0.281    0.198    6.180  271.371
  614.250   72.617    0.266    0.179    6.224  273.381
  614.500   77.696    0.270    0.153    6.245  270.794
  614.750   82.903    0.286    0.182    6.244  267.893
  615.000   87.117    0.296    0.216    6.277  266.517
  615.250   71.305    0.310    0.241    6.368  267.203
  615.500   58.010    0.317    0.260    6.390  267.886
  615.750   67.819    0.304    0.230    6.435  268.766
  616.000   58.772    0.289    0.198    6.446  270.889
  616.250   52.786    0.284    0.172    6.420  272.691
  616.500   61.618    0.288    0.156    6.372  273.481
  616.750   56.799    0.299    0.171    6.441  273.242
  617.000   69.925    0.335    0.237    6.607  270.846
  617.250   58.783    0.348    0.270    6.916  268.249
  617.500   51.389    0.318    0.283    7.108  267.906
  617.750   49.953    0.327    0.297    7.185  267.984
  618.000   40.592    0.348    0.291    7.039  268.252
  618.250   44.508    0.344    0.267    6.746  268.928
  618.500   45.650    0.328    0.283    6.255  269.817
  618.750   47.049    0.334    0.300    5.642  271.625
  619.000   51.262    0.338    0.269    5.337  273.436
  619.250   66.176    0.314    0.217    5.385  274.828
  619.500   71.932    0.292    0.206    5.514  275.519
  619.750   73.875    0.307    0.228    5.815  274.048
  620.000   67.652    0.332    0.267    6.076  271.651
  620.250   57.921    0.331    0.284    6.279  270.390
  620.500   53.660    0.338    0.297    6.006  269.944
  620.750   55.968    0.353    0.309    5.427  272.163
  621.000   56.934    0.392    0.323    4.886  277.860
  621.250   56.049    0.390    0.327    4.787  281.921
  621.500   59.471    0.406    0.405    4.965  288.338
  621.750   73.526    0.491    0.401    5.563  275.606
  622.000   67.968    0.396    0.306    5.361  261.335
  622.250   56.829    0.348    0.256    4.542  256.381
  622.500   46.910    0.328    0.277    3.834  266.285
  622.750   39.764    0.560    0.804    3.340  289.288
  623.000   43.674    0.635    0.749    3.171  325.817
  623.250   45.740    0.684    0.720    3.141  318.512
  623.500   52.233    0.680    0.729    3.240  316.015
  623.750   47.607    0.666    0.705    3.455  307.995
  624.000   55.755    0.688    0.646    3.815  299.865
  624.250   65.873    0.577    0.407    4.314  282.830
  624.500   66.961    0.617    0.401    4.385  277.470
  624.750   55.881    0.718    0.592    4.976  266.273
  625.000   53.769    0.653    0.512    5.669  255.278
  625.250   57.001    0.405    0.319    6.317  253.195
