~VERSION INFORMATION
 VERS.                 2.0:   CWLS LOG ASCII STANDARD -VERSION 2.0
 WRAP.                  NO:   ONE LINE PER DEPTH STEP
~WELL INFORMATION BLOCK
#MNEM.UNIT           DATA                    DESCRIPTION OF MNEMONIC
#---------    -------------------            -------------------------------
# Generated from Intellog Unique Number	CW_76_78/WELL/2573
WELL.         SCURRY ET AL MCMULLEN          : Well_name    - WELL
LOC .         00/07-11-078-02W5/0            : Location     - LOCATION
UWI .         00/07-11-078-02W5/0            : Uwi          - UNIQUE WELL ID
ENTR.         MAX                            : Entered      - ENTERED BY
SRVC.         SCHLUMBERGER                   : Scn          - SERVICE COMPANY
STRT.M        332.232                        : top_depth    - START DEPTH
STOP.M        582.232                        : bot_depth    - STOP DEPTH
STEP.M        0.25                           : increment    - STEP LENGTH
 NULL. -999.2500:NULL Value
~CURVE INFORMATION BLOCK
#MNEM UNIT       ERCB CURVE CODE    CURVE DESCRIPTION
#-----------   ------------------   ----------------------------------
DEPT.M        00 001 00 00         : DEPTH        - DEPTH
ILD .OHMM     00 120 00 00         : RESD         - DEEP RESISTIVITY (DIL)
NPHI.V/V      00 330 00 00         : PHIN         - NEUTRON POROSITY (SANDSTONE)
DPHI.V/V      00 890 00 00         : PHID         - DENSITY POROSITY (SANDSTONE)
CALI.MM       00 280 01 00         : CAL          - CALIPER
GR  .API      00 310 00 00         : GR           - GAMMA RAY
~PARAMETER INFORMATION
#MNEM.UNIT           DATA             DESCRIPTION OF MNEMONIC
#---------         -----------     ------------------------------
GL  .M        630.601              : gl           - GROUND LEVEL ELEVATION
EREF.M        634.289              : kb           - ELEVATION OF DEPTH REFERENCE
DATM.M        630.601              : datum        - DATUM ELEVATION
TDD .M        556.26               : tdd          - TOTAL DEPTH DRILLER
RUN .         ONE                  : Run          - RUN NUMBER
ENG .         BILL                 : Engineer     - RECORDING ENGINEER
WIT .         JIM                  : Witness      - WITNESSED BY
MUD .         GEL                  : Mud_type     - MUD TYPE
MATR.         SANDSTONE            : Logunit      - NEUTRON MATRIX
TMAX.C        31.1111              : BHT          - MAXIMUM RECORDED TEMPERATURE
BHTD.M        556.26               : BHTDEP       - MAXIMUM RECORDED TEMPERATURE
RMT .C        15.5556              : MDTP         - TEMPERATURE OF MUD
MUDD.KG/M     9700                 : MWT          - MUD DENSITY
NEUT.         1                    : NEUTRON      - NEUTRON TYPE
RESI.         0                    : RESIST       - RESISTIVITY TYPE
RM  .OHMM     3.75                 : RM           - RESISTIVITY OF MUD
RMC .OHMM     5.24                 : RMC          - RESISTIVITY OF MUD CAKE
RMF .OHMM     5.21                 : RMF          - RESISTIVITY OF MUD FILTRATE
SUFT.C        -12.2222             : SUFT         - SURFACE TEMPERATURE
~A  DEPTH     RESD     PHIN     PHID      CAL       GR
  332.232    3.554    0.480    0.184  222.195   87.089
  332.482    3.633    0.471    0.193  222.707   83.898
  332.732    3.673    0.495    0.183  222.729   80.419
  332.982    3.595    0.492    0.184  222.757   78.394
  333.232    3.437    0.507    0.199  223.272   79.280
  333.482    3.320    0.512    0.215  223.784   78.419
  333.732    3.281    0.534    0.225  224.299   76.104
  333.982    3.597    0.580    0.232  223.831   77.571
  334.232    4.624    0.599    0.242  223.852   75.837
  334.482    5.454    0.608    0.251  223.880   72.646
  334.732    6.323    0.514    0.278  221.923   68.292
  334.982    8.377    0.506    0.296  219.975   63.353
  335.232   10.075    0.503    0.293  219.011   55.502
  335.482   13.590    0.478    0.278  218.556   49.109
  335.732   16.591    0.477    0.284  218.564   47.373
  335.982   15.809    0.482    0.298  218.093   45.641
  336.232   16.488    0.477    0.303  218.115   45.653
  336.482   17.942    0.472    0.309  218.137   45.959
  336.732   19.381    0.474    0.309  218.164   46.266
  336.982   20.863    0.483    0.302  218.186   46.276
  337.232   23.502    0.458    0.302  218.186   47.162
  337.482   26.958    0.423    0.289  217.254   47.177
  337.732   31.585    0.396    0.251  216.772   47.191
  337.982   37.002    0.432    0.223  216.301   47.203
  338.232   42.024    0.491    0.282  216.821   48.382
  338.482   43.887    0.492    0.295  216.840   50.436
  338.732   44.170    0.491    0.301  216.840   51.321
  338.982   44.017    0.493    0.304  217.383   49.296
  339.232   43.919    0.499    0.304  217.402   47.853
  339.482   43.413    0.494    0.303  217.427   50.196
  339.732   42.906    0.480    0.307  217.451   51.376
  339.982   42.400    0.472    0.309  217.468   50.222
  340.232   41.879    0.476    0.311  217.468   49.950
  340.482   41.345    0.456    0.314  217.525   50.249
  340.732   41.233    0.440    0.316  217.043   50.264
  340.982   41.136    0.436    0.310  216.577   49.698
  341.232   39.825    0.470    0.295  217.092   50.000
  341.482   38.134    0.492    0.303  218.100   51.178
  341.732   34.455    0.505    0.311  218.100   52.649
  341.982   31.156    0.519    0.307  219.635   53.534
  342.232   27.885    0.529    0.307  221.125   54.130
  342.482   25.799    0.517    0.315  223.123   55.016
  342.732   23.672    0.501    0.318  224.627   55.615
  342.982   22.403    0.502    0.309  224.646   55.626
  343.232   21.883    0.499    0.295  224.668   55.057
  343.482   21.376    0.453    0.240  224.693   54.780
  343.732   21.632    0.333    0.149  225.210   53.919
  343.982   23.481    0.265    0.111  226.216   54.516
  344.232   24.976    0.256    0.078  227.230   51.032
  344.482   24.442    0.290    0.080  227.249   49.008
  344.732   22.356    0.344    0.120  227.273   50.189
  344.982   19.861    0.365    0.163  227.298   51.657
  345.232   16.957    0.412    0.251  226.829   53.710
  345.482   15.689    0.499    0.287  226.353   53.723
  345.732   13.984    0.530    0.319  224.405   51.404
  345.982   13.478    0.522    0.332  221.467   48.796
  346.232   12.957    0.529    0.307  219.519   49.396
  346.482   12.818    0.508    0.289  219.045   49.116
  346.732   13.101    0.448    0.255  219.067   48.836
  346.982   13.779    0.379    0.211  219.094   50.307
  347.232   14.471    0.366    0.181  218.623   51.488
  347.482   17.110    0.429    0.211  218.645   48.297
  347.732   18.578    0.450    0.247  220.149   48.310
  347.982   22.006    0.472    0.281  222.141   50.072
  348.232   27.437    0.443    0.274  222.166   50.956
  348.482   36.013    0.389    0.224  220.711   50.095
  348.732   52.514    0.241    0.184  219.749   45.448
  348.982  113.284    0.149   -0.008  220.261   41.386
  349.232  142.817    0.127   -0.023  221.760   40.524
  349.482  126.882    0.125   -0.020  224.248   40.540
  349.732   87.621    0.149   -0.013  226.245   40.553
  349.982   58.246    0.179    0.007  226.273   40.856
  350.232   31.241    0.259    0.027  225.303   43.490
  350.482   19.664    0.320    0.059  225.303   46.999
  350.732   16.379    0.361    0.137  224.363   49.634
  350.982   15.450    0.404    0.211  222.412   51.396
  351.232   14.957    0.442    0.246  221.943   52.281
  351.482   15.563    0.461    0.296  221.472   52.297
  351.732   15.445    0.483    0.322  221.001   50.562
  351.982   15.446    0.483    0.318  220.036   51.158
  352.232   15.565    0.498    0.320  219.077   51.753
  352.482   16.434    0.520    0.315  218.110   51.185
  352.732   16.671    0.529    0.323  217.641   50.325
  352.982   16.988    0.536    0.324  217.666   49.755
  353.232   17.897    0.526    0.312  217.688   46.564
  353.482   17.976    0.482    0.292  218.200   44.541
  353.732   18.253    0.445    0.279  218.718   44.551
  353.982   19.201    0.370    0.266  219.252   42.236
  354.232   19.675    0.354    0.242  219.258   40.503
  354.482   19.360    0.367    0.200  219.770   42.553
  354.732   17.387    0.415    0.178  220.288   47.517
  354.982   17.032    0.437    0.246  220.310   51.318
  355.232   17.191    0.429    0.294  220.332   53.370
  355.482   18.060    0.381    0.273  219.866   53.384
  355.732   18.455    0.316    0.225  219.395   49.611
  355.982   17.469    0.278    0.097  219.417   51.080
  356.232   16.522    0.257    0.091  221.902   53.716
  356.482   14.982    0.336    0.116  224.888   53.727
  356.732   13.680    0.407    0.200  225.403   54.910
  356.982   12.181    0.483    0.267  225.422   54.920
  357.232   11.273    0.437    0.317  223.472   52.602
  357.482   10.642    0.440    0.311  221.523   50.287
  357.732   10.208    0.463    0.299  220.066   49.717
  357.982   10.130    0.452    0.310  220.088   50.022
  358.232   10.288    0.442    0.318  221.099   51.494
  358.482   10.447    0.466    0.310  221.616   55.002
  358.732   10.052    0.473    0.311  221.638   55.889
  358.982    9.619    0.489    0.310  222.151   55.902
  359.232    9.619    0.503    0.297  222.671   56.792
  359.482    9.778    0.479    0.297  222.690   57.677
  359.732    9.700    0.461    0.292  223.208   59.144
  359.982    9.345    0.465    0.296  223.726   63.529
  360.232    6.621    0.477    0.293  224.241   68.783
  360.482    2.200    0.482    0.281  224.263   74.039
  360.732    2.003    0.519    0.259  225.269   86.286
  360.982    2.003    0.544    0.232  228.255   86.590
  361.232    2.162    0.501    0.231  229.266   79.031
  361.482    3.110    0.449    0.222  228.296   66.230
  361.732    3.584    0.401    0.247  227.334   60.419
  361.982    4.177    0.388    0.255  227.356   67.714
  362.232    4.257    0.389    0.239  226.395   72.385
  362.482    4.178    0.402    0.232  226.414   73.856
  362.732    4.178    0.415    0.213  225.455   71.830
  362.982    4.022    0.421    0.205  224.986   70.387
  363.232    3.667    0.413    0.196  224.515   73.605
  363.482    3.431    0.408    0.191  224.041   75.951
  363.732    3.313    0.432    0.207  223.575   77.709
  363.982    3.313    0.455    0.225  223.101   78.016
  364.232    3.156    0.444    0.233  222.134   78.027
  364.482    2.880    0.429    0.230  221.665   80.081
  364.732    2.762    0.438    0.218  221.199   82.132
  364.982    2.684    0.456    0.211  221.216   81.856
  365.232    2.527    0.472    0.201  221.733   78.663
  365.482    2.251    0.480    0.211  221.755   78.095
  365.732    2.054    0.480    0.225  221.780   78.399
  365.982    1.857    0.483    0.202  221.802   77.542
  366.232    1.857    0.531    0.215  221.824   76.095
  366.482    1.819    0.582    0.230  222.838   72.906
  366.732    1.978    0.601    0.248  222.859   68.550
  366.982    2.886    0.586    0.274  222.879   57.786
  367.232    5.019    0.532    0.284  222.407   49.061
  367.482    8.415    0.400    0.274  222.429   45.288
  367.732   10.232    0.451    0.292  221.961   47.050
  367.982   11.930    0.473    0.302  221.985   47.938
  368.232   12.918    0.507    0.323  221.511   48.243
  368.482   13.550    0.514    0.329  221.539   49.421
