~VERSION INFORMATION
 VERS.                 2.0:   CWLS LOG ASCII STANDARD -VERSION 2.0
 WRAP.                  NO:   ONE LINE PER DEPTH STEP
~WELL INFORMATION BLOCK
#MNEM.UNIT           DATA                    DESCRIPTION OF MNEMONIC
#---------    -------------------            -------------------------------
# Generated from Intellog Unique Number	CS_71_72/WELL/822
WELL.         MAYNARD ET AL TWEEDIE          : Well_name    - WELL
LOC .         00/07-29-072-12W4/0            : Location     - LOCATION
UWI .         00/07-29-072-12W4/0            : Uwi          - UNIQUE WELL ID
ENTR.         SP                             : Entered      - ENTERED BY
SRVC.         SCHLUMBERGER                   : Scn          - SERVICE COMPANY
STRT.M        275                            : top_depth    - START DEPTH
STOP.M        510                            : bot_depth    - STOP DEPTH
STEP.M        0.25                           : increment    - STEP LENGTH
 NULL. -999.2500:NULL Value
~CURVE INFORMATION BLOCK
#MNEM UNIT       ERCB CURVE CODE    CURVE DESCRIPTION
#-----------   ------------------   ----------------------------------
DEPT.M        00 001 00 00         : DEPTH        - DEPTH
GR  .API      00 310 00 00         : GR           - GAMMA RAY
NPHI.V/V      00 330 00 00         : PHIN         - NEUTRON POROSITY (LIMESTONE)
DPHI.V/V      00 890 00 00         : PHID         - DENSITY POROSITY (LIMESTONE)
ILD .OHMM     00 120 00 00         : RESD         - DEEP RESISTIVITY (DIL)
~PARAMETER INFORMATION
#MNEM.UNIT           DATA             DESCRIPTION OF MNEMONIC
#---------         -----------     ------------------------------
GL  .M        622.95               : gl           - GROUND LEVEL ELEVATION
EREF.M        626.55               : kb           - ELEVATION OF DEPTH REFERENCE
DATM.M        622.95               : datum        - DATUM ELEVATION
TDD .M        521                  : tdd          - TOTAL DEPTH DRILLER
RUN .         ONE                  : Run          - RUN NUMBER
ENG .         BILL                 : Engineer     - RECORDING ENGINEER
WIT .         JIM                  : Witness      - WITNESSED BY
MUD .         GEL                  : Mud_type     - MUD TYPE
MATR.         LIMESTONE            : Logunit      - NEUTRON MATRIX
TMAX.C        25                   : BHT          - MAXIMUM RECORDED TEMPERATURE
BHTD.M        521                  : BHTDEP       - MAXIMUM RECORDED TEMPERATURE
MATR.         1                    : LOGUNIT      - NEUTRON MATRIX
RMT .C        25                   : MDTP         - TEMPERATURE OF MUD
NEUT.         1                    : NEUTRON      - NEUTRON TYPE
RESI.         0                    : RESIST       - RESISTIVITY TYPE
RMC .OHMM     0.25                 : RMC          - RESISTIVITY OF MUD CAKE
RMF .OHMM     0.25                 : RMF          - RESISTIVITY OF MUD FILTRATE
SUFT.C        15                   : SUFT         - SURFACE TEMPERATURE
~A  DEPTH       GR     PHIN     PHID     RESD
# ...
  449.000   54.398    0.256    0.235   22.581
  449.250   39.821    0.227    0.252   28.226
  449.500   29.494    0.208    0.284   37.097
  449.750   24.634    0.194    0.297   91.936
  450.000   19.166    0.282    0.299  124.194
  450.250   18.557    0.295    0.299  195.968
  450.500   20.376    0.298    0.296  202.419
  450.750   20.982    0.298    0.296  200.000
  451.000   21.587    0.299    0.293  153.226
  451.250   23.407    0.299    0.288   93.548
  451.500   27.655    0.307    0.275   66.936
  451.750   32.512    0.325    0.262   46.774
  452.000   58.016    0.339    0.247   33.871
  452.250   79.269    0.354    0.234   19.499
  452.500   90.805    0.360    0.220   14.843
  452.750   93.839    0.361    0.209   12.799
  453.000   93.230    0.364    0.201   11.326
  453.250   99.908    0.368    0.194   10.507
  453.500  104.156    0.377    0.192    9.933
  453.750  105.976    0.385    0.192    9.358
  454.000  107.189    0.398    0.196    9.111
  454.250  109.008    0.410    0.208    8.699
  454.500  110.221    0.423    0.218    8.452
  454.750  111.434    0.432    0.223    8.204
  455.000  112.646    0.420    0.226    8.119
  455.250  113.251    0.409    0.235    8.198
  455.500  113.856    0.392    0.234    8.602
  455.750  113.247    0.387    0.231    9.007
  456.000  110.815    0.374    0.230    9.494
  456.250  107.778    0.370    0.233   10.470
  456.500  105.954    0.363    0.237   11.283
  456.750  101.093    0.368    0.247   12.504
  457.000   89.552    0.368    0.255   13.889
  457.250   82.263    0.366    0.269   15.518
  457.500   85.904    0.365    0.257   16.658
  457.750   87.117    0.363    0.246   17.145
  458.000   84.685    0.362    0.236   17.631
  458.250   87.112    0.358    0.223   16.730
  458.500   89.540    0.352    0.211   15.584
  458.750   91.967    0.347    0.204   14.928
  459.000   95.001    0.337    0.198   14.354
  459.250   89.533    0.332    0.188   14.024
  459.500   87.102    0.326    0.186   13.940
  459.750   82.242    0.325    0.188   14.263
  460.000   79.203    0.324    0.201   14.831
  460.250   77.987    0.324    0.211   15.481
  460.500   76.163    0.331    0.223   15.968
  460.750   76.160    0.337    0.225   16.536
  461.000   79.195    0.331    0.219   16.941
  461.250   82.228    0.326    0.202   16.203
  461.500   84.656    0.318    0.197   15.466
  461.750   88.905    0.303    0.219   14.728
  462.000   93.153    0.285    0.229   14.317
  462.250   85.864    0.270    0.249   15.048
  462.500   73.716    0.267    0.267   23.531
  462.750   63.998    0.298    0.287   25.917
  463.000   56.708    0.327    0.300   30.701
  463.250   56.098    0.347    0.282   35.497
  463.500   56.097    0.352    0.274   40.289
  463.750   56.701    0.349    0.258   41.027
  464.000   59.129    0.348    0.238   40.137
  464.250   65.199    0.352    0.222   31.906
  464.500   68.841    0.387    0.195   26.154
  464.750   76.734    0.412    0.169   11.589
  465.000   85.841    0.435    0.159    7.994
  465.250  101.628    0.450    0.135    6.849
  465.500  111.343    0.463    0.122    5.702
  465.750  114.985    0.478    0.093    5.128
  466.000  110.731    0.473    0.143    4.799
  466.250  113.766    0.464    0.192    4.713
  466.500  117.407    0.435    0.217    4.792
  466.750  113.154    0.377    0.236    5.932
  467.000  101.006    0.354    0.267    7.806
  467.250   88.251    0.336    0.284    9.680
  467.500   71.852    0.335    0.306   17.023
  467.750   59.097    0.338    0.304   21.138
  468.000   53.629    0.344    0.299   30.894
  468.250   57.878    0.353    0.298   38.211
  468.500   60.306    0.353    0.297   47.154
  468.750   65.161    0.353    0.300   45.529
  469.000   66.981    0.353    0.298   43.089
  469.250   63.336    0.352    0.293   38.211
  469.500   67.584    0.348    0.282   34.146
  469.750   71.226    0.343    0.273   30.894
  470.000   76.082    0.342    0.266   27.642
  470.250   77.902    0.346    0.249   25.203
  470.500   81.544    0.348    0.241   18.210
  470.750   82.149    0.349    0.232   15.513
  471.000   83.968    0.347    0.222   13.225
  471.250   88.824    0.355    0.217   11.507
  471.500   92.466    0.370    0.203   10.035
  471.750  100.358    0.384    0.192    9.298
  472.000  105.215    0.377    0.187    8.804
  472.250  102.783    0.347    0.196    8.557
  472.500   97.923    0.336    0.202    8.390
  472.750   93.670    0.330    0.205    8.306
  473.000   94.883    0.356    0.208    8.138
  473.250  100.954    0.367    0.202    8.136
  473.500  111.275    0.384    0.194    8.133
  473.750  117.953    0.379    0.160    8.374
  474.000  113.700    0.368    0.142    8.698
  474.250  105.803    0.352    0.140    9.022
  474.500   96.692    0.346    0.143    9.427
  474.750   90.617    0.345    0.154    9.750
  475.000   86.971    0.337    0.176   10.073
  475.250   88.791    0.326    0.195   10.233
  475.500   90.003    0.307    0.183   10.312
  475.750   81.499    0.301    0.178   10.145
  476.000   74.209    0.309    0.176   10.142
  476.250   69.349    0.326    0.197   10.629
  476.500   68.132    0.343    0.214   11.769
  476.750   67.522    0.358    0.239   13.888
  477.000   68.128    0.364    0.259   21.053
  477.250   70.555    0.370    0.268   25.101
  477.500   72.982    0.367    0.277   29.959
  477.750   74.195    0.362    0.277   31.579
  478.000   72.978    0.365    0.280   35.627
  478.250   73.582    0.369    0.280   36.437
  478.500   74.796    0.371    0.282   35.627
  478.750   79.044    0.373    0.276   34.818
  479.000   84.508    0.367    0.256   30.769
  479.250   93.007    0.353    0.233   26.721
  479.500   88.148    0.324    0.203   25.101
  479.750   78.428    0.275    0.170   17.279
  480.000   74.175    0.252    0.159   15.071
  480.250   72.958    0.264    0.177   13.354
  480.500   72.956    0.290    0.195   11.800
  480.750   74.169    0.312    0.208   10.899
  481.000   74.775    0.329    0.226   10.161
  481.250   77.201    0.338    0.216    9.587
  481.500   77.807    0.338    0.207    9.094
  481.750   77.804    0.338    0.200    8.600
  482.000   78.410    0.338    0.192    8.189
  482.250   79.014    0.338    0.188    7.942
  482.500   79.620    0.341    0.186    7.694
  482.750   80.225    0.340    0.188    7.528
  483.000   80.831    0.343    0.183    7.361
  483.250   76.577    0.343    0.193    7.277
  483.500   74.754    0.340    0.201    7.110
  483.750   72.930    0.348    0.195    6.943
  484.000   72.320    0.356    0.194    6.859
  484.250   73.532    0.352    0.206    6.774
  484.500   74.744    0.345    0.212    6.690
  484.750   75.350    0.342    0.200    6.686
  485.000   74.741    0.352    0.204    6.601
  485.250   76.560    0.346    0.206    6.680
  485.500   77.772    0.341    0.204    6.676
  485.750   77.771    0.341    0.211    6.674
  486.000   77.769    0.346    0.215    6.588
  486.250   76.552    0.342    0.223    6.505
  486.500   74.728    0.334    0.232    6.338
  486.750   71.690    0.324    0.242    6.090
  487.000   61.363    0.266    0.238    5.924
  487.250   50.430    0.250    0.210    5.839
  487.500   40.711    0.237    0.172    6.163
  487.750   34.029    0.221    0.123    7.057
  488.000   29.168    0.071    0.017    9.340
  488.250   27.345    0.037    0.009   10.969
  488.500   26.735    0.071    0.016   11.864
  488.750   26.732    0.182    0.153   11.452
  489.000   26.731    0.203    0.172   10.143
  489.250   27.336    0.221    0.267    8.916
  489.500   29.155    0.237    0.303    7.362
  489.750   30.368    0.260    0.318    5.889
  490.000   34.344    0.314    0.312    5.152
  490.250   33.750    0.325    0.308    4.496
  490.500   33.153    0.309    0.306    4.003
  490.750   31.953    0.308    0.309    3.510
  491.000   29.552    0.315    0.317    3.261
  491.250   27.752    0.320    0.320    3.094
  491.500   27.158    0.329    0.312    3.009
  491.750   27.166    0.336    0.315    2.925
  492.000   27.774    0.339    0.321    2.922
  492.250   28.384    0.331    0.325    2.838
