~VERSION INFORMATION
 VERS.                 2.0:   CWLS LOG ASCII STANDARD -VERSION 2.0
 WRAP.                  NO:   ONE LINE PER DEPTH STEP
~WELL INFORMATION BLOCK
#MNEM.UNIT           DATA                    DESCRIPTION OF MNEMONIC
#---------    -------------------            -------------------------------
# Generated from Intellog Unique Number	CS_69_70/WELL/620
NULL.         -999.25                        : NULL_VALUE
WELL.         MAYNARD ENERGY                 : Well_name    - WELL              
LOC .         00/03-20-070-15W4/0            : Location     - LOCATION          
UWI .         00/03-20-070-15W4/0            : Uwi          - UNIQUE WELL ID    
ENTR.         SP                             : Entered      - ENTERED BY        
SRVC.         SCHLUMBERGER                   : Scn          - SERVICE COMPANY   
STRT.M        270                            : top_depth    - START DEPTH       
STOP.M        489                            : bot_depth    - STOP DEPTH        
STEP.M        0.25                           : increment    - STEP LENGTH       
~CURVE INFORMATION BLOCK
#MNEM UNIT       ERCB CURVE CODE    CURVE DESCRIPTION
#-----------   ------------------   ----------------------------------
DEPT.M        00 001 00 00         : DEPTH        - DEPTH                       
ILD .OHMM     00 120 00 00         : RESD         - DEEP RESISTIVITY (DIL)      
DPHI.V/V      00 890 00 00         : PHID         - DENSITY POROSITY (LIMESTONE)
NPHI.V/V      00 330 00 00         : PHIN         - NEUTRON POROSITY (LIMESTONE)
GR  .API      00 310 00 00         : GR           - GAMMA RAY                   
~PARAMETER INFORMATION       
#MNEM.UNIT           DATA             DESCRIPTION OF MNEMONIC
#---------         -----------     ------------------------------
GL  .M        566.63               : gl           - GROUND LEVEL ELEVATION      
EREF.M        569.83               : kb           - ELEVATION OF DEPTH REFERENCE
DATM.M        566.63               : datum        - DATUM ELEVATION             
TDD .M        495                  : tdd          - TOTAL DEPTH DRILLER         
RUN .         ONE                  : Run          - RUN NUMBER                  
ENG .         BILL                 : Engineer     - RECORDING ENGINEER          
WIT .         JIM                  : Witness      - WITNESSED BY                
MUD .         GEL                  : Mud_type     - MUD TYPE                    
MATR.         LIMESTONE            : Logunit      - NEUTRON MATRIX              
TMAX.C        21                   : BHT          - MAXIMUM RECORDED TEMPERATURE
BHTD.M        495                  : BHTDEP       - MAXIMUM RECORDED TEMPERATURE
MATR.         1                    : LOGUNIT      - NEUTRON MATRIX              
RMT .C        25                   : MDTP         - TEMPERATURE OF MUD          
NEUT.         1                    : NEUTRON      - NEUTRON TYPE                
RESI.         0                    : RESIST       - RESISTIVITY TYPE            
RMC .OHMM     0.25                 : RMC          - RESISTIVITY OF MUD CAKE     
RMF .OHMM     0.25                 : RMF          - RESISTIVITY OF MUD FILTRATE 
SUFT.C        15                   : SUFT         - SURFACE TEMPERATURE         
~A  DEPTH     RESD     PHID     PHIN       GR
# ...
  400.500    3.915    0.236    0.409   93.253
  400.750    3.867    0.236    0.406   95.014
  401.000    3.859    0.234    0.407   95.932
  401.250    3.900    0.238    0.410   95.162
  401.500    3.990    0.242    0.414   92.160
  401.750    4.121    0.243    0.417   90.663
  402.000    4.252    0.233    0.411   89.352
  402.250    4.325    0.230    0.400   88.039
  402.500    4.374    0.229    0.394   87.265
  402.750    4.423    0.233    0.388   85.716
  403.000    4.489    0.225    0.383   85.604
  403.250    4.506    0.234    0.378   85.916
  403.500    4.539    0.246    0.374   86.473
  403.750    4.621    0.257    0.370   87.275
  404.000    4.678    0.243    0.375   88.553
  404.250    4.703    0.219    0.384   90.918
  404.500    4.679    0.210    0.391   92.500
  404.750    4.615    0.200    0.399   92.394
  405.000    4.486    0.197    0.401   92.044
  405.250    4.178    0.187    0.411   91.151
  405.500    3.837    0.191    0.429   93.579
  405.750    3.432    0.212    0.445   96.971
  406.000    3.181    0.246    0.459  100.184
  406.250    3.051    0.244    0.476  102.549
  406.500    3.011    0.236    0.498  104.855
  406.750    3.020    0.230    0.504  106.558
  407.000    3.053    0.223    0.499  107.295
  407.250    3.078    0.221    0.494  107.071
  407.500    3.071    0.226    0.488  107.081
  407.750    3.063    0.238    0.483  108.008
  408.000    3.039    0.248    0.482  108.437
  408.250    3.015    0.257    0.481  109.051
  408.500    2.935    0.260    0.485  109.246
  408.750    2.887    0.251    0.491  109.078
  409.000    2.830    0.239    0.492  108.974
  409.250    2.742    0.248    0.488  108.984
  409.500    2.735    0.246    0.484  109.359
  409.750    2.768    0.233    0.478  109.798
  410.000    2.841    0.227    0.474  109.689
  410.250    2.890    0.222    0.472  108.923
  410.500    3.159    0.209    0.463  108.090
  410.750    3.387    0.194    0.444  107.438
  411.000    3.810    0.180    0.424  106.000
  411.250    4.127    0.171    0.402   99.859
  411.500    4.623    0.168    0.383   96.131
  411.750    4.981    0.168    0.376   93.190
  412.000    5.282    0.176    0.370   92.538
  412.250    5.550    0.193    0.366   92.490
  412.500    5.851    0.180    0.362   92.445
  412.750    6.055    0.160    0.356   91.675
  413.000    6.234    0.145    0.351   89.698
  413.250    6.365    0.175    0.347   88.202
  413.500    6.382    0.203    0.345   87.732
  413.750    6.187    0.225    0.357   89.020
  414.000    6.034    0.238    0.368   90.355
  414.250    5.799    0.227    0.379   93.145
  414.500    5.572    0.198    0.387   94.239
  414.750    5.483    0.179    0.393   94.316
  415.000    5.451    0.163    0.398   93.846
  415.250    5.460    0.147    0.395   93.442
  415.500    5.469    0.163    0.397   93.388
  415.750    5.486    0.177    0.401   93.768
  416.000    5.486    0.185    0.404   94.084
  416.250    5.487    0.176    0.408   94.393
  416.500    5.463    0.179    0.410   95.800
  416.750    5.431    0.184    0.412   96.716
  417.000    5.367    0.189    0.415   97.935
  417.250    5.262    0.185    0.420   98.919
  417.500    5.230    0.173    0.417   99.417
  417.750    5.230    0.170    0.410   99.543
  418.000    5.263    0.165    0.401  100.101
  418.250    5.321    0.170    0.395  100.293
  418.500    5.362    0.164    0.389   99.706
  418.750    5.371    0.153    0.388   98.992
  419.000    5.339    0.143    0.390  101.238
  419.250    5.218    0.154    0.397  103.789
  419.500    5.153    0.193    0.399  104.947
  419.750    4.975    0.216    0.401  105.682
  420.000    4.830    0.208    0.402  105.578
  420.250    4.773    0.187    0.404  105.167
  420.500    4.685    0.177    0.411  104.637
  420.750    4.669    0.166    0.418  104.167
  421.000    4.686    0.166    0.422  103.522
  421.250    4.719    0.170    0.408  102.635
  421.500    4.833    0.187    0.394  102.337
  421.750    4.972    0.208    0.382  100.005
  422.000    5.338    0.232    0.371   97.840
  422.250    5.615    0.235    0.359   91.154
  422.500    5.802    0.179    0.339   84.590
  422.750    5.868    0.159    0.346   81.707
  423.000    5.592    0.143    0.361   83.350
  423.250    5.300    0.156    0.378   87.225
  423.500    4.789    0.179    0.391   91.221
  423.750    4.173    0.188    0.405   94.794
  424.000    3.775    0.179    0.416   98.188
  424.250    3.435    0.192    0.423  101.399
  424.500    3.127    0.201    0.422  105.281
  424.750    3.046    0.211    0.433  106.374
  425.000    2.885    0.216    0.443  107.835
  425.250    2.804    0.221    0.454  109.239
  425.500    2.829    0.229    0.467  109.914
  425.750    2.968    0.236    0.451  109.747
  426.000    3.260    0.219    0.433  106.983
  426.250    3.756    0.188    0.417   96.920
  426.500    4.366    0.166    0.402   89.149
  426.750    5.000    0.150    0.394   85.059
  427.000    5.585    0.151    0.391   87.970
  427.250    6.041    0.166    0.386   91.663
  427.500    6.520    0.188    0.383   94.210
  427.750    6.813    0.199    0.380   95.490
  428.000    7.187    0.185    0.374   93.814
  428.250    7.432    0.180    0.358   89.423
  428.500    7.911    0.176    0.335   84.609
  428.750    8.261    0.162    0.310   80.157
  429.000    8.546    0.094    0.291   76.855
  429.250    8.538    0.051    0.281   75.537
  429.500    8.117    0.029    0.293   75.490
  429.750    7.411    0.050    0.323   80.333
  430.000    6.754    0.111    0.358   86.983
  430.250    6.234    0.140    0.380   93.814
  430.500    5.837    0.145    0.392   96.603
  430.750    5.545    0.153    0.392   97.764
  431.000    5.319    0.166    0.391   96.750
  431.250    5.189    0.133    0.392   94.835
  431.500    5.101    0.132    0.394   93.639
  431.750    4.947    0.141    0.401   96.368
  432.000    4.745    0.168    0.411  100.182
  432.250    4.591    0.184    0.420  104.541
  432.500    4.470    0.175    0.428  107.691
  432.750    4.251    0.136    0.432  107.885
  433.000    4.170    0.112    0.435  107.055
  433.250    4.057    0.104    0.431  105.622
  433.500    3.985    0.146    0.430  104.730
  433.750    3.953    0.174    0.430  104.198
  434.000    3.937    0.183    0.431  103.970
  434.250    3.962    0.182    0.435  104.043
  434.500    4.012    0.175    0.439  104.004
  434.750    4.053    0.151    0.436  102.923
  435.000    4.143    0.122    0.429  103.360
  435.250    4.200    0.113    0.417  105.066
  435.500    4.209    0.114    0.413  105.799
  435.750    4.226    0.135    0.410  106.477
  436.000    4.177    0.146    0.411  107.337
  436.250    4.081    0.128    0.420  108.074
  436.500    3.943    0.142    0.428  109.051
  436.750    3.822    0.157    0.433  110.150
  437.000    3.685    0.173    0.436  111.251
  437.250    3.596    0.196    0.437  111.988
  437.500    3.564    0.182    0.431  110.191
  437.750    3.540    0.160    0.429  106.705
  438.000    3.524    0.135    0.432  105.692
  438.250    3.484    0.126    0.442  107.093
  438.500    3.404    0.135    0.452  108.614
  438.750    3.339    0.144    0.459  111.404
  439.000    3.283    0.177    0.459  116.367
  439.250    3.284    0.193    0.440  118.368
  439.500    3.569    0.191    0.405  110.780
  439.750    4.097    0.182    0.370   98.484
  440.000    5.283    0.161    0.329   88.059
  440.250    6.445    0.090    0.311   82.762
  440.500    8.078    0.065    0.301   79.035
  440.750    9.410    0.066    0.294   77.842
  441.000   10.629    0.094    0.288   79.123
  441.250   11.579    0.127    0.289   80.466
  441.500   11.556    0.176    0.290   78.485
  441.750   11.800    0.219    0.288   72.102
  442.000   12.296    0.250    0.287   68.013
  442.250   12.686    0.275    0.292   66.699
  442.500   12.703    0.255    0.301   66.471
  442.750   12.476    0.239    0.312   67.209
  443.000   12.176    0.233    0.326   68.009
  443.250   12.299    0.238    0.336   68.388
  443.500   12.486    0.234    0.344   68.579
  443.750   12.649    0.227    0.346   68.471
