~VERSION INFORMATION
 VERS.                 2.0:   CWLS LOG ASCII STANDARD -VERSION 2.0
 WRAP.                  NO:   ONE LINE PER DEPTH STEP
~WELL INFORMATION BLOCK
#MNEM.UNIT           DATA                    DESCRIPTION OF MNEMONIC
#---------    -------------------            -------------------------------
# Generated from Intellog Unique Number	CW_79_81/WELL/2450
WELL.         06-08-081-22W4                 : Well_name    - WELL
LOC .         00/06-08-081-22W4/0            : Location     - LOCATION
UWI .         00/06-08-081-22W4/0            : Uwi          - UNIQUE WELL ID
ENTR.         MAX                            : Entered      - ENTERED BY
SRVC.         SCHLUMBERGER                   : Scn          - SERVICE COMPANY
STRT.M        225                            : top_depth    - START DEPTH
STOP.M        444.75                         : bot_depth    - STOP DEPTH
STEP.M        0.25                           : increment    - STEP LENGTH
 NULL. -999.2500:NULL Value
~CURVE INFORMATION BLOCK
#MNEM UNIT       ERCB CURVE CODE    CURVE DESCRIPTION
#-----------   ------------------   ----------------------------------
DEPT.M        00 001 00 00         : DEPTH        - DEPTH
ILD .OHMM     00 120 00 00         : RESD         - DEEP RESISTIVITY (DIL)
NPHI.V/V      00 330 00 00         : PHIN         - NEUTRON POROSITY (SANDSTONE)
DPHI.V/V      00 890 00 00         : PHID         - DENSITY POROSITY (SANDSTONE)
GR  .API      00 310 00 00         : GR           - GAMMA RAY
CALI.MM       00 280 01 00         : CAL          - CALIPER
~PARAMETER INFORMATION
#MNEM.UNIT           DATA             DESCRIPTION OF MNEMONIC
#---------         -----------     ------------------------------
GL  .M        597.6                : gl           - GROUND LEVEL ELEVATION
EREF.M        600.9                : kb           - ELEVATION OF DEPTH REFERENCE
DATM.M        597.6                : datum        - DATUM ELEVATION
TDD .M        450                  : tdd          - TOTAL DEPTH DRILLER
RUN .         ONE                  : Run          - RUN NUMBER
ENG .         BILL                 : Engineer     - RECORDING ENGINEER
WIT .         JIM                  : Witness      - WITNESSED BY
MUD .         GEL                  : Mud_type     - MUD TYPE
MATR.         SANDSTONE            : Logunit      - NEUTRON MATRIX
TMAX.C        24                   : BHT          - MAXIMUM RECORDED TEMPERATURE
BHTD.M        450                  : BHTDEP       - MAXIMUM RECORDED TEMPERATURE
MATR.         1                    : LOGUNIT      - NEUTRON MATRIX
RMT .C        16.1                 : MDTP         - TEMPERATURE OF MUD
NEUT.         1                    : NEUTRON      - NEUTRON TYPE
RESI.         0                    : RESIST       - RESISTIVITY TYPE
RMC .OHMM     3.66                 : RMC          - RESISTIVITY OF MUD CAKE
RMF .OHMM     5.1                  : RMF          - RESISTIVITY OF MUD FILTRATE
SUFT.C        -10                  : SUFT         - SURFACE TEMPERATURE
~A  DEPTH     RESD     PHIN     PHID       GR      CAL
# ...
  298.000   10.014    0.451    0.330   58.641  220.847
  298.250   10.010    0.443    0.335   58.640  220.750
  298.500   10.007    0.444    0.341   59.876  220.323
  298.750    9.931    0.450    0.347   62.016  220.309
  299.000    9.800    0.463    0.345   64.333  219.998
  299.250    9.690    0.475    0.345   65.757  219.586
  299.500    9.599    0.482    0.349   65.928  218.977
  299.750    9.427    0.483    0.349   65.252  217.686
  300.000    9.280    0.477    0.350   65.491  217.256
  300.250    9.277    0.471    0.353   66.675  216.449
  300.500    9.274    0.468    0.348   66.787  215.342
  300.750    9.271    0.469    0.345   66.064  214.532
  301.000    9.267    0.472    0.347   64.805  214.320
  301.250    9.247    0.475    0.352   63.214  214.785
  301.500    9.177    0.468    0.354   62.461  215.184
  301.750    8.908    0.471    0.357   62.690  215.570
  302.000    8.647    0.468    0.355   63.101  215.657
  302.250    8.457    0.467    0.351   63.928  215.644
  302.500    8.316    0.472    0.346   65.172  215.433
  302.750    8.120    0.492    0.338   66.691  214.704
  303.000    8.056    0.509    0.343   67.180  215.104
  303.250    8.292    0.499    0.339   66.935  215.485
  303.500    8.534    0.485    0.339   65.436  215.571
  303.750    8.658    0.474    0.341   64.236  215.559
  304.000    8.624    0.466    0.344   63.869  215.646
  304.250    8.482    0.451    0.341   63.860  216.193
  304.500    8.414    0.450    0.339   63.852  217.008
  304.750    8.289    0.451    0.342   63.605  218.187
  305.000    8.166    0.461    0.344   61.749  218.472
  305.250    8.045    0.472    0.342   60.548  218.657
  305.500    7.925    0.477    0.337   61.434  219.039
  305.750    7.771    0.474    0.334   64.803  219.504
  306.000    7.593    0.480    0.336   63.802  219.905
  306.250    7.480    0.481    0.334   62.840  220.687
  306.500    7.409    0.471    0.327   62.414  221.172
  306.750    7.407    0.466    0.319   62.763  221.557
  307.000    7.472    0.473    0.315   63.889  221.840
  307.250    7.614    0.482    0.320   65.549  221.824
  307.500    7.787    0.481    0.321   65.542  221.813
  307.750    7.899    0.481    0.322   64.579  221.799
  308.000    8.013    0.485    0.325   63.258  222.084
  308.250    8.040    0.488    0.327   62.416  222.467
  308.500    7.965    0.487    0.327   62.528  222.651
  308.750    7.809    0.487    0.318   63.910  222.155
  309.000    7.630    0.496    0.307   64.896  221.728
  309.250    7.683    0.508    0.312   66.794  221.716
  309.500    7.865    0.494    0.318   68.516  221.702
  309.750    7.979    0.474    0.323   70.775  221.687
  310.000    7.917    0.463    0.323   73.510  221.972
  310.250    7.541    0.475    0.311   76.233  223.317
  310.500    6.884    0.489    0.305   77.963  224.131
  310.750    6.204    0.501    0.292   78.432  225.307
  311.000    5.723    0.508    0.289   76.935  226.488
  311.250    5.481    0.510    0.287   75.258  227.272
  311.500    5.429    0.506    0.282   74.414  227.855
  311.750    5.466    0.500    0.276   74.543  229.279
  312.000    5.465    0.498    0.270   74.039  230.508
  312.250    4.999    0.504    0.286   69.737  232.482
  312.500    4.392    0.511    0.301   67.762  230.880
  312.750    4.004    0.510    0.297   69.424  227.487
  313.000    3.833    0.499    0.271   73.232  224.789
  313.250    3.748    0.480    0.220   74.146  226.048
  313.500    3.747    0.458    0.185   70.409  226.448
  313.750    4.086    0.436    0.147   69.925  225.642
  314.000    5.432    0.425    0.179   72.124  224.235
  314.250    7.154    0.431    0.217   75.216  223.227
  314.500    7.725    0.448    0.235   77.534  223.016
  314.750    7.441    0.459    0.241   77.376  223.397
  315.000    7.161    0.468    0.232   76.623  223.385
  315.250    7.107    0.474    0.228   75.899  222.577
  315.500    7.287    0.472    0.218   75.712  222.066
  315.750    7.421    0.467    0.209   75.823  222.053
  316.000    7.391    0.462    0.208   76.233  222.835
  316.250    7.270    0.467    0.218   77.377  225.302
  316.500    7.212    0.484    0.228   78.360  227.774
  316.750    7.316    0.504    0.236   79.308  227.759
  317.000    7.502    0.505    0.245   79.896  227.448
  317.250    7.610    0.500    0.250   79.888  227.236
  317.500    7.621    0.492    0.248   79.106  226.726
  317.750    7.698    0.474    0.243   77.624  224.475
  318.000    7.814    0.455    0.245   78.611  223.220
  318.250    7.869    0.466    0.254   80.272  223.204
  318.500    7.968    0.470    0.258   81.396  223.191
  318.750    8.170    0.469    0.260   82.581  223.179
  319.000    8.457    0.466    0.260   83.468  223.166
  319.250    8.666    0.459    0.252   83.091  223.067
  319.500    8.468    0.442    0.250   84.821  222.640
  319.750    8.342    0.434    0.248   85.768  222.626
  320.000    8.262    0.434    0.249   82.600  222.612
  320.250    8.169    0.445    0.248   78.775  222.797
  320.500    8.092    0.463    0.246   76.858  223.282
  320.750    8.148    0.479    0.247   78.914  223.977
  321.000    8.146    0.479    0.254   80.895  223.549
  321.250    8.203    0.470    0.256   81.365  223.139
  321.500    8.350    0.467    0.257   80.403  223.027
  321.750    8.716    0.464    0.260   78.844  223.212
  322.000    9.212    0.459    0.264   77.286  223.595
  322.250    9.370    0.449    0.267   76.183  224.059
  322.500    9.155    0.452    0.262   76.672  224.459
  322.750    8.692    0.470    0.267   79.050  224.444
  323.000    8.161    0.475    0.266   80.353  224.433
  323.250    7.696    0.476    0.260   81.536  224.818
  323.500    7.325    0.477    0.251   82.602  225.896
  323.750    6.998    0.480    0.239   81.650  227.869
  324.000    6.942    0.481    0.240   76.921  227.855
  324.250    7.624    0.472    0.250   70.235  225.457
  324.500    8.466    0.465    0.273   65.694  223.059
  324.750    9.351    0.456    0.291   63.658  221.255
  325.000    9.980    0.445    0.292   63.888  220.248
  325.250    9.888    0.437    0.276   65.896  220.002
  325.500    9.809    0.437    0.264   67.628  220.816
  325.750    9.950    0.444    0.268   66.187  220.405
  326.000   10.204    0.450    0.278   65.285  219.994
  326.250   10.353    0.459    0.289   65.040  220.180
  326.500   10.253    0.466    0.298   65.270  220.862
  326.750    9.789    0.464    0.300   65.598  221.489
  327.000    9.350    0.461    0.297   66.086  222.721
  327.250    8.944    0.458    0.278   68.703  223.106
  327.500    8.894    0.451    0.262   70.066  223.192
  327.750    9.118    0.449    0.251   71.370  223.377
  328.000    9.441    0.452    0.243   72.614  223.661
  328.250    9.462    0.457    0.239   72.704  223.647
  328.500    9.246    0.467    0.240   73.191  223.631
  328.750    8.778    0.461    0.252   75.330  223.619
  329.000    8.148    0.455    0.247   76.754  223.308
  329.250    7.485    0.460    0.242   77.462  222.698
  329.500    6.829    0.474    0.242   77.931  222.088
  329.750    6.043    0.490    0.249   79.512  222.073
  330.000    5.476    0.490    0.263   81.491  222.059
  330.250    5.160    0.494    0.269   79.337  222.443
  330.500    5.114    0.503    0.279   76.467  221.932
  330.750    5.588    0.510    0.282   73.358  221.322
  331.000    6.585    0.508    0.278   70.488  220.812
  331.250    7.428    0.479    0.265   68.480  219.836
  331.500    8.876    0.426    0.221   69.217  218.992
  331.750    9.136    0.395    0.190   71.356  218.980
  332.000    8.552    0.415    0.180   73.673  219.862
  332.250    7.773    0.453    0.208   74.977  221.241
  332.500    7.179    0.481    0.254   75.029  222.519
  332.750    6.909    0.476    0.264   74.789  222.982
  333.000    6.854    0.469    0.269   76.024  223.382
  333.250    6.852    0.473    0.261   78.641  223.765
  333.500    6.775    0.479    0.257   79.289  224.449
  333.750    6.624    0.481    0.258   79.519  224.833
  334.000    6.395    0.480    0.260   79.154  224.820
  334.250    6.018    0.478    0.260   75.785  224.720
