~VERSION INFORMATION
 VERS.                 2.0:   CWLS LOG ASCII STANDARD -VERSION 2.0
 WRAP.                  NO:   ONE LINE PER DEPTH STEP
~WELL INFORMATION BLOCK
#MNEM.UNIT           DATA                    DESCRIPTION OF MNEMONIC
#---------    -------------------            -------------------------------
# Generated from Intellog Unique Number	CX_WELLS/WELL/1046
LOC .         00/02-32-089-12W4/0            : Location     - LOCATION
UWI .         00/02-32-089-12W400            : Uwi          - UNIQUE WELL ID
ENTR.         DW                             : Entered      - ENTERED BY
SRVC.         SCHLUMBERGER                   : Scn          - SERVICE COMPANY
STRT.M        90                             : top_depth    - START DEPTH
STOP.M        240                            : bot_depth    - STOP DEPTH
STEP.M        0.25                           : increment    - STEP LENGTH
 NULL. -999.2500:NULL Value
~CURVE INFORMATION BLOCK
#MNEM UNIT       ERCB CURVE CODE    CURVE DESCRIPTION
#-----------   ------------------   ----------------------------------
DEPT.M        00 001 00 00         : DEPTH        - DEPTH
GR  .API      00 310 00 00         : GR           - GAMMA RAY
NPHI.V/V      00 330 00 00         : PHIN         - NEUTRON POROSITY (SANDSTONE)
DPHI.V/V      00 890 00 00         : PHID         - DENSITY POROSITY (SANDSTONE)
ILD .OHMM     00 120 00 00         : RESD         - DEEP RESISTIVITY (DIL)
~PARAMETER INFORMATION
#MNEM.UNIT           DATA             DESCRIPTION OF MNEMONIC
#---------         -----------     ------------------------------
GL  .M        525.15               : gl           - GROUND LEVEL ELEVATION
EREF.M        528.85               : kb           - ELEVATION OF DEPTH REFERENCE
DATM.M        528.85               : datum        - DATUM ELEVATION
TDD .M        717                  : tdd          - TOTAL DEPTH DRILLER
RUN .         ONE                  : Run          - RUN NUMBER
ENG .         BILL                 : Engineer     - RECORDING ENGINEER
WIT .         JIM                  : Witness      - WITNESSED BY
MUD .         GEL                  : Mud_type     - MUD TYPE
MATR.         SANDSTONE            : Logunit      - NEUTRON MATRIX
TMAX.C        18                   : BHT          - MAXIMUM RECORDED TEMPERATURE
BHTD.M        717                  : BHTDEP       - MAXIMUM RECORDED TEMPERATURE
MATR.         1                    : LOGUNIT      - NEUTRON MATRIX
RMT .C        25                   : MDTP         - TEMPERATURE OF MUD
NEUT.         1                    : NEUTRON      - NEUTRON TYPE
RESI.         0                    : RESIST       - RESISTIVITY TYPE
RMC .OHMM     0.25                 : RMC          - RESISTIVITY OF MUD CAKE
RMF .OHMM     0.25                 : RMF          - RESISTIVITY OF MUD FILTRATE
SUFT.C        15                   : SUFT         - SURFACE TEMPERATURE
~A  DEPTH       GR     PHIN     PHID     RESD
# ...
  133.500   65.329    0.433    0.321   28.197
  133.750   64.170    0.431    0.313   25.746
  134.000   63.586    0.434    0.306   23.928
  134.250   62.418    0.421    0.296   22.656
  134.500   62.454    0.369    0.290   20.680
  134.750   66.102    0.359    0.286   18.876
  135.000   71.566    0.352    0.303   17.232
  135.250   74.621    0.363    0.342   16.021
  135.500   75.250    0.402    0.358   14.893
  135.750   77.092    0.430    0.365   13.348
  136.000   85.556    0.468    0.350   12.184
  136.250   92.224    0.472    0.320   11.752
  136.500   92.260    0.463    0.284   13.876
  136.750   89.888    0.447    0.283   17.963
  137.000   89.312    0.421    0.280   19.353
  137.250   91.155    0.415    0.259   19.360
  137.500   93.006    0.425    0.266   18.677
  137.750   94.246    0.438    0.278   18.346
  138.000   94.282    0.445    0.287   17.373
  138.250   94.309    0.447    0.286   15.569
  138.500   94.354    0.448    0.285   15.579
  138.750   93.796    0.455    0.288   16.479
  139.000   93.814    0.461    0.293   16.794
  139.250   93.248    0.454    0.293   17.438
  139.500   91.478    0.439    0.297   17.449
  139.750   87.911    0.428    0.304   17.788
  140.000   84.928    0.418    0.309   18.128
  140.250   82.555    0.403    0.319   18.140
  140.500   84.397    0.396    0.325   17.181
  140.750   86.240    0.399    0.315   16.873
  141.000   85.080    0.404    0.326   17.198
  141.250   81.495    0.416    0.338   18.874
  141.500   76.733    0.437    0.353   19.237
  141.750   74.954    0.451    0.342   18.896
  142.000   73.183    0.458    0.310   18.226
  142.250   70.200    0.436    0.286   16.951
  142.500   66.022    0.385    0.283   16.648
  142.750   64.252    0.362    0.281   16.057
  143.000   64.287    0.360    0.280   14.929
  143.250   63.721    0.364    0.280   14.399
  143.500   62.562    0.368    0.279   14.147
  143.750   65.007    0.364    0.272   14.687
  144.000   68.646    0.362    0.264   16.721
  144.250   72.312    0.363    0.250   17.678
  144.500   72.348    0.360    0.250   19.761
  144.750   69.967    0.364    0.255   20.511
  145.000   67.594    0.371    0.255   21.689
  145.250   68.232    0.370    0.255   22.935
  145.500   68.870    0.364    0.255   23.810
  145.750   66.498    0.367    0.245   24.264
  146.000   62.922    0.377    0.200   22.982
  146.250   61.754    0.359    0.196   22.170
  146.500   63.596    0.348    0.231   23.024
  146.750   63.641    0.355    0.245   23.460
  147.000   64.279    0.341    0.246   23.479
  147.250   68.520    0.344    0.263   22.639
  147.500   73.372    0.387    0.296   21.439
  147.750   78.225    0.406    0.320   20.302
  148.000   83.077    0.390    0.261   19.945
  148.250   80.705    0.366    0.293   21.482
  148.500   72.914    0.390    0.320   24.454
  148.750   74.756    0.407    0.352   23.157
  149.000   74.190    0.414    0.352   19.638
  149.250   68.808    0.468    0.364   17.925
  149.500   63.425    0.502    0.364   18.610
  149.750   70.093    0.457    0.369   21.577
  150.000   70.731    0.442    0.345   21.992
  150.250   67.145    0.435    0.300   21.212
  150.500   61.763    0.441    0.318   18.320
  150.750   56.992    0.442    0.342   14.705
  151.000   55.221    0.446    0.368   14.712
  151.250   54.655    0.488    0.393   14.995
  151.500   53.487    0.521    0.412   16.759
  151.750   51.115    0.552    0.078   17.721
  152.000   48.734    0.487    0.057   17.410
  152.250   45.760    0.208    0.084   16.487
  152.500   51.816    0.253    0.139   16.498
  152.750   59.076    0.326    0.206   16.509
  153.000   65.142    0.406    0.314   15.354
  153.250   72.411    0.456    0.304   14.807
  153.500   73.642    0.487    0.288   14.282
  153.750   69.464    0.442    0.280   15.100
  154.000   64.675    0.431    0.276   20.659
  154.250   58.088    0.388    0.261   32.142
  154.500   58.124    0.272    0.238   52.843
  154.750   61.170    0.289    0.290   31.599
  155.000   60.613    0.340    0.324   23.998
  155.250   54.620    0.383    0.357   18.563
  155.500   51.645    0.491    0.411   17.905
  155.750   55.896    0.519    0.475   20.011
  156.000   65.573    0.513    0.347   21.160
  156.250   65.618    0.498    0.349   22.791
  156.500   64.450    0.438    0.362   27.410
  156.750   66.885    0.428    0.380   25.483
  157.000   71.136    0.427    0.390   20.079
  157.250   75.988    0.424    0.389   15.249
  157.500   81.442    0.427    0.359   11.581
  157.750   80.885    0.432    0.341   10.003
  158.000   80.319    0.428    0.266    9.828
  158.250   80.957    0.406    0.259    9.834
  158.500   80.993    0.376    0.261    9.841
  158.750   78.621    0.385    0.262    9.670
  159.000   76.240    0.410    0.272    9.856
  159.250   71.468    0.386    0.291   10.614
  159.500   69.096    0.386    0.287   13.994
  159.750   72.735    0.405    0.274   19.146
  160.000   75.188    0.377    0.261   19.877
  160.250   77.031    0.352    0.256   21.813
  160.500   79.475    0.345    0.254   23.058
  160.750   78.909    0.334    0.248   24.835
  161.000   78.342    0.334    0.246   26.266
  161.250   78.378    0.339    0.246   27.268
  161.500   78.414    0.352    0.250   26.301
  161.750   74.838    0.372    0.258   24.453
  162.000   68.251    0.375    0.267   24.023
  162.250   66.481    0.363    0.280   24.040
  162.500   65.915    0.348    0.282   21.947
  162.750   64.747    0.352    0.254   20.029
  163.000   63.588    0.355    0.239   18.621
  163.250   63.022    0.357    0.244   17.634
  163.500   61.234    0.345    0.252   17.649
  163.750   58.861    0.344    0.252   17.660
  164.000   58.295    0.355    0.236   18.000
  164.250   57.729    0.351    0.222   18.013
  164.500   58.987    0.344    0.251   18.025
  164.750   62.645    0.314    0.265   19.417
  165.000   65.080    0.332    0.281   20.529
  165.250   69.321    0.339    0.257   21.711
  165.500   72.969    0.334    0.236   21.330
  165.750   70.597    0.335    0.235   20.956
  166.000   64.612    0.321    0.255   21.756
  166.250   61.045    0.375    0.275   23.001
  166.500   60.470    0.436    0.252   23.444
  166.750   62.312    0.461    0.213   21.399
  167.000   64.154    0.490    0.202   18.484
  167.250   66.599    0.305    0.234   18.500
  167.500   68.441    0.317    0.237   19.929
  167.750   66.068    0.316    0.216   17.862
  168.000   63.696    0.285    0.200   16.298
  168.250   64.334    0.289    0.186   14.339
  168.500   64.388    0.320    0.185   13.579
  168.750   63.202    0.316    0.164   16.635
  169.000   62.034    0.308    0.145   21.141
  169.250   62.079    0.319    0.175   22.355
  169.500   62.717    0.325    0.191   20.034
  169.750   62.753    0.329    0.186   22.393
  170.000   61.585    0.345    0.164   26.437
  170.250   62.223    0.339    0.165   25.035
  170.500   64.667    0.321    0.178   24.147
  170.750   66.500    0.264    0.189   29.042
  171.000   64.128    0.310    0.203   31.866
  171.250   61.153    0.351    0.169   27.520
  171.500   61.189    0.402    0.147   22.917
  171.750   70.867    0.313    0.173   25.141
  172.000   75.117    0.337    0.211   29.686
  172.250   77.561    0.357    0.232   29.170
  172.500   74.596    0.355    0.247   26.136
  172.750   75.234    0.353    0.254   22.164
  173.000   75.872    0.349    0.258   21.775
  173.250   76.501    0.361    0.248   25.252
  173.500   77.139    0.411    0.263   26.211
  173.750   77.777    0.435    0.263   23.921
  174.000   77.211    0.433    0.263   19.553
  174.250   75.441    0.423    0.264   17.523
  174.500   73.069    0.417    0.265   14.062
  174.750   70.714    0.413    0.259   14.599
  175.000   68.333    0.383    0.246   16.016
  175.250   68.369    0.366    0.244   17.899
  175.500   70.220    0.363    0.244   18.582
  175.750   72.655    0.367    0.242   18.601
  176.000   75.091    0.371    0.242   18.268
  176.250   75.153    0.363    0.244   15.783
  176.500   75.180    0.341    0.250   14.671
  176.750   75.198    0.320    0.257   14.153
