~VERSION INFORMATION
 VERS.                 2.0:   CWLS LOG ASCII STANDARD -VERSION 2.0
 WRAP.                  NO:   ONE LINE PER DEPTH STEP
~WELL INFORMATION BLOCK
#MNEM.UNIT           DATA                    DESCRIPTION OF MNEMONIC
#---------    -------------------            -------------------------------
# Generated from Intellog Unique Number	CS_73_76/WELL/1030
WELL.         CAVALIER ENERGY INC.           : Well_name    - WELL
LOC .         00/06-02-076-15W4/0            : Location     - LOCATION
UWI .         00/06-02-076-15W4/0            : Uwi          - UNIQUE WELL ID
ENTR.         SP                             : Entered      - ENTERED BY
SRVC.         SCHLUMBERGER                   : Scn          - SERVICE COMPANY
STRT.M        344.424                        : top_depth    - START DEPTH
STOP.M        545.424                        : bot_depth    - STOP DEPTH
STEP.M        0.25                           : increment    - STEP LENGTH
 NULL. -999.2500:NULL Value
~CURVE INFORMATION BLOCK
#MNEM UNIT       ERCB CURVE CODE    CURVE DESCRIPTION
#-----------   ------------------   ----------------------------------
DEPT.M        00 001 00 00         : DEPTH        - DEPTH
GR  .API      00 310 00 00         : GR           - GAMMA RAY
DPHI.V/V      00 890 00 00         : PHID         - DENSITY POROSITY (SANDSTONE)
NPHI.V/V      00 330 00 00         : PHIN         - NEUTRON POROSITY (SANDSTONE)
ILD .OHMM     00 120 00 00         : RESD         - DEEP RESISTIVITY (DIL)
~PARAMETER INFORMATION
#MNEM.UNIT           DATA             DESCRIPTION OF MNEMONIC
#---------         -----------     ------------------------------
GL  .M        714.146              : gl           - GROUND LEVEL ELEVATION
EREF.M        717.194              : kb           - ELEVATION OF DEPTH REFERENCE
DATM.M        714.146              : datum        - DATUM ELEVATION
TDD .M        545.592              : tdd          - TOTAL DEPTH DRILLER
RUN .         ONE                  : Run          - RUN NUMBER
ENG .         BILL                 : Engineer     - RECORDING ENGINEER
WIT .         JIM                  : Witness      - WITNESSED BY
MUD .         GEL                  : Mud_type     - MUD TYPE
MATR.         SANDSTONE            : Logunit      - NEUTRON MATRIX
TMAX.C        17.7778              : BHT          - MAXIMUM RECORDED TEMPERATURE
BHTD.M        545.592              : BHTDEP       - MAXIMUM RECORDED TEMPERATURE
MATR.         1                    : LOGUNIT      - NEUTRON MATRIX
RMT .C        25                   : MDTP         - TEMPERATURE OF MUD
NEUT.         1                    : NEUTRON      - NEUTRON TYPE
RESI.         0                    : RESIST       - RESISTIVITY TYPE
RMC .OHMM     0.25                 : RMC          - RESISTIVITY OF MUD CAKE
RMF .OHMM     0.25                 : RMF          - RESISTIVITY OF MUD FILTRATE
SUFT.C        15                   : SUFT         - SURFACE TEMPERATURE
~A  DEPTH       GR     PHID     PHIN     RESD
# ...
  431.424   62.912    0.314    0.474    8.525
  431.674   61.750    0.324    0.462    8.921
  431.924   59.636    0.313    0.458    9.210
  432.174   57.394    0.300    0.457    9.478
  432.424   58.673    0.267    0.450    9.538
  432.674   60.085    0.256    0.464    9.774
  432.924   63.720    0.276    0.474   10.030
  433.174   67.401    0.295    0.474    9.814
  433.424   73.974    0.300    0.461    9.608
  433.674   79.344    0.306    0.454    9.415
  433.924   83.343    0.323    0.469    9.316
  434.174   81.578    0.310    0.469    8.328
  434.424   79.505    0.319    0.459    7.019
  434.674   84.803    0.315    0.458    4.842
  434.924   90.534    0.310    0.481    4.137
  435.174   99.931    0.297    0.518    3.319
  435.424  104.066    0.271    0.594    2.729
  435.674  100.937    0.254    0.610    2.334
  435.924   98.160    0.243    0.608    2.185
  436.174   96.756    0.252    0.604    2.446
  436.424   80.622    0.250    0.588    2.778
  436.674   76.095    0.272    0.549    3.274
  436.924   72.497    0.289    0.504    4.002
  437.174   73.682    0.272    0.461    5.140
  437.424   72.361    0.266    0.469    7.369
  437.674   71.850    0.260    0.466    8.425
  437.924   74.096    0.283    0.470    8.727
  438.174   77.151    0.307    0.478    8.371
  438.424   79.514    0.282    0.476    7.893
  438.674   80.867    0.289    0.478    7.648
  438.924   79.419    0.262    0.482    7.299
  439.174   76.991    0.225    0.477    7.027
  439.424   71.610    0.213    0.460    7.156
  439.674   64.902    0.211    0.442    7.468
  439.924   59.629    0.211    0.376    8.406
  440.174   55.922    0.147    0.288    9.253
  440.424   60.170    0.118    0.274   10.514
  440.674   62.616    0.084    0.297   14.034
  440.924   61.371    0.130    0.310   16.343
  441.174   64.316    0.114    0.260   17.321
  441.424   70.227    0.106    0.274   16.984
  441.674   74.490    0.159    0.311   15.328
  441.924   78.598    0.179    0.386   12.644
  442.174   81.502    0.214    0.463   10.371
  442.424   82.124    0.290    0.457    9.057
  442.674   84.141    0.265    0.453    8.246
  442.924   85.766    0.259    0.449    7.753
  443.174   81.154    0.247    0.447    7.795
  443.424   77.179    0.237    0.446    8.008
  443.674   79.385    0.228    0.443    8.233
  443.924   78.075    0.218    0.440    8.275
  444.174   78.103    0.208    0.440    8.500
  444.424   81.332    0.213    0.447    8.523
  444.674   82.171    0.223    0.451    8.527
  444.924   76.731    0.228    0.447    8.558
  445.174   76.799    0.214    0.440    8.604
  445.424   74.234    0.224    0.443    8.666
  445.674   74.189    0.250    0.451    8.685
  445.924   76.283    0.280    0.448    8.688
  446.174   77.066    0.263    0.453    8.687
  446.424   75.525    0.242    0.436    8.675
  446.674   77.348    0.221    0.426    8.537
  446.924   81.084    0.224    0.419    8.374
  447.174   84.026    0.241    0.425    7.996
  447.424   81.825    0.229    0.439    7.529
  447.674   77.029    0.228    0.465    7.224
  447.924   73.740    0.230    0.484    7.025
  448.174   70.154    0.250    0.416    7.161
  448.424   64.784    0.225    0.310    7.478
  448.674   59.934    0.178    0.252    8.901
  448.924   55.873    0.101    0.185   11.986
  449.174   50.435    0.051    0.179   18.586
  449.424   53.248    0.057    0.202   23.546
  449.674   55.268    0.100    0.277   23.512
  449.924   57.230    0.315    0.376   22.713
  450.174   56.032    0.331    0.434   18.854
  450.424   54.974    0.321    0.450   16.728
  450.674   54.806    0.322    0.446   14.784
  450.924   55.297    0.326    0.457    8.694
  451.174   55.769    0.342    0.457    7.986
  451.424   55.361    0.341    0.447    7.662
  451.674   54.640    0.332    0.452    7.526
  451.924   56.340    0.321    0.460    7.487
  452.174   56.657    0.312    0.450    7.433
  452.424   54.960    0.309    0.446    7.433
  452.674   54.812    0.299    0.444    7.433
  452.924   56.011    0.310    0.439    7.439
  453.174   56.689    0.315    0.444    7.347
  453.424   57.372    0.323    0.455    7.344
  453.674   58.429    0.335    0.468    7.274
  453.924   59.802    0.320    0.446    7.241
  454.174   61.165    0.309    0.439    7.202
  454.424   61.675    0.318    0.441    7.199
  454.674   60.666    0.325    0.454    7.171
  454.924   57.467    0.325    0.456    7.123
  455.174   58.138    0.325    0.439    7.123
  455.424   61.538    0.321    0.443    7.119
  455.674   65.957    0.315    0.455    7.203
  455.924   68.916    0.315    0.459    7.204
  456.174   72.640    0.321    0.464    7.207
  456.424   74.442    0.310    0.465    7.207
  456.674   77.552    0.307    0.455    7.208
  456.924   79.106    0.300    0.454    7.210
  457.174   78.066    0.288    0.452    7.203
  457.424   76.284    0.281    0.447    7.299
  457.674   75.382    0.285    0.450    7.292
  457.924   74.475    0.293    0.451    7.291
  458.174   74.034    0.300    0.464    7.286
  458.424   73.615    0.278    0.464    7.374
  458.674   73.609    0.282    0.462    7.372
  458.924   73.495    0.297    0.457    7.376
  459.174   73.070    0.292    0.450    7.373
  459.424   73.471    0.281    0.445    7.474
  459.674   73.885    0.280    0.446    7.382
  459.924   75.916    0.271    0.443    7.525
  460.174   79.533    0.265    0.439    7.614
  460.424   83.151    0.272    0.445    7.695
  460.674   85.122    0.232    0.487    7.626
  460.924   86.156    0.243    0.494    7.182
  461.174   87.859    0.242    0.498    6.654
  461.424   87.594    0.222    0.483    6.259
  461.674   88.660    0.205    0.484    5.866
  461.924   90.324    0.222    0.499    5.554
  462.174   92.719    0.243    0.500    5.417
  462.424   94.930    0.240    0.500    5.392
  462.674   91.352    0.225    0.502    5.465
  462.924   88.936    0.225    0.510    5.636
  463.174   85.734    0.230    0.496    5.788
  463.424   81.294    0.208    0.478    5.654
  463.674   85.719    0.197    0.458    5.618
  463.924   88.919    0.175    0.424    5.810
  464.174   91.693    0.198    0.434    6.006
  464.424   92.840    0.215    0.444    6.346
  464.674   94.242    0.224    0.446    6.598
  464.924   94.637    0.208    0.450    6.784
  465.174   91.957    0.193    0.444    6.952
  465.424   91.214    0.156    0.431    7.232
  465.674   92.220    0.188    0.424    7.280
  465.924   93.174    0.198    0.442    7.307
  466.174   92.609    0.224    0.450    7.463
  466.424   91.593    0.198    0.455    7.544
  466.674   90.535    0.185    0.460    7.715
  466.924   86.681    0.180    0.464    7.517
  467.174   73.818    0.190    0.471    7.263
  467.424   69.894    0.169    0.485    6.914
  467.674   67.070    0.165    0.392    6.793
  467.924   63.627    0.200    0.360    6.692
  468.174   62.807    0.217    0.386    7.000
  468.424   61.778    0.314    0.421    7.548
  468.674   61.639    0.315    0.461    8.384
  468.924   61.611    0.301    0.444    9.397
  469.174   62.603    0.304    0.427   10.898
  469.424   63.564    0.323    0.455   13.288
  469.674   63.032    0.317    0.473   14.920
  469.924   61.998    0.323    0.483   15.771
  470.174   61.738    0.328    0.471   15.065
  470.424   61.823    0.335    0.459   14.368
  470.674   61.185    0.338    0.463   13.713
  470.924   59.939    0.326    0.466   13.060
  471.174   59.317    0.322    0.456   12.356
  471.424   60.367    0.316    0.455   11.549
  471.674   62.357    0.313    0.451   10.704
  471.924   65.290    0.319    0.448   10.073
  472.174   67.574    0.312    0.445    9.738
  472.424   66.882    0.318    0.458    9.423
  472.674   64.407    0.300    0.442    9.072
  472.924   61.199    0.290    0.425    8.922
  473.174   60.241    0.268    0.395    8.789
  473.424   60.221    0.215    0.367    8.632
  473.674   59.530    0.172    0.329    8.363
  473.924   58.164    0.117    0.301    7.971
  474.174   56.318    0.092    0.242    7.609
  474.424   55.360    0.087    0.236    7.741
  474.674   56.396    0.097    0.242    8.163
