~VERSION INFORMATION
 VERS.                 2.0:   CWLS LOG ASCII STANDARD -VERSION 2.0
 WRAP.                  NO:   ONE LINE PER DEPTH STEP
~WELL INFORMATION BLOCK
#MNEM.UNIT           DATA                    DESCRIPTION OF MNEMONIC
#---------    -------------------            -------------------------------
# Generated from Intellog Unique Number	CW_76_78/WELL/549
WELL.         07-04-077-04W5                 : Well_name    - WELL
LOC .         00/07-04-077-04W5/0            : Location     - LOCATION
UWI .         00/07-04-077-04W5/0            : Uwi          - UNIQUE WELL ID
ENTR.         JAYE                           : Entered      - ENTERED BY
SRVC.         SCHLUMBERGER                   : Scn          - SERVICE COMPANY
DATE.         11 MAR 75                      : Date         - LOG DATE
STRT.M        432.816                        : top_depth    - START DEPTH
STOP.M        658.316                        : bot_depth    - STOP DEPTH
STEP.M        0.25                           : increment    - STEP LENGTH
 NULL. -999.2500:NULL Value
~CURVE INFORMATION BLOCK
#MNEM UNIT       ERCB CURVE CODE    CURVE DESCRIPTION
#-----------   ------------------   ----------------------------------
DEPT.M        00 001 00 00         : DEPTH        - DEPTH
DPHI.V/V      00 890 00 00         : PHID         - DENSITY POROSITY (SANDSTONE)
NPHI.V/V      00 330 00 00         : PHIN         - NEUTRON POROSITY (SANDSTONE)
GR  .API      00 310 00 00         : GR           - GAMMA RAY
CALI.MM       00 280 01 00         : CAL          - CALIPER
ILD .OHMM     00 120 00 00         : RESD         - DEEP RESISTIVITY (DIL)
~PARAMETER INFORMATION
#MNEM.UNIT           DATA             DESCRIPTION OF MNEMONIC
#---------         -----------     ------------------------------
GL  .M        726.338              : gl           - GROUND LEVEL ELEVATION
EREF.M        729.905              : kb           - ELEVATION OF DEPTH REFERENCE
DATM.M        726.338              : datum        - DATUM ELEVATION
TDD .M        670.255              : tdd          - TOTAL DEPTH DRILLER
RUN .         ONE                  : Run          - RUN NUMBER
ENG .         SMILEY               : Engineer     - RECORDING ENGINEER
WIT .         KIS/STEIDEL          : Witness      - WITNESSED BY
BASE.         EDMONTON             : Branch       - HOME BASE OF LOGGING UNIT
MUD .         GEL CHEM             : Mud_type     - MUD TYPE
MATR.         SANDSTONE            : Logunit      - NEUTRON MATRIX
TMAX.C        26.1111              : BHT          - MAXIMUM RECORDED TEMPERATURE
BHTD.M        670.865              : BHTDEP       - MAXIMUM RECORDED TEMPERATURE
RMT .C        16.1111              : MDTP         - TEMPERATURE OF MUD
MUDD.KG/M     1128                 : MWT          - MUD DENSITY
NEUT.         1                    : NEUTRON      - NEUTRON TYPE
RESI.         0                    : RESIST       - RESISTIVITY TYPE
RM  .OHMM     3.16                 : RM           - RESISTIVITY OF MUD
RMC .OHMM     5.23                 : RMC          - RESISTIVITY OF MUD CAKE
RMF .OHMM     4.07                 : RMF          - RESISTIVITY OF MUD FILTRATE
SUFT.C        4.5                  : SUFT         - SURFACE TEMPERATURE
~A  DEPTH     PHID     PHIN       GR      CAL     RESD
# ...
  469.316    0.297    0.375   46.285  161.053    4.883
  469.566    0.299    0.375   51.773  160.589    4.653
  469.816    0.279    0.387   58.549  160.134    4.442
  470.066    0.261    0.424   80.650  160.289    4.240
  470.316    0.244    0.447   92.943  160.348    3.974
  470.566    0.234    0.463  103.336  160.717    3.725
  470.816    0.218    0.477   98.405  161.190    3.675
  471.066    0.244    0.492   94.454  161.770    3.733
  471.316    0.267    0.488   91.424  162.132    3.828
  471.566    0.277    0.482   91.151  162.189    3.911
  471.816    0.283    0.486   92.842  162.556    3.930
  472.066    0.290    0.471   92.014  163.753    3.814
  472.316    0.275    0.477   88.252  165.678    3.648
  472.566    0.238    0.497   85.277  172.902    3.586
  472.816    0.261    0.518   77.343  173.266    3.650
  473.066    0.294    0.510   68.549  169.483    3.785
  473.316    0.335    0.490   58.590  164.767    4.192
  473.566    0.345    0.480   56.786  161.097    4.694
  473.816    0.343    0.468   57.676  159.695    4.993
  474.066    0.337    0.460   56.853  158.611    5.157
  474.316    0.328    0.462   56.274  157.830    5.327
  474.566    0.312    0.468   58.209  156.963    5.804
  474.816    0.282    0.444   56.892  156.912    6.559
  475.066    0.260    0.386   47.792  156.651    7.426
  475.316    0.241    0.301   37.221  156.716    8.516
  475.566    0.199    0.296   36.953  156.878    9.839
  475.816    0.222    0.316   40.172  156.824   10.978
  476.066    0.241    0.342   41.798  156.982   10.064
  476.316    0.259    0.393   42.690  157.049    8.670
  476.566    0.283    0.398   43.094  157.099    7.252
  476.816    0.275    0.407   43.063  157.272    6.822
  477.066    0.273    0.365   43.407  157.220    7.059
  477.316    0.264    0.340   44.173  157.166    7.523
  477.566    0.249    0.360   46.108  157.013    7.973
  477.816    0.274    0.417   46.874  156.868    8.130
  478.066    0.295    0.429   46.051  157.343    7.818
  478.316    0.309    0.429   44.367  157.092    7.342
  478.566    0.321    0.434   43.789  156.832    6.633
  478.816    0.313    0.429   44.926  156.164    6.126
  479.066    0.300    0.423   46.921  155.279    5.700
  479.316    0.328    0.423   51.736  154.504    5.613
  479.566    0.328    0.412   59.921  154.567    5.798
  479.816    0.319    0.414   84.168  155.765    6.011
  480.066    0.308    0.418  100.939  156.442    6.371
  480.316    0.318    0.450  131.496  156.608    6.568
  480.566    0.320    0.470  124.848  156.971    6.492
  480.816    0.317    0.486  109.251  157.337    6.383
  481.066    0.324    0.492   86.727  157.913    6.251
  481.316    0.337    0.480   87.256  158.386    6.089
  481.566    0.334    0.465   86.060  158.757    5.813
  481.816    0.327    0.477   80.023  159.019    5.549
  482.066    0.318    0.490   56.947  158.979    5.268
  482.316    0.312    0.499   56.798  158.625    4.983
  482.566    0.349    0.472   55.422  158.670    4.739
  482.816    0.367    0.453   51.228  158.417    4.532
  483.066    0.383    0.455   49.423  158.265    4.358
  483.316    0.386    0.468   49.276  158.121    4.292
  483.566    0.377    0.458   49.489  157.861    4.290
  483.816    0.366    0.449   50.380  157.822    4.287
  484.066    0.369    0.469   51.088  157.664    4.285
  484.316    0.365    0.469   53.081  157.409    4.282
  484.566    0.357    0.454   55.997  157.054    4.327
  484.816    0.348    0.443   57.317  156.592    4.437
  485.066    0.361    0.440   56.370  156.241    4.617
  485.316    0.372    0.478   56.038  155.874    4.813
  485.566    0.376    0.491   56.500  155.928    5.045
  485.816    0.350    0.454   58.127  155.991    5.367
  486.066    0.333    0.432   60.921  156.053    5.709
  486.316    0.341    0.443   61.257  156.098    6.196
  486.566    0.333    0.448   56.081  156.160    6.762
  486.816    0.325    0.461   51.824  156.216    7.260
  487.066    0.322    0.481   51.060  156.166    7.610
  487.316    0.329    0.475   52.998  156.120    7.947
  487.566    0.326    0.453   53.151  155.761    8.075
  487.816    0.321    0.453   53.002  155.821    7.997
  488.066    0.322    0.454   53.653  155.570    7.992
  488.316    0.329    0.446   54.111  155.524    7.943
  488.566    0.329    0.452   53.105  155.686    8.026
  488.816    0.326    0.450   52.031  155.949    8.215
  489.066    0.326    0.442   50.902  156.113    8.502
  489.316    0.327    0.433   50.014  156.164    8.654
  489.566    0.331    0.438   50.480  156.642    8.680
  489.816    0.334    0.441   51.797  157.212    8.595
  490.066    0.335    0.437   51.959  157.791    8.343
  490.316    0.332    0.421   51.750  158.255    8.022
  490.566    0.324    0.416   51.658  158.314    7.857
  490.816    0.319    0.427   51.818  158.786    7.738
  491.066    0.317    0.438   51.970  159.059    7.578
  491.316    0.330    0.445   51.329  159.108    7.560
  491.566    0.332    0.454   50.135  158.548    7.486
  491.816    0.327    0.462   49.309  158.183    7.468
  492.066    0.320    0.475   48.423  157.928    7.436
  492.316    0.322    0.489   47.967  157.464    7.405
  492.566    0.332    0.499   48.187  157.313    7.360
  492.816    0.342    0.486   49.079  156.854    7.288
  493.066    0.335    0.468   49.967  156.712    7.217
  493.316    0.329    0.464   50.062  156.861    7.147
  493.566    0.331    0.464   47.339  157.333    7.065
  493.816    0.334    0.469   45.654  157.703    6.958
  494.066    0.336    0.468   44.588  157.972    6.915
  494.316    0.336    0.454   44.802  158.334    6.835
  494.566    0.336    0.449   45.882  158.809    6.757
  494.816    0.336    0.449   45.604  159.176    6.666
  495.066    0.337    0.444   43.987  158.927    6.626
  495.316    0.336    0.441   43.466  158.670    6.585
  495.566    0.335    0.440   44.239  158.724    6.582
  495.816    0.331    0.439   44.700  158.269    6.518
  496.066    0.329    0.438   45.040  157.915    6.478
  496.316    0.328    0.438   45.072  157.441    6.415
  496.566    0.342    0.444   46.333  156.776    6.353
  496.816    0.339    0.468   48.332  156.314    6.302
  497.066    0.335    0.466   48.484  156.058    6.218
  497.316    0.337    0.464   46.493  156.215    6.135
  497.566    0.336    0.463   44.198  156.375    6.053
  497.816    0.348    0.473   45.273  156.645    5.951
  498.066    0.345    0.478   46.657  157.531    5.882
  498.316    0.329    0.474   47.121  158.420    5.771
  498.566    0.341    0.469   45.805  158.889    5.705
  498.816    0.342    0.470   45.223  158.947    5.649
  499.066    0.337    0.482   46.605  158.906    5.615
  499.316    0.332    0.477   48.603  158.645    5.591
  499.566    0.344    0.462   49.247  158.180    5.577
  499.816    0.350    0.456   48.791  157.826    5.564
  500.066    0.343    0.454   48.026  157.361    5.571
  500.316    0.340    0.454   48.248  156.487    5.587
  500.566    0.340    0.452   49.385  156.130    5.595
  500.816    0.337    0.450   50.275  155.562    5.570
  501.066    0.339    0.450   50.432  155.420    5.578
  501.316    0.341    0.450   50.344  155.367    5.585
  501.566    0.339    0.450   50.864  155.522    5.602
  501.816    0.335    0.450   52.001  155.682    5.650
  502.066    0.334    0.452   54.918  156.050    5.678
  502.316    0.334    0.458   54.397  156.107    5.674
  502.566    0.329    0.453   53.820  155.858    5.609
  502.816    0.323    0.449   55.016  155.806    5.524
  503.066    0.328    0.458   57.502  155.554    5.371
  503.316    0.332    0.472   60.172  155.712    5.174
  503.566    0.331    0.468   62.048  156.498    5.059
  503.816    0.330    0.452   62.446  157.592    4.982
  504.066    0.276    0.425   61.807  158.792    4.988
  504.316    0.224    0.401   58.407  159.785    5.229
  504.566    0.076    0.181   51.636  160.359    5.834
  504.816    0.006    0.158   49.402  160.937    6.666
  505.066   -0.023    0.138   49.802  160.886    8.902
  505.316   -0.014    0.151   51.798  161.261   13.493
  505.566    0.018    0.170   53.855  161.310   17.087
