~VERSION INFORMATION
 VERS.                 2.0:   CWLS LOG ASCII STANDARD -VERSION 2.0
 WRAP.                  NO:   ONE LINE PER DEPTH STEP
~WELL INFORMATION BLOCK
#MNEM.UNIT           DATA                    DESCRIPTION OF MNEMONIC
#---------    -------------------            -------------------------------
# Generated from Intellog Unique Number	CW_76_78/WELL/2568
WELL.         06-25-078-25W4                 : Well_name    - WELL
LOC .         00/06-25-078-25W4/0            : Location     - LOCATION
UWI .         00/06-25-078-25W4/0            : Uwi          - UNIQUE WELL ID
ENTR.         MAX                            : Entered      - ENTERED BY
SRVC.         SCHLUMBERGER                   : Scn          - SERVICE COMPANY
STRT.M        274.32                         : top_depth    - START DEPTH
STOP.M        533.32                         : bot_depth    - STOP DEPTH
STEP.M        0.25                           : increment    - STEP LENGTH
 NULL. -999.2500:NULL Value
~CURVE INFORMATION BLOCK
#MNEM UNIT       ERCB CURVE CODE    CURVE DESCRIPTION
#-----------   ------------------   ----------------------------------
DEPT.M        00 001 00 00         : DEPTH        - DEPTH
ILD .OHMM     00 120 00 00         : RESD         - DEEP RESISTIVITY (DIL)
NPHI.V/V      00 330 00 00         : PHIN         - NEUTRON POROSITY (SANDSTONE)
DPHI.V/V      00 890 00 00         : PHID         - DENSITY POROSITY (SANDSTONE)
CALI.MM       00 280 01 00         : CAL          - CALIPER
GR  .API      00 310 00 00         : GR           - GAMMA RAY
~PARAMETER INFORMATION
#MNEM.UNIT           DATA             DESCRIPTION OF MNEMONIC
#---------         -----------     ------------------------------
GL  .M        589.483              : gl           - GROUND LEVEL ELEVATION
EREF.M        593.019              : kb           - ELEVATION OF DEPTH REFERENCE
DATM.M        589.483              : datum        - DATUM ELEVATION
TDD .M        535.534              : tdd          - TOTAL DEPTH DRILLER
RUN .         ONE                  : Run          - RUN NUMBER
ENG .         BILL                 : Engineer     - RECORDING ENGINEER
WIT .         JIM                  : Witness      - WITNESSED BY
MUD .         GEL                  : Mud_type     - MUD TYPE
MATR.         SANDSTONE            : Logunit      - NEUTRON MATRIX
TMAX.C        22.2222              : BHT          - MAXIMUM RECORDED TEMPERATURE
BHTD.M        535.534              : BHTDEP       - MAXIMUM RECORDED TEMPERATURE
RMT .C        10                   : MDTP         - TEMPERATURE OF MUD
MUDD.KG/M     9000                 : MWT          - MUD DENSITY
NEUT.         1                    : NEUTRON      - NEUTRON TYPE
RESI.         0                    : RESIST       - RESISTIVITY TYPE
RM  .OHMM     5.62                 : RM           - RESISTIVITY OF MUD
RMC .OHMM     0.25                 : RMC          - RESISTIVITY OF MUD CAKE
RMF .OHMM     5.41                 : RMF          - RESISTIVITY OF MUD FILTRATE
SUFT.C        -6.66667             : SUFT         - SURFACE TEMPERATURE
~A  DEPTH     RESD     PHIN     PHID      CAL       GR
# ...
  383.820    9.084    0.406    0.221  213.912   65.162
  384.070    8.969    0.412    0.235  214.932   69.591
  384.320    8.954    0.419    0.221  217.449   74.611
  384.570    8.744    0.453    0.207  227.440   74.624
  384.820    8.532    0.455    0.225  247.908   73.462
  385.070    8.408    0.441    0.214  227.985   73.182
  385.320    8.208    0.444    0.198  216.541   73.193
  385.570    7.999    0.454    0.201  209.088   73.208
  385.820    8.082    0.475    0.204  207.614   73.516
  386.070    8.061    0.475    0.203  207.141   74.706
  386.320    8.148    0.472    0.200  209.160   75.899
  386.570    8.230    0.476    0.194  211.675   75.617
  386.820    8.211    0.473    0.191  214.190   74.751
  387.070    8.194    0.459    0.189  213.710   73.880
  387.320    8.279    0.461    0.191  213.242   73.305
  387.570    8.358    0.465    0.207  213.265   73.316
  387.820    8.540    0.468    0.194  213.284   74.803
  388.070    8.720    0.474    0.188  212.810   69.516
  388.320    8.999    0.439    0.176  212.810   63.937
  388.570    9.371    0.422    0.170  212.359   64.246
  388.820    9.650    0.436    0.173  212.384   68.381
  389.070    9.928    0.441    0.181  212.401   73.400
  389.320   10.206    0.444    0.186  212.401   74.298
  389.570   10.384    0.417    0.186  212.448   72.543
  389.820   10.564    0.390    0.184  211.977   67.258
  390.070   10.549    0.383    0.168  211.501   63.739
  390.320   10.434    0.422    0.165  211.526   65.225
  390.570    9.637    0.438    0.185  211.542   69.358
  390.820    8.937    0.476    0.199  212.561   71.731
  391.070    8.339    0.462    0.207  213.085   69.976
  391.320    7.934    0.447    0.208  213.107   67.927
  391.570    7.624    0.462    0.213  212.132   68.530
  391.820    7.410    0.469    0.221  211.163   71.784
  392.070    7.397    0.473    0.219  210.689   73.267
  392.320    7.677    0.475    0.204  210.210   72.693
  392.570    8.632    0.459    0.195  211.733   71.236
  392.820    9.498    0.448    0.194  212.747   70.073
  393.070   11.142    0.451    0.189  212.276   69.499
  393.320   13.273    0.435    0.186  211.304   69.803
  393.570   15.601    0.410    0.182  210.822   71.584
  393.820   16.756    0.387    0.162  210.346   73.364
  394.070   17.028    0.381    0.144  209.374   71.611
  394.320   16.920    0.372    0.159  209.396   67.209
  394.570   16.319    0.383    0.160  209.418   67.224
  394.820   15.034    0.414    0.179  208.950   70.179
  395.070   13.066    0.438    0.194  208.972   72.258
  395.320   11.781    0.449    0.210  208.989   71.092
  395.570   11.181    0.451    0.212  209.014   69.044
  395.820   11.067    0.416    0.222  209.036   67.293
  396.070   11.054    0.421    0.227  208.560   67.011
  396.320   11.035    0.426    0.214  207.092   68.495
  396.570   11.022    0.414    0.197  206.613   70.570
  396.820   11.003    0.392    0.177  208.133   70.881
  397.070   11.086    0.402    0.190  209.651   71.774
  397.320   11.072    0.421    0.197  210.673   73.852
  397.570   11.056    0.441    0.208  211.197   74.453
  397.820   10.650    0.450    0.211  211.197   72.702
  398.070   10.440    0.448    0.211  212.750   70.950
  398.320   10.328    0.441    0.208  213.756   69.782
  398.570   10.311    0.425    0.193  214.279   67.736
  398.820   10.392    0.419    0.194  213.800   66.573
  399.070   10.474    0.406    0.193  212.828   66.879
  399.320   10.557    0.418    0.188  212.352   68.071
  399.570   10.540    0.418    0.182  212.377   69.265
  399.820   10.425    0.439    0.188  212.399   69.570
  400.070   10.217    0.448    0.191  212.922   69.877
  400.320   10.005    0.444    0.192  212.942   71.069
  400.570    9.797    0.453    0.193  212.967   71.082
  400.820    9.489    0.470    0.194  212.493   71.097
  401.070    9.275    0.472    0.199  212.515   73.760
  401.320    9.165    0.479    0.200  212.540   74.364
  401.570    8.953    0.483    0.198  213.061   75.260
  401.820    8.743    0.477    0.195  213.083   77.337
  402.070    8.726    0.460    0.198  213.604   79.704
  402.320    9.101    0.452    0.206  212.632   79.128
  402.570   10.258    0.470    0.210  211.156   75.020
  402.820   14.145    0.478    0.217  209.688   65.317
  403.070   20.375    0.454    0.197  207.713   61.208
  403.320   23.970    0.383    0.161  202.755   60.045
  403.570   27.371    0.255    0.145  202.775   59.766
  403.820   29.402    0.243    0.110  204.292   61.840
  404.070   26.948    0.264    0.117  208.804   65.387
  404.320   22.540    0.327    0.149  212.815   68.052
  404.570   20.477    0.391    0.185  212.338   68.652
  404.820   17.046    0.429    0.215  212.338   68.960
  405.070   15.567    0.460    0.225  212.391   70.741
  405.320   14.766    0.475    0.227  211.915   73.109
  405.570   14.361    0.472    0.227  211.931   73.123
  405.820   14.151    0.467    0.224  211.956   72.843
  406.070   14.040    0.449    0.221  211.981   72.267
  406.320   13.926    0.453    0.213  212.003   71.986
  406.570   13.907    0.448    0.212  212.028   71.704
  406.820   13.990    0.446    0.209  211.549   71.130
  407.070   14.074    0.480    0.204  212.075   70.851
  407.320   14.256    0.480    0.197  212.596   70.569
  407.570   15.117    0.474    0.203  212.635   70.288
  407.820   17.151    0.450    0.207  213.139   69.716
  408.070   17.329    0.423    0.196  214.158   68.548
  408.320   16.633    0.388    0.185  214.183   67.090
  408.570   16.029    0.366    0.176  214.208   69.164
  408.820   15.234    0.453    0.197  214.729   69.766
  409.070   14.146    0.451    0.210  214.748   68.603
  409.320   13.838    0.444    0.224  214.776   70.092
  409.570   14.210    0.443    0.227  215.297   70.399
  409.820   14.489    0.454    0.213  215.319   69.824
  410.070   14.862    0.451    0.211  214.845   68.657
  410.320   15.239    0.438    0.216  214.369   67.200
  410.570   15.517    0.436    0.214  214.893   65.743
  410.820   15.990    0.444    0.211  214.915   64.282
  411.070   16.558    0.440    0.202  214.934   63.413
  411.320   17.029    0.431    0.189  214.956   64.310
  411.570   17.702    0.410    0.166  212.178   65.218
  411.820   17.403    0.389    0.160  210.730   67.283
  412.070   16.907    0.366    0.183  209.763   70.810
  412.320   16.509    0.409    0.208  209.302   76.971
  412.570   16.112    0.466    0.227  208.837   78.743
  412.820   15.615    0.476    0.221  208.867   77.009
  413.070   15.119    0.461    0.205  209.396   76.737
  413.320   14.524    0.444    0.197  210.421   77.335
  413.570   13.731    0.438    0.194  211.941   78.235
  413.820   13.234    0.439    0.212  212.958   78.255
  414.070   12.836    0.449    0.213  212.988   78.268
  414.320   12.637    0.453    0.209  213.018   77.708
  414.570   12.240    0.460    0.197  213.053   76.849
  414.820   11.941    0.461    0.191  212.584   76.865
  415.070   11.938    0.438    0.192  212.123   77.760
  415.320   11.739    0.445    0.199  212.652   79.242
  415.570   11.739    0.436    0.199  212.679   80.137
  415.820   11.537    0.442    0.203  211.727   80.153
  416.070   11.338    0.454    0.200  210.268   80.763
  416.320   11.138    0.453    0.200  208.321   81.653
  416.570   11.037    0.446    0.194  206.866   82.258
  416.820   11.036    0.451    0.191  206.900   82.863
  417.070   11.033    0.448    0.199  207.422   85.221
  417.320   11.032    0.440    0.197  207.456   86.408
  417.570   11.129    0.441    0.201  208.005   85.257
  417.820   11.226    0.438    0.203  208.507   82.937
  418.070   11.224    0.425    0.202  211.021   79.736
  418.320   11.222    0.424    0.188  212.034   75.953
  418.570   11.220    0.445    0.182  213.063   74.219
  418.820   11.119    0.452    0.176  213.089   75.406
  419.070   11.118    0.446    0.181  213.120   78.641
  419.320   11.016    0.432    0.187  213.150   81.875
  419.570   10.817    0.442    0.188  214.175   80.728
  419.820   10.716    0.442    0.194  214.209   78.989
  420.070   10.517    0.452    0.194  214.235   77.838
