~VERSION INFORMATION
 VERS.                 2.0:   CWLS LOG ASCII STANDARD -VERSION 2.0
 WRAP.                  NO:   ONE LINE PER DEPTH STEP
~WELL INFORMATION BLOCK
#MNEM.UNIT           DATA                    DESCRIPTION OF MNEMONIC
#---------    -------------------            -------------------------------
# Generated from Intellog Unique Number	CN_94_101/WELL/2586
WELL.         PARAMOUNT RESOURCES LTD.       : Well_name    - WELL
LOC .         00/09-01-094-19W4/0            : Location     - LOCATION
UWI .         00/09-01-094-19W4/0            : Uwi          - UNIQUE WELL ID
ENTR.         JOETTE                         : Entered      - ENTERED BY
SRVC.         COMPUTALOG                     : Scn          - SERVICE COMPANY
DATE.         06/12/92                       : Date         - LOG DATE
STRT.M        110                            : top_depth    - START DEPTH
STOP.M        245                            : bot_depth    - STOP DEPTH
STEP.M        0.25                           : increment    - STEP LENGTH
 NULL. -999.2500:NULL Value
~CURVE INFORMATION BLOCK
#MNEM UNIT       ERCB CURVE CODE    CURVE DESCRIPTION
#-----------   ------------------   ----------------------------------
DEPT.M        00 001 00 00         : DEPTH        - DEPTH
CALI.MM       00 280 01 00         : CAL          - CALIPER
GR  .API      00 310 00 00         : GR           - GAMMA RAY
NPHI.V/V      00 330 00 00         : PHIN         - NEUTRON POROSITY (SANDSTONE)
DPHI.V/V      00 890 00 00         : PHID         - DENSITY POROSITY (SANDSTONE)
ILD .OHMM     00 120 00 00         : RESD         - DEEP RESISTIVITY (DIL)
~PARAMETER INFORMATION
#MNEM.UNIT           DATA             DESCRIPTION OF MNEMONIC
#---------         -----------     ------------------------------
GL  .M        527.3                : gl           - GROUND LEVEL ELEVATION
EREF.M        530.7                : kb           - ELEVATION OF DEPTH REFERENCE
DATM.M        530.7                : datum        - DATUM ELEVATION
TDD .M        246.5                : tdd          - TOTAL DEPTH DRILLER
RUN .         ONE                  : Run          - RUN NUMBER
ENG .         BILL                 : Engineer     - RECORDING ENGINEER
WIT .         JIM                  : Witness      - WITNESSED BY
MUD .         GEL                  : Mud_type     - MUD TYPE
MATR.         SANDSTONE            : Logunit      - NEUTRON MATRIX
TMAX.C        0                    : BHT          - MAXIMUM RECORDED TEMPERATURE
BHTD.M        246.5                : BHTDEP       - MAXIMUM RECORDED TEMPERATURE
RMT .C        22.2                 : MDTP         - TEMPERATURE OF MUD
MUDD.KG/M     1060                 : MWT          - MUD DENSITY
NEUT.         1                    : NEUTRON      - NEUTRON TYPE
RESI.         0                    : RESIST       - RESISTIVITY TYPE
RM  .OHMM     1.9                  : RM           - RESISTIVITY OF MUD
RMC .OHMM     1.9                  : RMC          - RESISTIVITY OF MUD CAKE
RMF .OHMM     1.9                  : RMF          - RESISTIVITY OF MUD FILTRATE
SUFT.C        -15                  : SUFT         - SURFACE TEMPERATURE
~A  DEPTH      CAL       GR     PHIN     PHID     RESD
# ...
  183.000  179.843  111.876    0.446    0.182    6.331
  183.250  175.796   98.905    0.426    0.095    6.711
  183.500  173.853   82.186    0.385    0.039    6.847
  183.750  177.121   97.195    0.375    0.050    6.984
  184.000  180.356  107.213    0.374    0.179    7.129
  184.250  183.623  106.688    0.373    0.206    7.270
  184.500  184.819  104.901    0.368    0.227    7.559
  184.750  185.918  105.599    0.360    0.235    8.324
  185.000  186.046  108.802    0.366    0.235    8.990
  185.250  185.139  111.967    0.377    0.231    9.342
  185.500  184.264  114.529    0.387    0.220    9.714
  185.750  183.324  113.985    0.383    0.210    9.910
  186.000  183.453  108.469    0.376    0.216    9.921
  186.250  184.616  102.973    0.367    0.237    9.932
  186.500  185.844  101.807    0.359    0.250   10.528
  186.750  187.008  101.263    0.348    0.244   10.741
  187.000  188.140  101.321    0.347    0.229   10.351
  187.250  189.304  101.417    0.369    0.214    9.428
  187.500  190.467  103.358    0.374    0.205    9.085
  187.750  190.628  106.522    0.375    0.210    8.595
  188.000  190.724  107.880    0.379    0.215    8.282
  188.250  192.955  106.695    0.402    0.211    7.835
  188.500  192.048  104.268    0.421    0.207    7.844
  188.750  188.066  105.607    0.437    0.208    8.007
  189.000  186.059  107.548    0.443    0.214    8.323
  189.250  183.080  110.751    0.443    0.226    8.818
  189.500  185.280  111.449    0.406    0.242    9.707
  189.750  177.123  106.536    0.394    0.252   10.091
  190.000  171.102  101.642    0.372    0.238   10.298
  190.250  170.162   99.233    0.350    0.168   10.312
  190.500  170.290   99.310    0.336    0.134   10.321
  190.750  171.454   92.571    0.331    0.153   10.321
  191.000  172.586   94.531    0.342    0.208   10.344
  191.250  173.782   96.453    0.359    0.239    8.896
  191.500  173.782   99.016    0.375    0.241    8.744
  191.750  175.138  101.559    0.388    0.241    8.918
  192.000  174.167  102.878    0.392    0.241    9.097
  192.250  175.395  102.994    0.385    0.239    9.461
  192.500  175.459  103.692    0.377    0.241    9.653
  192.750  176.622  103.769    0.389    0.245    9.848
  193.000  177.818  101.982    0.420    0.245    9.140
  193.250  180.018  101.457    0.417    0.243    8.484
  193.500  184.320  101.514    0.409    0.236    8.330
  193.750  187.523  102.232    0.401    0.219    8.182
  194.000  192.830  103.532    0.402    0.204    8.675
  194.250  201.243  106.076    0.399    0.192    8.849
  194.500  202.439  108.036    0.388    0.210    9.379
  194.750  192.179  106.870    0.379    0.229    9.567
  195.000  180.915  106.326    0.381    0.233    9.580
  195.250  175.898  104.577    0.401    0.226    9.408
  195.500  177.029  105.237    0.416    0.206    8.733
  195.750  182.368  107.799    0.415    0.185    8.105
  196.000  187.642  108.517    0.410    0.189    7.519
  196.250  196.151  109.196    0.406    0.197    7.819
  196.500  194.144  110.535    0.395    0.171    8.446
  196.750  185.987  106.864    0.384    0.124    8.615
  197.000  177.831   99.485    0.378    0.092    8.465
  197.250  179.091   95.833    0.381    0.118    8.008
  197.500  180.190   95.930    0.383    0.194    7.570
  197.750  184.493   99.113    0.382    0.224    6.512
  198.000  187.760  103.521    0.388    0.238    5.819
  198.250  189.895  107.986    0.421    0.238    5.101
  198.500  190.024  109.305    0.415    0.229    4.645
  198.750  189.084  105.635    0.414    0.230    4.151
  199.000  188.177  101.362    0.418    0.244    3.504
  199.250  187.269  104.546    0.464    0.255    3.377
  199.500  184.291  112.098    0.477    0.255    4.666
  199.750  181.312  119.029    0.490    0.245    5.754
  200.000  184.643  112.874    0.483    0.233    6.454
  200.250  185.743  101.125    0.456    0.227    7.378
  200.500  187.975   98.096    0.409    0.195    8.595
  200.750  181.857   88.871    0.376    0.127    8.445
  201.000  174.736   85.841    0.359    0.119    8.140
  201.250  177.971   84.016    0.392    0.162    7.413
  201.500  184.313   90.947    0.408    0.200    7.009
  201.750  189.651   98.480    0.412    0.207    6.386
  202.000  191.851  102.926    0.421    0.209    6.269
  202.250  192.011  101.779    0.440    0.208    6.043
  202.500  192.139  103.720    0.443    0.205    6.051
  202.750  190.164  105.661    0.438    0.193    6.294
  203.000  186.182  106.981    0.432    0.173    6.669
  203.250  184.207  106.456    0.416    0.153    7.065
  203.500  178.154  104.630    0.406    0.109    8.391
  203.750  176.211  100.358    0.391    0.110    9.059
  204.000  176.371   99.192    0.376    0.210   10.161
  204.250  176.435  101.754    0.368    0.217   10.974
  204.500  177.631  103.074    0.365    0.208   11.196
  204.750  177.759  103.151    0.373    0.206   10.998
  205.000  175.816  104.509    0.369    0.207   10.806
  205.250  174.877  105.188    0.370    0.204   10.618
  205.500  173.969  107.129    0.375    0.198   10.425
  205.750  173.062  108.449    0.362    0.194   10.442
  206.000  173.222  105.419    0.360    0.189   10.451
  206.250  174.386  106.738    0.359    0.187   10.465
  206.500  178.657  108.699    0.356    0.197   10.672
  206.750  179.820  106.271    0.363    0.196   11.531
  207.000  177.878  110.736    0.384    0.187   11.990
  207.250  175.967  110.832    0.381    0.184   12.470
  207.500  175.027  110.870    0.377    0.180   12.477
  207.750  175.155  111.569    0.366    0.174   12.491
  208.000  176.383  112.908    0.353    0.169   12.274
  208.250  176.447  115.451    0.359    0.169   12.287
  208.500  176.608  113.042    0.364    0.171   13.024
  208.750  175.700  107.527    0.367    0.169   13.797
  209.000  174.761   99.526    0.354    0.150   14.896
  209.250  171.814   91.506    0.335    0.113   16.399
  209.500  170.875   85.389    0.312    0.036   17.378
  209.750  170.032   86.087    0.287    0.042   17.397
  210.000  170.096   86.766    0.279    0.060   16.145
  210.250  172.327   87.464    0.290    0.139   14.426
  210.500  175.594   93.153    0.301    0.169   13.388
  210.750  176.726   99.443    0.315    0.181   13.399
  211.000  177.922  106.996    0.335    0.181   13.936
  211.250  174.943  105.830    0.325    0.172   14.214
  211.500  173.000   94.703    0.294    0.063   14.784
  211.750  172.061   86.081    0.282    0.111   14.800
  212.000  171.186   79.963    0.292    0.178   15.389
  212.250  171.282   84.371    0.301    0.206   16.307
  212.500  171.442   91.904    0.309    0.174   17.948
  212.750  171.538   96.990    0.317    0.068   18.662
  213.000  171.666   90.834    0.256    0.024   18.332
  213.250  172.862   80.329    0.215    0.131   16.072
  213.500  172.990   73.571    0.263    0.173   13.313
  213.750  173.183   76.755    0.274    0.220   12.361
  214.000  173.279   83.666    0.305    0.222   12.372
  214.250  172.372   89.976    0.341    0.217   13.114
  214.500  171.432   92.558    0.351    0.191   13.892
  214.750  171.592   93.878    0.316    0.159   15.880
  215.000  171.689   75.275    0.286    0.132   17.473
  215.250  172.852   69.138    0.265    0.078   19.231
  215.500  172.981   64.885    0.251    0.027   19.996
  215.750  171.102   64.321    0.217    0.018   20.018
  216.000  171.198   68.126    0.202    0.019   14.249
  216.250  171.294   79.407    0.234    0.038   11.802
  216.500  172.458   93.212    0.259    0.047    9.965
  216.750  177.860   95.755    0.290    0.051    9.422
  217.000  181.031   99.560    0.319    0.115    8.263
  217.250  187.405  103.346    0.345    0.176    7.820
  217.500  188.601  109.054    0.392    0.187    7.824
  217.750  187.629  110.354    0.388    0.186    7.831
  218.000  185.686  109.810    0.386    0.186    7.841
  218.250  181.704  108.022    0.425    0.175    7.850
  218.500  179.793  105.633    0.414    0.159    7.857
  218.750  179.857  104.448    0.411    0.144    8.016
  219.000  178.950  103.282    0.418    0.140    8.497
  219.250  177.039  103.379    0.423    0.131    8.835
