~VERSION INFORMATION
 VERS.                 2.0:   CWLS LOG ASCII STANDARD -VERSION 2.0
 WRAP.                  NO:   ONE LINE PER DEPTH STEP
~WELL INFORMATION BLOCK
#MNEM.UNIT           DATA                    DESCRIPTION OF MNEMONIC
#---------    -------------------            -------------------------------
# Generated from Intellog Unique Number	CW_79_81/WELL/2441
WELL.         01-32-080-22W4                 : Well_name    - WELL
LOC .         AA/01-32-080-22W4/0            : Location     - LOCATION
UWI .         AA/01-32-080-22W4/0            : Uwi          - UNIQUE WELL ID
ENTR.         MAX                            : Entered      - ENTERED BY
SRVC.         SCHLUMBERGER                   : Scn          - SERVICE COMPANY
STRT.M        220                            : top_depth    - START DEPTH
STOP.M        439.75                         : bot_depth    - STOP DEPTH
STEP.M        0.25                           : increment    - STEP LENGTH
 NULL. -999.2500:NULL Value
~CURVE INFORMATION BLOCK
#MNEM UNIT       ERCB CURVE CODE    CURVE DESCRIPTION
#-----------   ------------------   ----------------------------------
DEPT.M        00 001 00 00         : DEPTH        - DEPTH
ILD .OHMM     00 120 00 00         : RESD         - DEEP RESISTIVITY (DIL)
NPHI.V/V      00 330 00 00         : PHIN         - NEUTRON POROSITY (SANDSTONE)
DPHI.V/V      00 890 00 00         : PHID         - DENSITY POROSITY (SANDSTONE)
GR  .API      00 310 00 00         : GR           - GAMMA RAY
CALI.MM       00 280 01 00         : CAL          - CALIPER
~PARAMETER INFORMATION
#MNEM.UNIT           DATA             DESCRIPTION OF MNEMONIC
#---------         -----------     ------------------------------
GL  .M        588.6                : gl           - GROUND LEVEL ELEVATION
EREF.M        592.9                : kb           - ELEVATION OF DEPTH REFERENCE
DATM.M        588.6                : datum        - DATUM ELEVATION
TDD .M        443                  : tdd          - TOTAL DEPTH DRILLER
RUN .         ONE                  : Run          - RUN NUMBER
ENG .         BILL                 : Engineer     - RECORDING ENGINEER
WIT .         JIM                  : Witness      - WITNESSED BY
MUD .         GEL                  : Mud_type     - MUD TYPE
MATR.         SANDSTONE            : Logunit      - NEUTRON MATRIX
TMAX.C        27                   : BHT          - MAXIMUM RECORDED TEMPERATURE
BHTD.M        443                  : BHTDEP       - MAXIMUM RECORDED TEMPERATURE
MATR.         1                    : LOGUNIT      - NEUTRON MATRIX
RMT .C        15.6                 : MDTP         - TEMPERATURE OF MUD
NEUT.         1                    : NEUTRON      - NEUTRON TYPE
RESI.         0                    : RESIST       - RESISTIVITY TYPE
RMC .OHMM     3.23                 : RMC          - RESISTIVITY OF MUD CAKE
RMF .OHMM     4.36                 : RMF          - RESISTIVITY OF MUD FILTRATE
SUFT.C        -5                   : SUFT         - SURFACE TEMPERATURE
~A  DEPTH     RESD     PHIN     PHID       GR      CAL
# ...
  329.500    9.239    0.408    0.242   86.085  221.236
  329.750    8.378    0.378    0.193   87.006  221.180
  330.000    7.866    0.368    0.175   88.633  221.108
  330.250    7.746    0.383    0.195   89.426  221.038
  330.500    7.897    0.413    0.234   89.626  221.074
  330.750    8.006    0.432    0.244   91.295  221.476
  331.000    8.006    0.429    0.249   91.504  221.817
  331.250    7.931    0.428    0.233   90.508  222.145
  331.500    7.733    0.432    0.229   90.227  222.174
  331.750    7.614    0.436    0.233   90.784  222.299
  332.000    7.605    0.438    0.239   91.878  222.525
  332.250    7.598    0.434    0.240   92.533  222.454
  332.500    7.588    0.440    0.241   91.246  222.381
  332.750    7.581    0.448    0.240   92.158  222.311
  333.000    7.579    0.453    0.240   93.786  222.544
  333.250    7.571    0.460    0.241   95.061  222.680
  333.500    7.571    0.469    0.243   95.440  222.611
  333.750    7.632    0.481    0.248   94.608  222.600
  334.000    7.683    0.486    0.247   93.086  222.963
  334.250    7.962    0.487    0.250   90.420  223.276
  334.500    9.390    0.487    0.252   88.290  223.307
  334.750   12.303    0.476    0.252   85.621  222.849
  335.000   16.851    0.457    0.251   81.580  221.398
  335.250   19.845    0.447    0.253   73.928  217.383
  335.500   21.417    0.438    0.261   65.682  213.567
  335.750   21.393    0.425    0.258   65.402  213.106
  336.000   20.317    0.407    0.239   66.910  212.352
  336.250   18.922    0.398    0.229   68.178  211.693
  336.500   18.352    0.403    0.235   68.553  211.223
  336.750   21.094    0.422    0.248   68.599  210.735
  337.000   25.826    0.417    0.233   67.805  210.669
  337.250   34.472    0.364    0.215   67.051  212.189
  337.500   40.113    0.334    0.175   67.192  214.311
  337.750   34.312    0.309    0.130   68.584  216.830
  338.000   22.184    0.292    0.099   71.048  219.145
  338.250   12.365    0.315    0.108   74.660  220.336
  338.500    9.940    0.337    0.141   78.597  220.677
  338.750    9.940    0.357    0.181   82.368  219.428
  339.000    9.489    0.391    0.200   84.539  217.268
  339.250    9.001    0.435    0.214   86.648  216.204
  339.500    8.718    0.472    0.224   89.230  216.636
  339.750    8.837    0.475    0.219   92.251  217.595
  340.000    9.175    0.461    0.211   94.439  218.764
  340.250    9.301    0.456    0.198   94.410  219.489
  340.500    9.533    0.457    0.192   94.010  219.921
  340.750    9.915    0.466    0.202   92.772  219.059
  341.000   10.523    0.474    0.223   91.061  217.102
  341.250   11.544    0.459    0.232   89.961  215.682
  341.500   11.798    0.448    0.222   89.420  216.851
  341.750   11.530    0.441    0.211   89.139  218.769
  342.000   11.015    0.437    0.211   88.500  218.605
  342.250   10.411    0.433    0.219   88.102  217.143
  342.500    9.809    0.427    0.230   88.183  215.182
  342.750    9.197    0.422    0.240   88.857  213.352
  343.000    8.979    0.428    0.245   90.056  212.436
  343.250    8.970    0.432    0.245   90.018  211.982
  343.500    9.160    0.434    0.243   89.801  211.816
  343.750    9.253    0.437    0.240   89.642  211.742
  344.000    9.106    0.442    0.233   89.598  211.769
  344.250    8.672    0.450    0.223   89.540  212.429
  344.500    8.212    0.463    0.216   89.505  214.020
  344.750    7.906    0.472    0.218   88.747  215.533
  345.000    7.656    0.478    0.217   88.171  217.648
  345.250    7.478    0.484    0.214   88.489  219.371
  345.500    7.358    0.488    0.210   90.117  220.401
  345.750    7.203    0.485    0.210   93.766  221.203
  346.000    6.979    0.475    0.229   96.713  221.552
  346.250    6.921    0.462    0.224   98.814  221.474
  346.500    7.092    0.461    0.234   98.599  221.706
  346.750    7.841    0.463    0.242   96.652  221.831
  347.000    9.324    0.464    0.245   93.984  221.855
  347.250   11.112    0.461    0.251   91.822  222.021
  347.500   12.277    0.454    0.258   90.788  221.112
  347.750   14.272    0.449    0.252   87.645  219.459
  348.000   16.789    0.442    0.240   81.280  218.098
  348.250   19.679    0.432    0.219   73.005  217.434
  348.500   22.666    0.415    0.187   65.863  217.566
  348.750   25.964    0.360    0.139   64.165  218.685
  349.000   28.461    0.269    0.099   61.893  220.691
  349.250   27.603    0.260    0.081   63.040  220.613
  349.500   24.996    0.260    0.083   65.982  220.552
  349.750   19.852    0.280    0.103   69.523  220.489
  350.000   14.130    0.333    0.150   74.417  219.711
  350.250    9.535    0.438    0.252   83.609  216.960
  350.500    9.244    0.450    0.273   84.799  217.717
  350.750    9.168    0.440    0.261   83.586  216.885
  351.000    9.143    0.429    0.250   83.436  217.217
  351.250    9.035    0.420    0.238   84.341  218.533
  351.500    8.816    0.415    0.226   85.775  220.343
  351.750    8.516    0.413    0.222   86.633  221.674
  352.000    8.318    0.400    0.225   86.351  220.794
  352.250    8.739    0.400    0.213   87.023  219.956
  352.500    8.894    0.409    0.201   88.581  219.698
  352.750    8.626    0.422    0.196   89.963  219.446
  353.000    8.091    0.434    0.201   90.696  218.905
  353.250    7.617    0.442    0.219   91.184  218.293
  353.500    7.552    0.438    0.225   92.620  219.453
  353.750    7.655    0.430    0.221   92.349  219.782
  354.000    7.718    0.429    0.218   91.548  220.123
  354.250    7.768    0.431    0.212   90.924  220.662
  354.500    7.832    0.435    0.205   90.948  221.294
  354.750    7.972    0.431    0.204   91.996  221.529
  355.000    8.148    0.427    0.219   92.699  221.065
  355.250    8.259    0.425    0.222   92.661  220.221
  355.500    8.192    0.428    0.228   91.920  219.663
  355.750    8.008    0.435    0.233   90.825  219.209
  356.000    7.787    0.441    0.237   89.668  218.567
  356.250    7.645    0.435    0.246   88.094  217.161
  356.500    7.814    0.424    0.242   85.116  216.288
  356.750    8.093    0.428    0.241   86.726  216.229
  357.000    8.250    0.433    0.241   88.343  216.162
  357.250    8.363    0.436    0.237   90.076  216.300
  357.500    8.523    0.436    0.230   91.574  216.742
  357.750    8.935    0.439    0.223   92.005  217.543
  358.000    9.487    0.440    0.225   91.965  217.885
  358.250    9.688    0.437    0.222   93.115  217.833
  358.500    9.206    0.430    0.228   94.434  215.999
  358.750    8.878    0.426    0.231   96.165  214.566
  359.000    8.996    0.428    0.226   98.251  214.516
  359.250    9.749    0.433    0.213  100.088  216.032
  359.500   11.009    0.426    0.208   98.828  218.010
  359.750   11.735    0.425    0.206   98.082  219.141
  360.000   11.343    0.427    0.206   97.516  219.675
  360.250   10.737    0.433    0.207   97.129  219.616
  360.500   10.310    0.441    0.208   97.333  219.263
  360.750   10.034    0.448    0.206   99.335  219.193
  361.000   10.178    0.442    0.204  101.254  219.138
  361.250   10.543    0.441    0.208   99.577  218.687
  361.500   10.515    0.443    0.207   98.424  218.530
  361.750   10.393    0.445    0.206   98.742  218.472
  362.000   10.364    0.448    0.208  100.003  218.511
  362.250   10.584    0.449    0.213   99.262  218.997
  362.500   10.984    0.445    0.212   94.555  219.754
  362.750   11.216    0.438    0.214   94.291  219.701
  363.000   11.451    0.430    0.217   95.256  219.349
  363.250   11.650    0.429    0.220   96.401  218.107
  363.500   11.746    0.434    0.221   96.665  216.470
  363.750   11.630    0.434    0.215   94.871  216.174
  364.000   11.532    0.435    0.210   94.344  216.926
  364.250   11.690    0.443    0.206   96.668  216.873
  364.500   11.532    0.450    0.209   99.170  216.526
  364.750   11.397    0.452    0.210  101.373  215.681
  365.000   11.385    0.450    0.205  102.868  214.836
  365.250   11.426    0.444    0.196  102.514  215.333
  365.500   11.678    0.445    0.197   98.546  216.090
  365.750   11.837    0.449    0.201   97.797  215.246
