~VERSION INFORMATION
 VERS.                 2.0:   CWLS LOG ASCII STANDARD -VERSION 2.0
 WRAP.                  NO:   ONE LINE PER DEPTH STEP
~WELL INFORMATION BLOCK
#MNEM.UNIT           DATA                    DESCRIPTION OF MNEMONIC
#---------    -------------------            -------------------------------
# Generated from Intellog Unique Number	CS_71_72/WELL/813
WELL.         BOW VALLEY EXPLORATION         : Well_name    - WELL
LOC .         00/07-24-071-17W4/0            : Location     - LOCATION
UWI .         00/07-24-071-17W4/0            : Uwi          - UNIQUE WELL ID
ENTR.         SP                             : Entered      - ENTERED BY
SRVC.         SCHLUMBERGER                   : Scn          - SERVICE COMPANY
STRT.M        274.320                        : top_depth    - START DEPTH
STOP.M        475.320                        : bot_depth    - STOP DEPTH
STEP.M        0.25                           : increment    - STEP LENGTH
 NULL. -999.2500:NULL Value
~CURVE INFORMATION BLOCK
#MNEM UNIT       ERCB CURVE CODE    CURVE DESCRIPTION
#-----------   ------------------   ----------------------------------
DEPT.M        00 001 00 00         : DEPTH        - DEPTH
GR  .API      00 310 00 00         : GR           - GAMMA RAY
DPHI.V/V      00 890 00 00         : PHID         - DENSITY POROSITY (SANDSTONE)
NPHI.V/V      00 330 00 00         : PHIN         - NEUTRON POROSITY (SANDSTONE)
ILD .OHMM     00 120 00 00         : RESD         - DEEP RESISTIVITY (DIL)
~PARAMETER INFORMATION
#MNEM.UNIT           DATA             DESCRIPTION OF MNEMONIC
#---------         -----------     ------------------------------
GL  .M        565.404              : gl           - GROUND LEVEL ELEVATION
EREF.M        568.452              : kb           - ELEVATION OF DEPTH REFERENCE
DATM.M        565.404              : datum        - DATUM ELEVATION
TDD .M        482.803              : tdd          - TOTAL DEPTH DRILLER
RUN .         ONE                  : Run          - RUN NUMBER
ENG .         BILL                 : Engineer     - RECORDING ENGINEER
WIT .         JIM                  : Witness      - WITNESSED BY
MUD .         GEL                  : Mud_type     - MUD TYPE
MATR.         SANDSTONE            : Logunit      - NEUTRON MATRIX
TMAX.C        18.3333              : BHT          - MAXIMUM RECORDED TEMPERATURE
BHTD.M        476.707              : BHTDEP       - MAXIMUM RECORDED TEMPERATURE
MATR.         1                    : LOGUNIT      - NEUTRON MATRIX
RMT .C        25                   : MDTP         - TEMPERATURE OF MUD
NEUT.         1                    : NEUTRON      - NEUTRON TYPE
RESI.         0                    : RESIST       - RESISTIVITY TYPE
RMC .OHMM     0.25                 : RMC          - RESISTIVITY OF MUD CAKE
RMF .OHMM     0.25                 : RMF          - RESISTIVITY OF MUD FILTRATE
SUFT.C        15                   : SUFT         - SURFACE TEMPERATURE
~A  DEPTH       GR     PHID     PHIN     RESD
# ...
  317.820   88.621    0.266    0.454    6.195
  318.070   79.325    0.278    0.444    6.242
  318.320   77.659    0.281    0.456    6.257
  318.570   81.244    0.297    0.468    6.303
  318.820   83.833    0.297    0.469    6.405
  319.070   86.285    0.289    0.470    6.463
  319.320   92.694    0.260    0.476    6.451
  319.570   93.606    0.246    0.456    6.303
  319.820   94.902    0.259    0.445    6.015
  320.070   97.434    0.254    0.454    5.742
  320.320   98.347    0.249    0.464    5.360
  320.570  100.379    0.246    0.482    5.079
  320.820  103.863    0.258    0.506    4.861
  321.070  102.495    0.250    0.529    4.815
  321.320  101.250    0.243    0.509    4.895
  321.570  100.779    0.240    0.485    5.137
  321.820   97.739    0.237    0.461    5.637
  322.070   93.764    0.248    0.451    6.092
  322.320   91.675    0.247    0.449    6.428
  322.570   93.209    0.256    0.452    6.623
  322.820   84.940    0.251    0.455    6.713
  323.070   76.790    0.261    0.457    6.648
  323.320   70.560    0.279    0.465    6.405
  323.570   65.601    0.311    0.470    6.152
  323.820   62.317    0.334    0.466    5.887
  324.070   60.699    0.336    0.457    5.647
  324.320   58.945    0.335    0.434    5.468
  324.570   57.885    0.336    0.431    5.325
  324.820   57.623    0.345    0.445    5.243
  325.070   58.165    0.348    0.455    5.180
  325.320   60.731    0.356    0.443    5.157
  325.570   63.579    0.348    0.434    5.156
  325.820   64.440    0.341    0.425    5.174
  326.070   64.262    0.347    0.421    5.215
  326.320   63.473    0.346    0.427    5.273
  326.570   62.428    0.347    0.435    5.323
  326.820   61.777    0.349    0.451    5.349
  327.070   61.954    0.343    0.449    5.355
  327.320   62.255    0.337    0.442    5.324
  327.570   62.220    0.343    0.443    5.340
  327.820   65.521    0.349    0.458    5.313
  328.070   70.221    0.358    0.473    5.269
  328.320   72.619    0.363    0.467    5.257
  328.570   71.271    0.347    0.444    5.239
  328.820   69.182    0.337    0.436    5.224
  329.070   68.742    0.337    0.429    5.172
  329.320   71.784    0.345    0.438    5.150
  329.570   73.194    0.352    0.455    5.103
  329.820   73.795    0.356    0.456    5.057
  330.070   72.017    0.367    0.446    5.058
  330.320   70.923    0.373    0.440    5.057
  330.570   70.912    0.366    0.442    5.056
  330.820   72.622    0.366    0.453    5.055
  331.070   75.065    0.359    0.460    5.053
  331.320   77.179    0.358    0.454    5.061
  331.570   78.803    0.352    0.443    5.056
  331.820   75.712    0.346    0.445    5.068
  332.070   73.312    0.342    0.447    5.067
  332.320   71.394    0.356    0.444    5.076
  332.570   70.458    0.366    0.443    5.086
  332.820   69.139    0.367    0.443    5.112
  333.070   66.903    0.364    0.445    5.088
  333.320   65.204    0.356    0.440    5.254
  333.570   63.906    0.356    0.450    5.249
  333.820   63.522    0.352    0.444    5.258
  334.070   64.000    0.343    0.429    5.267
  334.320   65.104    0.344    0.422    5.290
  334.570   66.154    0.351    0.434    5.297
  334.820   66.900    0.352    0.449    5.296
  335.070   67.252    0.349    0.453    5.314
  335.320   67.031    0.337    0.456    5.337
  335.570   66.890    0.340    0.462    5.356
  335.820   67.575    0.347    0.459    5.377
  336.070   66.417    0.349    0.454    5.390
  336.320   64.267    0.342    0.451    5.430
  336.570   63.952    0.342    0.468    5.460
  336.820   67.267    0.340    0.475    5.480
  337.070   70.136    0.330    0.467    5.493
  337.320   71.585    0.327    0.471    5.508
  337.570   72.165    0.331    0.468    5.525
  337.820   72.106    0.336    0.468    5.552
  338.070   69.476    0.339    0.473    5.578
  338.320   69.843    0.327    0.469    5.585
  338.570   72.412    0.328    0.454    5.610
  338.820   74.875    0.337    0.433    5.637
  339.070   75.526    0.327    0.423    5.680
  339.320   73.215    0.322    0.431    5.754
  339.570   70.306    0.325    0.441    5.768
  339.820   68.889    0.328    0.444    5.815
  340.070   68.961    0.331    0.442    5.738
  340.320   69.152    0.323    0.434    5.639
  340.570   69.059    0.329    0.437    5.581
  340.820   67.817    0.313    0.453    5.571
  341.070   64.928    0.295    0.459    5.701
  341.320   62.643    0.246    0.389    5.912
  341.570   61.593    0.162    0.354    6.560
  341.820   62.648    0.101    0.312    6.972
  342.070   67.963    0.056    0.340    6.998
  342.320   74.915    0.199    0.419    6.860
  342.570   79.390    0.228    0.451    6.314
  342.820   78.573    0.247    0.466    5.774
  343.070   73.764    0.261    0.466    5.287
  343.320   65.843    0.282    0.452    4.921
  343.570   61.028    0.308    0.440    4.757
  343.820   63.296    0.306    0.440    4.826
  344.070   66.625    0.314    0.449    5.072
  344.320   69.438    0.332    0.452    5.300
  344.570   71.002    0.337    0.456    5.525
  344.820   71.171    0.332    0.463    5.622
  345.070   70.375    0.328    0.463    5.685
  345.320   69.820    0.326    0.457    5.717
  345.570   71.961    0.324    0.461    5.719
  345.820   73.486    0.320    0.470    5.720
  346.070   73.517    0.317    0.476    5.728
  346.320   73.535    0.327    0.480    5.715
  346.570   74.666    0.320    0.475    5.715
  346.820   75.116    0.312    0.473    5.708
  347.070   73.710    0.320    0.480    5.716
  347.320   72.456    0.318    0.478    5.689
  347.570   73.856    0.307    0.471    5.621
  347.820   75.757    0.302    0.479    5.536
  348.070   76.756    0.303    0.484    5.415
  348.320   76.525    0.319    0.469    5.274
  348.570   75.450    0.323    0.462    5.164
  348.820   74.761    0.313    0.481    5.122
  349.070   74.755    0.314    0.469    5.087
  349.320   74.776    0.321    0.444    5.085
  349.570   72.843    0.323    0.445    5.122
  349.820   70.927    0.328    0.454    5.203
  350.070   69.549    0.320    0.450    5.305
  350.320   68.826    0.315    0.461    5.372
  350.570   68.692    0.313    0.469    5.416
  350.820   71.259    0.320    0.473    5.443
  351.070   73.995    0.342    0.466    5.457
  351.320   75.825    0.344    0.453    5.442
  351.570   75.841    0.333    0.451    5.441
  351.820   76.941    0.336    0.460    5.446
  352.070   75.604    0.326    0.460    5.441
  352.320   73.573    0.305    0.475    5.427
  352.570   73.042    0.289    0.486    5.402
  352.820   72.065    0.308    0.480    5.389
  353.070   70.606    0.325    0.467    5.393
  353.320   70.249    0.341    0.476    5.427
  353.570   70.619    0.347    0.484    5.435
  353.820   72.780    0.340    0.491    5.395
  354.070   75.806    0.334    0.489    5.174
  354.320   81.974    0.298    0.467    4.755
  354.570   86.644    0.240    0.464    4.421
  354.820   90.007    0.226    0.481    3.989
  355.070   90.089    0.240    0.502    3.625
  355.320   89.340    0.257    0.496    3.452
  355.570   85.141    0.263    0.508    3.503
  355.820   76.653    0.287    0.505    3.599
  356.070   69.700    0.308    0.503    3.729
  356.320   63.414    0.325    0.504    3.924
  356.570   59.142    0.341    0.432    4.178
  356.820   58.091    0.350    0.448    4.350
  357.070   57.500    0.354    0.451    4.432
  357.320   56.060    0.361    0.442    4.471
  357.570   54.701    0.367    0.437    4.443
  357.820   55.268    0.374    0.442    4.418
  358.070   56.743    0.374    0.446    4.365
  358.320   61.280    0.370    0.454    4.383
  358.570   64.335    0.368    0.464    4.433
  358.820   62.897    0.357    0.476    4.570
  359.070   61.638    0.313    0.477    4.687
  359.320   61.862    0.266    0.458    4.941
  359.570   60.683    0.216    0.441    5.223
  359.820   59.195    0.194    0.401    5.437
  360.070   57.679    0.181    0.296    5.545
  360.320   56.822    0.213    0.351    5.601
  360.570   56.028    0.265    0.387    5.544
  360.820   55.974    0.324    0.440    5.357
  361.070   56.761    0.353    0.440    5.172
