~VERSION INFORMATION
 VERS.                 2.0:   CWLS LOG ASCII STANDARD -VERSION 2.0
 WRAP.                  NO:   ONE LINE PER DEPTH STEP
~WELL INFORMATION BLOCK
#MNEM.UNIT           DATA                    DESCRIPTION OF MNEMONIC
#---------    -------------------            -------------------------------
# Generated from Intellog Unique Number	CW_70_72/WELL/3300
NULL.         -999.25                        : NULL_VALUE
WELL.         CALSTAN SOBC MITSUE            : Well_name    - WELL              
LOC .         04-03-072-04W5                 : Location     - LOCATION          
UWI .         00/04-03-072-04W5/0            : Uwi          - UNIQUE WELL ID    
ENTR.         Campbell                       : Entered      - ENTERED BY        
SRVC.         SCHLUMBERGER                   : Scn          - SERVICE COMPANY   
DATE.         24 JULY 1965                   : Date         - LOG DATE          
STRT.M        621.792                        : top_depth    - START DEPTH       
STOP.M        765.042                        : bot_depth    - STOP DEPTH        
STEP.M        0.25                           : increment    - STEP LENGTH       
~CURVE INFORMATION BLOCK
#MNEM UNIT       ERCB CURVE CODE    CURVE DESCRIPTION
#-----------   ------------------   ----------------------------------
DEPT.M        00 001 00 00         : DEPTH        - DEPTH                       
DELT.US/F     00 520 00 00         : DELT         - SONIC TRAVEL TIME           
ILD .OHMM     00 120 00 00         : RESD         - DEEP RESISTIVITY (DIL)      
GR  .API      00 310 00 00         : GR           - GAMMA RAY                   
~PARAMETER INFORMATION       
#MNEM.UNIT           DATA             DESCRIPTION OF MNEMONIC
#---------         -----------     ------------------------------
GL  .M        739.597              : gl           - GROUND LEVEL ELEVATION      
EREF.M        744.626              : kb           - ELEVATION OF DEPTH REFERENCE
DATM.M        744.626              : datum        - DATUM ELEVATION             
TDD .M        1815.08              : tdd          - TOTAL DEPTH DRILLER         
RUN .         ONE                  : Run          - RUN NUMBER                  
ENG .         WOOLLAM              : Engineer     - RECORDING ENGINEER          
WIT .         CHANT                : Witness      - WITNESSED BY                
MUD .         GEL                  : Mud_type     - MUD TYPE                    
MATR.         SANDSTONE            : Logunit      - NEUTRON MATRIX              
TMAX.C        51.1111              : BHT          - MAXIMUM RECORDED TEMPERATURE
BHTD.M        1815.08              : BHTDEP       - MAXIMUM RECORDED TEMPERATURE
RMT .C        21.1111              : MDTP         - TEMPERATURE OF MUD          
MUDD.KG/M     10000                : MWT          - MUD DENSITY                 
NEUT.         1                    : NEUTRON      - NEUTRON TYPE                
RESI.         0                    : RESIST       - RESISTIVITY TYPE            
RM  .OHMM     1.9                  : RM           - RESISTIVITY OF MUD          
RMC .OHMM     2                    : RMC          - RESISTIVITY OF MUD CAKE     
RMF .OHMM     1.5                  : RMF          - RESISTIVITY OF MUD FILTRATE 
SUFT.C        20                   : SUFT         - SURFACE TEMPERATURE         
~A  DEPTH     DELT     RESD       GR
  621.792  353.830    4.599   63.634
  622.042  450.868    4.406   65.293
  622.292  430.771    4.114   68.122
  622.542  398.053    4.019   72.362
  622.792  374.722    4.510   75.194
  623.042  359.478    5.295   73.562
  623.292  357.498    5.787   70.052
  623.542  361.346    5.984   63.494
  623.792  359.371    6.084   63.505
  624.042  353.829    6.380   63.284
  624.292  352.505    6.774   61.653
  624.542  354.735    7.168   60.961
  624.792  356.965    7.659   60.270
  625.042  360.486    8.248   60.755
  625.292  355.918    8.740   61.707
  625.542  354.262    9.035   62.189
  625.792  354.228    9.429   61.029
  626.042  355.168    9.725   59.397
  626.292  358.365    9.825   55.652
  626.542  360.600    9.533   53.319
  626.792  368.326    9.340   50.280
  627.042  369.909    9.342   48.178
  627.292  365.022    9.442   49.365
  627.542  361.101    9.543   53.842
  627.792  362.361    9.740   52.211
  628.042  356.823    9.938   51.519
  628.292  354.524    9.843   51.297
  628.542  354.162    9.453   51.075
  628.792  354.447    8.869   50.150
  629.042  356.358    8.577   49.223
  629.292  357.942    8.482   50.879
  629.542  355.315    8.582   50.657
  629.792  354.634    8.584   50.202
  630.042  353.301    8.684   49.275
  630.292  355.213    8.882   49.053
  630.542  362.943    8.982   51.650
  630.792  366.139    9.082   54.014
  631.042  364.488    9.084   55.432
  631.292  360.891    9.087   55.919
  631.542  359.562    9.187   54.989
  631.792  360.818    9.091   53.359
  632.042  355.284    9.093   52.433
  632.292  351.367    8.704   51.273
  632.542  344.531    7.728   51.286
  632.792  351.618    6.849   51.063
  633.042  364.201    6.069   50.140
  633.292  369.343    5.288   49.915
  633.542  367.692    4.704   50.870
  633.792  356.330    4.315   52.526
  634.042  361.149    4.317   53.946
  634.292  358.526    4.319   55.840
  634.542  346.194    4.321   57.731
  634.792  339.685    4.421   57.509
  635.042  324.442    4.521   57.052
  635.292  323.113    4.817   57.769
  635.542  329.226    5.504   56.842
  635.792  337.927    6.289   54.978
  636.042  324.301    7.367   53.347
  636.292  315.851    7.663   50.777
  636.542  341.702    7.568   45.624
  636.792  398.292    7.570   41.413
  637.042  370.107    8.061   45.651
  637.292  353.893    8.651   50.596
  637.542  338.002    9.142   47.321
  637.792  332.464    8.166   46.866
  638.042  343.753    7.385   48.757
  638.292  344.042    6.507   49.943
  638.542  330.416    6.020   50.895
  638.792  340.411    5.631   53.024
  639.042  339.406    5.242   56.087
  639.292  300.218    4.950   58.215
  639.542  318.301    4.561   59.401
  639.792  350.950    4.466   60.823
  640.042  360.621    4.664   62.246
  640.292  364.784    4.861   63.199
  640.542  371.225    5.157   62.975
  640.792  438.818    5.355   61.817
  641.042  397.042    5.651   63.472
  641.292  361.412    5.555   67.006
  641.542  349.404    5.655   62.796
  641.792  349.693    5.755   61.400
  642.042  350.306    5.953   60.471
  642.292  354.797    6.249   59.075
  642.542  361.884    6.447   57.917
  642.792  354.081    6.742   55.582
  643.042  353.719    7.136   54.184
  643.292  360.807    7.236   52.086
  643.542  356.886    6.749   50.219
  643.792  341.642    6.164   49.997
  644.042  286.278    5.580   49.541
  644.292  342.221    5.288   50.963
  644.542  376.484    5.095   52.621
  644.792  370.299    5.489   52.400
  645.042  367.995    5.490   52.647
  645.292  368.285    5.591   54.538
  645.542  360.482    5.593   53.847
  645.792  361.742    5.595   54.564
  646.042  367.527    5.010   54.576
  646.292  371.702    4.229   55.296
  646.542  363.257    3.841   56.250
  646.792  366.777    4.430   56.729
  647.042  358.008    4.823   56.042
  647.292  355.058    5.609   55.112
  647.542  361.494    5.904   54.420
  647.792  372.136    5.906   51.853
  648.042  365.631    5.909   49.987
  648.292  318.032    5.324   46.243
  648.542  379.150    4.641   43.672
  648.792  371.671    3.176   46.738
  649.042  366.784    2.591   52.621
  649.292  375.161    1.615   56.392
  649.542  464.103    1.030   58.987
  649.792  464.069    0.934   61.114
  650.042  463.383    0.838   59.955
  650.292  463.030    0.743   60.200
  650.542  462.672    0.745   55.284
  650.792  462.301    0.845   54.827
  651.042  461.952    1.043   57.892
  651.292  460.943    1.045   60.018
  651.542  427.583    0.754   58.625
  651.792  408.457    0.658   60.516
  652.042  451.454    0.661   58.883
  652.292  461.773    0.565   57.254
  652.542  351.079    0.568   55.859
  652.792  287.623    0.568   56.105
  653.042  316.705    0.571   56.354
  653.292  301.142    0.574   55.193
  653.542  272.953    0.576   54.267
  653.792  233.118    0.578   54.045
  654.042  253.793    0.581   55.232
  654.292  384.481    0.680   57.358
  654.542  381.207    1.172   60.659
  654.792  347.523    1.468   63.020
  655.042  326.452    1.763   63.035
  655.292  321.565    2.059   63.751
  655.542  370.390    1.964   65.878
  655.792  355.470    1.770   68.710
  656.042  342.814    1.772   66.138
  656.292  342.129    1.872   62.629
  656.542  375.425    1.875   60.294
  656.792  374.416    1.975   61.482
  657.042  363.702    2.271   62.903
  657.292  394.406    2.762   61.272
  657.542  377.545    3.351   61.288
  657.792  410.190    3.842   60.360
  658.042  388.471    4.432   61.546
  658.292  381.001    4.923   62.032
  658.542  375.786    5.317   62.982
  658.792  371.537    5.221   63.467
  659.042  371.184    4.833   64.184
  659.292  365.003    4.737   62.317
  659.542  354.612    4.641   62.096
  659.792  370.430    4.545   61.876
  660.042  374.925    4.547   61.184
  660.292  379.097    4.550   58.144
  660.542  375.176    4.357   57.454
  660.792  373.196    4.163   57.934
  661.042  372.192    3.871   57.949
  661.292  355.658    3.678   59.840
  661.542  341.385    3.680   62.202
  661.792  335.523    3.683   63.625
  662.042  329.989    3.685   64.575
  662.292  321.863    3.687   63.886
  662.542  329.593    3.983   62.724
  662.792  337.000    4.670   59.685
  663.042  370.939    5.553   58.759
  663.292  372.199    6.729   57.597
  663.542  364.073    7.709   55.966
  663.792  365.979    8.886   51.987
  664.042  375.323    9.671   48.713
  664.292  378.852   10.358   47.786
  664.542  376.876   10.654   48.035
  664.792  365.834   10.852   47.578
  665.042  365.476   11.050   45.244
  665.292  369.967   11.150   44.318
  665.542  370.261   11.348   46.678
  665.792  367.315   11.546   48.335
  666.042  353.361   11.940   49.524
  666.292  347.823   12.235   50.007
  666.542  342.293   12.922   50.958
  666.792  343.868   13.414   49.564
  667.042  341.250   13.514   49.576
  667.292  339.594   13.614   49.119
  667.542  339.879   13.616   50.541
  667.792  339.525   13.618   51.258
  668.042  337.869   13.620   49.863
  668.292  335.243   13.720   52.224
  668.542  331.654   13.820   49.890
  668.792  328.380   13.627   47.083
  669.042  332.224   13.238   46.630
  669.292  333.488   12.751   46.875
  669.542  337.008   12.264   48.062
  669.792  340.856   11.679   47.841
  670.042  347.293   10.996   49.264
  670.292  356.964   10.412   50.684
  670.542  372.463    9.826   48.116
  670.792  377.601    8.948   49.304
  671.042  374.978    8.168   50.725
  671.292  359.087    7.583   49.565
  671.542  338.344    6.998   49.578
  671.792  338.310    6.902   52.173
  672.042  349.275    7.492   54.299
  672.292  301.675    8.081   56.895
  672.542  278.663    8.475   57.849
  672.792  301.603    8.673   58.330
  673.042  318.068    8.772   58.814
  673.292  340.037    8.677   59.061
  673.542  339.679    8.483   53.439
  673.792  320.553    8.486   51.338
  674.042  341.548    8.488   51.116
  674.292  340.867    8.686   55.122
  674.542  340.832    8.884   57.248
  674.792  338.853    9.081   59.610
  675.042  335.903    9.378   52.813
  675.292  333.276    9.771   52.593
  675.542  332.923    9.969   54.485
  675.792  335.153    9.678   54.966
