~VERSION INFORMATION
 VERS.                 2.0:   CWLS LOG ASCII STANDARD -VERSION 2.0
 WRAP.                  NO:   ONE LINE PER DEPTH STEP
~WELL INFORMATION BLOCK
#MNEM.UNIT           DATA                    DESCRIPTION OF MNEMONIC
#---------    -------------------            -------------------------------
# Generated from Intellog Unique Number	CS_77_79/WELL/878
WELL.         C.W.W.E. HARDY                 : Well_name    - WELL
LOC .         00/06-19-078-04W4/0            : Location     - LOCATION
UWI .         00/06-19-078-04W4/0            : Uwi          - UNIQUE WELL ID
ENTR.         JHS                            : Entered      - ENTERED BY
SRVC.         SCHLUMBERGER                   : Scn          - SERVICE COMPANY
STRT.M        140                            : top_depth    - START DEPTH
STOP.M        380                            : bot_depth    - STOP DEPTH
STEP.M        0.25                           : increment    - STEP LENGTH
 NULL. -999.2500:NULL Value
~CURVE INFORMATION BLOCK
#MNEM UNIT       ERCB CURVE CODE    CURVE DESCRIPTION
#-----------   ------------------   ----------------------------------
DEPT.M        00 001 00 00         : DEPTH        - DEPTH
DPHI.V/V      00 890 00 00         : PHID         - DENSITY POROSITY (LIMESTONE)
NPHI.V/V      00 330 00 00         : PHIN         - NEUTRON POROSITY (LIMESTONE)
GR  .API      00 310 00 00         : GR           - GAMMA RAY
ILD .OHMM     00 120 00 00         : RESD         - DEEP RESISTIVITY (DIL)
RHOB.KG/M3    00 350 00 00         : DENS         - BULK DENSITY
~PARAMETER INFORMATION
#MNEM.UNIT           DATA             DESCRIPTION OF MNEMONIC
#---------         -----------     ------------------------------
GL  .M        562.1                : gl           - GROUND LEVEL ELEVATION
EREF.M        566                  : kb           - ELEVATION OF DEPTH REFERENCE
DATM.M        566                  : datum        - DATUM ELEVATION
TDD .M        385                  : tdd          - TOTAL DEPTH DRILLER
RUN .         ONE                  : Run          - RUN NUMBER
ENG .         BILL                 : Engineer     - RECORDING ENGINEER
WIT .         JIM                  : Witness      - WITNESSED BY
MUD .         GEL                  : Mud_type     - MUD TYPE
MATR.         LIMESTONE            : Logunit      - NEUTRON MATRIX
TMAX.C        18                   : BHT          - MAXIMUM RECORDED TEMPERATURE
BHTD.M        385                  : BHTDEP       - MAXIMUM RECORDED TEMPERATURE
MATR.         1                    : LOGUNIT      - NEUTRON MATRIX
RMT .C        25                   : MDTP         - TEMPERATURE OF MUD
NEUT.         1                    : NEUTRON      - NEUTRON TYPE
RESI.         0                    : RESIST       - RESISTIVITY TYPE
RMC .OHMM     0.25                 : RMC          - RESISTIVITY OF MUD CAKE
RMF .OHMM     0.25                 : RMF          - RESISTIVITY OF MUD FILTRATE
SUFT.C        15                   : SUFT         - SURFACE TEMPERATURE
~A  DEPTH     PHID     PHIN       GR     RESD     DENS
# ...
  176.500    0.155    0.477  102.959    8.470    0.000
  176.750    0.212    0.440  110.996    8.481    0.000
  177.000    0.234    0.429  114.721    8.173    0.000
  177.250    0.244    0.446  111.701    8.183    0.000
  177.500    0.255    0.431  100.674    8.507    0.000
  177.750    0.270    0.405   87.813    9.358    0.000
  178.000    0.319    0.398   66.950   11.102    0.000
  178.250    0.359    0.408   51.628   13.424    0.000
  178.500    0.357    0.419   49.827   16.538    0.000
  178.750    0.349    0.429   49.267   19.618    0.000
  179.000    0.346    0.428   49.920   21.583    0.000
  179.250    0.339    0.410   51.190   22.017    0.000
  179.500    0.329    0.402   57.996   21.226    0.000
  179.750    0.322    0.393   69.726   20.860    0.000
  180.000    0.314    0.393   80.838   20.480    0.000
  180.250    0.302    0.398   87.636   19.750    0.000
  180.500    0.294    0.411   94.453   19.397    0.000
  180.750    0.285    0.425   98.791   18.353    0.000
  181.000    0.274    0.421  106.824   16.717    0.000
  181.250    0.245    0.416  114.865   14.120    0.000
  181.500    0.196    0.416  112.445   11.925    0.000
  181.750    0.165    0.470   96.508   10.264    0.000
  182.000    0.122    0.495  103.312    8.670    0.000
  182.250    0.121    0.480  111.346    7.750    0.000
  182.500    0.194    0.472   97.252    7.475    0.000
  182.750    0.282    0.467   72.710    7.915    0.000
  183.000    0.350    0.510   48.163    9.041    0.000
  183.250    0.487    0.601   54.969   11.790    0.000
  183.500    0.609    0.617   63.627   14.526    0.000
  183.750    0.624    0.619   64.894   16.912    0.000
  184.000    0.612    0.598   42.191   19.317    0.000
  184.250    0.513    0.547   49.626   21.250    0.000
  184.500    0.380    0.488   51.508   22.093    0.000
  184.750    0.359    0.444   48.476   22.967    0.000
  185.000    0.354    0.406   49.136   23.430    0.000
  185.250    0.355    0.392   47.959   23.903    0.000
  185.500    0.357    0.404   44.301   24.382    0.000
  185.750    0.355    0.422   39.428   23.953    0.000
  186.000    0.356    0.443   37.016   23.531    0.000
  186.250    0.363    0.424   44.437   24.002    0.000
  186.500    0.366    0.398   43.872   24.956    0.000
  186.750    0.357    0.387   42.677   24.986    0.000
  187.000    0.345    0.383   42.722   24.537    0.000
  187.250    0.347    0.373   48.914   24.564    0.000
  187.500    0.349    0.374   54.490   25.067    0.000
  187.750    0.341    0.394   60.688   25.086    0.000
  188.000    0.342    0.410   63.184   25.115    0.000
  188.250    0.350    0.413   63.243   25.138    0.000
  188.500    0.338    0.391   63.278   24.701    0.000
  188.750    0.323    0.381   65.165   24.259    0.000
  189.000    0.312    0.402   68.277   24.289    0.000
  189.250    0.305    0.409   73.243   23.858    0.000
  189.500    0.314    0.394   72.064   23.439    0.000
  189.750    0.324    0.383   70.872   23.469    0.000
  190.000    0.329    0.381   67.230   23.490    0.000
  190.250    0.311    0.388   60.507   23.069    0.000
  190.500    0.299    0.383   66.698   22.666    0.000
  190.750    0.288    0.370   76.579   21.851    0.000
  191.000    0.279    0.364   80.927   21.062    0.000
  191.250    0.270    0.363   84.042   21.493    0.000
  191.500    0.270    0.384   85.933   21.919    0.000
  191.750    0.285    0.399   80.444   22.365    0.000
  192.000    0.296    0.412   82.330   22.812    0.000
  192.250    0.292    0.414   87.911   22.831    0.000
  192.500    0.282    0.418   90.424   22.013    0.000
  192.750    0.276    0.424   91.687   21.218    0.000
  193.000    0.278    0.431   97.276   20.853    0.000
  193.250    0.283    0.442   99.763   20.864    0.000
  193.500    0.287    0.449  104.733   21.287    0.000
  193.750    0.291    0.421  105.390   21.716    0.000
  194.000    0.291    0.404   97.441   22.574    0.000
  194.250    0.286    0.393   83.347   23.464    0.000
  194.500    0.301    0.401   71.713   23.936    0.000
  194.750    0.322    0.407   49.009   24.890    0.000
  195.000    0.343    0.389   42.918   24.919    0.000
  195.250    0.349    0.371   44.792   24.476    0.000
  195.500    0.325    0.374   49.762   24.504    0.000
  195.750    0.299    0.393   54.105   24.995    0.000
  196.000    0.291    0.395   61.531   25.492    0.000
  196.250    0.292    0.391   65.874   26.011    0.000
  196.500    0.297    0.386   65.310   26.532    0.000
  196.750    0.305    0.383   61.658   26.060    0.000
  197.000    0.310    0.381   56.176   25.610    0.000
  197.250    0.291    0.390   54.367   25.626    0.000
  197.500    0.283    0.390   59.330   25.175    0.000
  197.750    0.310    0.382   61.221   25.203    0.000
  198.000    0.332    0.390   58.804   25.717    0.000
  198.250    0.331    0.405   57.003   26.230    0.000
  198.500    0.329    0.390   54.589   26.257    0.000
  198.750    0.329    0.370   47.873   26.782    0.000
  199.000    0.330    0.368   43.624   26.315    0.000
  199.250    0.333    0.372   43.666   25.373    0.000
  199.500    0.339    0.378   47.397   24.921    0.000
  199.750    0.331    0.393   53.586   23.570    0.000
  200.000    0.295    0.394   65.309   21.881    0.000
  200.250    0.256    0.376   82.557   19.930    0.000
  200.500    0.236    0.381   97.973   18.153    0.000
  200.750    0.231    0.389  102.320   15.925    0.000
  201.000    0.238    0.388   99.903   14.505    0.000
  201.250    0.263    0.389   97.496   13.987    0.000
  201.500    0.252    0.394   96.310   13.999    0.000
  201.750    0.242    0.390   92.657   14.551    0.000
  202.000    0.239    0.406   92.705   15.128    0.000
  202.250    0.253    0.416   97.054   16.028    0.000
  202.500    0.251    0.405   92.792   16.660    0.000
  202.750    0.247    0.402   87.916   17.655    0.000
  203.000    0.262    0.393   84.888   18.007    0.000
  203.250    0.283    0.385   89.237   18.369    0.000
  203.500    0.297    0.389   88.675   18.388    0.000
  203.750    0.294    0.386   91.798   18.067    0.000
  204.000    0.283    0.382   94.900   17.742    0.000
  204.250    0.267    0.398   99.259   17.104    0.000
  204.500    0.252    0.390   99.292   15.882    0.000
  204.750    0.242    0.374  105.481   15.021    0.000
  205.000    0.234    0.364  116.590   14.206    0.000
  205.250    0.222    0.423  126.479   12.944    0.000
  205.500    0.208    0.439  125.902   12.476    0.000
  205.750    0.208    0.426  121.025   11.367    0.000
  206.000    0.213    0.421  121.686   11.380    0.000
  206.250    0.220    0.435  118.042   11.178    0.000
  206.500    0.221    0.444  111.322   10.573    0.000
  206.750    0.218    0.443  111.366   10.193    0.000
  207.000    0.219    0.440  116.945   10.398    0.000
  207.250    0.230    0.436  116.991   10.808    0.000
  207.500    0.243    0.440  109.671   11.669    0.000
  207.750    0.258    0.444  105.401   13.084    0.000
  208.000    0.255    0.425   98.687   14.123    0.000
  208.250    0.259    0.406   91.964   15.247    0.000
  208.500    0.284    0.400   86.478   15.850    0.000
  208.750    0.281    0.388   94.517   16.476    0.000
  209.000    0.266    0.375  103.168   16.491    0.000
  209.250    0.243    0.423  108.736   16.512    0.000
  209.500    0.228    0.461  116.163   15.920    0.000
  209.750    0.216    0.482  122.349   15.057    0.000
  210.000    0.213    0.467  123.632   14.513    0.000
  210.250    0.210    0.455  118.754   14.258    0.000
  210.500    0.204    0.440  111.416   14.275    0.000
  210.750    0.228    0.435   94.865   14.562    0.000
  211.000    0.298    0.426   83.846   15.717    0.000
  211.250    0.314    0.425   78.356   16.968    0.000
  211.500    0.316    0.434   76.571   18.319    0.000
  211.750    0.320    0.417   72.909   19.045    0.000
  212.000    0.328    0.406   60.657   19.426    0.000
  212.250    0.328    0.402   57.632   19.085    0.000
  212.500    0.297    0.428   62.592   18.400    0.000
  212.750    0.267    0.443   70.017   17.737    0.000
