~VERSION INFORMATION
 VERS.                 2.0:   CWLS LOG ASCII STANDARD -VERSION 2.0
 WRAP.                  NO:   ONE LINE PER DEPTH STEP
~WELL INFORMATION BLOCK
#MNEM.UNIT           DATA                    DESCRIPTION OF MNEMONIC
#---------    -------------------            -------------------------------
# Generated from Intellog Unique Number	CX_WELLS/WELL/3092
WELL.         CHEVRON CON-SUP ALGAR          : Well_name    - WELL
LOC .         00/06-32-082-16W4/0            : Location     - LOCATION
UWI .         00/06-32-082-16W400            : Uwi          - UNIQUE WELL ID
ENTR.         TIM                            : Entered      - ENTERED BY
SRVC.         SCHLUMBERGER                   : Scn          - SERVICE COMPANY
STRT.F        350                            : top_depth    - START DEPTH
STOP.F        914.304                        : bot_depth    - STOP DEPTH
STEP.F        0.82                           : increment    - STEP LENGTH
 NULL. -999.2500:NULL Value
~CURVE INFORMATION BLOCK
#MNEM UNIT       ERCB CURVE CODE    CURVE DESCRIPTION
#-----------   ------------------   ----------------------------------
DEPT.F        00 001 00 00         : DEPTH        - DEPTH
GR  .API      00 310 00 00         : GR           - GAMMA RAY
NPHI.V/V      00 330 00 00         : PHIN         - NEUTRON POROSITY (SANDSTONE)
DPHI.V/V      00 890 00 00         : PHID         - DENSITY POROSITY (SANDSTONE)
ILD .OHMM     00 120 00 00         : RESD         - DEEP RESISTIVITY (OTHER)
~PARAMETER INFORMATION
#MNEM.UNIT           DATA             DESCRIPTION OF MNEMONIC
#---------         -----------     ------------------------------
GL  .F        1760.9               : gl           - GROUND LEVEL ELEVATION
EREF.F        1771.5               : kb           - ELEVATION OF DEPTH REFERENCE
DATM.F        1771.5               : datum        - DATUM ELEVATION
TDD .F        925                  : tdd          - TOTAL DEPTH DRILLER
RUN .         ONE                  : Run          - RUN NUMBER
ENG .         BILL                 : Engineer     - RECORDING ENGINEER
WIT .         JIM                  : Witness      - WITNESSED BY
MUD .         GEL                  : Mud_type     - MUD TYPE
MATR.         SANDSTONE            : Logunit      - NEUTRON MATRIX
TMAX.F        71.6                 : BHT          - MAXIMUM RECORDED TEMPERATURE
BHTD.F        925                  : BHTDEP       - MAXIMUM RECORDED TEMPERATURE
MATR.         1                    : LOGUNIT      - NEUTRON MATRIX
RMT .F        77                   : MDTP         - TEMPERATURE OF MUD
NEUT.         1                    : NEUTRON      - NEUTRON TYPE
RESI.         3.07                 : RESIST       - RESISTIVITY TYPE
RMC .OHMM     3.07                 : RMC          - RESISTIVITY OF MUD CAKE
RMF .OHMM     3.07                 : RMF          - RESISTIVITY OF MUD FILTRATE
SUFT.F        32                   : SUFT         - SURFACE TEMPERATURE
~A  DEPTH       GR     PHIN     PHID     RESD
# ...
  635.433   70.437    0.546    0.335    9.485
  636.253   72.424    0.545    0.341    9.349
  637.073   73.779    0.544    0.346    9.059
  637.894   75.178    0.542    0.349    8.790
  638.714   75.900    0.539    0.337    8.664
  639.534   76.710    0.540    0.332    8.252
  640.354   77.476    0.541    0.323    8.134
  641.175   77.654    0.541    0.321    7.747
  641.995   78.465    0.540    0.315    7.507
  642.815   79.275    0.539    0.311    7.273
  643.635   79.952    0.538    0.310    6.918
  644.455   80.763    0.538    0.301    6.703
  645.276   81.529    0.539    0.292    6.607
  646.096   82.928    0.538    0.287    6.402
  646.916   84.238    0.539    0.287    6.098
  647.736   85.004    0.541    0.285    5.917
  648.556   84.682    0.549    0.286    5.824
  649.377   84.227    0.552    0.290    5.764
  650.197   82.051    0.547    0.293    5.682
  651.017   78.698    0.544    0.290    5.616
  651.837   75.345    0.537    0.287    5.639
  652.657   73.169    0.530    0.283    5.662
  653.478   72.081    0.532    0.289    5.916
  654.298   71.126    0.533    0.293    6.068
  655.118   70.171    0.527    0.302    6.570
  655.938   69.172    0.524    0.308    7.531
  656.759   66.907    0.524    0.315    9.283
  657.579   63.554    0.525    0.320   10.051
  658.399   57.892    0.525    0.325   10.928
  659.219   55.627    0.523    0.324   11.178
  660.039   52.862    0.517    0.318   11.647
  660.860   50.142    0.502    0.312   14.112
  661.680   49.099    0.471    0.300   20.605
  662.500   51.086    0.439    0.256   23.618
  663.320   54.839    0.284    0.209   20.832
  664.140   59.136    0.259    0.148   17.087
  664.961   64.021    0.303    0.079   14.524
  665.781   68.951    0.355    0.171   12.610
  666.601   73.292    0.504    0.243   12.202
  667.421   75.323    0.506    0.297   11.409
  668.241   75.457    0.511    0.314   10.837
  669.062   75.590    0.514    0.314   10.486
  669.882   74.591    0.515    0.315   10.001
  670.702   73.048    0.516    0.318    9.677
  671.522   71.460    0.518    0.321    9.730
  672.343   69.872    0.521    0.328    9.797
  673.163   69.417    0.525    0.331   10.021
  673.983   68.462    0.528    0.332   10.090
  674.803   68.596    0.532    0.331   10.145
  675.623   68.818    0.534    0.321   10.201
  676.444   69.040    0.530    0.318   10.055
  677.264   68.540    0.524    0.316    9.743
  678.084   68.174    0.520    0.316    9.617
  678.904   70.206    0.518    0.316    9.505
  679.724   72.104    0.519    0.314    9.369
  680.545   74.591    0.521    0.313    9.078
  681.365   77.756    0.522    0.310    8.646
  682.185   80.332    0.521    0.303    8.235
  683.005   82.319    0.527    0.300    7.958
  683.825   83.629    0.539    0.292    7.580
  684.646   85.661    0.545    0.282    7.077
  685.466   86.383    0.527    0.270    6.848
  686.286   87.737    0.520    0.260    6.522
  687.106   88.592    0.519    0.262    6.429
  687.927   88.137    0.521    0.264    6.355
  688.747   87.682    0.522    0.267    6.398
  689.567   86.138    0.525    0.268    6.424
  690.387   85.728    0.528    0.270    6.571
  691.207   84.728    0.531    0.270    6.617
  692.028   84.318    0.530    0.266    6.923
  692.848   84.540    0.527    0.264    6.942
  693.668   84.085    0.523    0.266    7.130
  694.488   84.307    0.518    0.267    7.169
  695.308   83.896    0.517    0.267    7.189
  696.129   83.485    0.520    0.265    7.238
  696.949   83.075    0.524    0.263    7.268
  697.769   82.075    0.528    0.263    7.328
  698.589   81.665    0.527    0.263    7.233
  699.409   81.254    0.528    0.262    7.272
  700.230   80.887    0.528    0.262    7.178
  701.050   81.021    0.531    0.263    7.095
  701.870   82.375    0.533    0.265    6.993
  702.690   84.907    0.535    0.266    6.893
  703.510   86.894    0.539    0.265    6.823
  704.331   87.027    0.541    0.264    6.725
  705.151   87.205    0.543    0.264    6.525
  705.971   86.250    0.541    0.262    6.543
  706.791   84.707    0.528    0.259    6.458
  707.612   84.207    0.525    0.258    6.383
  708.432   83.841    0.525    0.257    6.427
  709.252   84.108    0.529    0.257    6.592
  710.072   83.652    0.529    0.266    6.743
  710.892   82.020    0.527    0.274    7.026
  711.713   80.388    0.518    0.289    7.197
  712.533   77.080    0.496    0.296    7.670
  713.353   74.315    0.487    0.296    8.003
  714.173   72.139    0.482    0.295    8.362
  714.993   71.684    0.486    0.296    8.901
  715.814   71.317    0.493    0.296    9.274
  716.634   70.907    0.498    0.295    9.677
  717.454   71.084    0.491    0.294   10.111
  718.274   71.262    0.474    0.290   10.342
  719.094   71.395    0.475    0.285   10.414
  719.915   70.396    0.479    0.279   10.279
  720.735   66.499    0.477    0.270   10.145
  721.555   64.323    0.457    0.250   10.028
  722.375   62.780    0.447    0.202   10.055
  723.196   62.280    0.448    0.224   11.106
  724.016   61.325    0.429    0.260   12.250
  724.836   60.870    0.310    0.225   15.691
  725.656   59.960    0.254    0.175   21.672
  726.476   60.093    0.273    0.083   20.264
  727.297   60.226    0.339    0.065   18.869
  728.117   62.169    0.390    0.119   15.193
  728.937   65.967    0.490    0.199   13.401
  729.757   67.321    0.523    0.232   10.805
  730.577   67.499    0.537    0.306   10.075
  731.398   67.632    0.528    0.310    9.583
  732.218   67.221    0.520    0.305    9.285
  733.038   67.488    0.515    0.301    8.984
  733.858   70.108    0.512    0.294    8.729
  734.678   71.962    0.510    0.297    8.592
  735.499   75.671    0.506    0.293    8.325
  736.319   81.189    0.503    0.292    8.089
  737.139   84.353    0.502    0.284    7.973
  737.959   86.341    0.502    0.280    7.715
  738.780   87.695    0.505    0.275    7.358
  739.600   90.227    0.508    0.272    7.253
  740.420   91.581    0.511    0.270    6.772
  741.240   90.038    0.513    0.265    6.553
  742.060   87.906    0.514    0.261    6.242
  742.881   86.274    0.516    0.259    6.048
  743.701   85.775    0.517    0.258    6.081
  744.521   83.643    0.518    0.258    6.345
  745.341   82.055    0.515    0.258    6.879
  746.161   81.600    0.511    0.260    7.168
  746.982   80.645    0.507    0.263    7.619
  747.802   80.279    0.503    0.266    8.273
  748.622   80.368    0.500    0.272    8.330
  749.442   81.178    0.496    0.277    8.210
  750.262   81.989    0.491    0.275    8.104
  751.083   82.710    0.496    0.273    7.577
  751.903   84.653    0.504    0.267    7.332
  752.723   87.318    0.512    0.259    6.974
  753.543   87.995    0.515    0.248    6.766
  754.364   89.939    0.522    0.248    6.538
  755.184   91.926    0.527    0.250    6.462
  756.004   93.913    0.533    0.248    6.370
  756.824   95.268    0.536    0.245    6.414
  757.644   96.034    0.539    0.238    6.449
  758.465   96.889    0.539    0.233    6.475
  759.285   96.978    0.538    0.229    6.520
  760.105   98.377    0.529    0.226    6.678
  760.925   99.187    0.527    0.222    6.850
  761.745  100.542    0.527    0.218    7.026
  762.566  101.308    0.527    0.214    7.045
  763.386  102.707    0.515    0.215    7.093
  764.206  102.840    0.513    0.221    7.011
  765.026  103.062    0.509    0.230    6.901
  765.846  102.563    0.505    0.231    6.821
  766.667  101.020    0.502    0.231    6.733
  767.487   98.888    0.494    0.230    6.645
  768.307   97.800    0.491    0.230    6.448
  769.127   95.624    0.482    0.232    6.863
  769.948   94.036    0.472    0.233    7.275
  770.768   93.625    0.469    0.233    7.743
  771.588   93.215    0.470    0.233    8.384
  772.408   94.614    0.475    0.231    8.599
  773.228   96.013    0.481    0.233    8.820
  774.049   95.646    0.499    0.235    8.881
  774.869   95.147    0.502    0.236    8.905
  775.689   95.413    0.500    0.236    8.640
  776.509   95.502    0.494    0.236    8.383
  777.329   95.091    0.491    0.235    8.263
