~VERSION INFORMATION
 VERS.                 2.0:   CWLS LOG ASCII STANDARD -VERSION 2.0
 WRAP.                  NO:   ONE LINE PER DEPTH STEP
~WELL INFORMATION BLOCK
#MNEM.UNIT           DATA                    DESCRIPTION OF MNEMONIC
#---------    -------------------            -------------------------------
# Generated from Intellog Unique Number	CW_70_72/WELL/3016
NULL.         -999.25                        : NULL_VALUE
WELL.         GULF CHISHOLM 07-10            : Well_name    - WELL              
LOC .         07-10-070-26W4                 : Location     - LOCATION          
UWI .         00/07-10-070-26W4/0            : Uwi          - UNIQUE WELL ID    
ENTR.         J                              : Entered      - ENTERED BY        
SRVC.         SCHLUMBERGER                   : Scn          - SERVICE COMPANY   
DATE.         12 MAR 77                      : Date         - LOG DATE          
STRT.M        463.296                        : top_depth    - START DEPTH       
STOP.M        701.046                        : bot_depth    - STOP DEPTH        
STEP.M        0.25                           : increment    - STEP LENGTH       
~CURVE INFORMATION BLOCK
#MNEM UNIT       ERCB CURVE CODE    CURVE DESCRIPTION
#-----------   ------------------   ----------------------------------
DEPT.M        00 001 00 00         : DEPTH        - DEPTH                       
ILD .OHMM     00 120 00 00         : RESD         - DEEP RESISTIVITY (DIL)      
CALI.MM       00 280 01 00         : CAL          - CALIPER                     
GR  .API      00 310 00 00         : GR           - GAMMA RAY                   
NPHI.V/V      00 330 00 00         : PHIN         - NEUTRON POROSITY (SANDSTONE)
DPHI.V/V      00 890 00 00         : PHID         - DENSITY POROSITY (SANDSTONE)
~PARAMETER INFORMATION       
#MNEM.UNIT           DATA             DESCRIPTION OF MNEMONIC
#---------         -----------     ------------------------------
GL  .M        638.861              : gl           - GROUND LEVEL ELEVATION      
EREF.M        642.214              : kb           - ELEVATION OF DEPTH REFERENCE
DATM.M        638.861              : datum        - DATUM ELEVATION             
TDD .M        701.345              : tdd          - TOTAL DEPTH DRILLER         
RUN .         ONE                  : Run          - RUN NUMBER                  
ENG .         FIGGURES             : Engineer     - RECORDING ENGINEER          
WIT .         LANE                 : Witness      - WITNESSED BY                
BASE.         EDM                  : Branch       - HOME BASE OF LOGGING UNIT   
MATR.         SANDSTONE            : Logunit      - NEUTRON MATRIX              
TMAX.C        25.5556              : BHT          - MAXIMUM RECORDED TEMPERATURE
BHTD.M        701.345              : BHTDEP       - MAXIMUM RECORDED TEMPERATURE
RMT .C        16.6667              : MDTP         - TEMPERATURE OF MUD          
MUDD.KG/M     1116                 : MWT          - MUD DENSITY                 
NEUT.         1                    : NEUTRON      - NEUTRON TYPE                
RESI.         0                    : RESIST       - RESISTIVITY TYPE            
RM  .OHMM     0.54                 : RM           - RESISTIVITY OF MUD          
RMC .OHMM     0.25                 : RMC          - RESISTIVITY OF MUD CAKE     
RMF .OHMM     0.25                 : RMF          - RESISTIVITY OF MUD FILTRATE 
SUFT.C        -17.7778             : SUFT         - SURFACE TEMPERATURE         
~A  DEPTH     RESD      CAL       GR     PHIN     PHID
# ...
  682.296    4.673  157.143  106.979    0.316    0.155
  682.546    4.888  154.695   96.006    0.328    0.149
  682.796    5.178  151.023   91.052    0.338    0.153
  683.046    5.505  151.367   88.457    0.343    0.197
  683.296    5.664  152.717   88.770    0.345    0.227
  683.546    5.669  153.879   90.182    0.341    0.211
  683.796    5.421  154.727   92.635    0.335    0.199
  684.046    5.100  155.377   95.683    0.329    0.195
  684.296    4.904  155.712   96.737    0.332    0.197
  684.546    4.758  156.366  102.641    0.341    0.187
  684.796    4.626  156.684  114.802    0.326    0.163
  685.046    4.514  156.925  124.350    0.323    0.148
  685.296    4.428  157.274  129.281    0.335    0.132
  685.546    4.288  158.001  116.671    0.350    0.124
  685.796    4.049  158.042  103.875    0.341    0.122
  686.046    3.979  157.848  103.161    0.325    0.179
  686.296    4.302  157.983  111.857    0.315    0.173
  686.546    4.590  157.917  118.734    0.310    0.144
  686.796    4.925  157.538  125.556    0.317    0.105
  687.046    5.207  157.151  130.184    0.325    0.094
  687.296    5.587  156.561  122.314    0.321    0.098
  687.546    5.769  156.191  111.753    0.317    0.096
  687.796    5.507  155.077  105.700    0.315    0.090
  688.046    5.068  154.391  100.739    0.315    0.083
  688.296    4.596  153.087   97.243    0.315    0.080
  688.546    4.018  151.873   94.284    0.313    0.087
  688.796    3.388  150.664   92.716    0.309    0.118
  689.046    2.718  149.872   90.068    0.314    0.122
  689.296    2.313  149.397   85.046    0.325    0.111
  689.546    2.067  149.007   76.378    0.339    0.129
  689.796    1.868  149.862   65.409    0.349    0.176
  690.046    1.738  150.087   58.257    0.338    0.226
  690.296    1.771  148.783   63.977    0.320    0.226
  690.546    1.975  147.788   74.076    0.315    0.192
  690.796    2.309  148.934   84.053    0.313    0.200
  691.046    2.826  151.117   95.964    0.314    0.171
  691.296    3.654  152.901  123.184    0.319    0.156
  691.546    4.203  154.159  132.976    0.338    0.144
  691.796    4.677  155.213  129.648    0.358    0.129
  692.046    5.148  155.656  122.075    0.353    0.110
  692.296    5.405  155.900  136.058    0.330    0.111
  692.546    5.520  156.743  141.481    0.344    0.096
  692.796    5.545  157.080  130.440    0.364    0.076
  693.046    5.471  157.508  121.900    0.378    0.103
  693.296    5.202  157.762  110.931    0.391    0.078
  693.546    4.683  153.570   91.643    0.358    0.083
  693.796    4.239  147.221   76.298    0.305    0.100
  694.046    3.714  149.206   86.877    0.280    0.178
  694.296    3.469  152.001   99.521    0.249    0.163
  694.546    3.275  152.967  104.878    0.241    0.135
  694.796    3.149  153.298  109.211    0.261    0.117
  695.046    3.022  152.805   98.300    0.281    0.131
  695.296    2.879  152.743   88.966    0.303    0.136
  695.546    2.597  152.565   85.213    0.288    0.148
  695.796    2.364  152.067   83.658    0.292    0.141
  696.046    2.223  150.348   81.539    0.285    0.159
  696.296    1.951  148.842   80.289    0.243    0.174
  696.546    1.805  147.829   78.058    0.220    0.214
  696.796    1.752  147.556   76.003    0.197    0.208
  697.046    3.848  147.992   77.297   -0.009    0.176
  697.296    5.531  149.673   86.793   -0.011    0.142
  697.546    7.150  152.887   87.896   -0.012    0.066
  697.796    8.285  155.389   88.283   -0.012    0.026
  698.046    8.569  153.771   91.153   -0.010    0.027
  698.296    8.151  144.539  101.672   -0.009    0.041
  698.546    7.652  142.205  100.046   -0.009    0.055
  698.796    7.320  142.635   95.512   -0.010    0.075
  699.046    7.115  143.590   88.298   -0.011    0.068
  699.296    6.853  144.545   82.855   -0.013    0.053
  699.546    6.712  146.428   76.490   -0.013    0.045
  699.796    6.597  149.429   72.565   -0.011    0.078
  700.046    6.530  152.139   68.458   -0.003    0.108
  700.296    6.550  153.918   64.280    0.014    0.125
  700.546    6.508  154.148   62.420    0.015    0.176
  700.796    6.479  154.280   59.988    0.014    0.160
  701.046    6.473  153.589   58.855    0.014    0.162
