~VERSION INFORMATION
 VERS.                 2.0:   CWLS LOG ASCII STANDARD -VERSION 2.0
 WRAP.                  NO:   ONE LINE PER DEPTH STEP
~WELL INFORMATION BLOCK
#MNEM.UNIT           DATA                    DESCRIPTION OF MNEMONIC
#---------    -------------------            -------------------------------
# Generated from Intellog Unique Number	CS_73_76/WELL/3217
WELL.         07-36-076-11W4                 : Well_name    - WELL
LOC .         00/07-36-076-11W4/0            : Location     - LOCATION
UWI .         00/07-36-076-11W4/0            : Uwi          - UNIQUE WELL ID
ENTR.         SP                             : Entered      - ENTERED BY
SRVC.         SCHLUMBERGER                   : Scn          - SERVICE COMPANY
STRT.M        256.032                        : top_depth    - START DEPTH
STOP.M        502.782                        : bot_depth    - STOP DEPTH
STEP.M        0.25                           : increment    - STEP LENGTH
 NULL. -999.2500:NULL Value
~CURVE INFORMATION BLOCK
#MNEM UNIT       ERCB CURVE CODE    CURVE DESCRIPTION
#-----------   ------------------   ----------------------------------
DEPT.M        00 001 00 00         : DEPTH        - DEPTH
GR  .API      00 310 00 00         : GR           - GAMMA RAY
DPHI.V/V      00 890 00 00         : PHID         - DENSITY POROSITY (SANDSTONE)
NPHI.V/V      00 330 00 00         : PHIN         - NEUTRON POROSITY (SANDSTONE)
ILD .OHMM     00 120 00 00         : RESD         - DEEP RESISTIVITY (DIL)
~PARAMETER INFORMATION
#MNEM.UNIT           DATA             DESCRIPTION OF MNEMONIC
#---------         -----------     ------------------------------
GL  .M        673.303              : gl           - GROUND LEVEL ELEVATION
EREF.M        677.509              : kb           - ELEVATION OF DEPTH REFERENCE
DATM.M        673.303              : datum        - DATUM ELEVATION
TDD .M        505.968              : tdd          - TOTAL DEPTH DRILLER
RUN .         ONE                  : Run          - RUN NUMBER
ENG .         BILL                 : Engineer     - RECORDING ENGINEER
WIT .         JIM                  : Witness      - WITNESSED BY
MUD .         GEL                  : Mud_type     - MUD TYPE
MATR.         SANDSTONE            : Logunit      - NEUTRON MATRIX
TMAX.C        27.7778              : BHT          - MAXIMUM RECORDED TEMPERATURE
BHTD.M        505.968              : BHTDEP       - MAXIMUM RECORDED TEMPERATURE
MATR.         1                    : LOGUNIT      - NEUTRON MATRIX
RMT .C        25                   : MDTP         - TEMPERATURE OF MUD
NEUT.         1                    : NEUTRON      - NEUTRON TYPE
RESI.         0                    : RESIST       - RESISTIVITY TYPE
RMC .OHMM     0.25                 : RMC          - RESISTIVITY OF MUD CAKE
RMF .OHMM     0.25                 : RMF          - RESISTIVITY OF MUD FILTRATE
SUFT.C        15                   : SUFT         - SURFACE TEMPERATURE
~A  DEPTH       GR     PHID     PHIN     RESD
  256.032   52.199    0.296    0.438   25.366
  256.282   48.731    0.295    0.413   25.853
  256.532   52.167    0.308    0.423   25.830
  256.782   53.427    0.318    0.426   25.858
  257.032   50.876    0.313    0.434   25.365
  257.282   48.246    0.319    0.444   24.816
  257.532   47.280    0.329    0.452   23.711
  257.782   49.182    0.336    0.449   22.126
  258.032   52.010    0.344    0.460   20.627
  258.282   60.780    0.351    0.489   18.114
  258.532   68.889    0.362    0.508   14.266
  258.782   96.733    0.374    0.540   11.449
  259.032  106.725    0.389    0.575    9.678
  259.282  112.502    0.303    0.583    8.367
  259.532  113.340    0.302    0.566    7.424
  259.782  112.542    0.281    0.536    6.843
  260.032  109.414    0.266    0.528    6.631
  260.282  108.606    0.268    0.539    6.535
  260.532  107.614    0.277    0.533    6.154
  260.782  106.635    0.274    0.506    5.785
  261.032  108.138    0.271    0.505    5.356
  261.282  109.753    0.253    0.527    5.054
  261.532  110.391    0.257    0.545    4.662
  261.782  113.008    0.256    0.546    4.325
  262.032  118.872    0.269    0.547    4.161
  262.282  119.901    0.267    0.541    4.115
  262.532  119.876    0.274    0.543    4.034
  262.782  117.065    0.266    0.559    4.040
  263.032  115.710    0.275    0.574    4.039
  263.282  114.093    0.279    0.584    3.995
  263.532  111.919    0.264    0.581    3.958
  263.782  111.365    0.269    0.590    3.835
  264.032  114.433    0.278    0.599    3.753
  264.282  118.350    0.285    0.599    3.675
  264.532  120.673    0.274    0.600    3.570
  264.782  123.801    0.264    0.603    3.490
  265.032  121.534    0.281    0.609    3.425
  265.282  117.261    0.294    0.606    3.487
  265.532  111.600    0.287    0.572    3.561
  265.782  106.700    0.265    0.555    3.551
  266.032  103.719    0.237    0.552    3.626
  266.282  107.494    0.208    0.576    3.633
  266.532  115.080    0.207    0.608    3.687
  266.782  120.034    0.231    0.628    3.715
  267.032  117.266    0.265    0.636    3.825
  267.282  116.420    0.254    0.627    3.883
  267.532  116.315    0.252    0.617    3.897
  267.782  115.606    0.260    0.622    3.815
  268.032  114.272    0.274    0.634    3.749
  268.282  113.044    0.290    0.622    3.729
  268.532  111.366    0.306    0.627    3.686
  268.782  109.720    0.301    0.623    3.685
  269.032  109.682    0.294    0.613    3.685
  269.282  108.409    0.298    0.613    3.686
  269.532  109.209    0.292    0.621    3.728
  269.782  112.534    0.278    0.628    3.763
  270.032  113.729    0.266    0.629    3.880
  270.282  115.389    0.267    0.613    4.074
  270.532  115.542    0.271    0.601    4.275
  270.782  113.145    0.257    0.577    4.393
  271.032  109.381    0.243    0.560    4.550
  271.282  110.231    0.242    0.577    4.597
  271.532  110.377    0.251    0.590    4.749
  271.782  110.876    0.257    0.595    4.765
  272.032  113.131    0.252    0.585    4.766
  272.282  114.997    0.260    0.576    4.752
  272.532  121.621    0.275    0.590    4.999
  272.782  131.680    0.293    0.617    5.221
  273.032  141.483    0.306    0.648    5.233
  273.282  151.875    0.343    0.687    5.122
  273.532  165.033    0.493    0.713    5.131
  273.782  185.808    0.567    0.725    5.128
  274.032  184.291    0.506    0.711    5.123
  274.282  177.006    0.445    0.674    4.983
  274.532  157.830    0.451    0.706    4.601
  274.782  150.830    0.499    0.728    4.344
  275.032  136.775    0.494    0.642    4.408
  275.282  104.663    0.365    0.587    4.806
  275.532   90.123    0.299    0.577    5.488
  275.782   76.939    0.321    0.644    6.656
  276.032   66.220    0.389    0.686    8.320
  276.282   58.951    0.413    0.615   10.544
  276.532   54.019    0.357    0.523   13.549
  276.782   49.291    0.299    0.414   17.055
  277.032   52.288    0.306    0.400   22.291
  277.282   57.466    0.295    0.400   23.486
  277.532   61.616    0.296    0.433   22.245
  277.782   64.752    0.307    0.450   20.903
  278.032   63.458    0.323    0.453   20.083
  278.282   63.229    0.335    0.458   19.613
  278.532   63.924    0.328    0.468   19.628
  278.782   66.088    0.325    0.473   19.773
  279.032   68.529    0.315    0.478   20.699
  279.282   68.785    0.291    0.462   21.319
  279.532   69.930    0.242    0.455   21.929
  279.782   72.810    0.198    0.424   21.880
  280.032   78.869    0.156    0.465   21.480
  280.282   85.656    0.254    0.478   19.151
  280.532   88.329    0.317    0.469   17.573
  280.782   92.380    0.290    0.472   16.006
  281.032   98.698    0.286    0.464   14.313
  281.282  102.053    0.253    0.455   13.244
  281.532  103.181    0.256    0.455   12.523
  281.782   99.847    0.271    0.461   12.379
  282.032   97.824    0.276    0.478   12.969
  282.282   95.534    0.275    0.485   13.966
  282.532   91.573    0.293    0.484   15.096
  282.782   87.890    0.276    0.490   15.864
  283.032   86.632    0.296    0.486   17.024
  283.282   89.214    0.317    0.478   18.087
  283.532   89.510    0.326    0.475   19.079
  283.782   94.653    0.333    0.478   19.621
  284.032   98.589    0.332    0.478   19.875
  284.282   98.781    0.324    0.497   19.858
  284.532   99.725    0.327    0.510   19.256
  284.782  100.998    0.331    0.515   18.156
  285.032  103.970    0.322    0.502   16.709
  285.282  110.780    0.305    0.489   16.047
  285.532  113.762    0.292    0.476   15.608
  285.782  115.941    0.284    0.472   14.857
  286.032  115.003    0.289    0.477   14.656
  286.282  108.760    0.282    0.475   14.626
  286.532  105.439    0.273    0.490   14.617
  286.782  101.304    0.288    0.469   14.645
  287.032  100.026    0.286    0.464   14.342
  287.282   99.667    0.278    0.478   14.077
  287.532   98.752    0.270    0.484   13.643
  287.782   96.039    0.261    0.477   13.601
  288.032   93.143    0.245    0.469   13.345
  288.282   87.869    0.315    0.470   13.076
  288.532   81.783    0.385    0.515   13.078
  288.782   80.152    0.457    0.580   13.315
  289.032   84.868    0.463    0.642   13.321
  289.282   87.188    0.401    0.626   13.689
  289.532   85.027    0.366    0.567   14.817
  289.782   83.402    0.338    0.543   16.113
  290.032   80.330    0.333    0.504   17.635
  290.282   77.379    0.324    0.479   19.120
  290.532   75.841    0.318    0.493   19.775
  290.782   74.415    0.320    0.516   19.980
  291.032   73.434    0.333    0.500   20.374
  291.282   72.554    0.346    0.498   20.327
  291.532   72.635    0.343    0.505   20.707
  291.782   72.032    0.343    0.509   20.716
  292.032   70.402    0.348    0.501   20.724
  292.282   68.420    0.350    0.496   20.725
  292.532   68.379    0.348    0.494   20.725
  292.782   69.185    0.354    0.483   20.725
  293.032   71.753    0.358    0.478   20.724
  293.282   73.737    0.348    0.477   20.716
  293.532   75.023    0.333    0.470   20.711
  293.782   74.382    0.319    0.474   20.322
  294.032   72.090    0.323    0.486   20.337
  294.282   71.942    0.323    0.504   20.354
  294.532   73.247    0.332    0.495   19.950
  294.782   75.186    0.330    0.488   19.994
  295.032   75.522    0.321    0.507   19.643
  295.282   76.111    0.313    0.518   19.659
  295.532   76.622    0.320    0.506   19.225
  295.782   75.486    0.329    0.493   19.290
  296.032   75.520    0.325    0.496   18.879
  296.282   75.520    0.323    0.505   18.930
  296.532   75.977    0.321    0.481   19.277
  296.782   75.930    0.325    0.459   19.259
  297.032   74.907    0.335    0.456   19.256
  297.282   75.913    0.326    0.465   19.259
  297.532   80.718    0.338    0.476   19.281
  297.782   83.857    0.346    0.483   18.917
  298.032   86.453    0.332    0.491   18.716
  298.282   90.637    0.320    0.496   18.006
  298.532   96.054    0.324    0.499   15.700
  298.782  101.666    0.309    0.501   11.992
  299.032  110.342    0.275    0.503    9.587
  299.282  120.135    0.234    0.522    8.290
