~VERSION INFORMATION
 VERS.                 2.0:   CWLS LOG ASCII STANDARD -VERSION 2.0
 WRAP.                  NO:   ONE LINE PER DEPTH STEP
~WELL INFORMATION BLOCK
#MNEM.UNIT           DATA                    DESCRIPTION OF MNEMONIC
#---------    -------------------            -------------------------------
# Generated from Intellog Unique Number	CS_69_70/WELL/833
NULL.         -999.25                        : NULL_VALUE
WELL.         GULF CANADA LIMITED            : Well_name    - WELL              
LOC .         00/07-17-070-15W4/0            : Location     - LOCATION          
UWI .         00/07-17-070-15W4/0            : Uwi          - UNIQUE WELL ID    
ENTR.         SP                             : Entered      - ENTERED BY        
SRVC.         SCHLUMBERGER                   : Scn          - SERVICE COMPANY   
STRT.M        245                            : top_depth    - START DEPTH       
STOP.M        509                            : bot_depth    - STOP DEPTH        
STEP.M        0.25                           : increment    - STEP LENGTH       
~CURVE INFORMATION BLOCK
#MNEM UNIT       ERCB CURVE CODE    CURVE DESCRIPTION
#-----------   ------------------   ----------------------------------
DEPT.M        00 001 00 00         : DEPTH        - DEPTH                       
GR  .API      00 310 00 00         : GR           - GAMMA RAY                   
NPHI.V/V      00 330 00 00         : PHIN         - NEUTRON POROSITY (LIMESTONE)
DPHI.V/V      00 890 00 00         : PHID         - DENSITY POROSITY (LIMESTONE)
ILD .OHMM     00 120 00 00         : RESD         - DEEP RESISTIVITY (DIL)      
~PARAMETER INFORMATION       
#MNEM.UNIT           DATA             DESCRIPTION OF MNEMONIC
#---------         -----------     ------------------------------
GL  .M        567.89               : gl           - GROUND LEVEL ELEVATION      
EREF.M        572.24               : kb           - ELEVATION OF DEPTH REFERENCE
DATM.M        567.89               : datum        - DATUM ELEVATION             
TDD .M        519                  : tdd          - TOTAL DEPTH DRILLER         
RUN .         ONE                  : Run          - RUN NUMBER                  
ENG .         BILL                 : Engineer     - RECORDING ENGINEER          
WIT .         JIM                  : Witness      - WITNESSED BY                
MUD .         GEL                  : Mud_type     - MUD TYPE                    
MATR.         LIMESTONE            : Logunit      - NEUTRON MATRIX              
TMAX.C        25.5                 : BHT          - MAXIMUM RECORDED TEMPERATURE
BHTD.M        519                  : BHTDEP       - MAXIMUM RECORDED TEMPERATURE
MATR.         1                    : LOGUNIT      - NEUTRON MATRIX              
RMT .C        25                   : MDTP         - TEMPERATURE OF MUD          
NEUT.         1                    : NEUTRON      - NEUTRON TYPE                
RESI.         0                    : RESIST       - RESISTIVITY TYPE            
RMC .OHMM     0.25                 : RMC          - RESISTIVITY OF MUD CAKE     
RMF .OHMM     0.25                 : RMF          - RESISTIVITY OF MUD FILTRATE 
SUFT.C        15                   : SUFT         - SURFACE TEMPERATURE         
~A  DEPTH       GR     PHIN     PHID     RESD
# ...
  332.000   88.596    0.439    0.257    4.240
  332.250   89.325    0.440    0.240    4.311
  332.500   88.361    0.440    0.249    4.320
  332.750   88.245    0.442    0.251    4.312
  333.000   89.519    0.450    0.237    4.336
  333.250   91.944    0.444    0.224    4.352
  333.500   93.461    0.427    0.216    4.353
  333.750   93.647    0.410    0.217    4.361
  334.000   93.046    0.407    0.230    4.361
  334.250   90.750    0.419    0.242    4.329
  334.500   85.732    0.429    0.249    4.305
  334.750   81.985    0.422    0.259    4.329
  335.000   79.568    0.416    0.269    4.338
  335.250   82.780    0.422    0.250    4.274
  335.500   89.138    0.409    0.227    4.133
  335.750   92.893    0.411    0.216    3.909
  336.000   95.862    0.440    0.218    3.739
  336.250   97.440    0.489    0.225    3.582
  336.500   95.508    0.476    0.229    3.484
  336.750   96.420    0.470    0.232    3.510
  337.000   99.268    0.485    0.229    3.596
  337.250  100.300    0.480    0.221    3.678
  337.500   95.222    0.468    0.215    3.896
  337.750   93.290    0.463    0.214    4.166
  338.000   92.023    0.460    0.222    4.496
  338.250   89.425    0.446    0.232    4.692
  338.500   89.249    0.436    0.238    4.870
  338.750   91.552    0.435    0.228    5.055
  339.000   94.642    0.417    0.212    5.325
  339.250   96.764    0.390    0.201    5.365
  339.500   96.647    0.377    0.206    5.446
  339.750   94.414    0.397    0.211    5.477
  340.000   93.085    0.411    0.214    5.508
  340.250   94.118    0.410    0.216    5.477
  340.500   94.667    0.424    0.224    5.277
  340.750   94.249    0.437    0.233    5.047
  341.000   88.867    0.452    0.242    4.792
  341.250   79.674    0.430    0.242    4.721
  341.500   80.041    0.398    0.246    4.801
  341.750   84.341    0.389    0.232    4.873
  342.000   89.973    0.399    0.208    4.837
  342.250   93.063    0.402    0.196    4.541
  342.500   86.955    0.401    0.241    4.263
  342.750   78.065    0.421    0.287    4.070
  343.000   74.742    0.439    0.309    4.040
  343.250   77.166    0.438    0.293    4.116
  343.500   79.772    0.426    0.268    4.178
  343.750   80.744    0.413    0.245    4.178
  344.000   73.547    0.404    0.263    3.981
  344.250   66.714    0.417    0.290    3.709
  344.500   62.604    0.429    0.316    3.431
  344.750   62.548    0.432    0.336    3.239
  345.000   62.975    0.421    0.339    3.109
  345.250   62.919    0.408    0.335    3.058
  345.500   62.319    0.401    0.332    3.092
  345.750   60.628    0.398    0.334    3.116
  346.000   58.877    0.410    0.336    3.162
  346.250   58.216    0.423    0.336    3.180
  346.500   60.762    0.419    0.336    3.180
  346.750   61.917    0.415    0.336    3.180
  347.000   62.101    0.411    0.330    3.175
  347.250   61.742    0.405    0.324    3.163
  347.500   59.568    0.393    0.324    3.163
  347.750   59.996    0.402    0.323    3.163
  348.000   61.937    0.426    0.320    3.076
  348.250   63.212    0.440    0.328    3.077
  348.500   64.486    0.438    0.320    3.077
  348.750   65.096    0.429    0.318    3.100
  349.000   64.252    0.417    0.324    3.123
  349.250   59.356    0.412    0.325    3.141
  349.500   57.847    0.403    0.321    3.153
  349.750   58.820    0.404    0.321    3.147
  350.000   60.458    0.409    0.322    3.141
  350.250   61.369    0.407    0.329    3.112
  350.500   59.800    0.409    0.336    3.072
  350.750   56.356    0.412    0.338    3.032
  351.000   55.936    0.413    0.335    2.999
  351.250   57.816    0.409    0.331    3.010
  351.500   58.546    0.406    0.333    3.061
  351.750   63.936    0.404    0.338    3.183
  352.000   76.224    0.409    0.323    3.360
  352.250   84.457    0.418    0.229    3.599
  352.500   89.786    0.424    0.219    3.906
  352.750   93.178    0.412    0.219    4.176
  353.000   94.332    0.395    0.223    4.392
  353.250   93.126    0.399    0.232    4.524
  353.500   92.283    0.408    0.239    4.567
  353.750   92.288    0.411    0.239    4.567
  354.000   92.897    0.403    0.234    4.533
  354.250   93.265    0.407    0.228    4.458
  354.500   98.352    0.418    0.217    4.434
  354.750  103.559    0.423    0.208    4.385
  355.000  106.045    0.436    0.201    4.393
  355.250  105.443    0.445    0.195    4.418
  355.500  102.422    0.417    0.206    4.468
  355.750   96.678    0.407    0.213    4.552
  356.000   89.360    0.410    0.196    4.543
  356.250   78.533    0.406    0.212    4.410
  356.500   73.818    0.402    0.255    4.095
  356.750   71.462    0.415    0.282    3.916
  357.000   68.925    0.430    0.286    3.801
  357.250   66.872    0.448    0.296    3.670
  357.500   66.210    0.431    0.316    3.636
  357.750   67.183    0.419    0.315    3.596
  358.000   67.672    0.427    0.299    3.596
  358.250   66.042    0.424    0.287    3.603
  358.500   66.469    0.398    0.292    3.643
  358.750   67.805    0.404    0.302    3.712
  359.000   67.748    0.414    0.307    3.761
  359.250   69.870    0.416    0.293    3.803
  359.500   73.203    0.416    0.282    3.839
  359.750   76.597    0.420    0.269    3.911
  360.000   78.114    0.421    0.260    3.918
  360.250   77.996    0.422    0.257    3.918
  360.500   74.914    0.422    0.273    3.861
  360.750   72.256    0.427    0.296    3.790
  361.000   70.687    0.438    0.305    3.734
  361.250   71.538    0.440    0.296    3.659
  361.500   73.298    0.428    0.292    3.638
  361.750   73.362    0.423    0.286    3.592
  362.000   73.063    0.421    0.285    3.565
  362.250   71.010    0.418    0.288    3.500
  362.500   68.896    0.422    0.293    3.454
  362.750   66.662    0.439    0.308    3.448
  363.000   66.545    0.449    0.325    3.474
  363.250   70.119    0.460    0.329    3.546
  363.500   76.114    0.468    0.304    3.606
  363.750   83.561    0.471    0.274    3.620
  364.000   90.463    0.456    0.247    3.593
  364.250   92.585    0.449    0.227    3.462
  364.500   92.772    0.458    0.208    3.367
  364.750   92.291    0.443    0.219    3.305
  365.000   91.569    0.439    0.236    3.238
  365.250   90.544    0.443    0.240    3.173
  365.500   91.396    0.439    0.239    3.138
  365.750   90.250    0.443    0.258    2.865
  366.000   83.235    0.458    0.286    2.902
  366.250   77.128    0.446    0.306    2.962
  366.500   73.321    0.434    0.309    3.063
  366.750   73.022    0.440    0.312    3.209
  367.000   75.507    0.441    0.301    3.264
  367.250   77.145    0.433    0.268    3.490
  367.500   77.876    0.444    0.254    3.555
  367.750   74.491    0.454    0.271    3.669
  368.000   69.837    0.445    0.258    3.795
  368.250   68.025    0.370    0.190    3.924
  368.500   66.093    0.311    0.133    4.035
  368.750   67.671    0.323    0.245    4.134
  369.000   70.639    0.391    0.283    4.111
  369.250   73.972    0.420    0.302    3.954
  369.500   75.368    0.447    0.309    3.671
  369.750   75.795    0.455    0.310    3.459
  370.000   76.223    0.464    0.307    3.314
  370.250   76.106    0.473    0.304    3.217
  370.500   73.992    0.481    0.307    3.217
  370.750   72.242    0.478    0.316    3.247
  371.000   70.976    0.460    0.323    3.327
  371.250   68.922    0.446    0.327    3.492
  371.500   65.478    0.439    0.322    3.624
  371.750   62.396    0.428    0.241    4.098
  372.000   57.983    0.242    0.078    5.141
  372.250   54.417    0.161    0.037    6.769
  372.500   53.453    0.212    0.072   10.040
  372.750   55.696    0.247    0.126   11.080
  373.000   61.025    0.275    0.156    9.269
  373.250   65.326    0.313    0.200    6.204
  373.500   67.871    0.356    0.272    4.302
  373.750   70.114    0.403    0.296    3.633
  374.000   72.115    0.426    0.304    3.410
  374.250   72.845    0.426    0.310    3.360
  374.500   73.334    0.428    0.291    3.348
  374.750   73.338    0.434    0.297    3.348
  375.000   73.283    0.434    0.302    3.342
  375.250   72.862    0.434    0.288    3.348
