~VERSION INFORMATION
 VERS.                 2.0:   CWLS LOG ASCII STANDARD -VERSION 2.0
 WRAP.                  NO:   ONE LINE PER DEPTH STEP
~WELL INFORMATION BLOCK
#MNEM.UNIT           DATA                    DESCRIPTION OF MNEMONIC
#---------    -------------------            -------------------------------
# Generated from Intellog Unique Number	CX_WELLS/WELL/3261
WELL.         PARA ET AL GRAMOR              : Well_name    - WELL
LOC .         00/06-23-083-18W4/0            : Location     - LOCATION
UWI .         00/06-23-083-18W400            : Uwi          - UNIQUE WELL ID
ENTR.         T                              : Entered      - ENTERED BY
SRVC.         SCHLUMBERGER                   : Scn          - SERVICE COMPANY
DATE.         03/04/92                       : Date         - LOG DATE
STRT.M        100                            : top_depth    - START DEPTH
STOP.M        295                            : bot_depth    - STOP DEPTH
STEP.M        0.25                           : increment    - STEP LENGTH
 NULL. -999.2500:NULL Value
~CURVE INFORMATION BLOCK
#MNEM UNIT       ERCB CURVE CODE    CURVE DESCRIPTION
#-----------   ------------------   ----------------------------------
DEPT.M        00 001 00 00         : DEPTH        - DEPTH
GR  .API      00 310 00 00         : GR           - GAMMA RAY
NPHI.V/V      00 330 00 00         : PHIN         - NEUTRON POROSITY (SANDSTONE)
DPHI.V/V      00 890 00 00         : PHID         - DENSITY POROSITY (SANDSTONE)
ILD .OHMM     00 120 00 00         : RESD         - DEEP RESISTIVITY (DIL)
~PARAMETER INFORMATION
#MNEM.UNIT           DATA             DESCRIPTION OF MNEMONIC
#---------         -----------     ------------------------------
GL  .M        551.9                : gl           - GROUND LEVEL ELEVATION
EREF.M        554.9                : kb           - ELEVATION OF DEPTH REFERENCE
DATM.M        554.9                : datum        - DATUM ELEVATION
TDD .M        293                  : tdd          - TOTAL DEPTH DRILLER
RUN .         ONE                  : Run          - RUN NUMBER
ENG .         JO                   : Engineer     - RECORDING ENGINEER
WIT .         TIM                  : Witness      - WITNESSED BY
MUD .         GEL                  : Mud_type     - MUD TYPE
MATR.         SANDSTONE            : Logunit      - NEUTRON MATRIX
TMAX.C        23                   : BHT          - MAXIMUM RECORDED TEMPERATURE
BHTD.M        293                  : BHTDEP       - MAXIMUM RECORDED TEMPERATURE
RMT .C        18                   : MDTP         - TEMPERATURE OF MUD
MUDD.KG/M     1                    : MWT          - MUD DENSITY
NEUT.         1                    : NEUTRON      - NEUTRON TYPE
RESI.         0                    : RESIST       - RESISTIVITY TYPE
RM  .OHMM     2.2                  : RM           - RESISTIVITY OF MUD
RMC .OHMM     1.9                  : RMC          - RESISTIVITY OF MUD CAKE
RMF .OHMM     1.9                  : RMF          - RESISTIVITY OF MUD FILTRATE
SUFT.C        4                    : SUFT         - SURFACE TEMPERATURE
~A  DEPTH       GR     PHIN     PHID     RESD
# ...
  230.500  100.343    0.349    0.233   11.085
  230.750   98.507    0.348    0.247   10.486
  231.000   95.433    0.371    0.252   10.298
  231.250   94.861    0.383    0.235    9.561
  231.500   96.193    0.395    0.219    9.567
  231.750   97.485    0.402    0.215    9.584
  232.000   98.151    0.397    0.213    9.597
  232.250   98.205    0.402    0.213    9.431
  232.500   98.259    0.402    0.216    9.441
  232.750   99.564    0.400    0.218    9.460
  233.000   99.631    0.399    0.219    9.291
  233.250   99.059    0.398    0.218    9.304
  233.500   98.474    0.396    0.214    9.317
  233.750   97.903    0.396    0.213    9.329
  234.000   99.221    0.397    0.209    9.345
  234.250   99.901    0.398    0.204    9.352
  234.500  100.580    0.400    0.201    9.368
  234.750  101.885    0.400    0.209    9.377
  235.000  101.925    0.402    0.215    9.393
  235.250  101.979    0.407    0.212    9.225
  235.500  102.047    0.409    0.209    9.244
  235.750  102.101    0.414    0.207    9.253
  236.000  102.168    0.417    0.203    9.272
  236.250  102.208    0.414    0.202    9.282
  236.500  102.262    0.408    0.200    9.291
  236.750  101.065    0.404    0.199    9.483
  237.000  101.106    0.397    0.199    9.496
  237.250  101.159    0.392    0.201   10.073
  237.500  103.090    0.395    0.206   10.278
  237.750  103.171    0.401    0.214   11.113
  238.000  101.947    0.393    0.229   11.780
  238.250   97.635    0.373    0.237   13.487
  238.500   96.438    0.374    0.244   14.858
  238.750   95.227    0.379    0.241   16.374
  239.000   92.153    0.375    0.235   15.782
  239.250   89.705    0.356    0.219   15.206
  239.500   85.393    0.312    0.137   14.384
  239.750   79.178    0.222    0.067   13.860
  240.000   71.725    0.194    0.123   13.359
  240.250   76.784    0.297    0.180   13.124
  240.500   80.605    0.326    0.230   13.147
  240.750   80.672    0.357    0.254   13.165
  241.000   80.087    0.370    0.268   13.437
  241.250   80.141    0.382    0.269   13.719
  241.500   79.569    0.383    0.265   13.993
  241.750   79.609    0.374    0.246   14.853
  242.000   79.677    0.369    0.232   15.442
  242.250   79.717    0.377    0.241   16.374
  242.500   80.437    0.385    0.250   17.698
  242.750   80.464    0.371    0.251   18.773
  243.000   80.504    0.313    0.247   19.161
  243.250   79.933    0.280    0.229   17.770
  243.500   74.982    0.253    0.153   15.569
  243.750   68.155    0.210    0.050   14.444
  244.000   70.711    0.193    0.093   14.748
  244.250   76.395    0.273    0.155   15.940
  244.500   79.577    0.322    0.199   16.902
  244.750   79.644    0.373    0.226   15.379
  245.000   78.447    0.354    0.194   13.479
  245.250   75.985    0.271    0.160   12.032
  245.500   71.048    0.214    0.091   10.150
  245.750   76.718    0.182    0.043    8.556
  246.000   84.293    0.210    0.128    8.250
  246.250   92.479    0.294    0.159    8.421
  246.500  103.806    0.348    0.186    8.760
  246.750  109.490    0.386    0.214    9.114
  247.000  110.809    0.402    0.220    9.661
  247.250  108.360    0.385    0.225   10.855
  247.500  105.898    0.390    0.232   11.729
  247.750  101.573    0.390    0.242   11.745
  248.000   98.486    0.385    0.243   11.538
  248.250   95.426    0.379    0.218   11.121
  248.500   93.589    0.371    0.208   10.517
  248.750   91.766    0.366    0.199   10.136
  249.000   93.072    0.367    0.194    9.589
  249.250   97.531    0.372    0.195    9.417
  249.500  100.074    0.383    0.190    9.255
  249.750  103.269    0.396    0.187    9.092
  250.000  105.200    0.405    0.187    9.108
  250.250  105.893    0.418    0.188    9.114
  250.500  105.920    0.425    0.194    8.957
  250.750  106.613    0.412    0.198    8.966
  251.000  107.292    0.407    0.193    8.981
  251.250  107.332    0.400    0.186    8.824
  251.500  108.025    0.395    0.179    8.839
  251.750  108.066    0.387    0.171    8.686
  252.000  108.147    0.382    0.170    8.528
  252.250  108.174    0.377    0.178    8.378
  252.500  108.227    0.383    0.190    8.231
  252.750  108.281    0.391    0.195    7.936
  253.000  108.335    0.388    0.190    7.652
  253.250  108.403    0.384    0.182    7.657
  253.500  110.333    0.384    0.178    7.380
  253.750  112.889    0.394    0.182    7.251
  254.000  116.724    0.402    0.185    7.123
  254.250  116.751    0.409    0.188    7.001
  254.500  117.443    0.414    0.188    7.010
  254.750  118.748    0.419    0.188    7.020
  255.000  121.318    0.418    0.186    7.300
  255.250  122.596    0.411    0.185    8.045
  255.500  123.901    0.406    0.183    8.863
  255.750  116.448    0.401    0.178   10.148
  256.000  108.370    0.391    0.173   10.361
  256.250  101.556    0.358    0.170    9.983
  256.500  101.610    0.345    0.177    9.804
  256.750  104.166    0.350    0.193    9.635
  257.000  104.207    0.345    0.192    9.645
  257.250   99.256    0.334    0.185   10.038
  257.500   95.543    0.328    0.174   10.439
  257.750   96.223    0.342    0.176   11.730
  258.000  103.171    0.358    0.182   12.434
  258.250  108.229    0.368    0.187   13.698
  258.500  109.548    0.368    0.192   15.096
  258.750  100.831    0.358    0.197   15.402
  259.000   95.893    0.340    0.230   15.721
  259.250   95.335    0.327    0.244   15.742
  259.500   94.111    0.329    0.263   14.610
  259.750   90.425    0.331    0.278   14.077
  260.000   89.840    0.330    0.278   13.568
  260.250   88.044    0.327    0.269   13.330
  260.500   87.445    0.326    0.261   13.867
  260.750   88.138    0.328    0.257   14.993
  261.000   88.179    0.337    0.253   16.211
  261.250   88.885    0.344    0.234   17.521
  261.500   89.551    0.345    0.225   18.228
  261.750   87.728    0.307    0.195   17.243
  262.000   84.641    0.284    0.081   16.614
  262.250   81.554    0.264    0.069   15.705
  262.500   77.229    0.291    0.120   14.575
  262.750   74.168    0.297    0.178   14.044
  263.000   76.099    0.303    0.185   13.536
  263.250   79.906    0.313    0.209   13.056
  263.500   84.965    0.329    0.224   12.822
  263.750   88.772    0.343    0.237   13.083
  264.000   88.200    0.361    0.247   13.610
  264.250   87.628    0.359    0.247   14.437
  264.500   89.559    0.353    0.238   15.309
  264.750   91.490    0.341    0.229   15.045
  265.000   89.055    0.327    0.186   14.501
  265.250   86.593    0.287    0.152   13.458
  265.500   85.396    0.263    0.141   12.963
  265.750   86.701    0.283    0.112   12.262
  266.000   89.882    0.298    0.136   11.600
  266.250   93.064    0.307    0.171   11.177
  266.500   93.743    0.310    0.175   10.976
  266.750   93.185    0.320    0.181   10.387
  267.000   93.226    0.332    0.186   10.197
  267.250   93.280    0.349    0.192   10.021
  267.500   95.251    0.361    0.202   10.032
  267.750   95.903    0.360    0.207    9.862
  268.000   95.957    0.359    0.215    9.872
  268.250   95.399    0.364    0.208    9.883
  268.500   94.814    0.366    0.201    9.896
  268.750   94.255    0.370    0.199    9.726
  269.000   96.200    0.371    0.201    9.551
  269.250   97.478    0.366    0.208    9.206
  269.500   97.545    0.358    0.208    8.544
  269.750   96.960    0.350    0.202    8.232
  270.000   95.137    0.357    0.191    7.790
  270.250   93.953    0.370    0.179    7.648
  270.500   94.007    0.378    0.175    7.372
  270.750   96.563    0.382    0.190    7.107
  271.000   99.745    0.383    0.200    6.596
  271.250  103.539    0.383    0.198    6.356
  271.500  106.095    0.384    0.193    5.900
  271.750  106.788    0.385    0.186    5.793
  272.000  106.842    0.390    0.169    5.585
  272.250  108.147    0.393    0.161    5.699
  272.500  110.091    0.396    0.161    6.162
  272.750  112.021    0.400    0.176    6.531
  273.000  115.203    0.401    0.184    7.475
  273.250  117.759    0.402    0.186    8.556
  273.500  119.690    0.402    0.186    9.796
  273.750  119.730    0.401    0.187   11.873
