~VERSION INFORMATION
 VERS.                 2.0:   CWLS LOG ASCII STANDARD -VERSION 2.0
 WRAP.                  NO:   ONE LINE PER DEPTH STEP
~WELL INFORMATION BLOCK
#MNEM.UNIT           DATA                    DESCRIPTION OF MNEMONIC
#---------    -------------------            -------------------------------
# Generated from Intellog Unique Number	CX_WELLS/WELL/3134
WELL.         UNEX RES CANOXY WATCHUK        : Well_name    - WELL
LOC .         00/06-18-083-03W4/0            : Location     - LOCATION
UWI .         00/06-18-083-03W400            : Uwi          - UNIQUE WELL ID
ENTR.         TIM                            : Entered      - ENTERED BY
SRVC.         SCHLUMBERGER                   : Scn          - SERVICE COMPANY
STRT.F        350                            : top_depth    - START DEPTH
STOP.F        1029.95                        : bot_depth    - STOP DEPTH
STEP.F        0.82                           : increment    - STEP LENGTH
 NULL. -999.2500:NULL Value
~CURVE INFORMATION BLOCK
#MNEM UNIT       ERCB CURVE CODE    CURVE DESCRIPTION
#-----------   ------------------   ----------------------------------
DEPT.F        00 001 00 00         : DEPTH        - DEPTH
GR  .API      00 310 00 00         : GR           - GAMMA RAY
NPHI.V/V      00 330 00 00         : PHIN         - NEUTRON POROSITY (SANDSTONE)
DPHI.V/V      00 890 00 00         : PHID         - DENSITY POROSITY (SANDSTONE)
ILD .OHMM     00 120 00 00         : RESD         - DEEP RESISTIVITY (OTHER)
~PARAMETER INFORMATION
#MNEM.UNIT           DATA             DESCRIPTION OF MNEMONIC
#---------         -----------     ------------------------------
GL  .F        1569                 : gl           - GROUND LEVEL ELEVATION
EREF.F        1581                 : kb           - ELEVATION OF DEPTH REFERENCE
DATM.F        1581                 : datum        - DATUM ELEVATION
TDD .F        1080                 : tdd          - TOTAL DEPTH DRILLER
RUN .         ONE                  : Run          - RUN NUMBER
ENG .         BILL                 : Engineer     - RECORDING ENGINEER
WIT .         JIM                  : Witness      - WITNESSED BY
MUD .         GEL                  : Mud_type     - MUD TYPE
MATR.         SANDSTONE            : Logunit      - NEUTRON MATRIX
TMAX.F        71.6                 : BHT          - MAXIMUM RECORDED TEMPERATURE
BHTD.F        1080                 : BHTDEP       - MAXIMUM RECORDED TEMPERATURE
MATR.         1                    : LOGUNIT      - NEUTRON MATRIX
RMT .F        77                   : MDTP         - TEMPERATURE OF MUD
NEUT.         1                    : NEUTRON      - NEUTRON TYPE
RESI.         5.1                  : RESIST       - RESISTIVITY TYPE
RMC .OHMM     6                    : RMC          - RESISTIVITY OF MUD CAKE
RMF .OHMM     6                    : RMF          - RESISTIVITY OF MUD FILTRATE
SUFT.F        32                   : SUFT         - SURFACE TEMPERATURE
~A  DEPTH       GR     PHIN     PHID     RESD
# ...
  920.866   43.054    0.391    0.313    1.428
  921.686   39.043    0.392    0.314    1.432
  922.507   32.706    0.393    0.312    1.407
  923.327   31.619    0.397    0.306    1.411
  924.147   31.681    0.399    0.307    1.387
  924.967   31.146    0.401    0.314    1.391
  925.787   30.075    0.398    0.315    1.369
  926.608   27.795    0.393    0.315    1.346
  927.428   26.158    0.390    0.315    1.324
  928.248   26.770    0.391    0.314    1.326
  929.068   28.578    0.394    0.311    1.281
  929.888   29.788    0.396    0.310    1.283
  930.709   31.626    0.397    0.310    1.262
  931.529   32.867    0.398    0.312    1.265
  932.349   32.913    0.399    0.313    1.267
  933.169   33.557    0.402    0.313    1.318
  933.990   34.217    0.403    0.313    1.474
  934.810   35.426    0.403    0.313    1.777
  935.630   39.010    0.402    0.304    2.063
  936.450   41.950    0.400    0.281    2.352
  937.270   49.590    0.396    0.253    2.632
  938.091   55.470    0.395    0.218    3.001
  938.911   72.419    0.400    0.186    3.551
  939.731   99.841    0.430    0.164    3.624
  940.551  112.135    0.482    0.164    3.563
  941.371  111.615    0.495    0.167    3.506
  942.192  113.423    0.514    0.191    3.513
  943.012  112.934    0.552    0.193    3.721
  943.832  111.250    0.567    0.191    3.796
  944.652  110.133    0.565    0.205    4.096
  945.472  103.214    0.571    0.264    4.256
  946.293   85.241    0.580    0.302    4.509
  947.113   73.070    0.587    0.349    4.774
  947.933   64.389    0.608    0.380    5.058
  948.753   56.322    0.627    0.432    5.159
  949.573   59.859    0.642    0.468    5.366
  950.394   69.827    0.655    0.497    5.476
  951.214   83.867    0.662    0.518    5.392
  952.034   94.983    0.671    0.370    5.301
  952.854   98.551    0.683    0.356    5.212
  953.675  104.431    0.696    0.350    4.944
  954.495  108.580    0.397    0.333    4.861
  955.315  110.388    0.392    0.313    4.608
  956.135  109.286    0.388    0.178    4.450
  956.955   96.549    0.387    0.156    4.300
  957.776   92.523    0.384    0.150    4.230
  958.596   78.622    0.379    0.152    4.085
  959.416   67.646    0.364    0.162    3.802
  960.236   65.365    0.355    0.171    3.228
  961.056   59.609    0.350    0.186    2.691
  961.877   55.583    0.349    0.201    2.649
  962.697   50.991    0.350    0.206    2.651
  963.517   48.144    0.352    0.207    2.759
  964.337   49.982    0.356    0.197    2.813
  965.157   51.208    0.357    0.184    2.718
  965.978   52.433    0.355    0.191    2.483
  966.798   50.153    0.352    0.207    2.354
  967.618   47.887    0.354    0.218    2.191
  968.438   43.877    0.363    0.225    1.967
  969.259   39.866    0.375    0.232    1.797
  970.079   34.708    0.383    0.241    1.612
  970.899   32.427    0.391    0.258    1.500
  971.719   24.926    0.389    0.274    1.450
  972.539   21.528    0.382    0.289    1.425
  973.360   20.993    0.374    0.292    1.402
  974.180   20.473    0.373    0.294    1.405
  975.000   20.535    0.373    0.299    1.408
  975.820   21.163    0.372    0.300    1.438
  976.640   20.659    0.373    0.303    1.495
  977.461   20.154    0.375    0.306    1.524
  978.281   20.201    0.379    0.309    1.614
  979.101   20.875    0.381    0.311    1.710
  979.921   20.922    0.382    0.309    1.812
  980.741   20.984    0.383    0.306    1.848
  981.562   19.882    0.377    0.300    1.886
  982.382   20.526    0.366    0.293    1.823
  983.202   22.333    0.362    0.284    1.791
  984.022   26.468    0.362    0.269    1.732
  984.843   31.199    0.366    0.264    1.673
  985.663   30.098    0.378    0.272    1.645
  986.483   26.715    0.422    0.274    1.617
  987.303   25.598    0.419    0.275    1.592
  988.123   25.047    0.414    0.275    1.565
  988.944   23.364    0.406    0.275    1.540
  989.764   21.114    0.396    0.276    1.515
  990.584   19.997    0.386    0.277    1.491
  991.404   20.059    0.375    0.278    1.466
  992.224   20.121    0.352    0.279    1.469
  993.045   20.199    0.351    0.282    1.445
  993.865   19.710    0.350    0.284    1.422
  994.685   19.756    0.347    0.285    1.424
  995.505   19.221    0.346    0.286    1.401
  996.325   17.553    0.347    0.285    1.380
  997.146   17.018    0.350    0.285    1.382
  997.966   17.692    0.352    0.284    1.384
  998.786   17.739    0.356    0.287    1.363
  999.606   18.383    0.360    0.289    1.364
 1000.430   18.460    0.365    0.289    1.368
 1001.250   17.956    0.371    0.287    1.369
 1002.070   17.987    0.378    0.286    1.372
 1002.890   18.646    0.378    0.285    1.375
 1003.710   19.902    0.378    0.282    1.378
 1004.530   19.949    0.376    0.283    1.380
 1005.350   19.995    0.373    0.287    1.383
 1006.170   18.924    0.367    0.290    1.388
 1006.990   18.374    0.368    0.290    1.389
 1007.810   17.854    0.371    0.290    1.418
 1008.630   17.334    0.372    0.292    1.421
 1009.450   17.427    0.373    0.296    1.451
 1010.270   17.489    0.373    0.300    1.480
 1011.090   16.969    0.373    0.302    1.540
 1011.910   17.047    0.372    0.304    1.571
 1012.730   17.093    0.371    0.303    1.603
 1013.550   17.155    0.370    0.306    1.698
 1014.370   17.232    0.369    0.306    1.797
 1015.190   17.294    0.365    0.305    2.050
 1016.010   21.429    0.357    0.295    2.210
 1016.830   24.384    0.348    0.275    2.566
 1017.650   28.534    0.343    0.262    2.982
 1018.470   34.414    0.331    0.242    3.155
 1019.290   39.712    0.308    0.219    4.571
 1020.110   64.821    0.287    0.140    6.037
 1020.930   83.516    0.272    0.127   11.319
 1021.750   88.232    0.266    0.110   12.913
 1022.570   83.058    0.258    0.075   13.172
 1023.390   77.899    0.247    0.037   13.443
 1024.210   73.291    0.242   -0.001   13.720
 1025.030   67.535    0.239   -0.006   13.746
 1025.850   64.719    0.236   -0.009   13.780
 1026.670   64.168    0.232   -0.011   13.807
 1027.490   63.067    0.231   -0.012   13.840
 1028.310   63.129    0.229   -0.013   14.118
 1029.130   62.609    0.226   -0.014   14.422
 1029.950   62.089    0.223   -0.014   14.443
