~VERSION INFORMATION
 VERS.                 2.0:   CWLS LOG ASCII STANDARD -VERSION 2.0
 WRAP.                  NO:   ONE LINE PER DEPTH STEP
~WELL INFORMATION BLOCK
#MNEM.UNIT           DATA                    DESCRIPTION OF MNEMONIC
#---------    -------------------            -------------------------------
# Generated from Intellog Unique Number	CW_79_81/WELL/619
WELL.         07-26-079-26W4                 : Well_name    - WELL
LOC .         00/07-26-079-26W4/0            : Location     - LOCATION
UWI .         00/07-26-079-26W4/0            : Uwi          - UNIQUE WELL ID
ENTR.         MAX                            : Entered      - ENTERED BY
SRVC.         SCHLUMBERGER                   : Scn          - SERVICE COMPANY
STRT.M        207.264                        : top_depth    - START DEPTH
STOP.M        487.764                        : bot_depth    - STOP DEPTH
STEP.M        0.25                           : increment    - STEP LENGTH
 NULL. -999.2500:NULL Value
~CURVE INFORMATION BLOCK
#MNEM UNIT       ERCB CURVE CODE    CURVE DESCRIPTION
#-----------   ------------------   ----------------------------------
DEPT.M        00 001 00 00         : DEPTH        - DEPTH
ILD .OHMM     00 120 00 00         : RESD         - DEEP RESISTIVITY (DIL)
NPHI.V/V      00 330 00 00         : PHIN         - NEUTRON POROSITY (SANDSTONE)
DPHI.V/V      00 890 00 00         : PHID         - DENSITY POROSITY (SANDSTONE)
CALI.MM       00 280 01 00         : CAL          - CALIPER
GR  .API      00 310 00 00         : GR           - GAMMA RAY
~PARAMETER INFORMATION
#MNEM.UNIT           DATA             DESCRIPTION OF MNEMONIC
#---------         -----------     ------------------------------
GL  .M        558.394              : gl           - GROUND LEVEL ELEVATION
EREF.M        562.051              : kb           - ELEVATION OF DEPTH REFERENCE
DATM.M        558.394              : datum        - DATUM ELEVATION
TDD .M        463.601              : tdd          - TOTAL DEPTH DRILLER
RUN .         ONE                  : Run          - RUN NUMBER
ENG .         BILL                 : Engineer     - RECORDING ENGINEER
WIT .         JIM                  : Witness      - WITNESSED BY
MUD .         GEL                  : Mud_type     - MUD TYPE
MATR.         SANDSTONE            : Logunit      - NEUTRON MATRIX
TMAX.C        22.2222              : BHT          - MAXIMUM RECORDED TEMPERATURE
BHTD.M        463.601              : BHTDEP       - MAXIMUM RECORDED TEMPERATURE
RMT .C        25.5556              : MDTP         - TEMPERATURE OF MUD
MUDD.KG/M     10200                : MWT          - MUD DENSITY
NEUT.         1                    : NEUTRON      - NEUTRON TYPE
RESI.         0                    : RESIST       - RESISTIVITY TYPE
RM  .OHMM     6.28                 : RM           - RESISTIVITY OF MUD
RMC .OHMM     0                    : RMC          - RESISTIVITY OF MUD CAKE
RMF .OHMM     0                    : RMF          - RESISTIVITY OF MUD FILTRATE
SUFT.C        -20.5556             : SUFT         - SURFACE TEMPERATURE
~A  DEPTH     RESD     PHIN     PHID      CAL       GR
# ...
  280.264   42.470    0.310    0.235  216.121   40.730
  280.514   44.498    0.311    0.226  216.677   38.394
  280.764   46.639    0.307    0.220  216.677   36.355
  281.014   48.891    0.320    0.238  217.341   36.398
  281.264   48.070    0.333    0.246  217.412   37.029
  281.514   43.935    0.348    0.266  217.484   39.167
  281.764   37.321    0.356    0.276  217.555   40.388
  282.014   30.570    0.357    0.272  217.617   42.808
  282.264   23.491    0.372    0.264  218.201   46.125
  282.514   19.239    0.372    0.240  218.784   50.631
  282.764   17.584    0.368    0.249  219.341   54.537
  283.014   17.450    0.379    0.268  220.922   54.282
  283.264   19.144    0.381    0.262  222.503   48.974
  283.514   23.865    0.348    0.266  223.599   42.774
  283.764   30.029    0.324    0.257  225.172   42.216
  284.014   33.556    0.315    0.252  226.753   43.155
  284.264   36.153    0.309    0.247  230.365   43.500
  284.514   37.541    0.318    0.238  233.448   42.348
  284.764   37.936    0.328    0.240  241.069   41.498
  285.014   36.298    0.354    0.250  256.240   41.837
  285.264   34.091    0.367    0.264  263.367   44.554
  285.514   28.186    0.413    0.286  254.881   47.866
  285.764   23.509    0.428    0.311  240.365   52.962
  286.014   21.095    0.434    0.332  242.441   54.198
  286.264   17.279    0.431    0.349  251.581   55.731
  286.514   15.229    0.423    0.326  244.596   57.260
  286.764   14.303    0.406    0.328  248.191   58.783
  287.014   13.561    0.411    0.323  248.271   60.911
  287.264   13.456    0.426    0.323  243.300   62.152
  287.514   13.611    0.432    0.325  239.345   63.373
  287.764   13.864    0.419    0.335  239.434   65.204
  288.014   15.076    0.415    0.328  240.997   67.024
  288.264   15.513    0.423    0.320  243.091   70.644
  288.514   14.309    0.442    0.320  251.215   71.275
  288.764   12.494    0.447    0.314  254.307   70.430
  289.014   11.315    0.450    0.305  249.345   69.576
  289.264   11.438    0.448    0.276  231.799   66.051
  289.514   11.768    0.442    0.265  228.347   58.662
  289.764   12.680    0.412    0.282  223.888   51.267
  290.014   13.785    0.377    0.283  224.975   46.553
  290.264   15.123    0.329    0.260  225.550   49.271
  290.514   16.590    0.353    0.250  225.126   58.235
  290.764   18.200    0.368    0.283  225.180   58.872
  291.014   20.525    0.415    0.302  223.741   56.536
  291.264   22.928    0.420    0.280  223.830   54.200
  291.514   25.157    0.334    0.268  228.423   54.242
  291.764   24.510    0.321    0.252  236.547   56.970
  292.014   18.660    0.338    0.250  238.632   62.952
  292.264   14.470    0.359    0.242  229.140   66.269
  292.514   10.623    0.387    0.284  226.200   71.959
  292.764    8.862    0.455    0.319  225.273   74.681
  293.014    8.248    0.472    0.332  222.810   69.962
  293.264    8.248    0.456    0.328  220.374   64.956
  293.514    8.053    0.454    0.333  219.447   63.215
  293.764    8.132    0.450    0.343  218.997   62.657
  294.014    8.683    0.442    0.343  219.077   63.602
  294.264    8.933    0.450    0.330  219.157   65.416
  294.514    8.785    0.437    0.305  218.231   69.928
  294.764    8.403    0.431    0.270  217.781   75.018
  295.014    7.206    0.416    0.259  217.781   80.113
  295.264    6.955    0.426    0.283  217.968   80.463
  295.514    6.593    0.455    0.318  219.523   83.175
  295.764    6.194    0.478    0.292  220.097   89.459
  296.014    5.661    0.463    0.279  220.097   96.046
  296.264    5.174    0.467    0.272  220.240   99.660
  296.514    4.816    0.469    0.260  220.805   98.211
  296.764    4.443    0.472    0.249  220.930   98.258
  297.014    4.172    0.476    0.239  220.957   97.122
  297.264    3.813    0.478    0.253  221.028   95.067
  297.514    3.583    0.487    0.264  221.108   83.819
  297.764    3.721    0.494    0.273  221.665   75.236
  298.014    4.682    0.472    0.253  222.257   61.005
  298.264    6.164    0.421    0.235  222.320   48.855
  298.514   13.173    0.322    0.214  222.903   40.277
  298.764   20.448    0.326    0.218  225.994   38.833
  299.014   26.686    0.329    0.227  227.072   40.064
  299.264   33.579    0.322    0.247  228.159   40.998
  299.514   35.843    0.301    0.254  233.758   40.445
  299.764   37.232    0.287    0.237  237.362   39.298
  300.014   38.316    0.275    0.224  235.914   38.454
  300.264   38.726    0.275    0.218  235.482   39.388
  300.514   37.724    0.280    0.215  237.576   40.921
  300.764   34.160    0.286    0.233  239.157   40.666
  301.014   30.937    0.293    0.239  240.747   40.411
  301.264   29.601    0.300    0.237  245.348   41.339
  301.514   29.646    0.305    0.230  256.987   43.770
  301.764   29.675    0.343    0.262  261.597   45.590
  302.014   28.408    0.366    0.296  244.546   48.902
  302.264   26.189    0.368    0.293  238.595   54.294
  302.514   23.499    0.360    0.247  238.146   59.692
  302.764   19.604    0.344    0.237  241.740   64.787
  303.014   15.202    0.343    0.228  252.399   71.671
  303.264   10.468    0.361    0.236  252.462   74.989
  303.514    9.567    0.410    0.258  241.972   75.025
  303.764    9.321    0.442    0.272  237.504   67.047
  304.014    9.421    0.477    0.312  223.482   64.419
  304.264   10.245    0.472    0.341  221.028   64.159
  304.514   12.311    0.474    0.348  222.123   64.201
  304.764   15.347    0.479    0.350  222.689   63.356
  305.014   17.469    0.484    0.358  223.281   62.496
  305.264   17.647    0.483    0.358  224.863   60.755
  305.514   17.647    0.478    0.356  224.431   62.294
  305.764   17.700    0.471    0.357  222.974   63.530
  306.014   17.088    0.469    0.363  220.043   62.967
  306.264   16.953    0.463    0.366  218.586   60.928
  306.514   17.137    0.462    0.366  217.157   59.187
  306.764   17.470    0.465    0.365  215.727   57.748
  307.014   18.310    0.468    0.362  215.789   56.007
  307.264   19.915    0.454    0.347  217.379   52.482
  307.514   20.869    0.419    0.301  218.466   51.330
  307.764   21.671    0.359    0.272  219.535   52.571
  308.014   21.506    0.329    0.208  224.127   55.575
  308.264   20.015    0.330    0.199  225.718   64.837
  308.514   17.318    0.353    0.219  221.762   74.694
  308.764   13.553    0.402    0.269  218.831   80.086
  309.014   11.512    0.450    0.287  218.831   88.159
  309.264    9.432    0.473    0.273  217.482   89.687
  309.514    8.619    0.490    0.289  216.528   90.918
  309.764    7.526    0.505    0.298  216.528   92.160
  310.014    6.513    0.511    0.305  216.680   91.597
  310.264    6.007    0.504    0.306  217.245   88.667
  310.514    5.853    0.499    0.290  217.811   92.876
  310.764    5.806    0.488    0.267  218.386  101.538
  311.014    5.806    0.480    0.264  218.960  103.071
  311.264    5.876    0.476    0.251  219.535  103.411
  311.514    6.102    0.472    0.252  219.103  104.052
  311.764    6.224    0.476    0.248  218.680  104.089
  312.014    6.290    0.480    0.248  218.751  105.028
  312.264    6.248    0.474    0.243  219.325  106.849
  312.514    6.194    0.469    0.239  219.406  106.301
  312.764    6.088    0.478    0.244  219.406  103.663
  313.014    6.048    0.480    0.246  219.584  101.922
  313.264    5.996    0.473    0.233  219.628  102.271
  313.514    5.948    0.471    0.223  220.194  103.200
  313.764    5.956    0.469    0.214  221.263  104.134
  314.014    5.910    0.452    0.228  222.341  105.078
  314.264    5.759    0.464    0.241  222.915  106.898
  314.514    5.663    0.481    0.260  224.506  107.837
  314.764    5.617    0.507    0.254  225.584  109.366
  315.014    5.524    0.517    0.251  226.158  111.781
  315.264    5.487    0.499    0.251  225.232  115.697
  315.514    5.439    0.500    0.250  223.802  114.248
  315.764    5.300    0.493    0.238  221.860  111.318
  316.014    5.307    0.493    0.238  219.918  109.576
  316.264    5.313    0.496    0.244  217.967  109.910
  316.514    5.224    0.505    0.246  217.031  106.985
