~VERSION INFORMATION
 VERS.                 2.0:   CWLS LOG ASCII STANDARD -VERSION 2.0
 WRAP.                  NO:   ONE LINE PER DEPTH STEP
~WELL INFORMATION BLOCK
#MNEM.UNIT           DATA                    DESCRIPTION OF MNEMONIC
#---------    -------------------            -------------------------------
# Generated from Intellog Unique Number	CS_73_76/WELL/800
WELL.         SULPETRO LIMITED               : Well_name    - WELL
LOC .         00/09-32-073-10W4/0            : Location     - LOCATION
UWI .         00/09-32-073-10W4/0            : Uwi          - UNIQUE WELL ID
ENTR.         SP                             : Entered      - ENTERED BY
SRVC.         SCHLUMBERGER                   : Scn          - SERVICE COMPANY
STRT.M        295                            : top_depth    - START DEPTH
STOP.M        515                            : bot_depth    - STOP DEPTH
STEP.M        0.25                           : increment    - STEP LENGTH
 NULL. -999.2500:NULL Value
~CURVE INFORMATION BLOCK
#MNEM UNIT       ERCB CURVE CODE    CURVE DESCRIPTION
#-----------   ------------------   ----------------------------------
DEPT.M        00 001 00 00         : DEPTH        - DEPTH
ILD .OHMM     00 120 00 00         : RESD         - DEEP RESISTIVITY (DIL)
DPHI.V/V      00 890 00 00         : PHID         - DENSITY POROSITY (LIMESTONE)
NPHI.V/V      00 330 00 00         : PHIN         - NEUTRON POROSITY (LIMESTONE)
GR  .API      00 310 00 00         : GR           - GAMMA RAY
~PARAMETER INFORMATION
#MNEM.UNIT           DATA             DESCRIPTION OF MNEMONIC
#---------         -----------     ------------------------------
GL  .M        659.06               : gl           - GROUND LEVEL ELEVATION
EREF.M        662.2                : kb           - ELEVATION OF DEPTH REFERENCE
DATM.M        659.06               : datum        - DATUM ELEVATION
TDD .M        526                  : tdd          - TOTAL DEPTH DRILLER
RUN .         ONE                  : Run          - RUN NUMBER
ENG .         BILL                 : Engineer     - RECORDING ENGINEER
WIT .         JIM                  : Witness      - WITNESSED BY
MUD .         GEL                  : Mud_type     - MUD TYPE
MATR.         LIMESTONE            : Logunit      - NEUTRON MATRIX
TMAX.C        24                   : BHT          - MAXIMUM RECORDED TEMPERATURE
BHTD.M        526                  : BHTDEP       - MAXIMUM RECORDED TEMPERATURE
MATR.         1                    : LOGUNIT      - NEUTRON MATRIX
RMT .C        25                   : MDTP         - TEMPERATURE OF MUD
NEUT.         1                    : NEUTRON      - NEUTRON TYPE
RESI.         0                    : RESIST       - RESISTIVITY TYPE
RMC .OHMM     0.25                 : RMC          - RESISTIVITY OF MUD CAKE
RMF .OHMM     0.25                 : RMF          - RESISTIVITY OF MUD FILTRATE
SUFT.C        15                   : SUFT         - SURFACE TEMPERATURE
~A  DEPTH     RESD     PHID     PHIN       GR
# ...
  382.000   14.806    0.272    0.421   77.271
  382.250   14.806    0.274    0.400   77.882
  382.500   15.089    0.271    0.386   80.329
  382.750   15.089    0.263    0.401   81.553
  383.000   15.090    0.262    0.402   80.327
  383.250   15.378    0.264    0.393   77.876
  383.500   15.379    0.266    0.367   79.712
  383.750   15.379    0.257    0.352   83.996
  384.000   15.380    0.252    0.364   87.056
  384.250   15.381    0.262    0.394   87.055
  384.500   15.094    0.273    0.423   85.829
  384.750   14.812    0.276    0.409   84.603
  385.000   14.264    0.278    0.384   85.213
  385.250   13.736    0.279    0.395   85.824
  385.500   12.500    0.273    0.411   87.048
  385.750    9.242    0.271    0.442   87.046
  386.000    7.232    0.276    0.404   91.943
  386.250    5.449    0.269    0.369   99.288
  386.500    3.736    0.260    0.333  106.634
  386.750    3.093    0.252    0.388  110.306
  387.000    3.531    0.245    0.449  113.366
  387.250    4.184    0.240    0.485  115.201
  387.500    4.686    0.245    0.435  111.526
  387.750    5.450    0.252    0.405  106.627
  388.000    6.708    0.239    0.398  102.952
  388.250    7.099    0.231    0.428  101.726
  388.500    7.656    0.239    0.444  101.725
  388.750    7.951    0.235    0.396   99.886
  389.000    8.257    0.223    0.401   96.824
  389.250    8.739    0.218    0.407   94.986
  389.500    9.248    0.213    0.410   92.536
  389.750   10.555    0.224    0.404   90.697
  390.000   12.276    0.230    0.387   90.084
  390.250   13.491    0.235    0.372   88.858
  390.500   14.827    0.226    0.387   87.632
  390.750   15.398    0.149    0.298   83.957
  391.000   14.828    0.098    0.265   81.507
  391.250   12.993    0.080    0.198   77.832
  391.500   11.173    0.118    0.192   74.770
  391.750    9.079    0.164    0.223   81.503
  392.000    8.262    0.207    0.266   90.073
  392.250    7.956    0.235    0.390   93.745
  392.500    7.662    0.237    0.427   93.743
  392.750    7.662    0.245    0.399   93.129
  393.000    7.662    0.250    0.382   93.740
  393.250    7.809    0.247    0.382   94.351
  393.500    7.809    0.238    0.373   96.186
  393.750    7.809    0.231    0.403   97.410
  394.000    7.809    0.225    0.437   97.409
  394.250    7.810    0.219    0.461   96.795
  394.500    7.664    0.212    0.430   96.793
  394.750    7.810    0.209    0.415   98.017
  395.000    7.811    0.219    0.392   94.954
  395.250    7.811    0.239    0.372   92.503
  395.500    7.812    0.246    0.382   91.890
  395.750    7.666    0.246    0.398   91.889
  396.000    7.523    0.250    0.403   92.499
  396.250    7.244    0.229    0.384   96.171
  396.500    7.109    0.210    0.383   98.007
  396.750    6.846    0.190    0.393   98.617
  397.000    6.847    0.192    0.410   98.616
  397.250    6.719    0.206    0.427   98.615
  397.500    6.719    0.211    0.385   99.838
  397.750    6.719    0.217    0.371   99.837
  398.000    6.594    0.219    0.392   99.223
  398.250    6.720    0.228    0.408   97.997
  398.500    6.720    0.234    0.409   97.384
  398.750    6.849    0.243    0.400   97.994
  399.000    6.849    0.228    0.406   98.605
  399.250    6.849    0.207    0.414   99.216
  399.500    6.850    0.198    0.429  101.052
  399.750    6.850    0.191    0.411  101.050
  400.000    6.850    0.201    0.393   99.212
  400.250    6.981    0.207    0.389   97.986
  400.500    6.981    0.212    0.384   98.597
  400.750    6.981    0.208    0.381   99.208
  401.000    6.982    0.202    0.377  100.431
  401.250    6.851    0.191    0.379  101.042
  401.500    6.852    0.183    0.392  100.428
  401.750    6.724    0.181    0.421  100.427
  402.000    6.724    0.177    0.457  103.487
  402.250    6.599    0.176    0.469  105.322
  402.500    6.476    0.176    0.431  105.933
  402.750    6.476    0.176    0.402  105.931
  403.000    6.355    0.175    0.388  104.706
  403.250    6.355    0.176    0.411  104.704
  403.500    6.237    0.179    0.423  105.927
  403.750    5.675    0.181    0.378  107.762
  404.000    4.880    0.187    0.346  108.985
  404.250    3.966    0.202    0.314  108.984
  404.500    3.162    0.213    0.347  108.983
  404.750    2.668    0.227    0.442  109.594
  405.000    2.383    0.237    0.468  115.102
  405.250    2.252    0.244    0.442  117.550
  405.500    2.168    0.248    0.440  118.161
  405.750    2.210    0.235    0.444  113.874
  406.000    2.669    0.216    0.434  110.811
  406.250    2.933    0.198    0.384  109.585
  406.500    3.610    0.192    0.367  108.359
  406.750    4.120    0.195    0.361  107.133
  407.000    4.702    0.198    0.387  105.295
  407.250    4.976    0.202    0.393  104.682
  407.500    5.168    0.207    0.404  102.843
  407.750    5.367    0.213    0.384  101.618
  408.000    5.469    0.218    0.373  100.391
  408.250    5.469    0.219    0.393   99.778
  408.500    5.574    0.213    0.410   98.552
  408.750    5.681    0.208    0.424   97.938
  409.000    5.681    0.206    0.437   97.937
  409.250    5.789    0.208    0.451   97.323
  409.500    5.900    0.213    0.431   97.322
  409.750    5.900    0.223    0.425   96.709
  410.000    6.013    0.229    0.409   96.095
  410.250    6.013    0.227    0.392   94.257
  410.500    6.363    0.235    0.378   89.358
  410.750    6.485    0.247    0.367   87.520
  411.000    6.485    0.254    0.377   86.906
  411.250    6.609    0.265    0.397   85.680
  411.500    6.609    0.274    0.418   84.453
  411.750    6.610    0.271    0.396   83.840
  412.000    6.610    0.260    0.364   83.839
  412.250    6.610    0.253    0.330   86.286
  412.500    6.610    0.238    0.361   91.183
  412.750    6.487    0.232    0.394   94.855
  413.000    6.487    0.221    0.387   96.078
  413.250    6.366    0.213    0.376   98.526
  413.500    6.248    0.208    0.375  100.973
  413.750    6.248    0.216    0.372  102.197
  414.000    6.131    0.216    0.369  102.808
  414.250    6.132    0.208    0.367  100.969
  414.500    6.017    0.207    0.391  100.356
  414.750    6.017    0.218    0.371   99.130
  415.000    5.905    0.222    0.353   97.904
  415.250    5.795    0.218    0.355   97.290
  415.500    5.687    0.217    0.367   97.289
  415.750    5.687    0.216    0.374   96.063
  416.000    5.581    0.231    0.385   93.613
  416.250    5.581    0.254    0.393   88.101
  416.500    5.477    0.263    0.381   83.202
  416.750    5.477    0.261    0.372   82.588
  417.000    5.478    0.263    0.391   83.199
  417.250    5.478    0.270    0.413   80.136
  417.500    5.478    0.273    0.422   79.523
  417.750    5.478    0.273    0.424   81.358
  418.000    5.479    0.271    0.420   83.193
  418.250    5.479    0.270    0.418   83.805
  418.500    5.583    0.270    0.404   81.966
  418.750    5.690    0.270    0.392   80.128
  419.000    5.799    0.270    0.382   78.902
  419.250    5.909    0.274    0.379   78.901
  419.500    5.910    0.280    0.376   78.287
  419.750    5.910    0.287    0.374   77.674
  420.000    5.910    0.292    0.372   76.448
  420.250    5.910    0.294    0.444   75.222
  420.500    5.911    0.286    0.451   77.669
  420.750    5.911    0.281    0.416   83.178
  421.000    5.911    0.276    0.414   85.013
  421.250    5.912    0.271    0.435   85.625
  421.500    5.912    0.266    0.448   85.623
  421.750    5.912    0.265    0.462   89.294
  422.000    5.912    0.257    0.437   91.130
  422.250    6.025    0.246    0.423   90.517
  422.500    6.025    0.239    0.416   84.393
  422.750    6.026    0.243    0.407   82.555
  423.000    6.026    0.247    0.440   81.329
  423.250    6.141    0.251    0.471   81.940
  423.500    6.141    0.254    0.427   83.163
  423.750    6.142    0.244    0.398   84.386
  424.000    6.142    0.237    0.369   85.609
  424.250    6.027    0.233    0.369   88.668
  424.500    6.028    0.243    0.379   91.116
  424.750    6.028    0.244    0.385   91.727
  425.000    5.915    0.233    0.365   90.502
  425.250    5.916    0.233    0.353   89.276
