~VERSION INFORMATION
 VERS.                 2.0:   CWLS LOG ASCII STANDARD -VERSION 2.0
 WRAP.                  NO:   ONE LINE PER DEPTH STEP
~WELL INFORMATION BLOCK
#MNEM.UNIT           DATA                    DESCRIPTION OF MNEMONIC
#---------    -------------------            -------------------------------
# Generated from Intellog Unique Number	CS_77_79/WELL/909
WELL.         CDN-SUP CHRISTINA              : Well_name    - WELL
LOC .         00/07-26-079-10W4/0            : Location     - LOCATION
UWI .         00/07-26-079-10W4/0            : Uwi          - UNIQUE WELL ID
ENTR.         JHS                            : Entered      - ENTERED BY
SRVC.         SCHLUMBERGER                   : Scn          - SERVICE COMPANY
STRT.M        243.84                         : top_depth    - START DEPTH
STOP.M        478.34                         : bot_depth    - STOP DEPTH
STEP.M        0.25                           : increment    - STEP LENGTH
 NULL. -999.2500:NULL Value
~CURVE INFORMATION BLOCK
#MNEM UNIT       ERCB CURVE CODE    CURVE DESCRIPTION
#-----------   ------------------   ----------------------------------
DEPT.M        00 001 00 00         : DEPTH        - DEPTH
RHOB.KG/M3    00 350 00 00         : DENS         - BULK DENSITY
GR  .API      00 310 00 00         : GR           - GAMMA RAY
DPHI.V/V      00 890 00 00         : PHID         - DENSITY POROSITY (SANDSTONE)
NPHI.V/V      00 330 00 00         : PHIN         - NEUTRON POROSITY (SANDSTONE)
ILD .OHMM     00 120 00 00         : RESD         - DEEP RESISTIVITY (DIL)
~PARAMETER INFORMATION
#MNEM.UNIT           DATA             DESCRIPTION OF MNEMONIC
#---------         -----------     ------------------------------
GL  .M        679.094              : gl           - GROUND LEVEL ELEVATION
EREF.M        683.666              : kb           - ELEVATION OF DEPTH REFERENCE
DATM.M        683.666              : datum        - DATUM ELEVATION
TDD .M        487.68               : tdd          - TOTAL DEPTH DRILLER
RUN .         ONE                  : Run          - RUN NUMBER
ENG .         BILL                 : Engineer     - RECORDING ENGINEER
WIT .         JIM                  : Witness      - WITNESSED BY
MUD .         GEL                  : Mud_type     - MUD TYPE
MATR.         SANDSTONE            : Logunit      - NEUTRON MATRIX
TMAX.C        60                   : BHT          - MAXIMUM RECORDED TEMPERATURE
BHTD.M        487.68               : BHTDEP       - MAXIMUM RECORDED TEMPERATURE
MATR.         1                    : LOGUNIT      - NEUTRON MATRIX
RMT .C        25                   : MDTP         - TEMPERATURE OF MUD
NEUT.         1                    : NEUTRON      - NEUTRON TYPE
RESI.         0                    : RESIST       - RESISTIVITY TYPE
RMC .OHMM     0.25                 : RMC          - RESISTIVITY OF MUD CAKE
RMF .OHMM     0.25                 : RMF          - RESISTIVITY OF MUD FILTRATE
SUFT.C        15                   : SUFT         - SURFACE TEMPERATURE
~A  DEPTH     DENS       GR     PHID     PHIN     RESD
# ...
  280.340    0.000   82.605    0.284    0.414   13.461
  280.590    0.000   83.962    0.271    0.419   12.966
  280.840    0.000   88.498    0.263    0.428   11.666
  281.090    0.000   96.001    0.247    0.429   10.596
  281.340    0.000  105.896    0.223    0.417    9.002
  281.590    0.000  115.551    0.202    0.442    7.599
  281.840    0.000  126.338    0.182    0.469    6.477
  282.090    0.000  133.627    0.181    0.503    5.538
  282.340    0.000  137.275    0.210    0.535    4.824
  282.590    0.000  137.317    0.200    0.546    4.221
  282.840    0.000  136.745    0.200    0.530    3.934
  283.090    0.000  135.245    0.215    0.515    3.663
  283.340    0.000  131.410    0.195    0.543    3.495
  283.590    0.000  126.029    0.196    0.563    3.510
  283.840    0.000  120.983    0.221    0.526    3.531
  284.090    0.000  120.005    0.230    0.508    3.729
  284.340    0.000  119.930    0.248    0.533    4.411
  284.590    0.000  110.380    0.265    0.539    5.522
  284.840    0.000   95.217    0.318    0.491    7.925
  285.090    0.000   85.532    0.335    0.464   10.554
  285.340    0.000   82.855    0.316    0.448   13.056
  285.590    0.000   87.001    0.300    0.432   13.722
  285.840    0.000   89.569    0.300    0.425   13.904
  286.090    0.000   87.105    0.283    0.425   13.552
  286.340    0.000   81.777    0.304    0.432   13.717
  286.590    0.000   81.482    0.322    0.420   14.516
  286.840    0.000   84.403    0.344    0.414   13.966
  287.090    0.000   88.842    0.355    0.418   12.733
  287.340    0.000   93.369    0.335    0.414   11.642
  287.590    0.000   98.583    0.312    0.419   10.641
  287.840    0.000  104.727    0.275    0.421    9.288
  288.090    0.000  106.747    0.255    0.413    8.353
  288.340    0.000  113.809    0.240    0.407    7.155
  288.590    0.000  118.795    0.210    0.411    6.280
  288.840    0.000  120.283    0.190    0.436    5.564
  289.090    0.000  124.950    0.172    0.458    5.349
  289.340    0.000  128.623    0.181    0.471    5.236
  289.590    0.000  130.634    0.200    0.479    5.398
  289.840    0.000  131.008    0.185    0.459    5.809
  290.090    0.000  129.544    0.209    0.456    6.989
  290.340    0.000  126.162    0.224    0.460    8.278
  290.590    0.000  118.790    0.256    0.445    9.507
  290.840    0.000  111.445    0.274    0.441   10.869
  291.090    0.000  108.347    0.277    0.441   11.625
  291.340    0.000  102.654    0.287    0.439   11.219
  291.590    0.000  101.855    0.295    0.425   10.514
  291.840    0.000  108.226    0.265    0.415    9.710
  292.090    0.000  112.912    0.254    0.430    9.016
  292.340    0.000  115.043    0.251    0.455    8.825
  292.590    0.000  111.854    0.255    0.458    8.821
  292.840    0.000  105.780    0.275    0.441    9.440
  293.090    0.000   98.250    0.281    0.426   10.617
  293.340    0.000   91.504    0.282    0.429   11.970
  293.590    0.000   85.006    0.286    0.456   13.783
  293.840    0.000   83.306    0.315    0.448   15.191
  294.090    0.000   83.942    0.325    0.449   16.198
  294.340    0.000   82.767    0.321    0.458   16.434
  294.590    0.000   80.273    0.317    0.468   16.336
  294.840    0.000   84.364    0.335    0.462   16.183
  295.090    0.000   82.562    0.345    0.462   15.693
  295.340    0.000   80.787    0.324    0.471   15.235
  295.590    0.000   84.725    0.318    0.480   14.790
  295.840    0.000   87.573    0.330    0.476   14.356
  296.090    0.000   90.607    0.332    0.464   14.151
  296.340    0.000   93.093    0.340    0.457   14.053
  296.590    0.000   90.035    0.327    0.457   13.930
  296.840    0.000   85.620    0.303    0.474   13.936
  297.090    0.000   80.886    0.286    0.466   13.952
  297.340    0.000   79.694    0.269    0.445   13.963
  297.590    0.000   85.582    0.250    0.451   13.602
  297.840    0.000   88.642    0.310    0.469   13.385
  298.090    0.000   89.150    0.306    0.468   12.325
  298.340    0.000   90.375    0.290    0.471   11.121
  298.590    0.000   94.224    0.287    0.475   10.291
  298.840    0.000   98.944    0.281    0.459    9.229
  299.090    0.000  104.525    0.268    0.449    8.583
  299.340    0.000  107.692    0.233    0.442    8.365
  299.590    0.000  106.073    0.274    0.461    7.972
  299.840    0.000  102.573    0.279    0.458    7.797
  300.090    0.000  100.445    0.257    0.451    7.815
  300.340    0.000  100.854    0.242    0.451    7.808
  300.590    0.000  102.653    0.241    0.463    7.990
  300.840    0.000  101.660    0.259    0.477    7.979
  301.090    0.000   98.716    0.276    0.490    8.143
  301.340    0.000   95.798    0.285    0.488    8.142
  301.590    0.000   95.655    0.269    0.499    8.139
  301.840    0.000   96.598    0.254    0.504    8.391
  302.090    0.000   98.909    0.243    0.485    8.656
  302.340    0.000   99.966    0.242    0.482    8.784
  302.590    0.000   96.757    0.255    0.486    8.668
  302.840    0.000   94.979    0.291    0.471    8.165
  303.090    0.000   95.222    0.268    0.464    8.065
  303.340    0.000   99.149    0.277    0.468    8.102
  303.590    0.000  104.731    0.244    0.469    8.193
  303.840    0.000  104.802    0.248    0.455    8.568
  304.090    0.000   97.647    0.297    0.409    9.206
  304.340    0.000   93.787    0.309    0.398   10.035
  304.590    0.000   95.597    0.286    0.412   10.492
  304.840    0.000   94.269    0.269    0.437    9.968
  305.090    0.000   95.372    0.287    0.428    9.379
  305.340    0.000   97.748    0.287    0.436    9.358
  305.590    0.000   92.979    0.280    0.447    9.868
  305.840    0.000   82.471    0.285    0.475   10.979
  306.090    0.000   72.563    0.325    0.524   12.335
  306.340    0.000   49.922    0.394    0.595   13.922
  306.590    0.000   47.591    0.352    0.418   16.023
  306.840    0.000   46.441    0.278    0.396   17.537
  307.090    0.000   48.388    0.292    0.389   17.896
  307.340    0.000   51.369    0.305    0.388   17.659
  307.590    0.000   53.491    0.291    0.397   16.496
  307.840    0.000   51.532    0.307    0.411   16.083
  308.090    0.000   48.260    0.320    0.399   16.127
  308.340    0.000   45.707    0.326    0.400   15.829
  308.590    0.000   45.266    0.324    0.416   16.098
  308.840    0.000   46.920    0.321    0.421   16.603
  309.090    0.000   47.876    0.320    0.414   16.752
  309.340    0.000   49.400    0.312    0.424   17.300
  309.590    0.000   50.218    0.327    0.423   17.832
  309.840    0.000   49.492    0.322    0.409   18.383
  310.090    0.000   49.056    0.319    0.410   18.638
  310.340    0.000   48.714    0.327    0.413   18.733
  310.590    0.000   48.863    0.313    0.403   18.763
  310.840    0.000   51.489    0.300    0.398   18.811
  311.090    0.000   52.361    0.312    0.402   18.412
  311.340    0.000   52.330    0.328    0.412   18.460
  311.590   -0.000   55.160    0.319    0.414   18.480
  311.840    0.000   58.734    0.301    0.421   18.521
  312.090   -0.000   60.206    0.296    0.417   19.160
  312.340   -0.000   59.588    0.305    0.419   19.360
  312.590   -0.000   58.955    0.320    0.417   19.569
  312.840    0.000   59.920    0.329    0.418   19.629
  313.090    0.000   59.818    0.324    0.421   19.234
  313.340    0.000   57.784    0.319    0.417   18.903
  313.590   -0.000   59.300    0.333    0.421   18.334
  313.840   -0.000   61.047    0.340    0.428   18.283
  314.090    0.000   57.876    0.330    0.432   17.951
  314.340    0.000   56.197    0.342    0.434   17.970
  314.590    0.000   56.288    0.349    0.408   18.031
  314.840   -0.000   58.817    0.355    0.409   18.298
  315.090   -0.000   60.508    0.353    0.411   18.699
  315.340   -0.000   61.415    0.339    0.422   18.678
  315.590    0.000   60.405    0.350    0.435   18.689
  315.840    0.000   57.822    0.360    0.437   18.704
  316.090    0.000   57.216    0.346    0.421   18.719
  316.340   -0.000   58.133    0.343    0.421   18.705
  316.590   -0.000   58.925    0.342    0.426   19.244
