~VERSION INFORMATION
 VERS.                 2.0:   CWLS LOG ASCII STANDARD -VERSION 2.0
 WRAP.                  NO:   ONE LINE PER DEPTH STEP
~WELL INFORMATION BLOCK
#MNEM.UNIT           DATA                    DESCRIPTION OF MNEMONIC
#---------    -------------------            -------------------------------
# Generated from Intellog Unique Number	CW_70_72/WELL/528
NULL.         -999.25                        : NULL_VALUE
WELL.         RAVENNA ET AL CALL 05-24       : Well_name    - WELL              
LOC .         05-24-071-19W4                 : Location     - LOCATION          
UWI .         00/05-24-071-19W4/0            : Uwi          - UNIQUE WELL ID    
ENTR.         JAYE                           : Entered      - ENTERED BY        
SRVC.         COMPUTALOG                     : Scn          - SERVICE COMPANY   
DATE.         31 JAN 82                      : Date         - LOG DATE          
STRT.M        310                            : top_depth    - START DEPTH       
STOP.M        477                            : bot_depth    - STOP DEPTH        
STEP.M        0.25                           : increment    - STEP LENGTH       
~CURVE INFORMATION BLOCK
#MNEM UNIT       ERCB CURVE CODE    CURVE DESCRIPTION
#-----------   ------------------   ----------------------------------
DEPT.M        00 001 00 00         : DEPTH        - DEPTH                       
DPHI.V/V      00 890 00 00         : PHID         - DENSITY POROSITY (SANDSTONE)
NPHI.V/V      00 330 00 00         : PHIN         - NEUTRON POROSITY (SANDSTONE)
GR  .API      00 310 00 00         : GR           - GAMMA RAY                   
CALI.MM       00 280 01 00         : CAL          - CALIPER                     
ILD .OHMM     00 120 00 00         : RESD         - DEEP RESISTIVITY (DIL)      
~PARAMETER INFORMATION       
#MNEM.UNIT           DATA             DESCRIPTION OF MNEMONIC
#---------         -----------     ------------------------------
GL  .M        589.6                : gl           - GROUND LEVEL ELEVATION      
EREF.M        593.2                : kb           - ELEVATION OF DEPTH REFERENCE
DATM.M        589.6                : datum        - DATUM ELEVATION             
TDD .M        480                  : tdd          - TOTAL DEPTH DRILLER         
RUN .         ONE                  : Run          - RUN NUMBER                  
ENG .         EISLER               : Engineer     - RECORDING ENGINEER          
WIT .         TAVATAVAI            : Witness      - WITNESSED BY                
BASE.         LLOYDMINISTER        : Branch       - HOME BASE OF LOGGING UNIT   
MUD .         GEL CHEM             : Mud_type     - MUD TYPE                    
MATR.         SANDSTONE            : Logunit      - NEUTRON MATRIX              
TMAX.C        22                   : BHT          - MAXIMUM RECORDED TEMPERATURE
BHTD.M        479.4                : BHTDEP       - MAXIMUM RECORDED TEMPERATURE
RMT .C        17.2                 : MDTP         - TEMPERATURE OF MUD          
MUDD.KG/M     1110                 : MWT          - MUD DENSITY                 
NEUT.         1                    : NEUTRON      - NEUTRON TYPE                
RESI.         0                    : RESIST       - RESISTIVITY TYPE            
RM  .OHMM     5.2                  : RM           - RESISTIVITY OF MUD          
RMC .OHMM     0                    : RMC          - RESISTIVITY OF MUD CAKE     
RMF .OHMM     5                    : RMF          - RESISTIVITY OF MUD FILTRATE 
SUFT.C        0                    : SUFT         - SURFACE TEMPERATURE         
~A  DEPTH     PHID     PHIN       GR      CAL     RESD
# ...
  419.500    0.191    0.347  118.553  166.220    3.256
  419.750    0.198    0.342  115.659  166.230    3.686
  420.000    0.193    0.339  115.413  166.451    4.062
  420.250    0.184    0.332  117.185  166.674    4.452
  420.500    0.176    0.353  119.966  166.894    4.752
  420.750    0.170    0.386  117.136  167.745    4.967
  421.000    0.164    0.381  112.539  168.386    5.124
  421.250    0.167    0.371  107.628  168.712    5.256
  421.500    0.168    0.369  103.725  157.068    5.370
  421.750    0.168    0.387   99.885  157.174    5.436
  422.000    0.168    0.431   97.118  155.714    5.523
  422.250    0.156    0.405   97.565  154.043    5.676
  422.500    0.153    0.384  102.868  154.370    5.832
  422.750    0.157    0.353  105.838  155.537    5.893
  423.000    0.169    0.328  107.358  156.388    5.909
  423.250    0.179    0.317  104.338  156.294    5.902
  423.500    0.175    0.325  101.760  155.674    5.861
  423.750    0.164    0.342  102.018  155.055    5.789
  424.000    0.154    0.363  103.286  155.591    5.749
  424.250    0.157    0.351  105.625  155.496    5.592
  424.500    0.168    0.332  109.541  154.983    5.565
  424.750    0.178    0.341  112.196  154.573    5.559
  425.000    0.184    0.356  112.644  154.584    5.490
  425.250    0.177    0.377  111.830  154.805    5.360
  425.500    0.167    0.371  110.198  154.816    5.285
  425.750    0.160    0.364  108.628  154.827    5.219
  426.000    0.166    0.372  106.805  154.418    5.154
  426.250    0.167    0.368  103.785  153.797    5.070
  426.500    0.168    0.396  100.955  153.387    4.941
  426.750    0.169    0.382  100.520  153.082    4.834
  427.000    0.177    0.368  100.590  152.884    4.792
  427.250    0.181    0.378  101.100  153.000    4.759
  427.500    0.176    0.362  101.107  152.590    4.745
  427.750    0.173    0.338  100.357  151.550    4.748
  428.000    0.175    0.351  100.175  149.566    4.725
  428.250    0.185    0.400  100.118  148.525    4.711
  428.500    0.197    0.428   98.296  148.222    4.696
  428.750    0.205    0.389   95.653  148.336    4.709
  429.000    0.213    0.368   91.373  148.137    4.767
  429.250    0.223    0.366   87.092  147.833    4.898
  429.500    0.228    0.386   83.567  147.422    5.208
  429.750    0.213    0.376   80.169  147.013    5.773
  430.000    0.166    0.336   76.267  147.234    6.710
  430.250    0.138    0.283   74.760  148.192    7.175
  430.500    0.137    0.263   76.280  148.937    7.154
  430.750    0.165    0.341   77.547  149.789    6.426
  431.000    0.205    0.384   79.256  150.640    5.762
  431.250    0.219    0.373   81.848  151.492    5.276
  431.500    0.217    0.353   83.682  152.343    5.103
  431.750    0.203    0.314   84.320  153.931    5.334
  432.000    0.189    0.296   75.120  154.992    6.095
  432.250    0.162    0.248   73.362  156.475    6.756
  432.500    0.136    0.237   74.819  157.956    6.609
  432.750    0.164    0.328   77.725  158.703    5.859
  433.000    0.189    0.408   81.830  158.925    5.384
  433.250    0.212    0.422   84.043  159.250    4.995
  433.500    0.219    0.399   83.797  158.945    4.742
  433.750    0.217    0.364   83.868  158.117    4.612
  434.000    0.219    0.346   84.946  156.445    4.546
  434.250    0.217    0.349   87.096  154.145    4.524
  434.500    0.214    0.388   88.237  153.632    4.527
  434.750    0.213    0.402   88.181  154.062    4.531
  435.000    0.211    0.378   87.809  155.440    4.534
  435.250    0.211    0.349   87.626  156.500    4.564
  435.500    0.214    0.350   88.201  157.036    4.602
  435.750    0.212    0.355   89.216  156.941    4.640
  436.000    0.213    0.359   89.727  156.742    4.671
  436.250    0.206    0.362   89.670  157.068    4.709
  436.500    0.208    0.353   88.920  156.868    4.739
  436.750    0.208    0.354   85.901  156.775    4.770
  437.000    0.200    0.350   83.638  157.206    4.783
  437.250    0.192    0.341   82.193  158.164    4.777
  437.500    0.185    0.336   81.696  158.279    4.782
  437.750    0.199    0.348   82.458  157.343    4.784
  438.000    0.206    0.388   83.916  153.782    4.825
  438.250    0.205    0.409   84.930  150.745    4.837
  438.500    0.207    0.410   86.135  148.864    4.850
  438.750    0.208    0.395   87.088  152.659    4.835
  439.000    0.205    0.377   88.292  155.927    4.849
  439.250    0.212    0.387   90.631  157.304    4.852
  439.500    0.214    0.398   93.412  156.474    4.828
  439.750    0.207    0.410   95.814  155.646    4.822
  440.000    0.197    0.392   96.073  154.500    4.808
  440.250    0.186    0.390   94.503  153.564    4.848
  440.500    0.172    0.375   91.862  152.839    4.963
  440.750    0.148    0.352   89.850  152.956    5.267
  441.000    0.135    0.338   87.398  153.386    5.517
  441.250    0.123    0.314   86.900  154.343    5.626
  441.500    0.147    0.290   96.238  155.405    5.330
  441.750    0.172    0.351  104.756  157.201    4.752
  442.000    0.190    0.371  115.797  158.684    4.285
  442.250    0.197    0.343  117.065  159.009    4.044
  442.500    0.184    0.350  115.117  159.231    3.919
  442.750    0.183    0.375  113.990  159.245    3.834
  443.000    0.182    0.396  114.436  159.256    3.764
  443.250    0.178    0.415  115.263  159.477    3.732
  443.500    0.192    0.425  116.025  159.486    3.699
  443.750    0.189    0.455  117.924  159.705    3.654
  444.000    0.190    0.485  121.145  160.032    3.629
  444.250    0.195    0.516  122.603  159.937    3.583
  444.500    0.191    0.455  123.050  159.950    3.566
  444.750    0.189    0.417  123.940  160.066    3.582
  445.000    0.190    0.382  125.333  160.075    3.660
  445.250    0.185    0.413  125.718  160.401    3.776
  445.500    0.175    0.401  120.239  160.623    4.015
  445.750    0.166    0.387  118.921  160.948    4.317
  446.000    0.155    0.382  117.288  161.590    4.626
  446.250    0.146    0.380  118.997  162.862    4.900
  446.500    0.140    0.390  120.391  163.082    5.064
  446.750    0.147    0.398  120.209  163.619    5.204
  447.000    0.149    0.384  118.198  164.051    5.297
  447.250    0.143    0.357  117.573  164.061    5.382
  447.500    0.141    0.337  118.779  163.547    5.437
  447.750    0.148    0.349  120.172  162.929    5.504
  448.000    0.148    0.361  123.394  162.624    5.560
  448.250    0.146    0.343  128.129  162.633    5.639
  448.500    0.141    0.342  124.668  162.749    5.773
  448.750    0.128    0.339  115.027  162.865    5.955
  449.000    0.114    0.334  106.774  162.771    6.368
  449.250    0.125    0.331  101.610  162.362    6.927
  449.500    0.131    0.316   93.042  162.162    7.506
  449.750    0.122    0.325   85.040  161.858    8.149
  450.000    0.104    0.318   79.814  160.292    8.830
  450.250    0.089    0.295   77.487  160.303    9.407
  450.500    0.108    0.286   76.359  160.314    9.852
  450.750    0.143    0.315   76.681  160.220   10.555
  451.000    0.153    0.331   78.642  159.601   11.160
  451.250    0.122    0.316   82.368  159.295   11.381
  451.500    0.094    0.272   86.852  158.781   11.071
  451.750    0.066    0.251   93.479  158.687    9.852
  452.000    0.082    0.268   98.214  158.698    9.037
  452.250    0.102    0.297  105.094  158.499    8.384
  452.500    0.131    0.319  111.153  158.719    7.882
  452.750    0.143    0.321  116.960  158.835    7.452
  453.000    0.140    0.334  119.741  159.269    7.099
  453.250    0.132    0.341  116.280  159.593    6.841
  453.500    0.126    0.343  112.503  159.498    6.718
  453.750    0.116    0.352  110.366  159.405    6.635
  454.000    0.106    0.375  108.418  159.313    6.614
  454.250    0.099    0.364  107.163  159.111    6.606
  454.500    0.109    0.348  106.539  158.913    6.599
  454.750    0.118    0.327  108.122  159.133    6.629
  455.000    0.123    0.323  110.209  159.461    6.672
  455.250    0.133    0.319  112.107  159.574    6.753
  455.500    0.140    0.337  112.744  159.480    6.862
  455.750    0.131    0.351  112.373  159.701    7.012
