~VERSION INFORMATION
 VERS.                 2.0:   CWLS LOG ASCII STANDARD -VERSION 2.0
 WRAP.                  NO:   ONE LINE PER DEPTH STEP
~WELL INFORMATION BLOCK
#MNEM.UNIT           DATA                    DESCRIPTION OF MNEMONIC
#---------    -------------------            -------------------------------
# Generated from Intellog Unique Number	CX_WELLS/WELL/3254
WELL.         PAPA ET AL GRANOR              : Well_name    - WELL
LOC .         00/06-31-083-17W4/0            : Location     - LOCATION
UWI .         00/06-31-083-17W400            : Uwi          - UNIQUE WELL ID
ENTR.         T                              : Entered      - ENTERED BY
SRVC.         SCHLUMBERGER                   : Scn          - SERVICE COMPANY
STRT.M        100                            : top_depth    - START DEPTH
STOP.M        285                            : bot_depth    - STOP DEPTH
STEP.M        0.25                           : increment    - STEP LENGTH
 NULL. -999.2500:NULL Value
~CURVE INFORMATION BLOCK
#MNEM UNIT       ERCB CURVE CODE    CURVE DESCRIPTION
#-----------   ------------------   ----------------------------------
DEPT.M        00 001 00 00         : DEPTH        - DEPTH
GR  .API      00 310 00 00         : GR           - GAMMA RAY
NPHI.V/V      00 330 00 00         : PHIN         - NEUTRON POROSITY (SANDSTONE)
DPHI.V/V      00 890 00 00         : PHID         - DENSITY POROSITY (SANDSTONE)
ILD .OHMM     00 120 00 00         : RESD         - DEEP RESISTIVITY (DIL)
~PARAMETER INFORMATION
#MNEM.UNIT           DATA             DESCRIPTION OF MNEMONIC
#---------         -----------     ------------------------------
GL  .M        537.8                : gl           - GROUND LEVEL ELEVATION
EREF.M        541.4                : kb           - ELEVATION OF DEPTH REFERENCE
DATM.M        541.4                : datum        - DATUM ELEVATION
TDD .M        285                  : tdd          - TOTAL DEPTH DRILLER
RUN .         ONE                  : Run          - RUN NUMBER
ENG .         BILL                 : Engineer     - RECORDING ENGINEER
WIT .         JIM                  : Witness      - WITNESSED BY
MUD .         GEL                  : Mud_type     - MUD TYPE
MATR.         SANDSTONE            : Logunit      - NEUTRON MATRIX
TMAX.C        22                   : BHT          - MAXIMUM RECORDED TEMPERATURE
BHTD.M        285                  : BHTDEP       - MAXIMUM RECORDED TEMPERATURE
MATR.         1                    : LOGUNIT      - NEUTRON MATRIX
RMT .C        20                   : MDTP         - TEMPERATURE OF MUD
NEUT.         1                    : NEUTRON      - NEUTRON TYPE
RESI.         5.5                  : RESIST       - RESISTIVITY TYPE
RMC .OHMM     4.4                  : RMC          - RESISTIVITY OF MUD CAKE
RMF .OHMM     7                    : RMF          - RESISTIVITY OF MUD FILTRATE
SUFT.C        4                    : SUFT         - SURFACE TEMPERATURE
~A  DEPTH       GR     PHIN     PHID     RESD
# ...
  143.500   72.232    0.448    0.324   13.168
  143.750   72.261    0.474    0.316   13.206
  144.000   72.916    0.471    0.307   12.972
  144.250   72.988    0.465    0.306   13.003
  144.500   71.264    0.467    0.308   12.779
  144.750   70.110    0.466    0.313   12.816
  145.000   68.956    0.462    0.322   12.834
  145.250   67.816    0.467    0.322   13.097
  145.500   67.275    0.477    0.323   13.385
  145.750   65.537    0.485    0.324   13.404
  146.000   64.995    0.486    0.332   13.692
  146.250   66.264    0.447    0.340   13.966
  146.500   67.518    0.440    0.339   14.272
  146.750   68.159    0.435    0.336   14.300
  147.000   68.814    0.430    0.335   14.313
  147.250   68.287    0.428    0.332   14.355
  147.500   68.330    0.419    0.332   14.369
  147.750   67.803    0.414    0.332   14.396
  148.000   67.846    0.420    0.333   14.431
  148.250   67.319    0.463    0.334   14.452
  148.500   67.391    0.472    0.337   14.493
  148.750   68.616    0.464    0.338   14.514
  149.000   69.884    0.447    0.338   14.278
  149.250   67.548    0.460    0.334   14.298
  149.500   66.394    0.479    0.330   14.052
  149.750   68.844    0.478    0.334   13.829
  150.000   71.295    0.463    0.338   13.591
  150.250   71.367    0.456    0.336   13.624
  150.500   70.241    0.460    0.334   13.389
  150.750   69.671    0.487    0.332   13.408
  151.000   69.743    0.454    0.329   13.196
  151.250   69.814    0.449    0.328   12.732
  151.500   70.455    0.454    0.324   12.513
  151.750   70.527    0.479    0.321   11.854
  152.000   71.154    0.477    0.320   11.438
  152.250   71.211    0.453    0.313   11.448
  152.500   70.684    0.439    0.311   11.911
  152.750   70.755    0.429    0.306   12.392
  153.000   70.798    0.425    0.297   13.394
  153.250   71.468    0.448    0.292   14.193
  153.500   72.708    0.456    0.287   15.333
  153.750   73.349    0.444    0.284   17.869
  154.000   74.631    0.427    0.279   20.036
  154.250   75.258    0.405    0.250   23.806
  154.500   76.527    0.354    0.171   25.706
  154.750   75.971    0.305    0.034   25.287
  155.000   72.452    0.278    0.007   22.628
  155.250   68.904    0.124    0.004   20.634
  155.500   66.568    0.119    0.002   18.447
  155.750   70.828    0.112    0.008   15.608
  156.000   73.863    0.120    0.066   14.496
  156.250   74.533    0.215    0.120   13.476
  156.500   72.795    0.268    0.170   12.522
  156.750   71.042    0.382    0.244   12.083
  157.000   68.706    0.440    0.282   11.886
  157.250   68.179    0.463    0.302   11.675
  157.500   67.623    0.475    0.313   11.698
  157.750   66.498    0.476    0.317   11.720
  158.000   66.555    0.462    0.318   11.524
  158.250   68.407    0.446    0.319   11.336
  158.500   69.647    0.431    0.319   11.352
  158.750   71.513    0.413    0.318   11.374
  159.000   71.556    0.412    0.316   11.396
  159.250   71.029    0.438    0.314   11.423
  159.500   70.502    0.449    0.311   11.440
  159.750   69.932    0.458    0.310   11.462
  160.000   68.194    0.455    0.310   11.489
  160.250   66.456    0.429    0.312   11.511
  160.500   65.915    0.457    0.313   11.318
  160.750   67.197    0.482    0.314   11.335
  161.000   67.838    0.502    0.317   11.357
  161.250   68.494    0.502    0.317   11.171
  161.500   67.939    0.474    0.318   10.989
  161.750   67.397    0.443    0.320   11.005
  162.000   67.454    0.458    0.324   11.021
  162.250   67.526    0.443    0.325   10.841
  162.500   68.181    0.412    0.327   10.862
  162.750   70.034    0.416    0.330   10.883
  163.000   71.886    0.409    0.328   11.111
  163.250   72.527    0.397    0.323   11.133
  163.500   71.986    0.383    0.321   11.372
  163.750   70.846    0.369    0.319   11.383
  164.000   69.721    0.397    0.327   11.405
  164.250   69.165    0.402    0.334   11.871
  164.500   69.237    0.449    0.340   12.120
  164.750   68.667    0.480    0.341   12.609
  165.000   68.140    0.503    0.340   13.125
  165.250   66.986    0.484    0.336   13.642
  165.500   65.846    0.452    0.333   14.207
  165.750   65.305    0.447    0.333   14.498
  166.000   63.581    0.438    0.332   14.794
  166.250   62.427    0.438    0.332   15.407
  166.500   60.703    0.464    0.332   15.429
  166.750   60.162    0.471    0.331   15.760
  167.000   59.022    0.487    0.329   15.783
  167.250   59.079    0.499    0.326   16.114
  167.500   59.735    0.498    0.324   16.145
  167.750   60.390    0.473    0.323   16.176
  168.000   58.652    0.469    0.327   16.507
  168.250   56.914    0.467    0.333   16.539
  168.500   56.373    0.460    0.338   16.579
  168.750   57.014    0.447    0.328   16.603
  169.000   57.085    0.433    0.317   16.643
  169.250   55.347    0.423    0.313   16.667
  169.500   54.207    0.418    0.311   16.699
  169.750   53.666    0.423    0.319   16.731
  170.000   52.526    0.429    0.322   16.450
  170.250   52.583    0.430    0.326   16.190
  170.500   53.239    0.431    0.328   16.213
  170.750   52.698    0.434    0.323   15.934
  171.000   51.544    0.437    0.314   15.667
  171.250   50.418    0.441    0.307   15.704
  171.500   50.461    0.446    0.300   15.742
  171.750   49.934    0.442    0.300   15.757
  172.000   49.991    0.420    0.300   15.803
  172.250   50.034    0.391    0.304   15.818
  172.500   50.690    0.373    0.305   15.864
  172.750   51.359    0.370    0.308   15.879
  173.000   51.416    0.399    0.310   15.917
  173.250   52.656    0.407    0.312   15.948
  173.500   56.916    0.418    0.314   15.986
  173.750   59.353    0.368    0.314   16.001
  174.000   58.812    0.347    0.312   16.040
  174.250   57.088    0.372    0.310   16.063
  174.500   54.751    0.418    0.310   16.102
  174.750   54.808    0.467    0.310   16.125
  175.000   56.661    0.473    0.307   16.471
  175.250   57.316    0.441    0.306   16.503
  175.500   57.373    0.414    0.303   16.526
  175.750   57.416    0.401    0.301   16.558
  176.000   57.488    0.390    0.298   16.590
  176.250   59.340    0.392    0.293   16.622
  176.500   62.389    0.391    0.290   16.343
  176.750   66.051    0.387    0.285   16.375
  177.000   67.277    0.383    0.277   15.800
  177.250   68.531    0.383    0.274   13.362
  177.500   69.215    0.437    0.267   10.284
  177.750   69.272    0.488    0.262    9.552
  178.000   70.497    0.486    0.259    9.049
  178.250   73.575    0.454    0.263    8.897
  178.500   75.413    0.442    0.266    8.910
  178.750   79.075    0.420    0.269    8.764
  179.000   81.512    0.402    0.261    8.457
  179.250   85.159    0.373    0.243    8.160
  179.500   90.004    0.338    0.229    7.582
  179.750   96.045    0.335    0.206    6.785
  180.000  106.290    0.359    0.167    6.071
  180.250  109.938    0.409    0.128    5.642
  180.500  112.987    0.429    0.137    5.345
  180.750  114.269    0.440    0.162    5.250
  181.000  114.312    0.511    0.185    5.162
  181.250  114.355    0.455    0.186    5.174
  181.500  115.039    0.450    0.186    5.182
  181.750  115.082    0.476    0.186    5.194
  182.000  115.738    0.487    0.191    5.204
  182.250  116.977    0.488    0.191    5.217
  182.500  117.661    0.477    0.184    5.222
  182.750  117.718    0.445    0.178    5.239
  183.000  116.564    0.429    0.178    5.244
  183.250  116.009    0.416    0.180    5.252
  183.500  114.869    0.425    0.179    5.367
  183.750  113.729    0.415    0.178    5.375
  184.000  112.590    0.411    0.176    5.488
  184.250  111.450    0.438    0.181    5.600
  184.500  110.325    0.461    0.185    5.611
  184.750  108.586    0.492    0.192    5.837
  185.000  108.031    0.499    0.196    6.073
  185.250  106.293    0.510    0.201    6.439
  185.500  103.942    0.510    0.203    6.826
  185.750  100.423    0.471    0.207    7.237
  186.000   98.086    0.447    0.200    7.529
  186.250   96.362    0.435    0.196    7.833
  186.500   95.792    0.381    0.199    8.149
  186.750   95.265    0.378    0.204    8.479
