~VERSION INFORMATION
 VERS.                 2.0:   CWLS LOG ASCII STANDARD -VERSION 2.0
 WRAP.                  NO:   ONE LINE PER DEPTH STEP
~WELL INFORMATION BLOCK
#MNEM.UNIT           DATA                    DESCRIPTION OF MNEMONIC
#---------    -------------------            -------------------------------
# Generated from Intellog Unique Number	CS_77_79/WELL/878
WELL.         C.W.W.E. HARDY                 : Well_name    - WELL
LOC .         00/06-19-078-04W4/0            : Location     - LOCATION
UWI .         00/06-19-078-04W4/0            : Uwi          - UNIQUE WELL ID
ENTR.         JHS                            : Entered      - ENTERED BY
SRVC.         SCHLUMBERGER                   : Scn          - SERVICE COMPANY
STRT.M        140                            : top_depth    - START DEPTH
STOP.M        380                            : bot_depth    - STOP DEPTH
STEP.M        0.25                           : increment    - STEP LENGTH
 NULL. -999.2500:NULL Value
~CURVE INFORMATION BLOCK
#MNEM UNIT       ERCB CURVE CODE    CURVE DESCRIPTION
#-----------   ------------------   ----------------------------------
DEPT.M        00 001 00 00         : DEPTH        - DEPTH
DPHI.V/V      00 890 00 00         : PHID         - DENSITY POROSITY (LIMESTONE)
NPHI.V/V      00 330 00 00         : PHIN         - NEUTRON POROSITY (LIMESTONE)
GR  .API      00 310 00 00         : GR           - GAMMA RAY
ILD .OHMM     00 120 00 00         : RESD         - DEEP RESISTIVITY (DIL)
RHOB.KG/M3    00 350 00 00         : DENS         - BULK DENSITY
~PARAMETER INFORMATION
#MNEM.UNIT           DATA             DESCRIPTION OF MNEMONIC
#---------         -----------     ------------------------------
GL  .M        562.1                : gl           - GROUND LEVEL ELEVATION
EREF.M        566                  : kb           - ELEVATION OF DEPTH REFERENCE
DATM.M        566                  : datum        - DATUM ELEVATION
TDD .M        385                  : tdd          - TOTAL DEPTH DRILLER
RUN .         ONE                  : Run          - RUN NUMBER
ENG .         BILL                 : Engineer     - RECORDING ENGINEER
WIT .         JIM                  : Witness      - WITNESSED BY
MUD .         GEL                  : Mud_type     - MUD TYPE
MATR.         LIMESTONE            : Logunit      - NEUTRON MATRIX
TMAX.C        18                   : BHT          - MAXIMUM RECORDED TEMPERATURE
BHTD.M        385                  : BHTDEP       - MAXIMUM RECORDED TEMPERATURE
MATR.         1                    : LOGUNIT      - NEUTRON MATRIX
RMT .C        25                   : MDTP         - TEMPERATURE OF MUD
NEUT.         1                    : NEUTRON      - NEUTRON TYPE
RESI.         0                    : RESIST       - RESISTIVITY TYPE
RMC .OHMM     0.25                 : RMC          - RESISTIVITY OF MUD CAKE
RMF .OHMM     0.25                 : RMF          - RESISTIVITY OF MUD FILTRATE
SUFT.C        15                   : SUFT         - SURFACE TEMPERATURE
~A  DEPTH     PHID     PHIN       GR     RESD     DENS
# ...
  359.000    0.305    0.354   36.050    3.157 2188.850
  359.250    0.289    0.360   38.511    3.344 2216.350
  359.500    0.265    0.348   39.755    3.408 2256.510
  359.750    0.253    0.334   39.768    3.610 2277.670
  360.000    0.255    0.323   38.559    3.681 2273.490
  360.250    0.253    0.313   37.963    3.753 2277.760
  360.500    0.238    0.306   37.365    3.755 2303.140
  360.750    0.226    0.310   37.994    3.758 2324.290
  361.000    0.244    0.322   37.394    3.690 2292.670
  361.250    0.276    0.335   34.962    3.692 2237.830
  361.500    0.274    0.339   33.136    3.626 2242.100
  361.750    0.265    0.330   30.705    3.628 2256.920
  362.000    0.251    0.319   29.495    3.699 2280.190
  362.250    0.237    0.309   31.349    3.844 2305.570
  362.500    0.227    0.307   35.034    3.919 2322.520
  362.750    0.227    0.306   40.560    3.849 2322.550
  363.000    0.228    0.302   44.863    3.708 2320.490
  363.250    0.245    0.318   47.326    3.253 2290.970
  363.500    0.294    0.362   40.607    3.019 2206.570
  363.750    0.333    0.413   34.500    2.750 2141.170
  364.000    0.346    0.422   30.845    2.552 2118.000
  364.250    0.350    0.428   32.699    2.369 2111.710
  364.500    0.352    0.436   36.387    2.326 2107.530
  364.750    0.349    0.439   40.072    2.327 2113.920
  365.000    0.339    0.430   43.763    2.373 2130.850
  365.250    0.329    0.428   43.779    2.420 2147.780
  365.500    0.320    0.436   42.565    2.376 2162.600
  365.750    0.315    0.426   39.526    2.333 2171.090
  366.000    0.341    0.418   39.538    2.335 2126.800
  366.250    0.351    0.414   40.774    2.293 2109.980
  366.500    0.342    0.405   42.628    2.294 2124.790
  366.750    0.340    0.394   44.480    2.295 2129.070
  367.000    0.334    0.385   45.719    2.341 2139.670
  367.250    0.329    0.385   43.288    2.343 2148.150
  367.500    0.340    0.387   43.299    2.344 2129.200
  367.750    0.352    0.388   47.602    2.346 2108.120
  368.000    0.359    0.400   48.844    2.304 2095.500
  368.250    0.349    0.407   47.632    2.305 2112.440
  368.500    0.347    0.399   41.525    2.306 2116.730
  368.750    0.348    0.390   40.314    2.308 2114.650
  369.000    0.344    0.383   40.949    2.310 2121.030
  369.250    0.346    0.379   39.738    2.310 2118.960
  369.500    0.348    0.386   36.687    2.356 2114.780
  369.750    0.343    0.393   33.645    2.357 2123.270
  370.000    0.338    0.391   32.432    2.404 2131.760
  370.250    0.339    0.384   31.833    2.405 2129.710
  370.500    0.342    0.380   30.623    2.547 2125.520
  370.750    0.337    0.380   29.415    2.696 2134.020
  371.000    0.296    0.374   44.736    2.964 2203.720
  371.250    0.199    0.364   95.572    3.383 2370.560
  371.500    0.153    0.353  108.445    4.087 2448.720
  371.750    0.163    0.348  102.950    4.578 2431.870
  372.000    0.205    0.352   86.433    4.940 2360.140
  372.250    0.271    0.361   75.428    4.851 2246.180
  372.500    0.313    0.368   49.114    4.175 2174.450
  372.750    0.306    0.367   35.661    4.421    0.000
  373.000    0.249    0.350   45.472    5.046    0.000
  373.250    0.013    0.322   57.120    6.329    0.000
  373.500    0.000    0.293   55.916    9.229    0.000
  373.750    0.003    0.271   52.867   12.717    0.000
  374.000    0.013    0.259   51.042   17.524    0.000
  374.250    0.009    0.248   50.448   21.983    0.000
  374.500    0.004    0.233   48.014   24.168    0.000
  374.750    0.006    0.223   46.805   25.590    0.000
  375.000    0.003    0.217   49.879   26.585    0.000
  375.250    0.015    0.214   52.344   28.150    0.000
  375.500    0.000    0.212   53.585   28.710    0.000
  375.750    0.000    0.212   52.374   28.718    0.000
  376.000    0.000    0.213   51.166   28.738    0.000
  376.250    0.000    0.216   54.854   28.759    0.000
  376.500    0.000    0.218   56.710   28.778    0.000
  376.750    0.000    0.221   56.119   28.805    0.000
  377.000    0.000    0.224   55.514   28.816    0.000
  377.250    0.000    0.223   54.302   28.835    0.000
  377.500    0.004    0.223   53.096   28.854    0.000
  377.750    0.005    0.225   54.339   28.326    0.000
  378.000    0.003    0.227   56.186   28.347    0.000
  378.250    0.000    0.224   58.653   28.367    0.000
  378.500    0.000    0.222   56.218   28.383    0.000
  378.750    0.001    0.224   54.393   28.941    0.000
  379.000    0.008    0.226   54.410   28.959    0.000
  379.250    0.011    0.230   55.043   28.983    0.000
  379.500    0.005    0.232   53.832   28.460    0.000
  379.750    0.001    0.237   52.618   29.016    0.000
  380.000    0.000    0.240   51.411   31.901    0.000
