~VERSION INFORMATION
 VERS.                 2.0:   CWLS LOG ASCII STANDARD -VERSION 2.0
 WRAP.                  NO:   ONE LINE PER DEPTH STEP
~WELL INFORMATION BLOCK
#MNEM.UNIT           DATA                    DESCRIPTION OF MNEMONIC
#---------    -------------------            -------------------------------
# Generated from Intellog Unique Number	CW_82_90/WELL/529
WELL.         ANDEX WABASCA 06-23            : Well_name    - WELL
LOC .         00/06-23-082-22W4/0            : Location     - LOCATION
UWI .         00/06-23-082-22W4/0            : Uwi          - UNIQUE WELL ID
ENTR.         JAYE                           : Entered      - ENTERED BY
SRVC.         SCHLUMBERGER                   : Scn          - SERVICE COMPANY
DATE.         30 JAN 74                      : Date         - LOG DATE
STRT.M        228.6                          : top_depth    - START DEPTH
STOP.M        435.85                         : bot_depth    - STOP DEPTH
STEP.M        0.25                           : increment    - STEP LENGTH
 NULL. -999.2500:NULL Value
~CURVE INFORMATION BLOCK
#MNEM UNIT       ERCB CURVE CODE    CURVE DESCRIPTION
#-----------   ------------------   ----------------------------------
DEPT.M        00 001 00 00         : DEPTH        - DEPTH
GR  .API      00 310 00 00         : GR           - GAMMA RAY
NPHI.V/V      00 330 00 00         : PHIN         - NEUTRON POROSITY (SANDSTONE)
DPHI.V/V      00 890 00 00         : PHID         - DENSITY POROSITY (SANDSTONE)
CALI.MM       00 280 01 00         : CAL          - CALIPER
ILD .OHMM     00 120 00 00         : RESD         - DEEP RESISTIVITY (DIL)
~PARAMETER INFORMATION
#MNEM.UNIT           DATA             DESCRIPTION OF MNEMONIC
#---------         -----------     ------------------------------
GL  .M        622.554              : gl           - GROUND LEVEL ELEVATION
EREF.M        626.364              : kb           - ELEVATION OF DEPTH REFERENCE
DATM.M        622.554              : datum        - DATUM ELEVATION
TDD .M        448.97               : tdd          - TOTAL DEPTH DRILLER
RUN .         ONE                  : Run          - RUN NUMBER
ENG .         HITCHNER             : Engineer     - RECORDING ENGINEER
WIT .         SAYERS               : Witness      - WITNESSED BY
BASE.         EDMONTON             : Branch       - HOME BASE OF LOGGING UNIT
MUD .         GEL CHEM             : Mud_type     - MUD TYPE
MATR.         SANDSTONE            : Logunit      - NEUTRON MATRIX
TMAX.C        21.6667              : BHT          - MAXIMUM RECORDED TEMPERATURE
BHTD.M        448.97               : BHTDEP       - MAXIMUM RECORDED TEMPERATURE
RMT .C        15                   : MDTP         - TEMPERATURE OF MUD
MUDD.KG/M     1000                 : MWT          - MUD DENSITY
NEUT.         1                    : NEUTRON      - NEUTRON TYPE
RESI.         0                    : RESIST       - RESISTIVITY TYPE
RM  .OHMM     7.42                 : RM           - RESISTIVITY OF MUD
RMC .OHMM     0.25                 : RMC          - RESISTIVITY OF MUD CAKE
RMF .OHMM     7.35                 : RMF          - RESISTIVITY OF MUD FILTRATE
SUFT.C        4                    : SUFT         - SURFACE TEMPERATURE
~A  DEPTH       GR     PHIN     PHID      CAL     RESD
# ...
  374.600   85.322    0.501    0.237  150.913   12.732
  374.850   86.738    0.505    0.238  151.141   12.529
  375.100   87.056    0.515    0.230  150.447   12.443
  375.350   89.448    0.518    0.237  150.882   12.448
  375.600   90.376    0.524    0.235  152.352   12.498
  375.850   91.426    0.529    0.229  153.610   12.458
  376.100   90.954    0.495    0.210  155.799   12.350
  376.350   88.406    0.476    0.201  156.749   12.309
  376.600   85.312    0.462    0.193  153.993   12.269
  376.850   88.436    0.463    0.186  154.022   12.274
  377.100   90.642    0.504    0.211  155.897   12.301
  377.350   87.732    0.510    0.209  157.980   12.284
  377.600   86.526    0.523    0.203  157.697   12.244
  377.850   86.052    0.548    0.223  155.973   12.226
  378.100   88.322    0.482    0.231  153.630   12.209
  378.350   87.177    0.471    0.226  154.892   12.304
  378.600   86.278    0.471    0.220  157.799   12.582
  378.850   86.291    0.500    0.210  153.810   13.153
  379.100   89.413    0.501    0.216  151.157   13.329
  379.350   89.000    0.504    0.227  150.362   13.116
  379.600   87.003    0.523    0.234  150.484   12.835
  379.850   88.847    0.569    0.237  151.131   12.425
  380.100   90.993    0.551    0.228  154.654   12.027
  380.350   93.201    0.535    0.230  157.253   11.685
  380.600   94.192    0.523    0.225  159.645   11.518
  380.850   94.086    0.515    0.221  160.291   11.273
  381.100   91.598    0.515    0.224  161.138   11.093
  381.350   88.565    0.507    0.214  161.473   10.956
  381.600   87.909    0.509    0.211  160.365   10.900
  381.850   88.958    0.515    0.201  160.391   10.964
  382.100   90.983    0.509    0.211  157.429   11.233
  382.350   92.216    0.499    0.221  159.822   11.238
  382.600   92.412    0.500    0.213  156.966   11.304
  382.850   90.113    0.502    0.204  159.158   11.309
  383.100   88.174    0.493    0.202  159.796   11.313
  383.350   86.848    0.477    0.211  159.818   11.318
  383.600   86.983    0.484    0.221  159.637   11.385
  383.850   88.886    0.498    0.220  157.605   11.494
  384.100   89.877    0.473    0.222  158.663   11.647
  384.350   90.682    0.464    0.217  160.021   11.803
  384.600   93.439    0.486    0.202  161.180   11.873
  384.850   94.309    0.487    0.205  162.132   11.812
  385.100   91.824    0.445    0.186  162.672   11.309
  385.350   96.528    0.433    0.148  163.624   10.787
  385.600  101.601    0.443    0.200  164.063   10.403
  385.850  100.274    0.467    0.220  162.131   10.237
  386.100  100.475    0.445    0.228  155.872   10.374
  386.350  100.912    0.447    0.218  158.061   10.417
  386.600   96.842    0.463    0.217  161.792   10.325
  386.850   92.042    0.460    0.208  162.745   10.462
  387.100   86.386    0.450    0.215  160.196   10.998
  387.350   80.672    0.444    0.219  158.367   12.738
  387.600   73.858    0.439    0.222  155.610   15.248
  387.850   69.788    0.434    0.215  153.372   17.792
  388.100   71.448    0.424    0.211  152.578   21.259
  388.350   69.024    0.420    0.223  152.392   24.760
  388.600   65.686    0.424    0.258  152.830   27.645
  388.850   60.457    0.422    0.254  153.472   30.089
  389.100   57.363    0.383    0.237  154.321   31.510
  389.350   55.366    0.342    0.198  155.994   34.169
  389.600   53.856    0.307    0.107  158.696   38.930
  389.850   54.418    0.304    0.085  158.930   43.233
  390.100   56.200    0.316    0.102  159.779   46.535
  390.350   55.728    0.307    0.126  158.666   48.825
  390.600   55.680    0.302    0.115  159.931   48.844
  390.850   58.253    0.302    0.104  160.881   46.168
  391.100   63.145    0.314    0.124  159.772   43.636
  391.350   59.683    0.355    0.173  157.429   41.547
  391.600   57.198    0.366    0.175  156.221   40.960
  391.850   54.164    0.370    0.173  156.349   38.012
  392.100   51.436    0.342    0.156  158.021   34.955
  392.350   49.499    0.332    0.159  158.971   34.969
  392.600   53.292    0.327    0.161  160.339   33.605
  392.850   59.218    0.311    0.147  161.081   31.993
  393.100   62.707    0.311    0.139  159.358   28.104
  393.350   64.247    0.345    0.154  158.661   25.422
  393.600   65.416    0.394    0.205  158.583   23.549
  393.850   69.700    0.386    0.204  157.679   21.695
  394.100   73.798    0.392    0.200  158.122   20.133
  394.350   75.517    0.407    0.215  158.655   18.480
  394.600   75.651    0.428    0.233  158.890   16.353
  394.850   71.947    0.447    0.247  158.810   15.316
  395.100   68.975    0.458    0.243  158.837   14.880
  395.350   65.819    0.429    0.214  158.967   14.749
  395.600   64.370    0.414    0.186  159.195   15.195
  395.850   62.250    0.416    0.179  159.219   15.453
  396.100   64.459    0.421    0.209  159.864   15.207
  396.350   67.215    0.408    0.215  159.064   14.800
  396.600   65.279    0.397    0.223  156.308   14.015
  396.850   63.525    0.386    0.205  154.273   13.816
  397.100   62.139    0.383    0.169  154.197   14.764
  397.350   65.017    0.390    0.164  155.353   15.981
  397.600   66.919    0.379    0.170  159.087   17.045
  397.850   66.571    0.367    0.149  159.424   18.315
  398.100   66.094    0.368    0.170  159.237   18.868
  398.350   70.320    0.401    0.186  160.094   18.944
  398.600   71.364    0.427    0.203  160.114   18.642
  398.850   71.013    0.419    0.206  160.447   18.077
  399.100   72.560    0.405    0.209  160.679   17.149
  399.350   72.628    0.404    0.210  160.805   16.389
  399.600   71.968    0.400    0.211  161.036   15.806
  399.850   76.251    0.436    0.205  161.066   15.271
  400.100   76.689    0.440    0.218  160.880   14.756
  400.350   77.557    0.445    0.202  160.807   14.361
  400.600   81.290    0.464    0.193  161.139   13.850
  400.850   81.487    0.459    0.221  160.440   13.480
  401.100   79.976    0.440    0.216  157.171   13.169
  401.350   77.369    0.429    0.196  158.534   13.393
  401.600   76.408    0.406    0.177  160.620   13.620
  401.850   78.982    0.395    0.172  161.673   13.980
  402.100   81.312    0.398    0.190  162.317   14.140
  402.350   81.024    0.451    0.217  162.652   14.198
  402.600   82.254    0.445    0.218  159.381   14.023
  402.850   84.707    0.427    0.218  159.199   13.724
  403.100   85.759    0.415    0.211  159.947   13.332
  403.350   83.271    0.409    0.200  160.897   13.001
  403.600   83.346    0.418    0.197  161.542   13.245
  403.850   81.898    0.416    0.185  161.258   13.422
  404.100   84.532    0.417    0.186  160.768   13.257
  404.350   86.679    0.435    0.198  161.106   12.809
  404.600   88.888    0.449    0.209  162.159   12.062
  404.850   89.451    0.468    0.220  163.005   10.951
  405.100   88.551    0.483    0.219  164.885   10.600
  405.350   87.163    0.491    0.208  165.839   10.507
  405.600   88.706    0.465    0.194  165.139   11.584
  405.850   90.908    0.436    0.168  161.666   11.845
  406.100   96.468    0.433    0.156  161.276   11.915
  406.350  101.175    0.440    0.184  165.940   11.221
  406.600  101.800    0.439    0.205  166.995   10.318
  406.850   99.924    0.437    0.223  166.499    9.402
  407.100  101.035    0.428    0.220  165.703    9.185
  407.350  104.280    0.432    0.214  165.830    9.121
  407.600  106.548    0.461    0.207  166.164    9.312
  407.850  104.734    0.457    0.208  165.162    9.504
  408.100  101.457    0.432    0.208  164.256   10.063
  408.350   96.411    0.440    0.184  162.432   10.616
  408.600   82.954    0.451    0.132  161.840   11.986
  408.850   82.847    0.392    0.083  161.452   13.755
  409.100   91.334    0.374    0.093  161.478   16.347
  409.350   96.040    0.381    0.209  162.219   19.748
  409.600   96.785    0.402    0.221  162.452   22.172
  409.850   92.473    0.417    0.210  161.861   23.135
  410.100   86.635    0.409    0.212  164.663   22.231
  410.350   80.127    0.395    0.216  165.511   21.050
  410.600   64.111    0.383    0.235  165.331   20.639
  410.850   48.033    0.370    0.269  161.444   23.429
