~VERSION INFORMATION
 VERS.                 2.0:   CWLS LOG ASCII STANDARD -VERSION 2.0
 WRAP.                  NO:   ONE LINE PER DEPTH STEP
~WELL INFORMATION BLOCK
#MNEM.UNIT           DATA                    DESCRIPTION OF MNEMONIC
#---------    -------------------            -------------------------------
# Generated from Intellog Unique Number	CX_WELLS/WELL/4026
WELL.         PACIFIC WILLOW                 : Well_name    - WELL
LOC .         00/07-09-077-04W5/0            : Location     - LOCATION
UWI .         00/07-09-077-04W5/0            : Uwi          - UNIQUE WELL ID
ENTR.         T                              : Entered      - ENTERED BY
SRVC.         SCHLUMBERGER                   : Scn          - SERVICE COMPANY
STRT.F        1400                           : top_depth    - START DEPTH
STOP.F        2149.67                        : bot_depth    - STOP DEPTH
STEP.F        0.82                           : increment    - STEP LENGTH
 NULL. -999.2500:NULL Value
~CURVE INFORMATION BLOCK
#MNEM UNIT       ERCB CURVE CODE    CURVE DESCRIPTION
#-----------   ------------------   ----------------------------------
DEPT.F        00 001 00 00         : DEPTH        - DEPTH
GR  .API      00 310 00 00         : GR           - GAMMA RAY
NPHI.V/V      00 330 00 00         : PHIN         - NEUTRON POROSITY (SANDSTONE)
DPHI.V/V      00 890 00 00         : PHID         - DENSITY POROSITY (SANDSTONE)
ILD .OHMM     00 120 00 00         : RESD         - DEEP RESISTIVITY (DIL)
~PARAMETER INFORMATION
#MNEM.UNIT           DATA             DESCRIPTION OF MNEMONIC
#---------         -----------     ------------------------------
GL  .F        2352                 : gl           - GROUND LEVEL ELEVATION
EREF.F        2364.5               : kb           - ELEVATION OF DEPTH REFERENCE
DATM.F        2364.5               : datum        - DATUM ELEVATION
TDD .F        2166                 : tdd          - TOTAL DEPTH DRILLER
RUN .         ONE                  : Run          - RUN NUMBER
ENG .         BILL                 : Engineer     - RECORDING ENGINEER
WIT .         JIM                  : Witness      - WITNESSED BY
MUD .         GEL                  : Mud_type     - MUD TYPE
MATR.         SANDSTONE            : Logunit      - NEUTRON MATRIX
TMAX.F        82                   : BHT          - MAXIMUM RECORDED TEMPERATURE
BHTD.F        2166                 : BHTDEP       - MAXIMUM RECORDED TEMPERATURE
MATR.         1                    : LOGUNIT      - NEUTRON MATRIX
RMT .F        65                   : MDTP         - TEMPERATURE OF MUD
NEUT.         1                    : NEUTRON      - NEUTRON TYPE
RESI.         4.1                  : RESIST       - RESISTIVITY TYPE
RMC .OHMM     3.5                  : RMC          - RESISTIVITY OF MUD CAKE
RMF .OHMM     3.5                  : RMF          - RESISTIVITY OF MUD FILTRATE
SUFT.F        35                   : SUFT         - SURFACE TEMPERATURE
~A  DEPTH       GR     PHIN     PHID     RESD
# ...
 1970.870   79.584    0.421    0.168    7.082
 1971.690   80.256    0.422    0.165    7.089
 1972.510   80.316    0.428    0.173    7.233
 1973.330   81.631    0.435    0.178    7.239
 1974.150   82.916    0.445    0.182    7.252
 1974.970   84.814    0.452    0.182    7.258
 1975.790   86.712    0.447    0.179    7.270
 1976.610   88.610    0.443    0.174    7.274
 1977.430   90.508    0.437    0.168    7.149
 1978.250   94.872    0.431    0.163    7.159
 1979.070   96.157    0.428    0.158    7.166
 1979.890   98.698    0.428    0.151    7.172
 1980.710   99.341    0.425    0.141    7.184
 1981.530   99.998    0.423    0.141    7.190
 1982.350  100.701    0.419    0.135    7.337
 1983.170  100.745    0.417    0.128    7.345
 1983.990  101.448    0.416    0.127    7.491
 1984.810  102.105    0.419    0.132    7.501
 1985.630  103.406    0.426    0.134    7.508
 1986.450  104.048    0.428    0.135    7.381
 1987.270  104.721    0.424    0.135    7.248
 1988.090  102.942    0.422    0.135    7.127
 1988.910   99.968    0.419    0.131    6.998
 1989.730   99.400    0.423    0.129    6.876
 1990.550   98.249    0.430    0.126    6.888
 1991.370   97.681    0.435    0.126    6.893
 1992.190   97.144    0.437    0.128    6.903
 1993.010   99.041    0.429    0.128    6.907
 1993.830  101.537    0.423    0.128    6.917
 1994.650  104.048    0.419    0.128    6.923
 1995.470  105.348    0.419    0.128    6.931
 1996.290  105.423    0.422    0.123    6.939
 1997.110  105.483    0.428    0.115    6.947
 1997.930  105.527    0.430    0.116    6.829
 1998.750  105.602    0.431    0.120    6.835
 1999.570  104.436    0.427    0.122    6.845
 2000.390  103.868    0.422    0.122    6.850
 2001.210  103.330    0.420    0.115    6.860
 2002.030  103.375    0.420    0.101    6.998
 2002.850  107.141    0.417    0.100    7.139
 2003.670  108.427    0.411    0.102    7.421
 2004.490  107.261    0.403    0.109    7.711
 2005.310  104.870    0.402    0.119    8.168
 2006.140  103.091    0.398    0.130    8.817
 2006.960  100.715    0.395    0.139    9.883
 2007.780   99.519    0.394    0.140   10.868
 2008.600   96.530    0.394    0.141   12.179
 2009.420   94.139    0.389    0.142   13.140
 2010.240   92.361    0.387    0.146   15.008
 2011.060   91.180    0.382    0.148   16.504
 2011.880   88.789    0.380    0.152   17.817
 2012.700   85.187    0.378    0.154   18.871
 2013.520   84.021    0.378    0.156   19.256
 2014.340   85.307    0.378    0.159   19.273
 2015.160   90.268    0.380    0.155   19.295
 2015.980   94.019    0.380    0.151   19.317
 2016.800   94.677    0.378    0.146   18.984
 2017.620   95.365    0.377    0.140   19.000
 2018.440   95.424    0.377    0.138   17.990
 2019.260   95.469    0.379    0.141   18.000
 2020.080   96.784    0.379    0.142   17.038
 2020.900   97.472    0.381    0.144   16.736
 2021.720   98.114    0.381    0.144   16.443
 2022.540   98.817    0.380    0.150   15.855
 2023.360   99.459    0.380    0.153   15.578
 2024.180   99.534    0.380    0.162   14.749
 2025.000  100.221    0.377    0.164   14.222
 2025.820  100.894    0.376    0.149   13.709
 2026.640  102.164    0.371    0.126   13.215
 2027.460  103.449    0.359    0.112   12.283
 2028.280  104.750    0.360    0.101   11.834
 2029.100  104.794    0.358    0.098   11.201
 2029.920  106.080    0.358    0.102   10.602
 2030.740  109.218    0.360    0.107   10.033
 2031.560  112.342    0.368    0.110    9.497
 2032.380  116.705    0.376    0.110    9.152
 2033.200  118.603    0.389    0.109    8.502
 2034.020  119.904    0.403    0.111    7.895
 2034.840  119.963    0.412    0.114    7.755
 2035.660  118.813    0.421    0.116    7.341
 2036.480  117.617    0.433    0.122    7.078
 2037.300  113.402    0.438    0.127    6.952
 2038.120  111.609    0.434    0.126    6.960
 2038.940  108.605    0.427    0.105    7.100
 2039.760  104.391    0.416    0.096    7.380
 2040.580  102.612    0.404    0.131    7.822
 2041.400  101.446    0.395    0.137    8.130
 2042.220  101.521    0.391    0.147    8.453
 2043.040  102.164    0.391    0.153    8.458
 2043.860  102.836    0.396    0.153    8.633
 2044.690  102.911    0.401    0.150    8.638
 2045.510  102.986    0.405    0.146    8.655
 2046.330  102.418    0.406    0.119    8.822
 2047.150  102.478    0.398    0.113    9.170
 2047.970   99.474    0.387    0.125   10.090
 2048.790   94.617    0.379    0.136   10.887
 2049.610   87.323    0.379    0.138   12.434
 2050.430   76.967    0.298    0.167   13.670
 2051.250   58.017    0.262    0.182   16.206
 2052.070   43.983    0.246    0.196   24.539
 2052.890   39.156    0.230    0.253   28.010
 2053.710   36.765    0.195    0.294   32.589
 2054.530   34.986    0.179    0.315   20.027
 2055.350   34.418    0.185    0.344   16.927
 2056.170   33.880    0.185    0.344   14.315
 2056.990   33.327    0.179    0.339   12.804
 2057.810   33.372    0.169    0.332   11.239
 2058.630   32.849    0.233    0.331   10.243
 2059.450   33.507    0.266    0.327    9.510
 2060.270   35.434    0.285    0.295    8.040
 2061.090   36.720    0.285    0.236    7.058
 2061.910   37.377    0.308    0.223    6.555
 2062.730   38.648    0.340    0.226    6.564
 2063.550   39.335    0.354    0.240    6.950
 2064.370   40.008    0.372    0.255    7.788
 2065.190   40.695    0.384    0.252   11.790
 2066.010   41.353    0.375    0.241   15.644
 2066.830   42.025    0.367    0.237   19.620
 2067.650   43.310    0.373    0.243   19.648
 2068.470   43.998    0.381    0.250   18.946
 2069.290   45.283    0.387    0.257   17.595
 2070.110   46.553    0.392    0.240   16.340
 2070.930   48.481    0.393    0.229   14.896
 2071.750   49.752    0.390    0.227   14.632
 2072.570   51.052    0.383    0.221   14.376
 2073.390   51.709    0.377    0.223   13.861
 2074.210   53.652    0.372    0.224   13.366
 2075.030   54.310    0.370    0.229   13.136
 2075.850   54.354    0.376    0.229   12.666
 2076.670   55.655    0.385    0.227   12.677
 2077.490   57.553    0.392    0.226   12.677
 2078.310   58.823    0.389    0.221   12.480
 2079.130   62.559    0.383    0.218   12.255
 2079.950   67.536    0.377    0.219   11.820
 2080.770   69.449    0.374    0.216   11.397
 2081.590   71.332    0.384    0.207   10.992
 2082.410   73.857    0.385    0.195   10.794
 2083.230   75.128    0.382    0.195   10.408
 2084.060   75.202    0.371    0.194   10.226
 2084.880   71.601    0.370    0.196   10.047
 2085.700   71.675    0.373    0.201    9.688
 2086.520   71.092    0.373    0.205    9.524
 2087.340   70.569    0.370    0.199    9.352
 2088.160   71.242    0.358    0.193    9.193
 2088.980   71.885    0.357    0.186    9.027
 2089.800   71.974    0.356    0.183    8.877
 2090.620   72.632    0.356    0.183    8.885
 2091.440   73.289    0.358    0.180    8.892
 2092.260   75.202    0.360    0.173    8.737
 2093.080   76.487    0.361    0.170    8.584
 2093.900   77.788    0.362    0.161    8.128
 2094.720   79.073    0.362    0.158    7.981
 2095.540   81.599    0.362    0.149    7.698
 2096.360   84.707    0.361    0.142    7.424
 2097.180   90.894    0.361    0.133    7.290
 2098.000   97.081    0.364    0.133    6.901
 2098.820  102.671    0.374    0.127    6.530
 2099.640  106.407    0.383    0.122    6.064
 2100.460  111.369    0.390    0.122    5.632
 2101.280  115.718    0.399    0.124    5.332
 2102.100  120.081    0.406    0.130    5.236
 2102.920  125.043    0.413    0.137    5.242
 2103.740  127.554    0.416    0.162    5.765
 2104.560  126.403    0.409    0.169    6.460
 2105.380  123.997    0.403    0.179    7.239
 2106.200  120.993    0.388    0.195    7.814
 2107.020  117.391    0.383    0.207    7.120
 2107.840  116.225    0.425    0.223    6.134
 2108.660  117.511    0.459    0.258    5.914
 2109.480  136.565    0.564    0.308    6.387
 2110.300  143.380    0.566    0.305    7.026
 2111.120  143.440    0.558    0.239    7.299
 2111.940  139.823    0.530    0.211    8.026
 2112.760  125.162    0.496    0.201    9.167
