~VERSION INFORMATION
 VERS.                 2.0:   CWLS LOG ASCII STANDARD -VERSION 2.0
 WRAP.                  NO:   ONE LINE PER DEPTH STEP
~WELL INFORMATION BLOCK
#MNEM.UNIT           DATA                    DESCRIPTION OF MNEMONIC
#---------    -------------------            -------------------------------
# Generated from Intellog Unique Number	CW_73_75/WELL/879
WELL.         CHEVRON ET AL DROWNED 07-36    : Well_name    - WELL
LOC .         00/07-36-075-23W4/0            : Location     - LOCATION
UWI .         00/07-36-075-23W4/0            : Uwi          - UNIQUE WELL ID
ENTR.         JAYE                           : Entered      - ENTERED BY
SRVC.         SCHLUMBERGER                   : Scn          - SERVICE COMPANY
DATE.         22 JAN 85                      : Date         - LOG DATE
STRT.M        411.48                         : top_depth    - START DEPTH
STOP.M        618.73                         : bot_depth    - STOP DEPTH
STEP.M        0.25                           : increment    - STEP LENGTH
 NULL. -999.2500:NULL Value
~CURVE INFORMATION BLOCK
#MNEM UNIT       ERCB CURVE CODE    CURVE DESCRIPTION
#-----------   ------------------   ----------------------------------
DEPT.M        00 001 00 00         : DEPTH        - DEPTH
ILD .OHMM     00 120 00 00         : RESD         - DEEP RESISTIVITY (DIL)
DPHI.V/V      00 890 00 00         : PHID         - DENSITY POROSITY (SANDSTONE)
NPHI.V/V      00 330 00 00         : PHIN         - NEUTRON POROSITY (SANDSTONE)
GR  .API      00 310 00 00         : GR           - GAMMA RAY
CALI.MM       00 280 01 00         : CAL          - CALIPER
~PARAMETER INFORMATION
#MNEM.UNIT           DATA             DESCRIPTION OF MNEMONIC
#---------         -----------     ------------------------------
GL  .M        678.058              : gl           - GROUND LEVEL ELEVATION
EREF.M        681.106              : kb           - ELEVATION OF DEPTH REFERENCE
DATM.M        678.058              : datum        - DATUM ELEVATION
TDD .M        626.974              : tdd          - TOTAL DEPTH DRILLER
RUN .         ONE                  : Run          - RUN NUMBER
MATR.         SANDSTONE            : Logunit      - NEUTRON MATRIX
TMAX.C        60                   : BHT          - MAXIMUM RECORDED TEMPERATURE
BHTD.M        627.583              : BHTDEP       - MAXIMUM RECORDED TEMPERATURE
RMT .C        11.1111              : MDTP         - TEMPERATURE OF MUD
MUDD.KG/M     0                    : MWT          - MUD DENSITY
NEUT.         1                    : NEUTRON      - NEUTRON TYPE
RESI.         0                    : RESIST       - RESISTIVITY TYPE
RM  .OHMM     0                    : RM           - RESISTIVITY OF MUD
RMC .OHMM     0                    : RMC          - RESISTIVITY OF MUD CAKE
RMF .OHMM     9.02                 : RMF          - RESISTIVITY OF MUD FILTRATE
SUFT.C        -17.7778             : SUFT         - SURFACE TEMPERATURE
~A  DEPTH     RESD     PHID     PHIN       GR      CAL
  411.480    2.380    0.164    0.483  112.866  198.883
  411.730    2.483    0.183    0.506  117.088  198.951
  411.980    2.796    0.214    0.527  121.612  199.624
  412.230    3.137    0.216    0.538  125.004  199.808
  412.480    3.638    0.186    0.531  129.459  199.864
  412.730    4.226    0.216    0.522  129.089  200.258
  412.980    4.812    0.240    0.524  129.719  201.117
  413.230    5.168    0.235    0.497  133.470  202.075
  413.480    5.122    0.227    0.471  123.738  203.448
  413.730    4.994    0.220    0.450  113.066  204.132
  413.980    4.995    0.210    0.421  108.812  204.487
  414.230    5.144    0.203    0.407  107.562  204.355
  414.480    5.464    0.209    0.394  108.482  204.028
  414.730    5.815    0.217    0.392  107.757  203.100
  414.980    6.454    0.200    0.409  101.381  202.273
  415.230    7.429    0.220    0.416   95.187  197.956
  415.480    8.306    0.239    0.376   90.338  194.339
  415.730    9.303    0.259    0.347   79.555  191.823
  415.980    9.668    0.284    0.334   73.707  190.898
  416.230    9.273    0.295    0.349   72.921  190.463
  416.480    8.481    0.288    0.354   71.963  190.541
  416.730    7.145    0.304    0.338   67.770  190.621
  416.980    5.998    0.317    0.301   69.397  191.095
  417.230    5.426    0.333    0.273   73.267  191.748
  417.480    4.605    0.322    0.359   78.138  192.120
  417.730    4.128    0.305    0.397   81.182  192.100
  417.980    3.930    0.287    0.426   78.634  191.290
  418.230    4.099    0.275    0.438   81.388  191.436
  418.480    4.684    0.266    0.425   84.546  191.517
  418.730    6.532    0.257    0.416   86.003  191.585
  418.980    7.713    0.248    0.419   91.403  191.954
  419.230    8.530    0.239    0.434   86.142  192.428
  419.480    8.689    0.233    0.437   80.945  192.694
  419.730    8.257    0.203    0.409   73.805  192.462
  419.980    6.610    0.167    0.382   71.611  192.432
  420.230    5.538    0.129    0.332   74.714  192.812
  420.480    4.813    0.201    0.363   80.000  192.971
  420.730    4.402    0.259    0.395   82.686  192.947
  420.980    4.260    0.269    0.418   85.260  193.229
  421.230    4.316    0.262    0.405   91.370  193.500
  421.480    5.523    0.264    0.410   96.535  193.359
  421.730    6.499    0.274    0.431   93.278  192.831
  421.980    7.536    0.285    0.468   86.963  191.912
  422.230    8.108    0.291    0.514   83.237  191.589
  422.480    7.978    0.310    0.522   80.214  191.449
  422.730    7.472    0.324    0.480   76.314  192.049
  422.980    6.722    0.324    0.470   72.593  192.290
  423.230    5.960    0.309    0.481   70.451  193.182
  423.480    5.491    0.312    0.467   72.203  193.356
  423.730    5.604    0.317    0.483   74.892  193.510
  423.980    5.953    0.316    0.490   79.997  193.480
  424.230    6.382    0.310    0.467   85.871  192.855
  424.480    6.980    0.291    0.492   87.498  192.622
  424.730    8.304    0.289    0.519   86.833  192.301
  424.980   11.041    0.305    0.546   69.215  192.179
  425.230   15.312    0.317    0.448   68.786  192.235
  425.480   21.982    0.313    0.465   69.066  192.515
  425.730   29.660    0.318    0.479   63.100  192.288
  425.980   33.160    0.323    0.388   57.431  192.049
  426.230   30.608    0.313    0.385   51.408  191.444
  426.480   27.587    0.304    0.389   50.865  191.301
  426.730   24.283    0.309    0.392   52.676  191.070
  426.980   20.988    0.325    0.396   53.715  190.941
  427.230   17.844    0.328    0.391   53.525  190.620
  427.480   14.467    0.317    0.387   52.805  190.685
  427.730   11.602    0.283    0.395   53.017  190.653
  427.980    9.356    0.300    0.399   53.004  190.437
  428.230    7.983    0.319    0.381   53.516  190.215
  428.480    7.183    0.329    0.378   55.209  190.084
  428.730    6.534    0.322    0.378   56.481  190.046
  428.980    6.232    0.320    0.387   56.765  190.419
  429.230    6.064    0.330    0.405   55.861  190.805
  429.480    6.033    0.333    0.379   54.840  191.568
  429.730    6.111    0.340    0.365   55.768  192.033
  429.980    6.157    0.337    0.372   58.049  192.696
  430.230    6.181    0.341    0.389   59.505  193.261
  430.480    6.171    0.316    0.364   60.309  193.734
  430.730    6.127    0.308    0.374   59.587  193.823
  430.980    6.028    0.324    0.390   60.043  193.794
  431.230    5.899    0.327    0.393   59.199  193.563
  431.480    5.699    0.327    0.390   58.180  193.619
  431.730    5.566    0.321    0.399   57.104  193.595
  431.980    5.467    0.315    0.410   56.617  193.674
  432.230    5.359    0.320    0.438   57.603  193.735
  432.480    5.187    0.325    0.442   59.589  193.827
  432.730    4.920    0.326    0.427   60.749  193.890
  432.980    4.550    0.330    0.409   60.965  193.853
  433.230    4.184    0.332    0.399   61.712  193.922
  433.480    3.869    0.327    0.409   65.470  194.097
  433.730    3.677    0.315    0.421   70.573  194.158
  433.980    3.598    0.297    0.438   76.441  194.335
  434.230    3.671    0.270    0.464   84.314  194.328
  434.480    3.865    0.281    0.517   89.831  194.278
  434.730    4.514    0.293    0.504   91.639  193.850
  434.980    5.273    0.286    0.530   89.506  193.231
  435.230    5.551    0.299    0.529   84.014  192.319
  435.480    5.675    0.309    0.457   78.462  192.076
  435.730    5.522    0.311    0.430   75.855  191.840
  435.980    5.229    0.301    0.414   76.601  192.316
  436.230    4.880    0.295    0.435   84.710  192.682
  436.480    4.654    0.302    0.457   91.641  193.556
  436.730    4.423    0.292    0.441   98.042  195.515
  436.980    4.281    0.246    0.398  101.851  198.276
  437.230    4.128    0.221    0.385  105.720  201.540
  437.480    4.077    0.226    0.399  107.409  205.602
  437.730    4.229    0.232    0.418  106.274  208.765
  437.980    4.395    0.220    0.468  102.431  209.838
  438.230    4.764    0.229    0.500   98.944  210.509
  438.480    6.152    0.244    0.524   95.043  211.165
  438.730    7.902    0.250    0.496   95.079  213.638
  438.980   10.093    0.229    0.417   96.712  213.601
  439.230   13.082    0.279    0.365   93.339  208.396
  439.480   17.301    0.338    0.270   77.425  202.578
  439.730   18.683    0.386    0.217   71.287  197.668
  439.980   16.964    0.423    0.209   69.150  196.243
  440.230   14.449    0.421    0.229   68.721  195.139
  440.480   12.018    0.399    0.238   67.057  194.726
  440.730    9.674    0.401    0.232   67.577  194.762
  440.980    8.164    0.398    0.233   67.496  194.945
  441.230    6.828    0.381    0.273   66.593  195.204
  441.480    5.869    0.359    0.338   65.108  195.472
  441.730    5.262    0.333    0.392   63.262  196.055
  441.980    4.973    0.315    0.421   60.838  196.013
  442.230    4.929    0.314    0.422   58.991  195.389
  442.480    4.993    0.310    0.413   56.327  194.489
  442.730    5.256    0.299    0.412   55.785  194.251
  442.980    6.218    0.311    0.422   58.587  194.311
  443.230    7.672    0.314    0.430   61.928  194.780
  443.480    9.194    0.308    0.427   64.912  195.350
  443.730   10.818    0.293    0.401   62.422  196.120
  443.980   10.021    0.269    0.379   60.756  196.685
  444.230    8.837    0.227    0.347   57.740  197.159
  444.480    7.722    0.179    0.277   55.308  197.921
  444.730    6.330    0.165    0.303   55.349  198.794
  444.980    5.170    0.202    0.343   62.220  199.772
  445.230    4.363    0.260    0.370   67.151  200.440
  445.480    3.610    0.302    0.403   70.369  200.912
  445.730    3.241    0.296    0.455   74.005  202.369
  445.980    2.932    0.287    0.488   79.049  204.041
  446.230    2.717    0.276    0.514   82.630  205.400
  446.480    2.591    0.306    0.486   84.615  204.975
  446.730    2.630    0.307    0.500   88.127  204.258
  446.980    2.892    0.330    0.486   89.228  203.823
  447.230    3.409    0.289    0.454   85.854  209.973
  447.480    4.063    0.272    0.515   88.781  216.126
  447.730    4.746    0.292    0.566   96.242  220.781
