~VERSION INFORMATION
 VERS.                 2.0:   CWLS LOG ASCII STANDARD -VERSION 2.0
 WRAP.                  NO:   ONE LINE PER DEPTH STEP
~WELL INFORMATION BLOCK
#MNEM.UNIT           DATA                    DESCRIPTION OF MNEMONIC
#---------    -------------------            -------------------------------
# Generated from Intellog Unique Number	CX_WELLS/WELL/3100
WELL.         PARAMONT ALGAR                 : Well_name    - WELL
LOC .         00/06-06-082-17W4/0            : Location     - LOCATION
UWI .         00/06-06-082-17W400            : Uwi          - UNIQUE WELL ID
ENTR.         TIM                            : Entered      - ENTERED BY
SRVC.         SCHLUMBERGER                   : Scn          - SERVICE COMPANY
STRT.F        630                            : top_depth    - START DEPTH
STOP.F        1109.82                        : bot_depth    - STOP DEPTH
STEP.F        0.82                           : increment    - STEP LENGTH
 NULL. -999.2500:NULL Value
~CURVE INFORMATION BLOCK
#MNEM UNIT       ERCB CURVE CODE    CURVE DESCRIPTION
#-----------   ------------------   ----------------------------------
DEPT.F        00 001 00 00         : DEPTH        - DEPTH
GR  .API      00 310 00 00         : GR           - GAMMA RAY
NPHI.V/V      00 330 00 00         : PHIN         - NEUTRON POROSITY (SANDSTONE)
DPHI.V/V      00 890 00 00         : PHID         - DENSITY POROSITY (SANDSTONE)
ILD .OHMM     00 120 00 00         : RESD         - DEEP RESISTIVITY (OTHER)
~PARAMETER INFORMATION
#MNEM.UNIT           DATA             DESCRIPTION OF MNEMONIC
#---------         -----------     ------------------------------
GL  .F        1777                 : gl           - GROUND LEVEL ELEVATION
EREF.F        1787                 : kb           - ELEVATION OF DEPTH REFERENCE
DATM.F        1787                 : datum        - DATUM ELEVATION
TDD .F        1120                 : tdd          - TOTAL DEPTH DRILLER
RUN .         ONE                  : Run          - RUN NUMBER
ENG .         BILL                 : Engineer     - RECORDING ENGINEER
WIT .         JIM                  : Witness      - WITNESSED BY
MUD .         GEL                  : Mud_type     - MUD TYPE
MATR.         SANDSTONE            : Logunit      - NEUTRON MATRIX
TMAX.F        68                   : BHT          - MAXIMUM RECORDED TEMPERATURE
BHTD.F        1120                 : BHTDEP       - MAXIMUM RECORDED TEMPERATURE
MATR.         1                    : LOGUNIT      - NEUTRON MATRIX
RMT .F        68                   : MDTP         - TEMPERATURE OF MUD
NEUT.         1                    : NEUTRON      - NEUTRON TYPE
RESI.         1.88                 : RESIST       - RESISTIVITY TYPE
RMC .OHMM     3.4                  : RMC          - RESISTIVITY OF MUD CAKE
RMF .OHMM     1.88                 : RMF          - RESISTIVITY OF MUD FILTRATE
SUFT.F        37.4                 : SUFT         - SURFACE TEMPERATURE
~A  DEPTH       GR     PHIN     PHID     RESD
  630.000   52.220    0.378    0.357   18.498
  630.820   54.618    0.373    0.353   18.339
  631.640   53.415    0.371    0.353   18.656
  632.461   50.410    0.371    0.352   18.974
  633.281   49.207    0.372    0.350   19.291
  634.101   49.803    0.372    0.350   19.688
  634.921   50.401    0.369    0.350   21.037
  635.741   50.998    0.369    0.347   21.355
  636.562   50.394    0.372    0.341   21.513
  637.382   49.790    0.373    0.334   21.831
  638.202   51.589    0.371    0.311   22.386
  639.022   55.187    0.361    0.289   23.180
  639.843   57.584    0.363    0.294   23.894
  640.663   56.980    0.366    0.296   23.815
  641.483   55.778    0.366    0.288   23.656
  642.303   52.173    0.353    0.276   23.576
  643.123   47.367    0.306    0.253   23.576
  643.944   47.363    0.291    0.230   23.735
  644.764   47.960    0.300    0.248   23.338
  645.584   49.158    0.322    0.316   21.512
  646.404   51.556    0.357    0.329   18.733
  647.224   53.955    0.361    0.329   16.907
  648.045   55.752    0.360    0.332   16.033
  648.865   55.147    0.360    0.334   16.033
  649.685   53.344    0.364    0.333   15.954
  650.505   52.140    0.368    0.333   15.795
  651.325   52.138    0.376    0.338   15.477
  652.146   53.936    0.378    0.344   15.080
  652.966   57.533    0.371    0.346   14.604
  653.786   61.130    0.360    0.341   14.206
  654.606   62.328    0.367    0.329   13.730
  655.427   65.326    0.373    0.319   12.936
  656.247   66.525    0.380    0.308   11.665
  657.067   68.922    0.392    0.288   10.554
  657.887   71.319    0.403    0.276    9.204
  658.707   74.918    0.416    0.263    7.934
  659.528   86.320    0.418    0.242    6.902
  660.348   85.115    0.407    0.213    6.346
  661.168   85.713    0.411    0.177    6.107
  661.988   88.712    0.425    0.162    5.869
  662.808   94.109    0.435    0.157    5.710
  663.629   95.908    0.430    0.179    5.631
  664.449   94.703    0.430    0.215    5.630
  665.269   92.299    0.434    0.223    5.710
  666.089   89.296    0.445    0.236    6.107
  666.909   83.290    0.438    0.250    9.917
  667.730   72.482    0.397    0.277   12.299
  668.550   64.076    0.349    0.287   11.663
  669.370   58.070    0.348    0.280   10.710
  670.190   51.464    0.351    0.229   10.313
  671.010   52.662    0.336    0.241   10.869
  671.831   55.059    0.309    0.264   11.822
  672.651   56.257    0.335    0.286   13.092
  673.471   57.453    0.348    0.306   13.806
  674.291   58.051    0.360    0.291   14.362
  675.112   57.447    0.364    0.291   14.996
  675.932   56.843    0.355    0.279   16.981
  676.752   56.241    0.342    0.275   17.775
  677.572   56.237    0.313    0.250   18.330
  678.392   56.235    0.150    0.127   20.366
  679.213   56.230    0.137    0.121   20.366
  680.033   54.428   -0.024    0.018   38.729
  680.853   41.819   -0.031    0.011   49.590
  681.673   37.014   -0.053    0.011   66.715
  682.493   35.210   -0.063    0.005  114.922
  683.314   37.608   -0.063    0.005  140.051
  684.134   43.007   -0.063    0.008  279.822
  684.954   48.406   -0.056    0.011  294.004
  685.774   52.003   -0.011    0.011  294.004
  686.594   54.402   -0.002    0.021  266.325
  687.415   54.399    0.011    0.127  241.251
  688.235   54.996    0.233    0.175   33.391
  689.055   58.594    0.237    0.188   21.399
  689.875   59.189    0.337    0.214   17.559
  690.696   57.387    0.337    0.227   16.712
  691.516   54.982    0.340    0.297   15.139
  692.336   59.182    0.343    0.300   14.517
  693.156   63.981    0.349    0.308   14.199
  693.976   64.578    0.348    0.310   13.882
  694.797   59.771    0.346    0.309   13.723
  695.617   57.367    0.347    0.304   13.405
  696.437   56.164    0.352    0.303   13.325
  697.257   56.761    0.359    0.302   13.087
  698.077   57.959    0.369    0.302   12.928
  698.898   57.955    0.376    0.303   12.769
  699.718   57.952    0.381    0.303   12.690
  700.538   57.949    0.382    0.306   12.610
  701.358   57.945    0.382    0.309   12.451
  702.178   57.943    0.376    0.314   12.451
  702.999   57.940    0.367    0.319   12.451
  703.819   59.736    0.358    0.321   12.451
  704.639   59.133    0.354    0.319   12.451
  705.459   59.130    0.358    0.313   12.451
  706.280   61.528    0.362    0.309   12.450
  707.100   61.524    0.363    0.303   12.291
  707.920   61.523    0.362    0.302   12.212
  708.740   62.119    0.361    0.306   12.053
  709.560   62.716    0.361    0.313   11.894
  710.381   62.713    0.366    0.309   11.576
  711.201   60.909    0.375    0.304   11.100
  712.021   60.305    0.385    0.300   10.941
  712.841   62.703    0.399    0.293   10.782
  713.661   65.700    0.402    0.287   10.703
  714.482   66.299    0.398    0.280   10.623
  715.302   66.896    0.393    0.277   10.464
  716.122   69.894    0.388    0.275   10.226
  716.942   71.091    0.386    0.271   10.067
  717.762   71.088    0.382    0.268    9.749
  718.583   70.484    0.382    0.261    9.590
  719.403   71.682    0.382    0.258    9.273
  720.223   74.680    0.391    0.269    9.193
  721.043   77.678    0.393    0.272    9.114
  721.864   80.676    0.400    0.267    8.875
  722.684   85.474    0.396    0.262    8.558
  723.504   85.471    0.388    0.254    8.081
  724.324   85.468    0.381    0.248    7.843
  725.144   86.666    0.386    0.244    7.763
  725.965   90.864    0.398    0.244    7.684
  726.785   88.459    0.411    0.244    7.604
  727.605   87.256    0.413    0.244    7.683
  728.425   85.452    0.411    0.243    7.763
  729.245   86.049    0.401    0.245    7.762
  730.066   84.845    0.376    0.249    7.762
  730.886   82.442    0.375    0.253    7.762
  731.706   78.236    0.375    0.259    7.841
  732.526   77.033    0.375    0.266    7.841
  733.346   76.430    0.380    0.275    7.762
  734.167   77.027    0.390    0.270    7.682
  734.987   79.424    0.405    0.257    7.603
  735.807   82.422    0.409    0.248    7.523
  736.627   87.821    0.409    0.246    7.285
  737.448   90.219    0.407    0.248    7.285
  738.268   88.415    0.402    0.253    7.126
  739.088   86.612    0.401    0.256    7.205
  739.908   84.208    0.395    0.268    7.205
  740.728   80.603    0.389    0.289    7.284
  741.549   74.597    0.369    0.302    7.443
  742.369   69.792    0.359    0.301    7.681
  743.189   64.987    0.343    0.308    7.998
  744.009   64.384    0.327    0.281    8.792
  744.829   62.579    0.308    0.263    9.824
  745.650   60.175    0.286    0.227   11.173
  746.470   60.172    0.252    0.154   12.681
  747.290   60.169    0.236    0.167   12.284
  748.110   61.367    0.277    0.211   12.046
  748.930   62.564    0.322    0.288   11.570
  749.751   64.360    0.356    0.301   11.252
  750.571   63.757    0.379    0.297   10.775
  751.391   63.755    0.392    0.296   10.299
  752.211   65.552    0.414    0.296   10.061
  753.031   68.549    0.414    0.297    9.822
  753.852   69.146    0.403    0.297    9.663
  754.672   70.344    0.393    0.296    9.504
  755.492   71.542    0.384    0.292    9.346
  756.312   72.138    0.393    0.291    9.266
  757.133   72.736    0.402    0.289    9.186
  757.953   73.333    0.414    0.288    8.948
  758.773   72.129    0.413    0.284    8.869
  759.593   72.726    0.407    0.283    8.630
  760.413   75.723    0.403    0.278    8.551
  761.234   77.522    0.397    0.270    8.312
  762.054   80.519    0.394    0.265    7.995
  762.874   82.318    0.390    0.254    7.518
  763.694   81.114    0.389    0.250    7.201
  764.514   80.510    0.390    0.253    7.359
  765.335   79.907    0.393    0.256    8.074
  766.155   79.904    0.395    0.256    8.232
  766.975   79.900    0.397    0.256    8.232
  767.795   79.897    0.401    0.256    8.232
  768.615   79.294    0.406    0.253    8.152
  769.436   77.490    0.413    0.252    8.073
  770.256   78.087    0.408    0.251    7.993
  771.076   79.884    0.403    0.249    7.755
  771.896   81.682    0.402    0.247    7.437
