~VERSION INFORMATION
 VERS.                 2.0:   CWLS LOG ASCII STANDARD -VERSION 2.0
 WRAP.                  NO:   ONE LINE PER DEPTH STEP
~WELL INFORMATION BLOCK
#MNEM.UNIT           DATA                    DESCRIPTION OF MNEMONIC
#---------    -------------------            -------------------------------
# Generated from Intellog Unique Number	CS_67_68/WELL/799
WELL.         DOME PETROLEUM LIMITED         : Well_name    - WELL
LOC .         00/09-11-068-02W4/0            : Location     - LOCATION
UWI .         00/09-11-068-02W4/0            : Uwi          - UNIQUE WELL ID
ENTR.         SP                             : Entered      - ENTERED BY
SRVC.         SCHLUMBERGER                   : Scn          - SERVICE COMPANY
STRT.M        350                            : top_depth    - START DEPTH
STOP.M        605                            : bot_depth    - STOP DEPTH
STEP.M        0.25                           : increment    - STEP LENGTH
 NULL. -999.2500:NULL Value
~CURVE INFORMATION BLOCK
#MNEM UNIT       ERCB CURVE CODE    CURVE DESCRIPTION
#-----------   ------------------   ----------------------------------
DEPT.M        00 001 00 00         : DEPTH        - DEPTH
ILD .OHMM     00 120 00 00         : RESD         - DEEP RESISTIVITY (DIL)
DPHI.V/V      00 890 00 00         : PHID         - DENSITY POROSITY (LIMESTONE)
NPHI.V/V      00 330 00 00         : PHIN         - NEUTRON POROSITY (LIMESTONE)
GR  .API      00 310 00 00         : GR           - GAMMA RAY
~PARAMETER INFORMATION
#MNEM.UNIT           DATA             DESCRIPTION OF MNEMONIC
#---------         -----------     ------------------------------
GL  .M        681.9                : gl           - GROUND LEVEL ELEVATION
EREF.M        686                  : kb           - ELEVATION OF DEPTH REFERENCE
DATM.M        681.9                : datum        - DATUM ELEVATION
TDD .M        609                  : tdd          - TOTAL DEPTH DRILLER
RUN .         ONE                  : Run          - RUN NUMBER
ENG .         BILL                 : Engineer     - RECORDING ENGINEER
WIT .         JIM                  : Witness      - WITNESSED BY
MUD .         GEL                  : Mud_type     - MUD TYPE
MATR.         LIMESTONE            : Logunit      - NEUTRON MATRIX
TMAX.C        21.1                 : BHT          - MAXIMUM RECORDED TEMPERATURE
BHTD.M        609                  : BHTDEP       - MAXIMUM RECORDED TEMPERATURE
MATR.         1                    : LOGUNIT      - NEUTRON MATRIX
RMT .C        25                   : MDTP         - TEMPERATURE OF MUD
NEUT.         1                    : NEUTRON      - NEUTRON TYPE
RESI.         0                    : RESIST       - RESISTIVITY TYPE
RMC .OHMM     0.25                 : RMC          - RESISTIVITY OF MUD CAKE
RMF .OHMM     0.25                 : RMF          - RESISTIVITY OF MUD FILTRATE
SUFT.C        15                   : SUFT         - SURFACE TEMPERATURE
~A  DEPTH     RESD     PHID     PHIN       GR
# ...
  437.000    9.892    0.277    0.349   49.945
  437.250   10.605    0.266    0.327   51.394
  437.500   10.535    0.293    0.349   53.455
  437.750   10.158    0.323    0.387   55.940
  438.000    9.832    0.340    0.405   56.174
  438.250    9.588    0.342    0.413   53.060
  438.500    9.488    0.333    0.421   50.252
  438.750    9.390    0.329    0.410   47.930
  439.000    9.382    0.326    0.386   46.521
  439.250    9.335    0.325    0.368   53.083
  439.500    9.239    0.325    0.382   56.785
  439.750    9.212    0.325    0.409   58.538
  440.000    9.102    0.329    0.422   58.712
  440.250    9.041    0.329    0.427   58.885
  440.500    8.931    0.322    0.424   58.877
  440.750    8.870    0.314    0.420   57.650
  441.000    8.796    0.307    0.419   57.153
  441.250    8.770    0.320    0.415   56.169
  441.500    8.728    0.338    0.407   56.404
  441.750    8.737    0.338    0.414   57.124
  442.000    8.742    0.332    0.422   57.720
  442.250    8.716    0.333    0.431   57.652
  442.500    8.708    0.331    0.436   56.729
  442.750    8.713    0.324    0.430   55.382
  443.000    8.721    0.317    0.418   55.251
  443.250    8.728    0.311    0.405   56.458
  443.500    8.734    0.328    0.394   58.760
  443.750    8.692    0.341    0.403   60.151
  444.000    8.588    0.330    0.419   62.028
  444.250    8.561    0.324    0.429   64.209
  444.500    8.427    0.323    0.431   63.469
  444.750    8.374    0.322    0.432   57.676
  445.000    8.289    0.322    0.433   55.478
  445.250    8.276    0.323    0.433   57.230
  445.500    8.236    0.330    0.437   59.170
  445.750    8.198    0.337    0.431   60.925
  446.000    8.172    0.346    0.422   60.916
  446.250    8.059    0.353    0.418   59.993
  446.500    7.930    0.362    0.414   59.373
  446.750    7.819    0.373    0.442   59.364
  447.000    7.827    0.363    0.460   59.781
  447.250    7.905    0.327    0.464   60.379
  447.500    7.926    0.312    0.445   61.222
  447.750    7.948    0.320    0.427   62.370
  448.000    7.953    0.325    0.410   63.394
  448.250    7.974    0.322    0.423   62.106
  448.500    7.981    0.318    0.439   59.723
  448.750    7.972    0.313    0.429   62.755
  449.000    7.978    0.297    0.418   64.206
  449.250    7.985    0.282    0.421   64.441
  449.500    8.006    0.287    0.426   62.606
  449.750    8.056    0.300    0.427   60.343
  450.000    8.063    0.305    0.417   59.970
  450.250    8.010    0.293    0.408   60.204
  450.500    8.001    0.292    0.397   59.646
  450.750    7.978    0.310    0.404   57.872
  451.000    7.984    0.324    0.421   55.062
  451.250    8.056    0.339    0.433   53.593
  451.500    8.058    0.336    0.439   52.183
  451.750    8.123    0.326    0.436   51.139
  452.000    8.190    0.325    0.434   49.788
  452.250    8.289    0.333    0.432   49.356
  452.500    8.373    0.346    0.427   49.407
  452.750    8.394    0.357    0.410   52.014
  453.000    8.449    0.369    0.408   50.970
  453.250    8.470    0.363    0.415   53.455
  453.500    8.367    0.345    0.419   59.102
  453.750    8.099    0.329    0.422   63.414
  454.000    7.883    0.313    0.423   66.204
  454.250    7.758    0.296    0.427   67.108
  454.500    7.749    0.290    0.443   65.394
  454.750    7.771    0.314    0.451   60.821
  455.000    7.821    0.337    0.450   58.316
  455.250    7.871    0.342    0.435   60.679
  455.500    7.919    0.321    0.423   63.225
  455.750    8.002    0.312    0.426   64.433
  456.000    8.035    0.305    0.426   58.338
  456.250    8.088    0.306    0.425   56.199
  456.500    8.156    0.323    0.425   56.432
  456.750    8.190    0.332    0.440   57.455
  457.000    8.304    0.336    0.436   57.630
  457.250    8.419    0.337    0.432   58.472
  457.500    8.586    0.341    0.427   59.498
  457.750    8.672    0.342    0.423   60.156
  458.000    8.759    0.338    0.420   59.356
  458.250    8.798    0.333    0.416   57.339
  458.500    8.839    0.329    0.412   54.591
  458.750    8.894    0.327    0.419   57.807
  459.000    8.917    0.335    0.421   61.448
  459.250    8.992    0.334    0.421   57.118
  459.500    9.033    0.337    0.419   56.743
  459.750    9.091    0.341    0.413   56.306
  460.000    8.948    0.345    0.408   55.565
  460.250    8.970    0.349    0.402   55.315
  460.500    9.010    0.335    0.395   54.149
  460.750    9.085    0.330    0.400   53.469
  461.000    9.160    0.339    0.418   54.068
  461.250    9.321    0.339    0.419   56.189
  461.500    9.540    0.339    0.416   58.248
  461.750    9.653    0.341    0.419   59.456
  462.000    9.753    0.344    0.422   59.688
  462.250    9.795    0.345    0.422   57.731
  462.500    9.695    0.333    0.421   54.862
  462.750    9.649    0.327    0.420   57.590
  463.000    9.584    0.327    0.422   62.327
  463.250    9.432    0.318    0.433   64.996
  463.500    9.164    0.312    0.443   64.560
  463.750    9.153    0.318    0.455   61.386
  464.000    9.179    0.333    0.470   63.868
  464.250    9.220    0.349    0.470   65.747
  464.500    9.226    0.328    0.453   65.677
  464.750    9.251    0.327    0.436   62.930
  465.000    9.242    0.338    0.430   60.607
  465.250    9.231    0.348    0.430   59.076
  465.500    9.241    0.355    0.430   58.641
  465.750    9.246    0.353    0.440   62.100
  466.000    9.236    0.353    0.453   64.463
  466.250    9.210    0.353    0.465   64.576
  466.500    9.234    0.353    0.472   64.444
  466.750    9.211    0.354    0.468   65.835
  467.000    9.217    0.350    0.460   65.642
  467.250    9.156    0.346    0.452   63.502
  467.500    9.111    0.349    0.445   61.788
  467.750    9.083    0.351    0.453   61.293
  468.000    9.076    0.344    0.475   60.613
  468.250    9.115    0.340    0.492   58.960
  468.500    9.122    0.349    0.504   58.343
  468.750    9.162    0.359    0.494   61.436
  469.000    9.238    0.357    0.471   64.287
  469.250    9.247    0.346    0.454   66.042
  469.500    9.220    0.338    0.444   64.449
  469.750    9.228    0.333    0.437   62.858
  470.000    9.253    0.330    0.445   63.092
  470.250    9.243    0.341    0.457   64.421
  470.500    9.246    0.348    0.464   64.959
  470.750    9.256    0.347    0.449   63.246
  471.000    9.296    0.327    0.464   59.583
  471.250    9.459    0.297    0.375   56.897
  471.500   10.682    0.022    0.168   53.541
  471.750   12.108    0.002    0.151   50.733
  472.000   13.751   -0.006    0.201   48.836
  472.250   13.333    0.207    0.357   53.999
  472.500   11.478    0.253    0.436   57.336
  472.750    9.882    0.286    0.448   59.577
  473.000    8.733    0.316    0.449   60.907
  473.250    8.281    0.305    0.441   65.278
  473.500    8.181    0.298    0.434   68.129
  473.750    8.081    0.298    0.428   70.310
  474.000    7.982    0.303    0.424   72.551
  474.250    7.974    0.309    0.427   71.021
  474.500    8.130    0.318    0.436   63.892
  474.750    8.507    0.337    0.439   59.195
  475.000    9.003    0.345    0.433   57.970
  475.250    9.213    0.348    0.445   58.508
  475.500    8.688    0.350    0.452   60.323
  475.750    8.132    0.355    0.455   62.321
  476.000    7.726    0.349    0.450   64.929
  476.250    7.560    0.320    0.447   71.734
  476.500    7.680    0.305    0.455   72.943
  476.750    7.846    0.327    0.453   66.482
  477.000    8.058    0.343    0.442   66.046
  477.250    8.154    0.325    0.439   68.471
  477.500    7.805    0.308    0.446   70.956
  477.750    7.293    0.291    0.452   74.414
  478.000    6.876    0.274    0.467   77.509
  478.250    6.437    0.286    0.490   80.907
  478.500    6.036    0.301    0.506   81.810
  478.750    5.597    0.313    0.486   84.052
  479.000    5.181    0.295    0.477   86.051
  479.250    4.832    0.277    0.518   85.007
  479.500    4.591    0.278    0.542   86.031
  479.750    4.484    0.283    0.528   88.090
  480.000    4.430    0.287    0.513   87.290
  480.250    4.584    0.289    0.498   82.411
