~VERSION INFORMATION
 VERS.                 2.0:   CWLS LOG ASCII STANDARD -VERSION 2.0
 WRAP.                  NO:   ONE LINE PER DEPTH STEP
~WELL INFORMATION BLOCK
#MNEM.UNIT           DATA                    DESCRIPTION OF MNEMONIC
#---------    -------------------            -------------------------------
# Generated from Intellog Unique Number	CS_73_76/WELL/781
WELL.         MAYNARD ENERGY                 : Well_name    - WELL
LOC .         00/07-36-073-13W4/0            : Location     - LOCATION
UWI .         00/07-36-073-13W4/0            : Uwi          - UNIQUE WELL ID
ENTR.         SP                             : Entered      - ENTERED BY
SRVC.         SCHLUMBERGER                   : Scn          - SERVICE COMPANY
STRT.M        300                            : top_depth    - START DEPTH
STOP.M        525                            : bot_depth    - STOP DEPTH
STEP.M        0.25                           : increment    - STEP LENGTH
 NULL. -999.2500:NULL Value
~CURVE INFORMATION BLOCK
#MNEM UNIT       ERCB CURVE CODE    CURVE DESCRIPTION
#-----------   ------------------   ----------------------------------
DEPT.M        00 001 00 00         : DEPTH        - DEPTH
GR  .API      00 310 00 00         : GR           - GAMMA RAY
NPHI.V/V      00 330 00 00         : PHIN         - NEUTRON POROSITY (LIMESTONE)
DPHI.V/V      00 890 00 00         : PHID         - DENSITY POROSITY (LIMESTONE)
ILD .OHMM     00 120 00 00         : RESD         - DEEP RESISTIVITY (DIL)
~PARAMETER INFORMATION
#MNEM.UNIT           DATA             DESCRIPTION OF MNEMONIC
#---------         -----------     ------------------------------
GL  .M        662.29               : gl           - GROUND LEVEL ELEVATION
EREF.M        665.74               : kb           - ELEVATION OF DEPTH REFERENCE
DATM.M        662.29               : datum        - DATUM ELEVATION
TDD .M        540                  : tdd          - TOTAL DEPTH DRILLER
RUN .         ONE                  : Run          - RUN NUMBER
ENG .         BILL                 : Engineer     - RECORDING ENGINEER
WIT .         JIM                  : Witness      - WITNESSED BY
MUD .         GEL                  : Mud_type     - MUD TYPE
MATR.         LIMESTONE            : Logunit      - NEUTRON MATRIX
TMAX.C        21                   : BHT          - MAXIMUM RECORDED TEMPERATURE
BHTD.M        540                  : BHTDEP       - MAXIMUM RECORDED TEMPERATURE
MATR.         1                    : LOGUNIT      - NEUTRON MATRIX
RMT .C        25                   : MDTP         - TEMPERATURE OF MUD
NEUT.         1                    : NEUTRON      - NEUTRON TYPE
RESI.         0                    : RESIST       - RESISTIVITY TYPE
RMC .OHMM     0.25                 : RMC          - RESISTIVITY OF MUD CAKE
RMF .OHMM     0.25                 : RMF          - RESISTIVITY OF MUD FILTRATE
SUFT.C        15                   : SUFT         - SURFACE TEMPERATURE
~A  DEPTH       GR     PHIN     PHID     RESD
# ...
  343.500  104.428    0.461    0.229    8.544
  343.750  102.591    0.457    0.219    7.814
  344.000  102.584    0.459    0.206    7.246
  344.250  103.800    0.469    0.195    6.923
  344.500  108.062    0.478    0.203    6.680
  344.750  112.934    0.470    0.208    6.519
  345.000  115.367    0.456    0.213    6.765
  345.250  114.751    0.429    0.221    6.847
  345.500  111.695    0.416    0.229    7.093
  345.750  110.470    0.426    0.232    7.338
  346.000  111.682    0.431    0.227    7.421
  346.250  114.115    0.440    0.224    7.422
  346.500  115.939    0.443    0.219    7.424
  346.750  117.764    0.446    0.213    7.587
  347.000  117.147    0.447    0.208    7.751
  347.250  115.921    0.450    0.196    7.915
  347.500  109.208    0.452    0.196    7.917
  347.750  101.274    0.457    0.200    7.431
  348.000   97.002    0.463    0.205    7.107
  348.250   96.995    0.461    0.201    6.865
  348.500  104.913    0.458    0.195    6.703
  348.750  107.959    0.471    0.190    6.623
  349.000  114.050    0.477    0.194    6.625
  349.250  117.092    0.487    0.199    6.708
  349.500  117.697    0.494    0.207    6.872
  349.750  117.080    0.493    0.217    7.199
  350.000  115.245    0.479    0.226    7.363
  350.250  110.361    0.463    0.236    7.527
  350.500  105.477    0.450    0.245    7.609
  350.750  100.592    0.444    0.249    7.692
  351.000   98.758    0.440    0.261    7.775
  351.250   96.922    0.449    0.266    7.776
  351.500   98.135    0.463    0.261    7.940
  351.750  101.178    0.471    0.257    8.024
  352.000  103.001    0.473    0.247    8.106
  352.250  102.386    0.472    0.236    8.351
  352.500  101.160    0.455    0.234    8.515
  352.750   99.934    0.436    0.243    8.598
  353.000   97.489    0.425    0.250    8.762
  353.250   98.092    0.418    0.254    9.008
  353.500   98.697    0.412    0.254    9.171
  353.750  100.520    0.407    0.258    9.662
  354.000   99.904    0.398    0.263    9.826
  354.250  102.336    0.387    0.270    9.908
  354.500   98.062    0.382    0.274   10.071
  354.750   91.349    0.376    0.278   10.316
  355.000   81.587    0.372    0.287   10.481
  355.250   70.605    0.376    0.298   10.564
  355.500   67.550    0.386    0.308   10.566
  355.750   67.544    0.392    0.316   10.567
  356.000   66.926    0.393    0.319   10.568
  356.250   65.701    0.391    0.312   10.569
  356.500   65.086    0.387    0.305   10.572
  356.750   64.470    0.380    0.298   10.572
  357.000   65.684    0.379    0.292   10.574
  357.250   66.896    0.386    0.291   10.575
  357.500   66.891    0.402    0.294   10.576
  357.750   66.274    0.417    0.301   10.578
  358.000   64.440    0.427    0.308   10.580
  358.250   66.264    0.413    0.316   10.581
  358.500   67.477    0.401    0.321   10.583
  358.750   69.298    0.396    0.324   10.584
  359.000   70.513    0.391    0.329   10.585
  359.250   70.508    0.387    0.326   10.587
  359.500   69.282    0.384    0.318   10.588
  359.750   68.053    0.394    0.304   10.590
  360.000   67.440    0.386    0.295   10.591
  360.250   67.434    0.385    0.302   10.592
  360.500   66.818    0.384    0.315   10.594
  360.750   66.202    0.383    0.320   10.596
  361.000   65.587    0.381    0.332   10.597
  361.250   64.361    0.385    0.327   10.680
  361.500   68.622    0.390    0.321   10.681
  361.750   69.836    0.392    0.310   10.764
  362.000   69.221    0.395    0.300   10.765
  362.250   67.995    0.383    0.301   10.848
  362.500   66.769    0.379    0.302   10.932
  362.750   66.153    0.378    0.305   10.933
  363.000   67.365    0.372    0.314   10.934
  363.250   66.750    0.378    0.317   10.936
  363.500   64.916    0.381    0.318   10.937
  363.750   62.469    0.380    0.317   10.938
  364.000   61.854    0.377    0.314   10.858
  364.250   61.848    0.369    0.304   10.778
  364.500   64.278    0.370    0.303   10.698
  364.750   65.494    0.372    0.307   10.619
  365.000   66.709    0.368    0.296   10.620
  365.250   66.092    0.366    0.293   10.621
  365.500   65.475    0.363    0.294   10.623
  365.750   65.471    0.373    0.287   10.624
  366.000   65.465    0.382    0.289   10.626
  366.250   64.238    0.390    0.297   10.628
  366.500   59.964    0.396    0.299   10.548
  366.750   57.518    0.384    0.303   10.549
  367.000   56.294    0.374    0.308   10.469
  367.250   59.946    0.369    0.311   10.471
  367.500   63.599    0.369    0.320   10.390
  367.750   64.812    0.373    0.320   10.229
  368.000   64.197    0.382    0.320   10.230
  368.250   60.530    0.395    0.325   10.070
  368.500   61.135    0.408    0.319   10.071
  368.750   66.615    0.401    0.317    9.991
  369.000   70.269    0.406    0.306    9.993
  369.250   71.483    0.410    0.300    9.995
  369.500   69.648    0.406    0.300   10.158
  369.750   70.859    0.404    0.295   10.160
  370.000   71.465    0.405    0.292   10.242
  370.250   70.849    0.403    0.297   10.243
  370.500   68.403    0.406    0.308   10.408
  370.750   69.614    0.414    0.316   10.409
  371.000   70.829    0.415    0.310   10.493
  371.250   73.872    0.417    0.305   10.575
  371.500   74.477    0.421    0.302   10.576
  371.750   73.860    0.426    0.307   10.496
  372.000   73.243    0.417    0.313   10.498
  372.250   70.797    0.410    0.314   10.418
  372.500   69.575    0.410    0.312   10.420
  372.750   67.739    0.409    0.319   10.421
  373.000   66.512    0.408    0.325   10.341
  373.250   65.897    0.416    0.324   10.342
  373.500   65.282    0.426    0.335   10.425
  373.750   65.884    0.437    0.334   10.346
  374.000   67.708    0.430    0.335   10.347
  374.250   71.361    0.425    0.329   10.267
  374.500   73.794    0.416    0.328   10.187
  374.750   74.397    0.413    0.328   10.107
  375.000   71.952    0.413    0.326   10.027
  375.250   68.898    0.418    0.324    9.866
  375.500   66.453    0.427    0.326    9.786
  375.750   66.447    0.436    0.323    9.706
  376.000   70.708    0.441    0.328    9.708
  376.250   73.752    0.442    0.319    9.709
  376.500   73.745    0.441    0.323    9.792
  376.750   73.127    0.441    0.325    9.793
  377.000   72.512    0.445    0.336    9.794
  377.250   71.896    0.446    0.341    9.715
  377.500   71.892    0.442    0.330    9.635
  377.750   69.446    0.429    0.325    9.311
  378.000   69.439    0.420    0.322    8.906
  378.250   70.653    0.412    0.322    8.257
  378.500   73.087    0.421    0.335    6.144
  378.750   81.006    0.439    0.331    4.357
  379.000   89.536    0.456    0.302    3.627
  379.250   95.629    0.472    0.279    3.060
  379.500  102.331    0.493    0.265    2.817
  379.750  104.154    0.512    0.255    2.575
  380.000  104.148    0.522    0.241    2.576
  380.250  102.313    0.532    0.230    2.577
  380.500  103.526    0.544    0.240    2.579
  380.750  104.131    0.563    0.244    2.662
  381.000  102.904    0.584    0.242    2.825
  381.250  104.727    0.588    0.237    3.233
  381.500  106.551    0.561    0.232    3.641
  381.750  108.984    0.546    0.227    4.050
  382.000  109.587    0.535    0.213    4.376
  382.250  107.752    0.524    0.200    4.784
  382.500  102.866    0.502    0.197    5.192
  382.750   98.594    0.478    0.219    5.600
  383.000   88.831    0.451    0.232    6.089
  383.250   78.460    0.422    0.256    6.904
  383.500   69.307    0.404    0.274    7.230
  383.750   59.545    0.400    0.299    7.638
  384.000   53.441    0.411    0.312    7.884
  384.250   54.653    0.414    0.316    7.967
  384.500   54.037    0.424    0.317    7.968
  384.750   53.421    0.434    0.318    7.969
  385.000   54.026    0.436    0.311    7.890
  385.250   55.238    0.438    0.306    7.891
  385.500   57.672    0.435    0.295    7.812
  385.750   59.496    0.429    0.294    7.813
  386.000   60.097    0.424    0.304    7.814
  386.250   58.874    0.418    0.305    7.816
  386.500   58.867    0.416    0.304    7.817
  386.750   60.690    0.413    0.307    7.900
