~VERSION INFORMATION
 VERS.                 2.0:   CWLS LOG ASCII STANDARD -VERSION 2.0
 WRAP.                  NO:   ONE LINE PER DEPTH STEP
~WELL INFORMATION BLOCK
#MNEM.UNIT           DATA                    DESCRIPTION OF MNEMONIC
#---------    -------------------            -------------------------------
# Generated from Intellog Unique Number	CX_WELLS/WELL/2704
WELL.         05-15-080-11W4                 : Well_name    - WELL
LOC .         00/05-15-080-11W4/0            : Location     - LOCATION
UWI .         00/05-15-080-11W400            : Uwi          - UNIQUE WELL ID
ENTR.         T                              : Entered      - ENTERED BY
SRVC.         SCHLUMBERGER                   : Scn          - SERVICE COMPANY
STRT.M        250                            : top_depth    - START DEPTH
STOP.M        480                            : bot_depth    - STOP DEPTH
STEP.M        0.25                           : increment    - STEP LENGTH
 NULL. -999.2500:NULL Value
~CURVE INFORMATION BLOCK
#MNEM UNIT       ERCB CURVE CODE    CURVE DESCRIPTION
#-----------   ------------------   ----------------------------------
DEPT.M        00 001 00 00         : DEPTH        - DEPTH
GR  .API      00 310 00 00         : GR           - GAMMA RAY
NPHI.V/V      00 330 00 00         : PHIN         - NEUTRON POROSITY (SANDSTONE)
DPHI.V/V      00 890 00 00         : PHID         - DENSITY POROSITY (SANDSTONE)
ILD .OHMM     00 120 00 00         : RESD         - DEEP RESISTIVITY (DIL)
~PARAMETER INFORMATION
#MNEM.UNIT           DATA             DESCRIPTION OF MNEMONIC
#---------         -----------     ------------------------------
GL  .M        684                  : gl           - GROUND LEVEL ELEVATION
EREF.M        687                  : kb           - ELEVATION OF DEPTH REFERENCE
DATM.M        687                  : datum        - DATUM ELEVATION
TDD .M        486                  : tdd          - TOTAL DEPTH DRILLER
RUN .         ONE                  : Run          - RUN NUMBER
ENG .         BILL                 : Engineer     - RECORDING ENGINEER
WIT .         JIM                  : Witness      - WITNESSED BY
MUD .         GEL                  : Mud_type     - MUD TYPE
MATR.         SANDSTONE            : Logunit      - NEUTRON MATRIX
TMAX.C        25                   : BHT          - MAXIMUM RECORDED TEMPERATURE
BHTD.M        486                  : BHTDEP       - MAXIMUM RECORDED TEMPERATURE
MATR.         1                    : LOGUNIT      - NEUTRON MATRIX
RMT .C        17                   : MDTP         - TEMPERATURE OF MUD
NEUT.         1                    : NEUTRON      - NEUTRON TYPE
RESI.         6.7                  : RESIST       - RESISTIVITY TYPE
RMC .OHMM     6.3                  : RMC          - RESISTIVITY OF MUD CAKE
RMF .OHMM     6.3                  : RMF          - RESISTIVITY OF MUD FILTRATE
SUFT.C        4                    : SUFT         - SURFACE TEMPERATURE
~A  DEPTH       GR     PHIN     PHID     RESD
# ...
  424.000   66.668    0.280    0.258   13.572
  424.250   61.808    0.252    0.276   15.499
  424.500   60.620    0.224    0.283   18.036
  424.750   60.656    0.216    0.293   20.989
  425.000   60.691    0.217    0.306   23.088
  425.250   62.571    0.223    0.322   25.391
  425.500   65.072    0.232    0.333   28.461
  425.750   66.313    0.243    0.331   30.136
  426.000   68.184    0.253    0.327   33.142
  426.250   68.849    0.265    0.311   35.767
  426.500   67.643    0.269    0.302   35.797
  426.750   64.008    0.272    0.293   35.157
  427.000   60.381    0.247    0.288   36.554
  427.250   57.960    0.218    0.315   37.982
  427.500   56.160    0.169    0.351   41.779
  427.750   51.301    0.164    0.354   45.079
  428.000   50.122    0.166    0.358   50.519
  428.250   53.208    0.164    0.378   57.705
  428.500   61.809    0.140    0.388   61.113
  428.750   71.022    0.151    0.344   55.651
  429.000   83.303    0.220    0.308   47.910
  429.250   89.457    0.233    0.264   44.468
  429.500   75.420    0.200    0.332   41.272
  429.750   66.278    0.173    0.364   43.710
  430.000   63.263    0.168    0.357   48.995
  430.250   59.610    0.160    0.364   51.877
  430.500   55.371    0.154    0.382   58.138
  430.750   55.398    0.150    0.385   66.393
  431.000   53.607    0.145    0.377   78.751
  431.250   52.410    0.143    0.384   89.933
  431.500   47.569    0.150    0.393   93.447
  431.750   45.751    0.151    0.386  102.790
  432.000   42.736    0.153    0.379  108.860
  432.250   39.100    0.154    0.379  119.744
  432.500   37.291    0.157    0.378  129.229
  432.750   33.044    0.156    0.381  136.833
  433.000   31.856    0.155    0.385  150.513
  433.250   31.900    0.150    0.388  156.393
  433.500   32.548    0.142    0.391  172.029
  433.750   33.195    0.126    0.400  185.656
  434.000   35.678    0.119    0.408  196.661
  434.250   38.781    0.118    0.406  204.344
  434.500   40.644    0.125    0.404  204.514
  434.750   43.126    0.135    0.403  200.862
  435.000   43.774    0.135    0.400  197.316
  435.250   40.750    0.119    0.404  193.752
  435.500   35.279    0.117    0.410  190.371
  435.750   32.867    0.121    0.413  183.480
  436.000   30.464    0.127    0.408  180.128
  436.250   29.888    0.125    0.403  167.219
  436.500   29.923    0.121    0.405  155.236
  436.750   29.950    0.119    0.406  149.585
  437.000   29.994    0.117    0.409  141.508
  437.250   29.418    0.120    0.409  138.952
  437.500   28.842    0.126    0.414  136.499
  437.750   28.274    0.142    0.422  134.061
  438.000   27.068    0.176    0.430  134.200
  438.250   24.656    0.223    0.437  134.284
  438.500   25.916    0.239    0.437  129.423
  438.750   29.631    0.252    0.416  124.764
  439.000   32.734    0.278    0.397  120.198
  439.250   30.943    0.299    0.377   36.001
  439.500   30.349    0.330    0.368   32.178
  439.750   30.385    0.352    0.357   25.685
  440.000   31.644    0.368    0.341   19.375
  440.250   32.912    0.380    0.338   15.462
  440.500   34.171    0.387    0.338   13.826
  440.750   34.207    0.365    0.338   13.582
  441.000   34.233    0.360    0.330   13.588
  441.250   34.278    0.364    0.325   13.858
  441.500   34.925    0.367    0.325   13.875
  441.750   38.632    0.366    0.324   13.883
  442.000   44.785    0.366    0.317   14.156
  442.250   50.939    0.367    0.305   14.171
  442.500   49.760    0.370    0.292   14.453
  442.750   47.960    0.364    0.294   14.737
  443.000   48.599    0.349    0.293   15.316
  443.250   49.246    0.351    0.284   15.921
  443.500   43.784    0.361    0.272   16.241
  443.750   41.975    0.360    0.270   16.882
  444.000   48.129    0.345    0.268   17.542
  444.250   53.671    0.344    0.262   18.227
  444.500   59.842    0.348    0.256   20.054
  444.750   60.481    0.357    0.248   21.234
  445.000   59.913    0.365    0.244   24.249
  445.250   58.725    0.374    0.255   26.668
  445.500   58.140    0.371    0.268   29.886
  445.750   54.513    0.366    0.282   32.880
  446.000   52.093    0.364    0.289   33.520
  446.250   54.575    0.368    0.287   35.514
  446.500   58.894    0.373    0.258   36.213
  446.750   60.765    0.381    0.257   38.352
  447.000   62.645    0.388    0.266   41.389
  447.250   64.507    0.388    0.292   43.007
  447.500   59.036    0.388    0.298   47.316
  447.750   42.552    0.403    0.299   51.075
  448.000   32.798    0.391    0.307   53.059
  448.250   30.395    0.386    0.324   58.364
  448.500   33.489    0.383    0.329   64.172
  448.750   37.799    0.386    0.341   73.284
  449.000   44.565    0.390    0.332   77.613
  449.250   51.330    0.388    0.320   70.705
  449.500   55.046    0.388    0.310   66.859
  449.750   58.761    0.387    0.295   59.784
  450.000   60.011    0.386    0.262   55.488
  450.250   63.727    0.387    0.258   52.492
  450.500   64.374    0.389    0.281   51.533
  450.750   63.789    0.391    0.306   50.623
  451.000   60.162    0.391    0.311   50.654
  451.250   57.130    0.390    0.314   51.683
  451.500   48.608    0.388    0.315   52.699
  451.750   50.488    0.383    0.303   56.873
  452.000   51.730    0.378    0.292   61.366
  452.250   53.618    0.373    0.281   65.004
  452.500   53.636    0.375    0.276   61.481
  452.750   53.690    0.377    0.287   58.161
  453.000   53.095    0.379    0.292   56.055
  453.250   50.701    0.380    0.294   55.066
  453.500   48.901    0.382    0.298   55.089
  453.750   47.695    0.386    0.302   60.584
  454.000   47.119    0.387    0.307   67.909
  454.250   45.319    0.388    0.312   71.904
  454.500   40.460    0.390    0.323   74.729
  454.750   36.833    0.394    0.333   80.682
  455.000   39.928    0.395    0.340   82.251
  455.250   44.858    0.397    0.342   95.739
  455.500   50.400    0.403    0.343  115.695
  455.750   49.212    0.416    0.333  118.043
  456.000   48.024    0.392    0.327  113.723
  456.250   49.904    0.380    0.334  101.688
  456.500   50.551    0.381    0.331   97.966
  456.750   52.422    0.397    0.324   90.946
  457.000   51.243    0.411    0.318   89.303
  457.250   50.037    0.429    0.329   87.727
  457.500   44.566    0.433    0.334   89.507
  457.750   38.483    0.426    0.343   89.526
  458.000   33.012    0.409    0.351   96.658
  458.250   27.541    0.406    0.359  104.292
  458.500   25.129    0.403    0.359  116.902
  458.750   25.164    0.397    0.359  138.603
  459.000   27.035    0.384    0.359  191.120
  459.250   29.518    0.382    0.351  206.259
  459.500   31.389    0.381    0.321  161.565
  459.750   32.657    0.381    0.298  121.874
  460.000   33.907    0.392    0.325  102.942
  460.250   33.952    0.404    0.343   90.291
  460.500   31.531    0.406    0.356   95.624
  460.750   27.293    0.407    0.356  111.304
  461.000   26.105    0.402    0.355  129.528
  461.250   24.322    0.400    0.361  156.527
  461.500   24.340    0.399    0.363  189.154
  461.750   23.764    0.396    0.365  196.585
  462.000   23.808    0.394    0.362  193.114
  462.250   25.067    0.392    0.358  193.235
  462.500   29.377    0.392    0.358  197.116
  462.750   29.421    0.392    0.357  201.076
  463.000   28.224    0.395    0.350  197.485
  463.250   27.648    0.399    0.343  186.743
  463.500   27.071    0.404    0.346  173.324
  463.750   26.513    0.409    0.350  160.903
  464.000   26.539    0.410    0.355  155.079
  464.250   26.566    0.413    0.358  158.161
  464.500   26.007    0.412    0.363  170.689
  464.750   26.034    0.410    0.365  177.358
  465.000   25.449    0.407    0.365  187.832
  465.250   24.872    0.407    0.364  195.333
  465.500   24.917    0.408    0.364  195.454
  465.750   24.952    0.410    0.363  210.937
  466.000   24.385    0.417    0.363  223.348
  466.250   24.403    0.422    0.361  245.729
  466.500   25.059    0.422    0.359  250.509
  466.750   26.930    0.407    0.353  219.724
  467.000   28.801    0.396    0.346  148.020
  467.250   30.672    0.391    0.341  120.401
