~VERSION INFORMATION
 VERS.                 2.0:   CWLS LOG ASCII STANDARD -VERSION 2.0
 WRAP.                  NO:   ONE LINE PER DEPTH STEP
~WELL INFORMATION BLOCK
#MNEM.UNIT           DATA                    DESCRIPTION OF MNEMONIC
#---------    -------------------            -------------------------------
# Generated from Intellog Unique Number	CW_79_81/WELL/3693
WELL.         06-32-079-02W5                 : Well_name    - WELL
LOC .         00/06-32-079-02W5/0            : Location     - LOCATION
UWI .         00/06-32-079-02W5/0            : Uwi          - UNIQUE WELL ID
ENTR.         JOETTE                         : Entered      - ENTERED BY
SRVC.         SCHLUMBERGER                   : Scn          - SERVICE COMPANY
DATE.         08/26/92                       : Date         - LOG DATE
STRT.M        300                            : top_depth    - START DEPTH
STOP.M        520                            : bot_depth    - STOP DEPTH
STEP.M        0.25                           : increment    - STEP LENGTH
 NULL. -999.2500:NULL Value
~CURVE INFORMATION BLOCK
#MNEM UNIT       ERCB CURVE CODE    CURVE DESCRIPTION
#-----------   ------------------   ----------------------------------
DEPT.M        00 001 00 00         : DEPTH        - DEPTH
ILD .OHMM     00 120 00 00         : RESD         - DEEP RESISTIVITY (DIL)
GR  .API      00 310 00 00         : GR           - GAMMA RAY
NPHI.V/V      00 330 00 00         : PHIN         - NEUTRON POROSITY (SANDSTONE)
DPHI.V/V      00 890 00 00         : PHID         - DENSITY POROSITY (SANDSTONE)
~PARAMETER INFORMATION
#MNEM.UNIT           DATA             DESCRIPTION OF MNEMONIC
#---------         -----------     ------------------------------
GL  .M        617.8                : gl           - GROUND LEVEL ELEVATION
EREF.M        621.9                : kb           - ELEVATION OF DEPTH REFERENCE
DATM.M        621.9                : datum        - DATUM ELEVATION
TDD .M        521                  : tdd          - TOTAL DEPTH DRILLER
RUN .         ONE                  : Run          - RUN NUMBER
ENG .         BILL                 : Engineer     - RECORDING ENGINEER
WIT .         JIM                  : Witness      - WITNESSED BY
MUD .         GEL                  : Mud_type     - MUD TYPE
MATR.         SANDSTONE            : Logunit      - NEUTRON MATRIX
TMAX.C        18                   : BHT          - MAXIMUM RECORDED TEMPERATURE
BHTD.M        521                  : BHTDEP       - MAXIMUM RECORDED TEMPERATURE
MATR.         1                    : LOGUNIT      - NEUTRON MATRIX
RMT .C        16                   : MDTP         - TEMPERATURE OF MUD
NEUT.         1                    : NEUTRON      - NEUTRON TYPE
RESI.         0                    : RESIST       - RESISTIVITY TYPE
RMC .OHMM     4.35                 : RMC          - RESISTIVITY OF MUD CAKE
RMF .OHMM     4.35                 : RMF          - RESISTIVITY OF MUD FILTRATE
SUFT.C        5                    : SUFT         - SURFACE TEMPERATURE
~A  DEPTH     RESD       GR     PHIN     PHID
# ...
  474.000    5.288  103.008    0.498    0.218
  474.250    4.312  103.067    0.491    0.204
  474.500    5.013  100.766    0.476    0.190
  474.750    7.706   98.451    0.473    0.176
  475.000   10.205   96.150    0.476    0.179
  475.250   13.023   92.079    0.474    0.165
  475.500   14.583   84.484    0.470    0.158
  475.750   16.027   81.578    0.470    0.189
  476.000   18.628   76.328    0.450    0.214
  476.250   20.858   70.487    0.342    0.161
  476.500   24.242   65.237    0.315    0.110
  476.750   29.256   62.922    0.229    0.077
  477.000   34.653   65.945    0.254    0.084
  477.250   36.680   68.363    0.283    0.117
  477.500   38.121   70.782    0.366    0.143
  477.750   38.898   73.200    0.374    0.148
  478.000   38.946   75.044    0.402    0.160
  478.250   37.556   72.743    0.411    0.215
  478.500   34.911   71.017    0.433    0.241
  478.750   31.255   70.501    0.440    0.251
  479.000   29.583   72.919    0.441    0.234
  479.250   26.983   75.353    0.436    0.241
  479.500   24.620   76.591    0.406    0.229
  479.750   24.187   79.600    0.397    0.187
  480.000   22.900   82.019    0.429    0.162
  480.250   21.688   85.027    0.447    0.193
  480.500   20.527   83.891    0.453    0.238
  480.750   18.735   82.770    0.455    0.245
  481.000   17.400   84.009    0.451    0.229
  481.250   15.578   84.068    0.460    0.206
  481.500   11.571   85.941    0.458    0.200
  481.750    7.832   87.740    0.490    0.178
  482.000    6.883   89.568    0.487    0.171
  482.250    6.516   90.822    0.474    0.179
  482.500    6.524   90.291    0.470    0.192
  482.750    6.524   91.544    0.472    0.191
  483.000    7.742   92.163    0.471    0.187
  483.250    8.039   92.812    0.501    0.193
  483.500    8.203   93.461    0.505    0.202
  483.750    8.368   96.499    0.507    0.216
  484.000    8.381   98.328    0.503    0.214
  484.250    8.549   97.207    0.466    0.206
  484.500    8.557   95.510    0.455    0.209
  484.750    8.570   94.950    0.478    0.210
  485.000    8.422   93.844    0.477    0.204
  485.250    8.430   92.737    0.470    0.195
  485.500    8.440   92.781    0.475    0.209
  485.750    8.451   92.826    0.475    0.213
  486.000    8.623   93.489    0.465    0.216
  486.250    8.634   93.548    0.465    0.218
  486.500    8.642   93.002    0.466    0.217
  486.750    8.655   93.076    0.473    0.197
  487.000    8.826   93.725    0.481    0.201
  487.250    9.006   92.618    0.488    0.203
  487.500    9.014   91.468    0.483    0.185
  487.750    9.198   89.757    0.485    0.174
  488.000   10.106   87.486    0.446    0.162
  488.250   12.196   86.940    0.445    0.178
  488.500   13.656   86.394    0.442    0.238
  488.750   14.732   85.863    0.437    0.254
  489.000   15.892   86.512    0.433    0.262
  489.250   16.832   86.600    0.425    0.255
  489.500   17.165   85.464    0.423    0.243
  489.750   17.839   82.559    0.429    0.233
  490.000   19.987   79.078    0.432    0.213
  490.250   20.759   75.007    0.443    0.161
  490.500   24.135   71.527    0.444    0.133
  490.750   28.051   64.521    0.357    0.104
  491.000   32.602   62.206    0.349    0.086
  491.250   35.181   63.459    0.327    0.080
  491.500   35.876   67.058    0.283    0.058
  491.750   32.744   70.656    0.266    0.017
  492.000   29.848   76.024    0.277    0.028
  492.250   22.178   79.623    0.327    0.060
  492.500   18.429   83.236    0.352    0.112
  492.750   15.900   85.654    0.373    0.169
  493.000   15.049   88.648    0.404    0.199
  493.250   13.477   91.081    0.415    0.215
  493.500   12.528   92.335    0.432    0.217
  493.750   12.077   94.753    0.449    0.217
  494.000   11.227   94.222    0.445    0.203
  494.250   10.629   91.907    0.450    0.192
  494.500   10.443   87.261    0.453    0.186
  494.750   10.073   84.960    0.454    0.171
  495.000    9.899   86.789    0.419    0.165
  495.250    9.728   89.797    0.431    0.163
  495.500    9.740   92.806    0.436    0.175
  495.750    9.755   93.469    0.442    0.172
  496.000    9.410   92.938    0.439    0.167
  496.250    9.079   92.377    0.435    0.168
  496.500    8.753   91.271    0.432    0.177
  496.750    8.445   91.920    0.432    0.190
  497.000    8.144   94.353    0.440    0.175
  497.250    7.713   94.987    0.442    0.165
  497.500    7.302   95.046    0.440    0.169
  497.750    7.042   95.105    0.440    0.157
  498.000    6.671   95.754    0.447    0.170
  498.250    6.554   97.007    0.447    0.189
  498.500    6.443   98.246    0.446    0.180
  498.750    6.449  100.075    0.443    0.173
  499.000    6.457  102.493    0.443    0.168
  499.250    6.463  106.696    0.447    0.159
  499.500    6.351  107.935    0.442    0.169
  499.750    6.243  109.159    0.442    0.185
  500.000    6.134  111.577    0.459    0.175
  500.250    6.141  108.687    0.459    0.163
  500.500    6.267  104.026    0.454    0.155
  500.750    6.513  101.135    0.430    0.161
  501.000    6.766   97.684    0.426    0.160
  501.250    6.766   95.369    0.416    0.156
  501.500    8.030   93.658    0.417    0.144
  501.750    9.502   93.127    0.411    0.130
  502.000    9.875   94.970    0.391    0.113
  502.250    9.894   96.784    0.399    0.098
  502.500    9.717  100.382    0.404    0.101
  502.750    9.203  105.736    0.399    0.129
  503.000    8.394  107.579    0.395    0.154
  503.250    7.654  108.832    0.387    0.159
  503.500    6.728  110.071    0.386    0.163
  503.750    6.370  111.900    0.392    0.167
  504.000    5.918  113.139    0.401    0.173
  504.250    5.301  114.952    0.412    0.176
  504.500    5.018  114.421    0.428    0.178
  504.750    5.215  106.811    0.456    0.186
  505.000    6.528  100.381    0.441    0.169
  505.250    7.733   96.900    0.427    0.138
  505.500    8.496   92.240    0.430    0.147
  505.750    9.516   88.154    0.425    0.154
  506.000   10.859   81.724    0.419    0.155
  506.250   11.494   72.344    0.411    0.167
  506.500   13.615   60.014    0.405    0.241
  506.750   14.959   57.699    0.399    0.241
  507.000   16.446   55.398    0.388    0.246
  507.250   17.086   51.932    0.380    0.244
  507.500   18.091   56.120    0.397    0.264
  507.750   18.802   57.359    0.403    0.271
  508.000   18.831   58.598    0.408    0.273
  508.250   18.854   59.837    0.414    0.274
  508.500   18.883   61.665    0.416    0.276
  508.750   18.907   71.163    0.411    0.279
  509.000   18.581   80.690    0.417    0.274
  509.250   19.680   83.123    0.424    0.265
  509.500   20.446   83.743    0.425    0.257
  509.750   21.242   82.046    0.419    0.256
  510.000   22.922   79.170    0.400    0.264
  510.250   21.295   78.020    0.381    0.279
  510.500   19.065   76.309    0.370    0.271
  510.750   17.074   78.152    0.374    0.266
  511.000   15.286   80.556    0.382    0.268
  511.250   14.201   84.184    0.384    0.254
  511.500   12.252   87.782    0.381    0.213
  511.750   10.969   91.366    0.383    0.220
  512.000    9.817  103.828    0.414    0.224
  512.250    8.787  103.297    0.437    0.210
  512.500    7.579  103.356    0.463    0.206
  512.750    7.310  105.199    0.463    0.199
  513.000    6.923  106.438    0.466    0.200
  513.250    6.555  104.727    0.473    0.201
  513.500    6.325   98.872    0.479    0.189
  513.750    6.329   91.852    0.455    0.186
  514.000    6.456   77.738    0.438    0.181
  514.250    7.231   68.948    0.428    0.176
  514.500    8.404   62.532    0.418    0.184
  514.750   11.552   59.037    0.413    0.173
  515.000   12.466   55.556    0.407    0.155
  515.250   14.217   53.255    0.402    0.149
  515.500   16.223   53.299    0.397    0.161
  515.750   19.211   54.538    0.388    0.179
  516.000   21.916   58.166    0.392    0.180
  516.250   26.439   61.160    0.395    0.199
  516.500    7.312   86.010    0.388    0.197
  516.750    5.964   80.760    0.388    0.186
  517.000    4.599   73.754    0.385    0.181
  517.250    3.750   70.849    0.379    0.194
