~VERSION INFORMATION
 VERS.                 2.0:   CWLS LOG ASCII STANDARD -VERSION 2.0
 WRAP.                  NO:   ONE LINE PER DEPTH STEP
~WELL INFORMATION BLOCK
#MNEM.UNIT           DATA                    DESCRIPTION OF MNEMONIC
#---------    -------------------            -------------------------------
# Generated from Intellog Unique Number	CS_69_70/WELL/474
NULL.         -999.25                        : NULL_VALUE
WELL.         07-03-070-08W4                 : Well_name    - WELL              
LOC .         00/07-03-070-08W4/0            : Location     - LOCATION          
UWI .         00/07-03-070-08W4/0            : Uwi          - UNIQUE WELL ID    
ENTR.         JOETTE                         : Entered      - ENTERED BY        
SRVC.         SCHLUMBERGER                   : Scn          - SERVICE COMPANY   
DATE.         05\15\92                       : Date         - LOG DATE          
STRT.M        300                            : top_depth    - START DEPTH       
STOP.M        520                            : bot_depth    - STOP DEPTH        
STEP.M        0.25                           : increment    - STEP LENGTH       
~CURVE INFORMATION BLOCK
#MNEM UNIT       ERCB CURVE CODE    CURVE DESCRIPTION
#-----------   ------------------   ----------------------------------
DEPT.M        00 001 00 00         : DEPTH        - DEPTH                       
GR  .API      00 310 00 00         : GR           - GAMMA RAY                   
NPHI.V/V      00 330 00 00         : PHIN         - NEUTRON POROSITY (SANDSTONE)
DPHI.V/V      00 890 00 00         : PHID         - DENSITY POROSITY (SANDSTONE)
ILD .OHMM     00 120 00 00         : RESD         - DEEP RESISTIVITY (DIL)      
CALI.MM       00 280 01 00         : CAL          - CALIPER                     
~PARAMETER INFORMATION       
#MNEM.UNIT           DATA             DESCRIPTION OF MNEMONIC
#---------         -----------     ------------------------------
GL  .M        640                  : gl           - GROUND LEVEL ELEVATION      
EREF.M        648.7                : kb           - ELEVATION OF DEPTH REFERENCE
DATM.M        648.7                : datum        - DATUM ELEVATION             
TDD .M        625                  : tdd          - TOTAL DEPTH DRILLER         
RUN .         ONE                  : Run          - RUN NUMBER                  
ENG .         JO                   : Engineer     - RECORDING ENGINEER          
WIT .         TIM                  : Witness      - WITNESSED BY                
MUD .         GEL                  : Mud_type     - MUD TYPE                    
MATR.         SANDSTONE            : Logunit      - NEUTRON MATRIX              
TMAX.C        25                   : BHT          - MAXIMUM RECORDED TEMPERATURE
BHTD.M        625                  : BHTDEP       - MAXIMUM RECORDED TEMPERATURE
RMT .C        15                   : MDTP         - TEMPERATURE OF MUD          
MUDD.KG/M     1080                 : MWT          - MUD DENSITY                 
NEUT.         1                    : NEUTRON      - NEUTRON TYPE                
RESI.         0                    : RESIST       - RESISTIVITY TYPE            
RM  .OHMM     3.3                  : RM           - RESISTIVITY OF MUD          
RMC .OHMM     3.3                  : RMC          - RESISTIVITY OF MUD CAKE     
RMF .OHMM     3.3                  : RMF          - RESISTIVITY OF MUD FILTRATE 
SUFT.C        4                    : SUFT         - SURFACE TEMPERATURE         
~A  DEPTH       GR     PHIN     PHID     RESD      CAL
# ...
  482.500   85.540    0.338    0.230    7.415  147.443
  482.750   89.220    0.341    0.221    7.857  148.533
  483.000   95.354    0.347    0.220    8.168  149.677
  483.250  102.682    0.348    0.216    8.032  149.786
  483.500  107.589    0.352    0.206    7.612  150.903
  483.750  109.487    0.354    0.200    7.486  152.021
  484.000  108.946    0.356    0.189    7.935  153.138
  484.250  100.522    0.347    0.178    8.400  152.238
  484.500   89.676    0.329    0.179   11.750  151.311
  484.750   66.120    0.328    0.215   13.395  148.420
  485.000   59.528    0.343    0.259   15.570  147.493
  485.250   57.188    0.353    0.291   15.305  146.593
  485.500   54.211    0.349    0.308   13.976  146.701
  485.750   52.476    0.350    0.319   12.298  149.891
  486.000   53.752    0.349    0.316    9.160  151.008
  486.250   55.028    0.342    0.314    7.913  152.153
  486.500   53.261    0.328    0.313    7.093  152.207
  486.750   52.132    0.339    0.312    5.796  152.316
  487.000   54.013    0.354    0.313    5.007  152.451
  487.250   50.446    0.348    0.315    4.488  151.524
  487.500   42.022    0.336    0.313    4.025  150.651
  487.750   33.613    0.325    0.312    3.886  148.742
  488.000   35.494    0.323    0.309    3.821  147.815
  488.250   36.786    0.328    0.309    3.758  144.924
  488.500   36.230    0.331    0.313    3.764  143.997
  488.750   33.890    0.331    0.320    3.770  144.133
  489.000   31.535    0.335    0.321    3.780  145.223
  489.250   28.573    0.339    0.318    3.783  146.368
  489.500   27.428    0.330    0.318    3.866  149.584
  489.750   26.283    0.329    0.319    3.871  150.674
  490.000   27.558    0.331    0.319    3.953  150.729
  490.250   28.229    0.331    0.314    3.958  150.864
  490.500   26.478    0.326    0.310    4.037  150.946
  490.750   25.938    0.322    0.315    4.199  149.064
  491.000   28.441    0.326    0.316    4.207  148.164
  491.250   30.322    0.341    0.311    4.137  148.245
  491.500   26.739    0.348    0.309    4.137  148.381
  491.750   29.830    0.340    0.311    3.583  148.463
  492.000   34.738    0.340    0.317    3.725  148.598
  492.250   39.661    0.329    0.321    3.730  149.743
  492.500   33.069    0.341    0.316    3.670  149.824
  492.750   31.923    0.339    0.319    3.670  150.969
  493.000   36.847    0.328    0.320    3.752  151.050
  493.250   41.132    0.323    0.317    3.827  151.186
  493.500   53.319    0.333    0.312    3.836  151.268
  493.750   45.499    0.340    0.312    3.839  151.376
  494.000   31.644    0.346    0.318    3.848  151.512
  494.250   24.446    0.347    0.323    3.784  151.593
  494.500   18.459    0.344    0.323    3.791  151.729
  494.750   17.313    0.340    0.321    3.733  150.829
  495.000   19.194    0.337    0.320    3.737  150.938
  495.250   22.891    0.328    0.320    3.742  150.065
  495.500   27.193    0.327    0.318    3.752  150.201
  495.750   24.232    0.324    0.318    3.757  150.255
  496.000   20.682    0.319    0.318    3.762  150.418
  496.250   19.520    0.320    0.316    3.774  150.499
  496.500   22.006    0.313    0.306    3.777  150.581
  496.750   25.098    0.306    0.303    3.784  148.726
  497.000   23.347    0.332    0.307    3.791  146.763
  497.250   17.965    0.339    0.314    3.799  144.854
  497.500   16.836    0.340    0.319    3.804  144.963
  497.750   16.885    0.340    0.322    3.743  147.089
  498.000   21.203    0.330    0.315    3.683  152.296
  498.250   25.505    0.320    0.310    3.686  154.422
  498.500   29.807    0.326    0.305    3.626  154.557
  498.750   35.336    0.329    0.307    3.635  152.621
  499.000   32.391    0.326    0.309    3.574  151.694
  499.250   29.413    0.325    0.302    3.581  149.812
  499.500   25.226    0.327    0.297    3.521  149.948
  499.750   23.475    0.338    0.300    3.528  149.021
  500.000   21.724    0.356    0.308    3.471  149.102
  500.250   20.595    0.365    0.319    3.474  149.265
  500.500   21.282    0.362    0.325    3.480  149.320
  500.750   21.953    0.360    0.325    3.427  149.428
  501.000   22.639    0.355    0.324    3.369  149.537
  501.250   22.672    0.349    0.328    3.373  148.637
  501.500   22.753    0.340    0.331    3.319  149.836
  501.750   22.213    0.334    0.325    3.323  150.899
  502.000   24.094    0.338    0.322    3.331  152.070
  502.250   25.370    0.343    0.324    3.335  152.125
  502.500   24.830    0.345    0.330    3.344  153.269
  502.750   22.474    0.340    0.324    3.286  153.351
  503.000   21.934    0.332    0.320    3.292  152.478
  503.250   23.209    0.331    0.325    3.239  152.586
  503.500   24.518    0.336    0.327    3.186  150.677
  503.750   25.156    0.347    0.327    3.133  149.777
  504.000   24.010    0.358    0.329    3.139  148.850
  504.250   21.049    0.363    0.330    3.086  147.950
  504.500   20.509    0.358    0.323    3.091  147.077
  504.750   19.969    0.356    0.318    3.040  147.213
  505.000   20.034    0.364    0.332    3.047  147.294
  505.250   20.705    0.361    0.338    2.996  149.475
  505.500   20.786    0.352    0.334    3.000  148.547
  505.750   19.625    0.348    0.336    3.008  147.620
  506.000   16.680    0.347    0.344    3.012  146.774
  506.250   17.350    0.352    0.346    3.018  146.828
  506.500   19.853    0.362    0.345    3.025  148.000
  506.750   20.490    0.354    0.345    3.030  148.054
  507.000   20.572    0.355    0.344    2.980  151.244
  507.250   20.064    0.359    0.344    2.985  151.298
  507.500   20.097    0.360    0.345    2.989  152.470
  507.750   20.178    0.355    0.346    2.995  152.578
  508.000   20.227    0.345    0.346    2.948  152.687
  508.250   20.293    0.342    0.348    2.953  153.831
  508.500   20.358    0.346    0.352    2.958  153.886
  508.750   20.423    0.353    0.351    2.964  153.994
  509.000   21.093    0.356    0.349    2.969  153.094
  509.250   21.175    0.359    0.350    2.973  153.230
  509.500   20.029    0.357    0.349    2.924  153.339
  509.750   20.111    0.349    0.347    2.929  153.420
  510.000   20.781    0.348    0.345    2.936  153.529
  510.250   21.452    0.353    0.341    2.941  153.692
  510.500   20.306    0.354    0.335    2.946  153.773
  510.750   17.934    0.356    0.340    2.899  153.882
  511.000   19.210    0.359    0.347    2.905  154.017
  511.250   20.486    0.360    0.346    2.908  152.109
  511.500   18.130    0.358    0.344    2.913  151.208
  511.750   20.043    0.350    0.339    2.866  150.363
  512.000   21.286    0.340    0.336    2.870  150.390
  512.250   22.578    0.360    0.343    2.875  150.498
  512.500   23.838    0.367    0.349    2.827  149.625
  512.750   24.524    0.359    0.350    2.834  149.734
  513.000   20.974    0.353    0.350    2.839  149.843
  513.250   20.434    0.353    0.348    2.900  149.951
  513.500   21.121    0.360    0.346    2.902  149.051
  513.750   21.759    0.373    0.350    3.017  149.133
  514.000   23.051    0.366    0.354    3.079  149.296
  514.250   24.932    0.357    0.344    3.262  150.386
  514.500   27.418    0.341    0.332    3.587  152.539
  514.750   29.904    0.329    0.314    3.942  153.656
  515.000   34.206    0.341    0.153    4.414  154.774
  515.250   65.155    0.340    0.138    5.032  154.882
  515.500  103.384    0.336    0.126    6.069  153.982
  515.750  100.423    0.349    0.107    6.795  152.073
  516.000   95.041    0.369    0.081    6.807  151.173
  516.250   94.517    0.352    0.081    6.102  151.309
  516.500   97.003    0.345    0.073    5.679  151.363
  516.750   95.858    0.333    0.057    5.687  150.490
  517.000   94.713    0.324    0.069    5.700  150.599
  517.250   97.199    0.317    0.086    5.710  149.699
  517.500   99.685    0.327    0.095    5.936  149.808
  517.750  100.961    0.336    0.090    6.410  148.907
  518.000  101.647    0.335    0.087    6.536  149.016
  518.250  101.729    0.333    0.087    6.199  149.179
  518.500  101.761    0.333    0.091    5.872  149.233
  518.750  101.827    0.339    0.091    5.666  149.369
