~VERSION INFORMATION
 VERS.                 2.0:   CWLS LOG ASCII STANDARD -VERSION 2.0
 WRAP.                  NO:   ONE LINE PER DEPTH STEP
~WELL INFORMATION BLOCK
#MNEM.UNIT           DATA                    DESCRIPTION OF MNEMONIC
#---------    -------------------            -------------------------------
# Generated from Intellog Unique Number	CX_WELLS/WELL/2544
WELL.         DOME ET AL NEWBY               : Well_name    - WELL
LOC .         00/07-25-080-03W4/0            : Location     - LOCATION
UWI .         00/07-25-080-03W400            : Uwi          - UNIQUE WELL ID
ENTR.         T                              : Entered      - ENTERED BY
SRVC.         SCHLUMBERGER                   : Scn          - SERVICE COMPANY
STRT.M        75                             : top_depth    - START DEPTH
STOP.M        330                            : bot_depth    - STOP DEPTH
STEP.M        0.25                           : increment    - STEP LENGTH
 NULL. -999.2500:NULL Value
~CURVE INFORMATION BLOCK
#MNEM UNIT       ERCB CURVE CODE    CURVE DESCRIPTION
#-----------   ------------------   ----------------------------------
DEPT.M        00 001 00 00         : DEPTH        - DEPTH
GR  .API      00 310 00 00         : GR           - GAMMA RAY
NPHI.V/V      00 330 00 00         : PHIN         - NEUTRON POROSITY (SANDSTONE)
DPHI.V/V      00 890 00 00         : PHID         - DENSITY POROSITY (SANDSTONE)
ILD .OHMM     00 120 00 00         : RESD         - DEEP RESISTIVITY (DIL)
~PARAMETER INFORMATION
#MNEM.UNIT           DATA             DESCRIPTION OF MNEMONIC
#---------         -----------     ------------------------------
GL  .M        482.7                : gl           - GROUND LEVEL ELEVATION
EREF.M        486.3                : kb           - ELEVATION OF DEPTH REFERENCE
DATM.M        486.3                : datum        - DATUM ELEVATION
TDD .M        338                  : tdd          - TOTAL DEPTH DRILLER
RUN .         ONE                  : Run          - RUN NUMBER
ENG .         BILL                 : Engineer     - RECORDING ENGINEER
WIT .         JIM                  : Witness      - WITNESSED BY
MUD .         GEL                  : Mud_type     - MUD TYPE
MATR.         SANDSTONE            : Logunit      - NEUTRON MATRIX
TMAX.C        20                   : BHT          - MAXIMUM RECORDED TEMPERATURE
BHTD.M        338                  : BHTDEP       - MAXIMUM RECORDED TEMPERATURE
MATR.         1                    : LOGUNIT      - NEUTRON MATRIX
RMT .C        18                   : MDTP         - TEMPERATURE OF MUD
NEUT.         1                    : NEUTRON      - NEUTRON TYPE
RESI.         2.4                  : RESIST       - RESISTIVITY TYPE
RMC .OHMM     2.16                 : RMC          - RESISTIVITY OF MUD CAKE
RMF .OHMM     2.16                 : RMF          - RESISTIVITY OF MUD FILTRATE
SUFT.C        5                    : SUFT         - SURFACE TEMPERATURE
~A  DEPTH       GR     PHIN     PHID     RESD
# ...
  162.000   57.353    0.438    0.366   10.427
  162.250   57.335    0.435    0.364   10.413
  162.500   56.731    0.433    0.363   10.602
  162.750   54.966    0.432    0.363   10.791
  163.000   55.518    0.431    0.365   10.982
  163.250   57.232    0.427    0.371   10.972
  163.500   57.796    0.426    0.374   10.960
  163.750   58.934    0.424    0.376   10.950
  164.000   59.492    0.421    0.376   10.943
  164.250   60.050    0.420    0.374   10.931
  164.500   59.446    0.420    0.370   10.917
  164.750   57.681    0.416    0.369   10.912
  165.000   55.909    0.414    0.368   10.900
  165.250   55.886    0.414    0.367   10.893
  165.500   55.863    0.419    0.366   10.883
  165.750   55.253    0.424    0.364   11.071
  166.000   54.644    0.419    0.365   11.270
  166.250   54.632    0.416    0.363   11.258
  166.500   54.609    0.410    0.370   11.457
  166.750   54.581    0.407    0.374   11.452
  167.000   54.546    0.405    0.378   11.440
  167.250   54.517    0.410    0.376   11.430
  167.500   54.500    0.415    0.371   11.419
  167.750   54.483    0.417    0.370   11.409
  168.000   54.460    0.423    0.371   11.394
  168.250   54.437    0.425    0.372   11.389
  168.500   54.414    0.423    0.375   11.379
  168.750   54.385    0.425    0.379   11.369
  169.000   54.362    0.431    0.374   11.357
  169.250   57.249    0.444    0.332   10.935
  169.500   74.073    0.472    0.328    9.962
  169.750   79.278    0.515    0.328    7.975
  170.000   83.322    0.516    0.325    5.930
  170.250   85.036    0.506    0.321    5.301
  170.500   85.007    0.514    0.316    5.202
  170.750   84.996    0.526    0.311    5.196
  171.000   84.973    0.526    0.306    5.289
  171.250   81.459    0.511    0.315    5.687
  171.500   80.274    0.496    0.321    6.005
  171.750   80.245    0.479    0.315    6.114
  172.000   82.551    0.470    0.308    6.455
  172.250   81.947    0.490    0.299    7.071
  172.500   80.763    0.484    0.300    7.334
  172.750   77.243    0.475    0.305    7.743
  173.000   75.483    0.467    0.304    8.177
  173.250   75.454    0.474    0.304    8.477
  173.500   76.593    0.476    0.310    8.470
  173.750   80.061    0.477    0.318    8.307
  174.000   82.356    0.476    0.326    8.300
  174.250   82.919    0.471    0.329    8.141
  174.500   84.639    0.471    0.334    8.282
  174.750   81.700    0.472    0.336    8.431
  175.000   79.353    0.475    0.339    8.740
  175.250   78.169    0.477    0.344    9.063
  175.500   78.146    0.477    0.347    9.564
  175.750   78.128    0.470    0.351    9.920
  176.000   77.519    0.473    0.357   10.098
  176.250   75.753    0.477    0.360   10.661
  176.500   72.825    0.484    0.362   10.853
  176.750   68.730    0.482    0.361   11.246
  177.000   66.383    0.480    0.360   11.661
  177.250   65.779    0.475    0.359   11.871
  177.500   65.751    0.473    0.357   12.307
  177.750   67.470    0.473    0.358   12.750
  178.000   69.190    0.474    0.358   12.739
  178.250   71.485    0.473    0.359   12.725
  178.500   72.635    0.472    0.359   12.716
  178.750   73.774    0.472    0.359   12.475
  179.000   74.332    0.474    0.359   12.467
  179.250   72.567    0.473    0.359   12.450
  179.500   69.627    0.472    0.359   12.445
  179.750   68.448    0.470    0.360   12.434
  180.000   67.263    0.470    0.362   12.420
  180.250   67.821    0.470    0.363   12.409
  180.500   68.954    0.470    0.364   12.393
  180.750   69.518    0.471    0.364   12.387
  181.000   70.651    0.465    0.364   12.607
  181.250   71.203    0.455    0.363   12.590
  181.500   71.180    0.445    0.361   12.582
  181.750   70.576    0.446    0.360   12.574
  182.000   70.559    0.457    0.358   12.560
  182.250   70.536    0.470    0.357   12.552
  182.500   70.513    0.480    0.355   12.538
  182.750   71.065    0.481    0.354   12.524
  183.000   71.042    0.474    0.351   12.516
  183.250   70.433    0.466    0.351   12.499
  183.500   68.667    0.457    0.353   12.494
  183.750   68.650    0.462    0.354   12.249
  184.000   68.627    0.465    0.357   12.241
  184.250   69.766    0.459    0.357   12.232
  184.500   70.323    0.456    0.357   11.993
  184.750   69.121    0.457    0.357   11.985
  185.000   68.529    0.461    0.357   11.977
  185.250   66.763    0.462    0.358   11.961
  185.500   66.153    0.466    0.359   11.953
  185.750   67.292    0.470    0.361   11.719
  186.000   69.593    0.474    0.361   11.714
  186.250   71.888    0.478    0.356   11.701
  186.500   72.457    0.481    0.353   11.693
  186.750   71.836    0.483    0.354   11.680
  187.000   71.238    0.486    0.355   11.459
  187.250   70.640    0.487    0.356   11.446
  187.500   70.030    0.486    0.357   11.439
  187.750   69.432    0.475    0.357   11.429
  188.000   69.397    0.463    0.359   11.414
  188.250   69.961    0.464    0.360   11.403
  188.500   69.938    0.464    0.360   11.393
  188.750   69.334    0.463    0.355   11.383
  189.000   68.719    0.461    0.348   11.373
  189.250   68.126    0.451    0.347   11.361
  189.500   68.684    0.428    0.341   11.356
  189.750   72.141    0.415    0.313   11.555
  190.000   71.537    0.307    0.233   11.547
  190.250   72.095    0.353    0.269   11.749
  190.500   72.653    0.477    0.336   11.739
  190.750   72.049    0.482    0.362   12.164
  191.000   70.283    0.483    0.370   12.156
  191.250   66.769    0.475    0.370   12.148
  191.500   65.003    0.457    0.370   12.132
  191.750   63.232    0.458    0.370   12.124
  192.000   63.203    0.458    0.371   11.895
  192.250   63.191    0.457    0.371   11.664
  192.500   63.168    0.454    0.371   11.654
  192.750   63.140    0.454    0.372   11.646
  193.000   63.117    0.456    0.372   11.633
  193.250   63.094    0.458    0.372   11.618
  193.500   63.071    0.461    0.371   11.613
  193.750   63.048    0.462    0.370   11.385
  194.000   63.019    0.463    0.369   11.377
  194.250   63.583    0.463    0.367   11.162
  194.500   64.141    0.463    0.365   11.147
  194.750   64.106    0.465    0.363   11.142
  195.000   63.508    0.466    0.361   11.130
  195.250   64.054    0.467    0.360   10.914
  195.500   64.037    0.467    0.360   10.905
  195.750   64.601    0.466    0.360   10.898
  196.000   65.728    0.465    0.360   10.686
  196.250   65.716    0.463    0.361   10.099
  196.500   66.855    0.460    0.358    9.729
  196.750   69.156    0.459    0.357    8.697
  197.000   72.619    0.459    0.353    8.378
  197.250   78.405    0.463    0.344    7.920
  197.500   83.599    0.477    0.332    7.624
  197.750   85.319    0.494    0.321    7.338
  198.000   84.715    0.499    0.323    7.335
  198.250   84.116    0.496    0.335    7.191
  198.500   82.932    0.493    0.336    7.320
  198.750   81.741    0.496    0.334    7.452
  199.000   81.131    0.498    0.311    7.584
  199.250   80.527    0.506    0.311    7.718
  199.500   80.504    0.509    0.321    8.151
  199.750   80.481    0.491    0.324    8.293
  200.000   80.458    0.473    0.314    8.442
  200.250   79.860    0.466    0.299    8.748
  200.500   79.256    0.457    0.289    8.906
  200.750   80.395    0.456    0.286    9.230
  201.000   82.684    0.458    0.286    9.396
  201.250   82.080    0.500    0.290    9.920
  201.500   79.734    0.509    0.295   10.476
  201.750   77.393    0.500    0.314   11.063
  202.000   75.046    0.488    0.288   11.472
  202.250   74.442    0.475    0.282   11.890
  202.500   74.989    0.466    0.288   12.324
  202.750   74.385    0.466    0.290   12.548
  203.000   73.781    0.463    0.293   12.534
  203.250   73.177    0.458    0.304   12.759
  203.500   73.735    0.453    0.326   12.748
  203.750   75.460    0.457    0.329   12.498
  204.000   77.755    0.461    0.323   12.032
  204.250   77.732    0.467    0.313   11.804
  204.500   75.961    0.429    0.286   11.155
  204.750   74.189    0.384    0.253   10.746
  205.000   73.597    0.372    0.258   10.158
  205.250   72.993    0.380    0.291    9.602
