~VERSION INFORMATION
 VERS.                 2.0:   CWLS LOG ASCII STANDARD -VERSION 2.0
 WRAP.                  NO:   ONE LINE PER DEPTH STEP
~WELL INFORMATION BLOCK
#MNEM.UNIT           DATA                    DESCRIPTION OF MNEMONIC
#---------    -------------------            -------------------------------
# Generated from Intellog Unique Number	CS_67_68/WELL/701
WELL.         AMOCO CANADA PETROLEUM         : Well_name    - WELL
LOC .         00/06-27-068-18W4/0            : Location     - LOCATION
UWI .         00/06-27-068-18W4/0            : Uwi          - UNIQUE WELL ID
ENTR.         SP                             : Entered      - ENTERED BY
SRVC.         SCHLUMBERGER                   : Scn          - SERVICE COMPANY
STRT.M        274.32                         : top_depth    - START DEPTH
STOP.M        514.82                         : bot_depth    - STOP DEPTH
STEP.M        0.25                           : increment    - STEP LENGTH
 NULL. -999.2500:NULL Value
~CURVE INFORMATION BLOCK
#MNEM UNIT       ERCB CURVE CODE    CURVE DESCRIPTION
#-----------   ------------------   ----------------------------------
DEPT.M        00 001 00 00         : DEPTH        - DEPTH
GR  .API      00 310 00 00         : GR           - GAMMA RAY
DPHI.V/V      00 890 00 00         : PHID         - DENSITY POROSITY (SANDSTONE)
NPHI.V/V      00 330 00 00         : PHIN         - NEUTRON POROSITY (SANDSTONE)
ILD .OHMM     00 120 00 00         : RESD         - DEEP RESISTIVITY (DIL)
~PARAMETER INFORMATION
#MNEM.UNIT           DATA             DESCRIPTION OF MNEMONIC
#---------         -----------     ------------------------------
GL  .M        546.659              : gl           - GROUND LEVEL ELEVATION
EREF.M        550.164              : kb           - ELEVATION OF DEPTH REFERENCE
DATM.M        546.659              : datum        - DATUM ELEVATION
TDD .M        521.208              : tdd          - TOTAL DEPTH DRILLER
RUN .         ONE                  : Run          - RUN NUMBER
ENG .         BILL                 : Engineer     - RECORDING ENGINEER
WIT .         JIM                  : Witness      - WITNESSED BY
MUD .         GEL                  : Mud_type     - MUD TYPE
MATR.         SANDSTONE            : Logunit      - NEUTRON MATRIX
TMAX.C        22.2222              : BHT          - MAXIMUM RECORDED TEMPERATURE
BHTD.M        521.208              : BHTDEP       - MAXIMUM RECORDED TEMPERATURE
MATR.         1                    : LOGUNIT      - NEUTRON MATRIX
RMT .C        25                   : MDTP         - TEMPERATURE OF MUD
NEUT.         1                    : NEUTRON      - NEUTRON TYPE
RESI.         0                    : RESIST       - RESISTIVITY TYPE
RMC .OHMM     0.25                 : RMC          - RESISTIVITY OF MUD CAKE
RMF .OHMM     0.25                 : RMF          - RESISTIVITY OF MUD FILTRATE
SUFT.C        15                   : SUFT         - SURFACE TEMPERATURE
~A  DEPTH       GR     PHID     PHIN     RESD
  274.320  123.676    0.221    0.490    3.781
  274.570  124.723    0.233    0.501    3.787
  274.820  125.817    0.246    0.504    3.782
  275.070  123.535    0.256    0.475    3.717
  275.320  117.980    0.233    0.467    3.615
  275.570  109.148    0.224    0.472    3.591
  275.820  113.177    0.212    0.484    3.626
  276.070  118.363    0.208    0.498    3.712
  276.320  116.664    0.215    0.474    3.830
  276.570  111.348    0.229    0.434    3.989
  276.820  100.980    0.216    0.413    4.170
  277.070   91.982    0.224    0.391    4.276
  277.320   83.012    0.242    0.359    4.188
  277.570   70.964    0.245    0.344    3.878
  277.820   62.439    0.235    0.345    3.608
  278.070   57.526    0.227    0.352    3.366
  278.320   52.916    0.231    0.351    3.255
  278.570   51.294    0.228    0.349    3.329
  278.820   50.750    0.246    0.359    3.441
  279.070   48.169    0.230    0.375    3.652
  279.320   51.179    0.201    0.388    3.866
  279.570   62.231    0.199    0.371    3.972
  279.820   71.894    0.192    0.383    3.869
  280.070   80.514    0.198    0.399    3.687
  280.320   88.666    0.230    0.410    3.488
  280.570   89.545    0.241    0.412    3.328
  280.820   83.399    0.257    0.411    3.265
  281.070   84.686    0.267    0.420    3.296
  281.320   90.449    0.251    0.434    3.471
  281.570   91.521    0.239    0.442    3.719
  281.820   87.980    0.214    0.430    3.870
  282.070   82.295    0.218    0.418    3.909
  282.320   76.934    0.234    0.411    3.816
  282.570   75.178    0.247    0.411    3.670
  282.820   79.730    0.221    0.425    3.484
  283.070   88.621    0.230    0.442    3.376
  283.320   94.899    0.240    0.458    3.351
  283.570   98.650    0.207    0.453    3.381
  283.820   98.651    0.208    0.431    3.480
  284.070   89.389    0.225    0.417    3.620
  284.320   83.547    0.235    0.405    3.745
  284.570   80.905    0.252    0.396    3.753
  284.820   80.678    0.237    0.396    3.684
  285.070   80.100    0.226    0.409    3.541
  285.320   77.006    0.234    0.396    3.375
  285.570   71.631    0.240    0.380    3.216
  285.820   73.031    0.241    0.467    3.173
  286.070   87.111    0.239    0.478    3.227
  286.320   93.417    0.229    0.465    3.347
  286.570   90.405    0.224    0.447    3.439
  286.820   87.482    0.225    0.447    3.536
  287.070   77.810    0.239    0.424    3.572
  287.320   71.334    0.244    0.406    3.545
  287.570   74.557    0.232    0.442    3.450
  287.820   87.443    0.237    0.464    3.309
  288.070   91.520    0.239    0.481    3.214
  288.320   91.252    0.257    0.464    3.148
  288.570   91.749    0.237    0.447    3.112
  288.820   92.565    0.213    0.458    3.105
  289.070   88.283    0.223    0.452    3.132
  289.320   84.297    0.248    0.438    3.166
  289.570   83.818    0.266    0.440    3.167
  289.820   84.987    0.242    0.465    3.130
  290.070   81.597    0.250    0.476    3.081
  290.320   76.112    0.271    0.443    3.048
  290.570   76.085    0.281    0.418    3.057
  290.820   80.687    0.279    0.406    3.057
  291.070   85.900    0.260    0.414    3.058
  291.320   89.502    0.246    0.421    3.076
  291.570   91.385    0.234    0.442    3.112
  291.820   91.289    0.255    0.439    3.195
  292.070   85.872    0.268    0.419    3.331
  292.320   79.103    0.250    0.409    3.450
  292.570   77.305    0.239    0.413    3.567
  292.820   79.768    0.236    0.418    3.663
  293.070   74.419    0.235    0.401    3.693
  293.320   68.623    0.217    0.389    3.620
  293.570   68.858    0.204    0.390    3.507
  293.820   72.433    0.247    0.405    3.358
  294.070   77.056    0.230    0.410    3.242
  294.320   79.801    0.220    0.411    3.120
  294.570   82.311    0.239    0.429    3.062
  294.820   84.345    0.246    0.438    3.049
  295.070   83.947    0.230    0.444    3.052
  295.320   81.291    0.248    0.444    3.100
  295.570   83.594    0.257    0.428    3.144
  295.820   91.391    0.233    0.433    3.181
  296.070  100.643    0.222    0.464    3.227
  296.320  105.515    0.230    0.478    3.230
  296.570  107.112    0.226    0.477    3.208
  296.820  103.278    0.213    0.469    3.152
  297.070   98.741    0.191    0.463    3.072
  297.320   98.349    0.188    0.457    3.001
  297.570  105.616    0.190    0.459    2.961
  297.820  108.377    0.196    0.473    2.963
  298.070  108.962    0.198    0.476    2.999
  298.320  106.913    0.218    0.473    3.047
  298.570  105.224    0.211    0.480    3.074
  298.820  105.536    0.198    0.486    3.045
  299.070  106.298    0.202    0.493    3.007
  299.320  107.103    0.199    0.500    2.947
  299.570  108.440    0.197    0.513    2.911
  299.820  110.023    0.208    0.523    2.849
  300.070  111.061    0.218    0.534    2.806
  300.320  112.115    0.223    0.539    2.780
  300.570  111.554    0.223    0.546    2.768
  300.820  110.404    0.220    0.553    2.760
  301.070  108.513    0.220    0.551    2.750
  301.320  106.940    0.225    0.545    2.732
  301.570  108.970    0.224    0.540    2.715
  301.820  110.154    0.221    0.540    2.717
  302.070  107.847    0.229    0.551    2.713
  302.320  105.516    0.233    0.560    2.700
  302.570  104.882    0.240    0.562    2.698
  302.820  104.118    0.257    0.532    2.709
  303.070  102.941    0.256    0.506    2.717
  303.320  102.250    0.234    0.507    2.758
  303.570  102.389    0.216    0.534    2.791
  303.820  101.748    0.215    0.550    2.816
  304.070   97.480    0.223    0.533    2.801
  304.320   94.479    0.226    0.529    2.773
  304.570   90.966    0.230    0.513    2.696
  304.820   96.530    0.225    0.497    2.608
  305.070  100.190    0.234    0.496    2.535
  305.320  103.433    0.237    0.525    2.472
  305.570  106.677    0.238    0.531    2.444
  305.820  109.573    0.239    0.528    2.461
  306.070  112.559    0.241    0.534    2.502
  306.320  111.433    0.251    0.538    2.561
  306.570  108.190    0.258    0.525    2.605
  306.820  106.841    0.246    0.519    2.645
  307.070  108.171    0.240    0.521    2.648
  307.320  109.677    0.249    0.511    2.613
  307.570  108.976    0.255    0.510    2.580
  307.820  105.992    0.264    0.530    2.621
  308.070  103.526    0.265    0.522    2.702
  308.320  101.531    0.247    0.517    2.778
  308.570  103.064    0.237    0.530    2.850
  308.820  105.777    0.234    0.541    2.904
  309.070  106.867    0.234    0.527    2.946
  309.320  105.181    0.224    0.525    2.965
  309.570  104.490    0.221    0.541    2.990
  309.820  104.525    0.234    0.545    3.004
  310.070  105.285    0.238    0.540    3.002
  310.320  105.687    0.228    0.540    2.985
  310.570  105.288    0.215    0.554    2.948
  310.820  103.873    0.221    0.557    2.905
  311.070  101.029    0.225    0.550    2.858
  311.320   98.860    0.230    0.552    2.854
  311.570  103.720    0.241    0.539    2.857
  311.820  109.001    0.237    0.533    2.875
  312.070  110.947    0.222    0.527    2.906
  312.320  110.020    0.209    0.513    2.919
  312.570  109.674    0.201    0.505    2.937
  312.820  108.685    0.207    0.505    2.961
  313.070  106.465    0.212    0.518    2.989
  313.320  105.137    0.217    0.526    3.026
  313.570  106.526    0.196    0.524    3.080
  313.820  107.890    0.186    0.505    3.149
  314.070  109.615    0.199    0.492    3.220
  314.320  111.619    0.217    0.500    3.292
  314.570  111.440    0.227    0.526    3.350
  314.820  108.888    0.229    0.519    3.409
  315.070  107.973    0.241    0.516    3.452
  315.320  108.857    0.249    0.516    3.483
  315.570  106.683    0.224    0.522    3.468
  315.820  105.370    0.205    0.525    3.428
  316.070  107.041    0.186    0.524    3.355
  316.320  109.674    0.196    0.521    3.279
  316.570  109.954    0.205    0.517    3.208
  316.820  106.759    0.216    0.502    3.139
  317.070  105.830    0.229    0.487    3.069
  317.320  104.881    0.233    0.474    3.022
  317.570  103.119    0.233    0.465    2.986
