~VERSION INFORMATION
 VERS.                 2.0:   CWLS LOG ASCII STANDARD -VERSION 2.0
 WRAP.                  NO:   ONE LINE PER DEPTH STEP
~WELL INFORMATION BLOCK
#MNEM.UNIT           DATA                    DESCRIPTION OF MNEMONIC
#---------    -------------------            -------------------------------
# Generated from Intellog Unique Number	CW_73_75/WELL/2735
WELL.         BRENDA ET AL MARTEN HILLS 09-1 : Well_name    - WELL
LOC .         00/09-10-073-25W4/0            : Location     - LOCATION
UWI .         00/09-10-073-25W4/0            : Uwi          - UNIQUE WELL ID
ENTR.         JAYE                           : Entered      - ENTERED BY
SRVC.         SCHLUMBERGER                   : Scn          - SERVICE COMPANY
DATE.         16 FEB 82                      : Date         - LOG DATE
STRT.M        390                            : top_depth    - START DEPTH
STOP.M        620                            : bot_depth    - STOP DEPTH
STEP.M        0.25                           : increment    - STEP LENGTH
 NULL. -999.2500:NULL Value
~CURVE INFORMATION BLOCK
#MNEM UNIT       ERCB CURVE CODE    CURVE DESCRIPTION
#-----------   ------------------   ----------------------------------
DEPT.M        00 001 00 00         : DEPTH        - DEPTH
DPHI.V/V      00 890 00 00         : PHID         - DENSITY POROSITY (SANDSTONE)
NPHI.V/V      00 330 00 00         : PHIN         - NEUTRON POROSITY (SANDSTONE)
GR  .API      00 310 00 00         : GR           - GAMMA RAY
CALI.MM       00 280 01 00         : CAL          - CALIPER
ILD .OHMM     00 120 00 00         : RESD         - DEEP RESISTIVITY (DIL)
~PARAMETER INFORMATION
#MNEM.UNIT           DATA             DESCRIPTION OF MNEMONIC
#---------         -----------     ------------------------------
GL  .M        633.6                : gl           - GROUND LEVEL ELEVATION
EREF.M        637.3                : kb           - ELEVATION OF DEPTH REFERENCE
DATM.M        633.6                : datum        - DATUM ELEVATION
TDD .M        628                  : tdd          - TOTAL DEPTH DRILLER
RUN .         ONE                  : Run          - RUN NUMBER
ENG .         SMYTHE               : Engineer     - RECORDING ENGINEER
WIT .         SAY                  : Witness      - WITNESSED BY
BASE.         EDM                  : Branch       - HOME BASE OF LOGGING UNIT
MUD .         GEL MUDM             : Mud_type     - MUD TYPE
MATR.         SANDSTONE            : Logunit      - NEUTRON MATRIX
TMAX.C        28                   : BHT          - MAXIMUM RECORDED TEMPERATURE
BHTD.M        627.5                : BHTDEP       - MAXIMUM RECORDED TEMPERATURE
RMT .C        12.7                 : MDTP         - TEMPERATURE OF MUD
MUDD.KG/M     1110                 : MWT          - MUD DENSITY
NEUT.         1                    : NEUTRON      - NEUTRON TYPE
RESI.         0                    : RESIST       - RESISTIVITY TYPE
RM  .OHMM     4.32                 : RM           - RESISTIVITY OF MUD
RMC .OHMM     0                    : RMC          - RESISTIVITY OF MUD CAKE
RMF .OHMM     4.55                 : RMF          - RESISTIVITY OF MUD FILTRATE
SUFT.C        0                    : SUFT         - SURFACE TEMPERATURE
~A  DEPTH     PHID     PHIN       GR      CAL     RESD
# ...
  499.500    0.202    0.401   94.961  153.996    5.885
  499.750    0.198    0.410   99.206  155.835    5.939
  500.000    0.189    0.414  100.123  159.243    6.096
  500.250    0.180    0.413   99.973  163.906    6.354
  500.500    0.164    0.413  100.325  163.869    6.510
  500.750    0.165    0.417  102.750  162.468    6.606
  501.000    0.181    0.436  104.107  161.799    6.616
  501.250    0.185    0.435  104.084  161.869    6.613
  501.500    0.187    0.428  104.434  161.932    6.560
  501.750    0.188    0.421  106.231  161.998    6.496
  502.000    0.195    0.422  107.462  162.058    6.432
  502.250    0.199    0.429  102.669  161.923    6.392
  502.500    0.194    0.429   98.501  161.988    6.402
  502.750    0.188    0.420   92.203  162.048    6.423
  503.000    0.193    0.402   95.127  162.114    6.469
  503.250    0.191    0.384   98.622  162.174    6.491
  503.500    0.185    0.371  103.112  162.347    6.526
  503.750    0.184    0.375   99.951  162.516    6.585
  504.000    0.184    0.400   96.540  162.371    6.607
  504.250    0.183    0.429   97.395  162.121    6.731
  504.500    0.184    0.443   97.810  161.557    6.975
  504.750    0.198    0.432   92.262  160.471    7.480
  505.000    0.204    0.429   88.786  158.547    7.825
  505.250    0.193    0.418   91.526  157.775    8.048
  505.500    0.188    0.379   93.885  157.637    8.168
  505.750    0.208    0.382   95.242  157.383    8.180
  506.000    0.221    0.421   96.787  157.143    8.238
  506.250    0.212    0.423   86.220  157.098    8.251
  506.500    0.209    0.407   81.616  157.052    8.247
  506.750    0.209    0.423   86.925  157.235    8.197
  507.000    0.205    0.430   91.863  157.083    8.101
  507.250    0.189    0.415   96.039  157.262    7.885
  507.500    0.186    0.405   98.590  157.212    7.616
  507.750    0.213    0.430   95.867  157.486    7.287
  508.000    0.221    0.412   96.345  157.755    7.080
  508.250    0.203    0.401   97.892  158.039    6.800
  508.500    0.187    0.417  101.003  158.100    6.682
  508.750    0.190    0.426  106.062  158.590    6.603
  509.000    0.193    0.426  101.521  158.852    6.612
  509.250    0.192    0.418   93.588  159.440    6.673
  509.500    0.184    0.413   89.047  160.237    6.733
  509.750    0.178    0.410   93.227  160.517    6.795
  510.000    0.180    0.403  100.922  160.474    6.830
  510.250    0.183    0.394  103.346  160.537    6.854
  510.500    0.189    0.405  104.452  160.713    6.851
  510.750    0.197    0.410  103.801  160.673    6.887
  511.000    0.202    0.391  101.581  160.942    7.003
  511.250    0.192    0.397   96.724  161.119    7.188
  511.500    0.180    0.432   91.239  161.181    7.564
  511.750    0.170    0.400   90.525  161.355    8.095
  512.000    0.166    0.388   99.287  161.423    8.453
  512.250    0.166    0.405  104.600  161.581    8.466
  512.500    0.162    0.411  103.444  161.753    8.024
  512.750    0.170    0.404  101.667  161.820    7.307
  513.000    0.178    0.405  102.329  161.772    7.072
  513.250    0.189    0.418  101.303  161.729    6.975
  513.500    0.198    0.412   99.899  161.695    6.920
  513.750    0.201    0.408   99.751  161.869    6.851
  514.000    0.196    0.406  100.980  162.137    6.783
  514.250    0.192    0.405  101.583  162.414    6.807
  514.500    0.184    0.403  100.746  162.686    6.869
  514.750    0.177    0.402  102.854  162.748    6.866
  515.000    0.174    0.414  103.456  162.822    6.798
  515.250    0.173    0.419   97.346  162.883    6.667
  515.500    0.171    0.417   94.937  162.945    6.502
  515.750    0.169    0.408  100.623  162.910    6.268
  516.000    0.168    0.399  105.872  162.970    6.101
  516.250    0.178    0.398  105.786  163.036    6.075
  516.500    0.180    0.401  101.117  162.995    6.201
  516.750    0.174    0.409   95.320  162.638    6.463
  517.000    0.161    0.418   88.140  161.760    6.839
  517.250    0.174    0.424   80.524  159.731    7.460
  517.500    0.195    0.439   72.151  157.293    8.342
  517.750    0.225    0.441   67.172  156.622    9.239
  518.000    0.245    0.417   62.188  156.896   10.040
  518.250    0.192    0.390   59.030  157.696   11.078
  518.500    0.114    0.361   55.427  158.697   12.623
  518.750    0.066    0.269   48.811  160.433   13.954
  519.000    0.052    0.212   45.273  161.761   15.485
  519.250    0.052    0.208   44.561  161.929   16.891
  519.500    0.044    0.200   44.289  161.360   18.252
  519.750    0.083    0.190   45.081  158.186   20.062
  520.000    0.117    0.205   46.559  155.528   21.029
  520.250    0.135    0.285   49.175  154.652   20.821
  520.500    0.157    0.310   52.097  154.509   19.998
  520.750    0.174    0.325   56.843  154.466   19.244
  521.000    0.210    0.375   57.570  154.534   19.018
  521.250    0.236    0.388   55.351  154.597   18.937
  521.500    0.239    0.405   54.137  154.453   19.220
  521.750    0.238    0.426   54.298  154.321   19.468
  522.000    0.256    0.433   54.714  154.172   19.757
  522.250    0.270    0.418   53.812  154.124   19.976
  522.500    0.263    0.404   53.849  154.190   20.348
  522.750    0.259    0.415   55.773  154.147   20.691
  523.000    0.264    0.410   55.559  154.009   21.037
  523.250    0.261    0.407   53.527  153.754   21.150
  523.500    0.264    0.412   54.384  153.508   21.221
  523.750    0.277    0.407   55.927  153.262   21.252
  524.000    0.279    0.407   54.336  153.013   21.202
  524.250    0.272    0.407   53.937  152.769   21.113
  524.500    0.261    0.405   55.543  152.620   20.866
  524.750    0.249    0.400   57.154  152.591   20.934
  525.000    0.237    0.394   59.886  152.431   21.206
  525.250    0.245    0.398   55.909  152.394   21.811
  525.500    0.254    0.408   55.447  152.142   22.431
  525.750    0.269    0.418   58.435  152.009   22.936
  526.000    0.292    0.438   58.035  151.851   23.104
  526.250    0.292    0.429   54.686  151.715   23.226
  526.500    0.265    0.416   56.734  151.567   23.260
  526.750    0.255    0.410   61.665  151.528   23.073
  527.000    0.263    0.407   63.650  151.277   23.019
  527.250    0.252    0.395   61.115  151.346   22.879
  527.500    0.248    0.397   59.779  151.413   22.869
  527.750    0.257    0.399   60.191  151.683   22.859
  528.000    0.268    0.401   61.858  151.956   23.200
  528.250    0.274    0.407   58.828  152.024   23.815
  528.500    0.281    0.433   58.742  152.413   24.584
  528.750    0.270    0.427   60.156  152.575   25.045
  529.000    0.261    0.403   63.081  153.054   25.323
  529.250    0.267    0.403   63.058  153.537   25.312
  529.500    0.261    0.417   59.647  153.913   24.729
  529.750    0.254    0.423   57.049  154.080   24.162
  530.000    0.251    0.422   59.096  153.625   23.294
  530.250    0.250    0.419   64.029  153.162   22.804
  530.500    0.250    0.413   66.830  153.243   22.154
  530.750    0.244    0.408   63.668  153.292   21.441
  531.000    0.244    0.401   63.016  153.355   20.089
  531.250    0.252    0.393   64.060  153.437   19.187
  531.500    0.261    0.402   66.485  153.484   17.843
  531.750    0.260    0.417   68.784  153.774   17.138
  532.000    0.227    0.397   69.634  154.143   16.968
  532.250    0.192    0.331   67.040  154.735   17.253
  532.500    0.110    0.302   61.931  155.313   17.913
  532.750    0.112    0.278   60.714  156.844   18.671
  533.000    0.147    0.347   63.765  157.431   18.912
  533.250    0.192    0.365   66.691  157.498   18.832
  533.500    0.154    0.332   65.412  157.879   18.364
  533.750    0.116    0.298   63.884  158.357   17.175
  534.000    0.117    0.281   67.436  160.935   15.059
  534.250    0.166    0.343   72.684  159.845   12.687
  534.500    0.193    0.407   79.187  157.923   10.729
  534.750    0.224    0.407   84.499  157.048    8.819
  535.000    0.195    0.384   89.242  156.490    8.093
  535.250    0.176    0.426   86.081  156.342    7.641
  535.500    0.171    0.437   78.086  156.410    7.339
  535.750    0.189    0.420   75.113  156.686    7.184
