~VERSION INFORMATION
 VERS.                 2.0:   CWLS LOG ASCII STANDARD -VERSION 2.0
 WRAP.                  NO:   ONE LINE PER DEPTH STEP
~WELL INFORMATION BLOCK
#MNEM.UNIT           DATA                    DESCRIPTION OF MNEMONIC
#---------    -------------------            -------------------------------
# Generated from Intellog Unique Number	CS_71_72/WELL/786
WELL.         BOW VALLEY EXPLORATION         : Well_name    - WELL
LOC .         00/06-34-072-18W4/0            : Location     - LOCATION
UWI .         00/06-34-072-18W4/0            : Uwi          - UNIQUE WELL ID
ENTR.         SP                             : Entered      - ENTERED BY
SRVC.         SCHLUMBERGER                   : Scn          - SERVICE COMPANY
STRT.M        268.224                        : top_depth    - START DEPTH
STOP.M        462.974                        : bot_depth    - STOP DEPTH
STEP.M        0.25                           : increment    - STEP LENGTH
 NULL. -999.2500:NULL Value
~CURVE INFORMATION BLOCK
#MNEM UNIT       ERCB CURVE CODE    CURVE DESCRIPTION
#-----------   ------------------   ----------------------------------
DEPT.M        00 001 00 00         : DEPTH        - DEPTH
GR  .API      00 310 00 00         : GR           - GAMMA RAY
DPHI.V/V      00 890 00 00         : PHID         - DENSITY POROSITY (SANDSTONE)
NPHI.V/V      00 330 00 00         : PHIN         - NEUTRON POROSITY (SANDSTONE)
ILD .OHMM     00 120 00 00         : RESD         - DEEP RESISTIVITY (DIL)
~PARAMETER INFORMATION
#MNEM.UNIT           DATA             DESCRIPTION OF MNEMONIC
#---------         -----------     ------------------------------
GL  .M        585.734              : gl           - GROUND LEVEL ELEVATION
EREF.M        588.874              : kb           - ELEVATION OF DEPTH REFERENCE
DATM.M        585.734              : datum        - DATUM ELEVATION
TDD .M        472.44               : tdd          - TOTAL DEPTH DRILLER
RUN .         ONE                  : Run          - RUN NUMBER
ENG .         BILL                 : Engineer     - RECORDING ENGINEER
WIT .         JIM                  : Witness      - WITNESSED BY
MUD .         GEL                  : Mud_type     - MUD TYPE
MATR.         SANDSTONE            : Logunit      - NEUTRON MATRIX
TMAX.C        21.1111              : BHT          - MAXIMUM RECORDED TEMPERATURE
BHTD.M        472.44               : BHTDEP       - MAXIMUM RECORDED TEMPERATURE
MATR.         1                    : LOGUNIT      - NEUTRON MATRIX
RMT .C        25                   : MDTP         - TEMPERATURE OF MUD
NEUT.         1                    : NEUTRON      - NEUTRON TYPE
RESI.         0                    : RESIST       - RESISTIVITY TYPE
RMC .OHMM     0.25                 : RMC          - RESISTIVITY OF MUD CAKE
RMF .OHMM     0.25                 : RMF          - RESISTIVITY OF MUD FILTRATE
SUFT.C        15                   : SUFT         - SURFACE TEMPERATURE
~A  DEPTH       GR     PHID     PHIN     RESD
# ...
  398.724   84.719    0.309    0.427    4.451
  398.974   80.078    0.308    0.443    4.394
  399.224   74.769    0.309    0.450    4.436
  399.474   72.916    0.310    0.439    4.580
  399.724   73.390    0.309    0.440    4.730
  399.974   74.116    0.300    0.441    5.000
  400.224   74.106    0.298    0.439    5.432
  400.474   74.697    0.291    0.433    5.975
  400.724   74.700    0.268    0.430    6.512
  400.974   74.051    0.219    0.366    7.127
  401.224   70.124    0.184    0.317    7.495
  401.474   66.584    0.158    0.339    6.176
  401.724   66.421    0.191    0.384    5.536
  401.974   64.730    0.204    0.384    5.056
  402.224   65.618    0.205    0.397    4.752
  402.474   68.119    0.257    0.419    4.541
  402.724   70.146    0.328    0.423    4.439
  402.974   71.395    0.326    0.430    4.448
  403.224   71.406    0.321    0.436    4.381
  403.474   71.120    0.316    0.436    4.374
  403.724   70.092    0.314    0.434    4.375
  403.974   69.077    0.310    0.437    4.376
  404.224   68.947    0.306    0.426    4.354
  404.474   69.594    0.305    0.425    4.305
  404.724   69.997    0.308    0.424    4.307
  404.974   70.216    0.314    0.418    4.311
  405.224   70.249    0.307    0.412    4.314
  405.474   70.258    0.301    0.411    4.319
  405.724   70.218    0.308    0.435    4.334
  405.974   69.171    0.300    0.428    4.405
  406.224   69.096    0.291    0.418    4.405
  406.474   69.833    0.286    0.411    4.402
  406.724   70.802    0.304    0.417    4.328
  406.974   73.075    0.319    0.420    4.327
  407.224   77.107    0.310    0.420    4.420
  407.474   81.246    0.310    0.432    4.536
  407.724   83.803    0.308    0.438    4.742
  407.974   85.961    0.300    0.429    5.216
  408.224   87.752    0.307    0.430    5.539
  408.474   88.446    0.309    0.426    5.876
  408.724   86.926    0.282    0.386    5.962
  408.974   83.505    0.254    0.325    5.634
  409.224   83.313    0.165    0.319    5.187
  409.474   86.707    0.133    0.348    4.837
  409.724   92.993    0.132    0.394    4.266
  409.974  100.813    0.171    0.439    4.128
  410.224  106.385    0.211    0.470    3.939
  410.474  111.754    0.247    0.464    3.857
  410.724  115.489    0.236    0.474    3.717
  410.974  113.062    0.229    0.485    3.732
  411.224  112.015    0.228    0.501    3.667
  411.474  113.669    0.240    0.481    3.724
  411.724  115.327    0.231    0.473    3.849
  411.974  116.165    0.226    0.475    3.893
  412.224  114.579    0.229    0.471    4.028
  412.474  114.027    0.237    0.458    3.969
  412.724  115.041    0.242    0.451    4.101
  412.974  116.026    0.224    0.451    4.147
  413.224  116.325    0.216    0.467    4.370
  413.474  115.033    0.222    0.478    4.591
  413.724  113.092    0.231    0.466    4.733
  413.974  111.041    0.218    0.454    4.911
  414.224  110.967    0.200    0.441    5.037
  414.474  111.380    0.194    0.424    4.902
  414.724  110.632    0.184    0.406    4.672
  414.974  107.576    0.138    0.391    4.685
  415.224  110.212    0.102    0.394    4.808
  415.474  114.955    0.173    0.412    4.611
  415.724  118.087    0.202    0.411    4.690
  415.974  117.311    0.202    0.414    4.921
  416.224  117.102    0.193    0.418    5.170
  416.474  117.492    0.191    0.414    5.404
  416.724  119.381    0.191    0.428    5.607
  416.974  121.356    0.203    0.439    5.559
  417.224  120.813    0.201    0.438    5.352
  417.474  112.713    0.210    0.430    4.937
  417.724   93.809    0.204    0.423    4.985
  417.974   86.111    0.204    0.404    5.300
  418.224   80.838    0.196    0.390    5.650
  418.474   77.836    0.171    0.375    6.077
  418.724   79.342    0.158    0.366    6.722
  418.974   81.707    0.152    0.364    7.270
  419.224   83.500    0.195    0.406    7.368
  419.474   86.964    0.226    0.400    7.341
  419.724   87.427    0.235    0.383    6.973
  419.974   84.281    0.200    0.372    6.788
  420.224   83.795    0.177    0.361    6.441
  420.474   83.944    0.208    0.366    6.387
  420.724   87.237    0.207    0.385    6.378
  420.974   90.382    0.195    0.399    6.526
  421.224   95.843    0.188    0.378    6.615
  421.474   97.892    0.176    0.392    7.172
  421.724   98.180    0.172    0.410    7.589
  421.974   89.366    0.138    0.394    7.945
  422.224   83.254    0.117    0.341    8.176
  422.474   84.316    0.098    0.313    7.824
  422.724   89.303    0.125    0.318    7.397
  422.974   97.680    0.164    0.361    6.623
  423.224  102.134    0.193    0.390    6.319
  423.474  101.879    0.177    0.406    6.138
  423.724   99.781    0.144    0.380    5.983
  423.974  103.748    0.123    0.370    6.000
  424.224  109.412    0.151    0.386    5.884
  424.474  112.237    0.180    0.396    5.897
  424.724  114.093    0.190    0.403    5.894
  424.974  114.337    0.174    0.413    6.027
  425.224  112.293    0.170    0.411    6.028
  425.474  111.815    0.177    0.415    6.234
  425.724  111.609    0.184    0.424    6.276
  425.974  111.290    0.174    0.424    6.619
  426.224  111.305    0.163    0.417    6.694
  426.474  111.426    0.159    0.417    6.917
  426.724  113.124    0.164    0.408    6.999
  426.974  114.369    0.172    0.401    7.100
  427.224  111.272    0.166    0.398    6.966
  427.474  110.660    0.156    0.396    6.778
  427.724  114.937    0.180    0.395    6.446
  427.974  118.281    0.206    0.395    6.266
  428.224  119.725    0.204    0.390    6.181
  428.474  120.532    0.214    0.385    6.176
  428.724  119.784    0.195    0.381    6.311
  428.974  118.529    0.179    0.390    6.405
  429.224  115.322    0.171    0.398    6.473
  429.474  110.179    0.162    0.397    6.553
  429.724  104.683    0.150    0.384    6.443
  429.974  103.154    0.133    0.369    6.263
  430.224  106.765    0.131    0.378    5.896
  430.474  110.116    0.190    0.391    5.512
  430.724  112.383    0.198    0.396    4.926
  430.974  113.856    0.177    0.401    4.088
  431.224  116.340    0.194    0.415    3.464
  431.474  116.551    0.196    0.448    3.006
  431.724  117.455    0.203    0.500    2.499
  431.974  121.066    0.201    0.520    2.284
  432.224  123.277    0.217    0.529    2.199
  432.474  126.028    0.213    0.527    2.157
  432.724  126.572    0.219    0.519    2.203
  432.974  126.154    0.231    0.509    2.331
  433.224  122.453    0.217    0.499    2.748
  433.474  117.200    0.204    0.488    3.217
  433.724  106.896    0.191    0.463    3.941
  433.974  102.107    0.159    0.402    4.634
  434.224   99.774    0.132    0.363    5.405
  434.474   97.178    0.112    0.343    5.920
  434.724   98.841    0.092    0.338    6.063
  434.974  104.516    0.093    0.366    5.509
  435.224  107.380    0.163    0.385    5.203
  435.474  109.028    0.173    0.398    5.088
  435.724  109.616    0.172    0.391    5.368
  435.974  108.055    0.162    0.407    5.769
  436.224  105.069    0.143    0.409    6.293
  436.474   97.921    0.123    0.386    6.581
  436.724   90.780    0.100    0.318    5.605
  436.974   92.080    0.042    0.313    4.826
  437.224   98.800    0.027    0.364    4.038
  437.474  110.796    0.165    0.421    3.706
  437.724  121.500    0.208    0.455    3.741
  437.974  118.761    0.192    0.451    3.840
  438.224  114.045    0.184    0.432    4.160
  438.474  109.548    0.181    0.422    4.602
  438.724  105.689    0.160    0.411    5.023
  438.974  103.848    0.150    0.406    5.387
  439.224  103.933    0.137    0.405    5.617
  439.474  104.718    0.149    0.408    5.803
  439.724  103.266    0.142    0.412    5.831
  439.974  106.243    0.134    0.414    5.843
  440.224  108.231    0.142    0.413    5.685
  440.474  110.166    0.170    0.408    5.394
  440.724  111.519    0.167    0.402    5.001
  440.974  116.283    0.160    0.396    4.739
  441.224  121.946    0.148    0.394    4.605
  441.474  126.529    0.163    0.415    4.543
  441.724  127.193    0.175    0.439    4.448
  441.974  127.519    0.184    0.427    4.459
