~VERSION INFORMATION
 VERS.                 2.0:   CWLS LOG ASCII STANDARD -VERSION 2.0
 WRAP.                  NO:   ONE LINE PER DEPTH STEP
~WELL INFORMATION BLOCK
#MNEM.UNIT           DATA                    DESCRIPTION OF MNEMONIC
#---------    -------------------            -------------------------------
# Generated from Intellog Unique Number	CS_77_79/WELL/919
WELL.         NOVALTA WINEFRED               : Well_name    - WELL
LOC .         00/08-17-078-03W4/0            : Location     - LOCATION
UWI .         00/08-17-078-03W4/0            : Uwi          - UNIQUE WELL ID
ENTR.         JHS                            : Entered      - ENTERED BY
SRVC.         SCHLUMBERGER                   : Scn          - SERVICE COMPANY
STRT.M        150                            : top_depth    - START DEPTH
STOP.M        430                            : bot_depth    - STOP DEPTH
STEP.M        0.25                           : increment    - STEP LENGTH
 NULL. -999.2500:NULL Value
~CURVE INFORMATION BLOCK
#MNEM UNIT       ERCB CURVE CODE    CURVE DESCRIPTION
#-----------   ------------------   ----------------------------------
DEPT.M        00 001 00 00         : DEPTH        - DEPTH
DPHI.V/V      00 890 00 00         : PHID         - DENSITY POROSITY (LIMESTONE)
NPHI.V/V      00 330 00 00         : PHIN         - NEUTRON POROSITY (LIMESTONE)
GR  .API      00 310 00 00         : GR           - GAMMA RAY
ILD .OHMM     00 120 00 00         : RESD         - DEEP RESISTIVITY (DIL)
RHOB.KG/M3    00 350 00 00         : DENS         - BULK DENSITY
~PARAMETER INFORMATION
#MNEM.UNIT           DATA             DESCRIPTION OF MNEMONIC
#---------         -----------     ------------------------------
GL  .M        567                  : gl           - GROUND LEVEL ELEVATION
EREF.M        570                  : kb           - ELEVATION OF DEPTH REFERENCE
DATM.M        570                  : datum        - DATUM ELEVATION
TDD .M        428                  : tdd          - TOTAL DEPTH DRILLER
RUN .         ONE                  : Run          - RUN NUMBER
ENG .         BILL                 : Engineer     - RECORDING ENGINEER
WIT .         JIM                  : Witness      - WITNESSED BY
MUD .         GEL                  : Mud_type     - MUD TYPE
MATR.         LIMESTONE            : Logunit      - NEUTRON MATRIX
TMAX.C        25                   : BHT          - MAXIMUM RECORDED TEMPERATURE
BHTD.M        428                  : BHTDEP       - MAXIMUM RECORDED TEMPERATURE
MATR.         1                    : LOGUNIT      - NEUTRON MATRIX
RMT .C        25                   : MDTP         - TEMPERATURE OF MUD
NEUT.         1                    : NEUTRON      - NEUTRON TYPE
RESI.         0                    : RESIST       - RESISTIVITY TYPE
RMC .OHMM     0.25                 : RMC          - RESISTIVITY OF MUD CAKE
RMF .OHMM     0.25                 : RMF          - RESISTIVITY OF MUD FILTRATE
SUFT.C        15                   : SUFT         - SURFACE TEMPERATURE
~A  DEPTH     PHID     PHIN       GR     RESD     DENS
# ...
  296.000    0.231    0.452   99.316    6.254    0.000
  296.250    0.242    0.469  101.728    5.649    0.000
  296.500    0.252    0.467  104.741    4.898    0.000
  296.750    0.262    0.461  105.333    4.609    0.000
  297.000    0.267    0.457  108.350    4.250    0.000
  297.250    0.271    0.481  113.187    4.083    0.000
  297.500    0.265    0.510  113.166    3.764    0.000
  297.750    0.256    0.524  113.151    3.400    0.000
  298.000    0.249    0.514  114.947    3.334 2284.090
  298.250    0.247    0.521  112.499    3.550 2288.150
  298.500    0.248    0.501  110.056    3.938 2286.040
  298.750    0.265    0.472  102.751    4.460 2257.150
  299.000    0.283    0.435  100.910    4.748 2226.180
  299.250    0.291    0.417  106.961    5.056 2211.710
  299.500    0.278    0.431  106.336    5.165 2234.310
  299.750    0.266    0.479  100.853    5.389 2254.860
  300.000    0.296    0.413   91.200    4.987 2203.200
  300.250    0.295    0.422   90.001    5.271 2205.260
  300.500    0.293    0.419   85.203    6.224 2209.390
  300.750    0.300    0.409   80.404    6.825 2196.970
  301.000    0.304    0.419   82.805    7.214 2190.760
  301.250    0.299    0.437   85.806    7.213 2199.020
  301.500    0.282    0.437   87.007    6.951 2227.970
  301.750    0.271    0.444   89.409    6.823 2246.590
  302.000    0.238    0.436   93.609    6.698 2302.430
  302.250    0.226    0.421   97.811    6.575 2323.100
  302.500    0.224    0.415   98.412    6.697 2327.230
  302.750    0.225    0.413   95.413    6.948 2325.160
  303.000    0.226    0.421   90.014    7.209 2323.080
  303.250    0.225    0.431   85.815    7.343 2325.140
  303.500    0.225    0.438   84.617    7.619 2325.130
  303.750    0.229    0.439   87.617    7.761 2318.920
  304.000    0.235    0.425   92.419    7.618 2308.570
  304.250    0.242    0.416   94.220    7.478 2296.150
  304.500    0.242    0.416   94.821    7.206 2296.140
  304.750    0.236    0.419   94.822    7.074 2306.480
  305.000    0.237    0.421   93.023    7.073 2304.400
  305.250    0.260    0.419   86.425    7.073 2265.090
  305.500    0.276    0.398   84.026    7.204 2238.190
  305.750    0.258    0.391   88.827    7.338 2269.210
  306.000    0.234    0.402   96.628    7.338 2310.570
  306.250    0.230    0.413  102.629    7.337 2316.770
  306.500    0.231    0.407  102.630    7.202 2314.700
  306.750    0.235    0.393   97.232    7.070 2308.480
  307.000    0.230    0.399   93.633    6.813 2316.750
  307.250    0.223    0.425   91.834    6.212 2329.150
  307.500    0.223    0.459   91.235    5.164 2329.140
  307.750    0.236    0.472   92.436    4.373 2306.380
  308.000    0.258    0.488   92.437    3.568 2269.140
  308.250    0.272    0.513   91.238    2.966 2244.310
  308.500    0.274    0.526   90.639    2.512 2242.230
  308.750    0.278    0.525   91.241    2.333 2233.950
  309.000    0.277    0.534   90.642    2.248 2236.010
  309.250    0.276    0.532   87.043    2.333 2238.070
  309.500    0.278    0.522   82.844    2.376 2233.930
  309.750    0.281    0.508   80.445    2.332 2229.780
  310.000    0.278    0.519   84.646    2.332 2233.910
  310.250    0.266    0.537   91.847    2.375 2254.590
  310.500    0.254    0.555   95.449    2.419 2275.270
  310.750    0.247    0.548   94.850    2.510 2287.670
  311.000    0.246    0.513   91.251    2.753 2289.730
  311.250    0.241    0.451   89.452    3.133 2298.000
  311.500    0.242    0.415   89.453    3.565 2295.920
  311.750    0.242    0.390   86.454    4.288 2295.910
  312.000    0.234    0.403   85.256    4.879 2310.390
  312.250    0.225    0.422   92.457    5.157 2324.860
  312.500    0.222    0.412   91.858    5.450 2331.050
  312.750    0.222    0.389   90.059    5.552 2331.050
  313.000    0.225    0.372   90.060    5.551 2324.830
  313.250    0.231    0.364   91.261    5.867 2314.480
  313.500    0.241    0.403   91.862    6.087 2297.930
  313.750    0.248    0.428   90.664    5.866 2285.510
  314.000    0.237    0.439   90.665    5.448 2304.120
  314.250    0.242    0.445   99.066    4.876 2295.830
  314.500    0.248    0.448  104.467    4.613 2285.480
  314.750    0.245    0.449  102.668    4.206 2291.680
  315.000    0.223    0.435   94.869    4.053 2328.910
  315.250    0.218    0.413   93.070    3.906 2337.170
  315.500    0.212    0.404   99.072    3.764 2347.510
  315.750    0.207    0.427  102.073    3.695 2355.780
  316.000    0.210    0.455  102.674    3.627 2351.620
  316.250    0.216    0.483  103.275    3.560 2341.280
  316.500    0.220    0.500  101.476    3.560 2332.990
  316.750    0.225    0.494   96.077    3.495 2324.710
  317.000    0.230    0.468   95.478    3.430 2316.430
  317.250    0.228    0.484   97.280    3.430 2320.560
  317.500    0.231    0.498  100.281    3.430 2314.350
  317.750    0.236    0.479  102.082    3.625 2306.070
  318.000    0.242    0.456  100.883    4.360 2295.710
  318.250    0.246    0.426   96.684    5.054 2289.500
  318.500    0.236    0.409   97.286    5.542 2306.040
  318.750    0.224    0.389   97.887    5.751 2326.720
  319.000    0.216    0.409   96.688    5.857 2341.190
  319.250    0.214    0.437   94.289    5.750 2343.250
  319.500    0.222    0.424   91.890    5.966 2330.830
  319.750    0.230    0.400   88.291    6.190 2316.340
  320.000    0.127    0.390   84.692    7.044 2492.160
  320.250    0.102    0.329   78.694    7.583 2535.590
  320.500    0.091    0.269   69.094    8.471 2554.200
  320.750    0.216    0.273   73.896    9.290 2341.140
  321.000    0.268    0.300   79.297    9.463 2252.180
  321.250    0.286    0.292   81.098    9.818 2221.150
  321.500    0.300    0.269   80.499    9.817 2196.310
  321.750    0.326    0.251   78.701    9.637 2152.870
  322.000    0.346    0.246   78.702    8.950 2117.690
  322.250    0.348    0.286   79.903    8.312 2115.620
  322.500    0.321    0.325   79.904    7.303 2161.120
  322.750    0.299    0.350   75.705    6.185 2198.340
  323.000    0.286    0.363   70.906    5.047 2221.090
  323.250    0.270    0.356   77.507    4.196 2247.970
  323.500    0.262    0.402   86.508    3.488 2262.440
  323.750    0.279    0.437   94.310    3.239 2233.480
  324.000    0.300    0.365   89.511    3.424 2196.240
  324.250    0.320    0.314   75.712    3.968 2163.130
  324.500    0.314    0.290   68.513    4.516 2173.470
  324.750    0.304    0.316   66.715    5.045 2190.010
  325.000    0.307    0.329   64.315    5.138 2185.860
  325.250    0.310    0.348   58.316    4.599 2179.650
  325.500    0.316    0.360   52.318    4.116 2169.300
  325.750    0.320    0.346   45.719    3.617 2163.080
  326.000    0.311    0.337   42.720    3.422 2177.550
  326.250    0.303    0.320   42.121    3.119 2192.030
  326.500    0.302    0.307   37.322    3.119 2194.090
  326.750    0.298    0.325   41.523    3.119 2200.280
  327.000    0.297    0.345   50.524    3.177 2202.350
  327.250    0.301    0.342   51.726    3.236 2196.130
  327.500    0.301    0.344   47.527    3.236 2196.120
  327.750    0.293    0.331   44.528    3.357 2208.530
  328.000    0.286    0.316   43.929    3.420 2220.930
  328.250    0.292    0.328   42.730    3.419 2210.580
  328.500    0.294    0.328   45.131    3.357 2206.440
  328.750    0.298    0.322   49.933    3.356 2200.220
  329.000    0.302    0.314   49.934    3.419 2194.010
  329.250    0.293    0.307   45.135    3.482 2208.480
  329.500    0.279    0.308   49.336    3.613 2233.290
  329.750    0.265    0.307   62.537    3.890 2256.040
  330.000    0.250    0.310   74.538    4.111 2282.920
  330.250    0.236    0.317   79.340    4.187 2305.670
  330.500    0.257    0.327   74.541    4.345 2270.500
  330.750    0.281    0.342   72.142    4.265 2229.120
  331.000    0.282    0.347   73.343    4.186 2227.040
  331.250    0.273    0.348   70.344    4.034 2243.580
  331.500    0.264    0.349   74.546    3.888 2258.050
  331.750    0.262    0.354   76.346    3.746 2262.180
  332.000    0.266    0.384   75.748    3.746 2255.970
  332.250    0.274    0.384   71.549    3.677 2241.480
