~VERSION INFORMATION
 VERS.                 2.0:   CWLS LOG ASCII STANDARD -VERSION 2.0
 WRAP.                  NO:   ONE LINE PER DEPTH STEP
~WELL INFORMATION BLOCK
#MNEM.UNIT           DATA                    DESCRIPTION OF MNEMONIC
#---------    -------------------            -------------------------------
# Generated from Intellog Unique Number	CS_77_79/WELL/2969
WELL.         MESA PET                       : Well_name    - WELL
LOC .         00/06-31-078-10W4/0            : Location     - LOCATION
UWI .         00/06-31-078-10W4/0            : Uwi          - UNIQUE WELL ID
ENTR.         TIM                            : Entered      - ENTERED BY
SRVC.         SCHLUMBERGER                   : Scn          - SERVICE COMPANY
STRT.F        840                            : top_depth    - START DEPTH
STOP.F        1569.99                        : bot_depth    - STOP DEPTH
STEP.F        0.82                           : increment    - STEP LENGTH
 NULL. -999.2500:NULL Value
~CURVE INFORMATION BLOCK
#MNEM UNIT       ERCB CURVE CODE    CURVE DESCRIPTION
#-----------   ------------------   ----------------------------------
DEPT.F        00 001 00 00         : DEPTH        - DEPTH
GR  .API      00 310 00 00         : GR           - GAMMA RAY
NPHI.V/V      00 330 00 00         : PHIN         - NEUTRON POROSITY (SANDSTONE)
DPHI.V/V      00 890 00 00         : PHID         - DENSITY POROSITY (SANDSTONE)
ILD .OHMM     00 120 00 00         : RESD         - DEEP RESISTIVITY (DIL)
~PARAMETER INFORMATION
#MNEM.UNIT           DATA             DESCRIPTION OF MNEMONIC
#---------         -----------     ------------------------------
GL  .F        2128                 : gl           - GROUND LEVEL ELEVATION
EREF.F        2143                 : kb           - ELEVATION OF DEPTH REFERENCE
DATM.F        2143                 : datum        - DATUM ELEVATION
TDD .F        1610                 : tdd          - TOTAL DEPTH DRILLER
RUN .         ONE                  : Run          - RUN NUMBER
ENG .         BILL                 : Engineer     - RECORDING ENGINEER
WIT .         JIM                  : Witness      - WITNESSED BY
MUD .         GEL                  : Mud_type     - MUD TYPE
MATR.         SANDSTONE            : Logunit      - NEUTRON MATRIX
TMAX.F        71                   : BHT          - MAXIMUM RECORDED TEMPERATURE
BHTD.F        1610                 : BHTDEP       - MAXIMUM RECORDED TEMPERATURE
MATR.         1                    : LOGUNIT      - NEUTRON MATRIX
RMT .F        57                   : MDTP         - TEMPERATURE OF MUD
NEUT.         1                    : NEUTRON      - NEUTRON TYPE
RESI.         4.9                  : RESIST       - RESISTIVITY TYPE
RMC .OHMM     4.27                 : RMC          - RESISTIVITY OF MUD CAKE
RMF .OHMM     4.27                 : RMF          - RESISTIVITY OF MUD FILTRATE
SUFT.F        59                   : SUFT         - SURFACE TEMPERATURE
~A  DEPTH       GR     PHIN     PHID     RESD
  840.000  100.425    0.532    0.196    3.916
  840.820  100.383    0.533    0.213    3.909
  841.640  100.943    0.514    0.224    3.903
  842.461  100.335    0.509    0.237    3.898
  843.281   99.720    0.506    0.236    3.962
  844.101   97.924    0.499    0.230    3.957
  844.921   96.135    0.492    0.224    4.022
  845.741   93.758    0.487    0.214    4.091
  846.562   92.550    0.483    0.209    4.084
  847.382   90.173    0.484    0.209    4.079
  848.202   88.391    0.490    0.218    4.071
  849.022   83.659    0.493    0.224    4.140
  849.843   77.759    0.487    0.231    4.369
  850.663   80.080    0.472    0.224    4.609
  851.483   88.861    0.473    0.225    4.864
  852.303   88.826    0.484    0.226    5.132
  853.123   87.624    0.482    0.218    5.515
  853.944   86.422    0.474    0.216    5.933
  854.764   85.220    0.456    0.219    6.741
  855.584   82.250    0.415    0.227    8.095
  856.404   79.880    0.406    0.231    9.198
  857.224   76.329    0.392    0.236   10.068
  858.045   75.708    0.405    0.242    9.867
  858.865   76.855    0.437    0.257    9.143
  859.685   78.588    0.484    0.282    8.804
  860.505   85.607    0.517    0.354    8.468
  861.325   90.277    0.552    0.358    8.454
  862.146   90.250    0.433    0.328    8.444
  862.966   83.763    0.390    0.230    8.903
  863.786   70.223    0.377    0.239    9.227
  864.606   65.491    0.361    0.246   10.104
  865.427   64.883    0.340    0.255   11.063
  866.247   64.841    0.336    0.258   12.335
  867.067   64.821    0.357    0.236   12.784
  867.887   61.850    0.392    0.236   13.987
  868.707   57.132    0.413    0.249   14.236
  869.528   52.987    0.416    0.266   15.017
  870.348   54.721    0.415    0.279   15.266
  871.168   60.558    0.425    0.293   15.539
  871.988   64.641    0.429    0.303   15.796
  872.808   64.614    0.416    0.308   15.765
  873.629   62.237    0.416    0.309   15.739
  874.449   63.978    0.415    0.302   15.144
  875.269   67.474    0.410    0.289   14.037
  876.089   70.375    0.415    0.268   13.518
  876.909   69.753    0.429    0.230   12.763
  877.730   68.558    0.433    0.204   12.509
  878.550   67.343    0.407    0.249   12.489
  879.370   66.742    0.414    0.267   12.702
  880.190   67.294    0.431    0.268   13.153
  881.010   68.434    0.430    0.268   13.382
  881.831   69.001    0.424    0.271   13.858
  882.651   68.372    0.418    0.277   14.088
  883.471   68.358    0.415    0.285   14.589
  884.291   68.324    0.422    0.290   14.849
  885.112   68.303    0.446    0.293   15.101
  885.932   70.030    0.454    0.296   15.352
  886.752   71.764    0.461    0.298   15.613
  887.572   74.085    0.470    0.303   15.872
  888.392   75.812    0.471    0.307   16.135
  889.213   78.721    0.466    0.314   16.122
  890.033   79.874    0.462    0.303   16.090
  890.853   82.776    0.453    0.276   16.064
  891.673   86.271    0.447    0.268   15.745
  892.493   89.180    0.433    0.275   15.726
  893.314   90.914    0.425    0.276   15.125
  894.134   93.815    0.424    0.267   14.825
  894.954   94.969    0.424    0.267   14.530
  895.774   94.934    0.422    0.268   14.501
  896.594   93.733    0.419    0.271   14.472
  897.415   91.356    0.415    0.269   14.442
  898.235   93.097    0.404    0.255   14.431
  899.055   96.579    0.396    0.240   14.408
  899.875   95.964    0.396    0.228   14.121
  900.696   94.769    0.404    0.223   13.841
  901.516   91.211    0.414    0.226   13.560
  902.336   88.835    0.420    0.228   13.037
  903.156   84.690    0.417    0.234   12.783
  903.976   83.488    0.413    0.240   12.299
  904.797   86.983    0.410    0.236   11.618
  905.617   98.113    0.412    0.231   10.777
  906.437  102.202    0.414    0.223    9.278
  907.257  110.983    0.418    0.213    8.446
  908.077  113.297    0.444    0.194    7.689
  908.898  115.031    0.469    0.174    6.619
  909.718  118.533    0.485    0.157    5.915
  910.538  126.139    0.497    0.135    5.188
  911.358  129.635    0.500    0.110    4.634
  912.178  126.077    0.506    0.168    4.141
  912.999  123.694    0.517    0.210    3.986
  913.819  122.499    0.518    0.207    3.560
  914.639  120.710    0.521    0.196    3.362
  915.459  118.333    0.534    0.188    3.176
  916.280  113.601    0.546    0.184    3.113
  917.100  107.695    0.523    0.181    3.109
  917.920  104.144    0.513    0.181    3.281
  918.740  100.600    0.521    0.190    3.527
  919.560   94.106    0.502    0.234    4.007
  920.381   89.381    0.478    0.268    5.376
  921.201   86.410    0.443    0.271    7.081
  922.021   86.383    0.427    0.254    8.045
  922.841   86.355    0.420    0.232    9.485
  923.661   85.740    0.429    0.229   10.973
  924.482   85.119    0.436    0.236   11.368
  925.302   85.098    0.443    0.248   11.350
  926.122   86.238    0.440    0.258   11.124
  926.942   88.566    0.433    0.266   10.118
  927.762   92.055    0.428    0.278    9.740
  928.583   97.899    0.427    0.269    8.870
  929.403  107.267    0.429    0.246    7.927
  930.223  112.524    0.432    0.238    6.696
  931.043  113.664    0.442    0.203    6.096
  931.864  115.978    0.462    0.189    5.756
  932.684  118.893    0.470    0.171    5.749
  933.504  121.221    0.475    0.155    5.737
  934.324  121.187    0.475    0.138    5.946
  935.144  119.992    0.451    0.174    6.160
  935.965  115.847    0.439    0.205    6.621
  936.785  111.709    0.435    0.229    7.118
  937.605  108.158    0.434    0.242    8.084
  938.425  104.020    0.432    0.252    8.855
  939.245   99.875    0.424    0.261    9.519
  940.066   98.086    0.417    0.262    9.861
  940.886   99.226    0.412    0.258    9.845
  941.706  100.960    0.409    0.253    9.822
  942.526  102.107    0.405    0.246    9.630
  943.346  102.659    0.408    0.235    9.611
  944.167  100.276    0.438    0.226    9.595
  944.987   98.494    0.444    0.234    9.759
  945.807   94.356    0.443    0.243    9.925
  946.627   89.637    0.440    0.251   10.281
  947.448   80.208    0.445    0.255   10.850
  948.268   77.824    0.420    0.268   11.450
  949.088   81.327    0.412    0.281   11.857
  949.908   86.584    0.410    0.257   11.838
  950.728   90.073    0.436    0.249   11.607
  951.549   90.639    0.442    0.234   11.164
  952.369   91.786    0.450    0.219   10.741
  953.189   91.164    0.446    0.224   10.335
  954.009   88.774    0.447    0.231   10.130
  954.829   88.173    0.453    0.241   10.113
  955.650   88.145    0.455    0.242   10.093
  956.470   88.104    0.459    0.236   10.081
  957.290   88.076    0.463    0.226   10.057
  958.110   88.056    0.464    0.214   10.044
  958.930   88.028    0.465    0.215   10.020
  959.751   88.574    0.463    0.221   10.012
  960.571   88.553    0.456    0.226    9.996
  961.391   88.533    0.443    0.232    9.980
  962.211   89.078    0.430    0.237    9.960
  963.031   90.218    0.440    0.239    9.940
  963.852   90.792    0.466    0.247   10.105
  964.672   92.519    0.468    0.253   10.097
  965.492   93.085    0.469    0.253    9.888
  966.312   93.645    0.457    0.246    9.876
  967.133   93.023    0.455    0.239    9.499
  967.953   92.408    0.463    0.234    9.136
  968.773   92.968    0.473    0.233    8.962
  969.593   94.695    0.476    0.232    8.784
  970.413   95.842    0.471    0.231    8.766
  971.234   96.989    0.473    0.233    8.755
  972.054   96.961    0.477    0.235    8.574
  972.874   97.520    0.479    0.234    8.407
  973.694   97.493    0.483    0.233    8.089
  974.514   96.878    0.488    0.236    7.780
  975.335   95.089    0.489    0.242    7.626
  976.155   91.538    0.483    0.260    7.755
  976.975   91.510    0.473    0.264    8.808
  977.795   93.238    0.450    0.254    9.825
  978.615   93.797    0.439    0.250    9.988
  979.436   92.595    0.426    0.247    9.793
  980.256   91.386    0.434    0.246    9.598
  981.076   91.366    0.454    0.247    9.235
  981.896   91.338    0.458    0.251    8.724
