~VERSION INFORMATION
 VERS.                 2.0:   CWLS LOG ASCII STANDARD -VERSION 2.0
 WRAP.                  NO:   ONE LINE PER DEPTH STEP
~WELL INFORMATION BLOCK
#MNEM.UNIT           DATA                    DESCRIPTION OF MNEMONIC
#---------    -------------------            -------------------------------
# Generated from Intellog Unique Number	CW_73_75/WELL/288
WELL.         CALGAS ET AL MITSUE 02-06      : Well_name    - WELL
LOC .         00/02-06-074-04W5/0            : Location     - LOCATION
UWI .         00/02-06-074-04W5/0            : Uwi          - UNIQUE WELL ID
ENTR.         JAYE                           : Entered      - ENTERED BY
SRVC.         SCHLUMBERGER                   : Scn          - SERVICE COMPANY
DATE.         6 SEP 88                       : Date         - LOG DATE
STRT.M        365                            : top_depth    - START DEPTH
STOP.M        620                            : bot_depth    - STOP DEPTH
STEP.M        0.25                           : increment    - STEP LENGTH
 NULL. -999.2500:NULL Value
~CURVE INFORMATION BLOCK
#MNEM UNIT       ERCB CURVE CODE    CURVE DESCRIPTION
#-----------   ------------------   ----------------------------------
DEPT.M        00 001 00 00         : DEPTH        - DEPTH
ILD .OHMM     00 120 00 00         : RESD         - DEEP RESISTIVITY (DIL)
DPHI.V/V      00 890 00 00         : PHID         - DENSITY POROSITY (SANDSTONE)
NPHI.V/V      00 330 00 00         : PHIN         - NEUTRON POROSITY (SANDSTONE)
GR  .API      00 310 00 00         : GR           - GAMMA RAY
CALI.MM       00 280 01 00         : CAL          - CALIPER
~PARAMETER INFORMATION
#MNEM.UNIT           DATA             DESCRIPTION OF MNEMONIC
#---------         -----------     ------------------------------
GL  .M        596.5                : gl           - GROUND LEVEL ELEVATION
EREF.M        596.5                : kb           - ELEVATION OF DEPTH REFERENCE
DATM.M        596.5                : datum        - DATUM ELEVATION
TDD .M        1650                 : tdd          - TOTAL DEPTH DRILLER
RUN .         ONE                  : Run          - RUN NUMBER
ENG .         ASHTOM               : Engineer     - RECORDING ENGINEER
WIT .         WORK                 : Witness      - WITNESSED BY
BASE.         SLAVE LAKE           : Branch       - HOME BASE OF LOGGING UNIT
MUD .         GEL CHEM             : Mud_type     - MUD TYPE
MATR.         SANDSTONE            : Logunit      - NEUTRON MATRIX
TMAX.C        47                   : BHT          - MAXIMUM RECORDED TEMPERATURE
BHTD.M        1652.8               : BHTDEP       - MAXIMUM RECORDED TEMPERATURE
RMT .C        29                   : MDTP         - TEMPERATURE OF MUD
MUDD.KG/M     1150                 : MWT          - MUD DENSITY
NEUT.         1                    : NEUTRON      - NEUTRON TYPE
RESI.         0                    : RESIST       - RESISTIVITY TYPE
RM  .OHMM     0.73                 : RM           - RESISTIVITY OF MUD
RMC .OHMM     0                    : RMC          - RESISTIVITY OF MUD CAKE
RMF .OHMM     0.74                 : RMF          - RESISTIVITY OF MUD FILTRATE
SUFT.C        0                    : SUFT         - SURFACE TEMPERATURE
~A  DEPTH     RESD     PHID     PHIN       GR      CAL
# ...
  438.000    6.114    0.131    0.885   47.801  248.750
  438.250    6.905    0.026    0.796   42.668  246.216
  438.500    8.335    0.015    0.804   45.862  242.559
  438.750    9.071    0.068    0.857   52.056  236.453
  439.000    9.018    0.094    0.960   57.270  245.756
  439.250    7.103    0.165    1.004   59.729  255.263
  439.500    6.102    0.203    1.058   62.004  256.097
  439.750    5.310    0.205    1.044   64.770  256.828
  440.000    4.707    0.217    1.045   69.249  256.435
  440.250    4.314    0.233    1.049   67.728  250.432
  440.500    4.095    0.249    1.035   65.901  250.651
  440.750    3.945    0.258    1.028   65.360  251.587
  441.000    3.900    0.245    1.046   64.024  247.114
  441.250    4.016    0.252    1.044   62.564  241.722
  441.500    4.387    0.284    1.025   58.717  237.047
  441.750    4.846    0.321    1.014   57.135  235.532
  442.000    5.264    0.313    1.039   59.594  235.242
  442.250    5.441    0.302    1.056   62.237  235.158
  442.500    5.582    0.296    1.056   66.532  235.174
  442.750    5.610    0.299    1.051   68.257  235.393
  443.000    5.650    0.299    1.036   63.063  235.512
  443.250    5.680    0.305    1.016   56.338  235.634
  443.500    5.709    0.318    1.014   51.879  235.546
  443.750    5.718    0.326    1.017   49.746  235.562
  444.000    5.748    0.321    1.011   48.409  235.885
  444.250    5.799    0.310    1.001   48.235  236.003
  444.500    5.841    0.309    0.992   48.980  236.939
  444.750    5.860    0.308    0.985   51.378  238.078
  445.000    5.783    0.288    0.990   56.224  242.993
  445.250    5.654    0.250    1.027   60.703  248.213
  445.500    5.590    0.221    1.020   62.795  255.782
  445.750    5.608    0.204    1.001   66.418  258.043
  446.000    5.659    0.191    0.984   68.448  257.856
  446.250    5.709    0.197    0.976   65.581  255.221
  446.500    5.771    0.204    0.984   63.325  253.807
  446.750    5.790    0.202    0.987   63.458  253.929
  447.000    5.810    0.202    0.972   65.794  254.250
  447.250    5.840    0.207    0.983   67.274  254.370
  447.500    5.806    0.214    0.971   66.610  254.283
  447.750    5.729    0.221    0.977   66.987  253.790
  448.000    5.706    0.228    0.990   69.814  252.990
  448.250    5.704    0.242    1.001   70.375  252.291
  448.500    5.713    0.259    0.987   63.528  251.595
  448.750    5.753    0.270    0.974   59.925  251.306
  449.000    5.826    0.268    0.981   58.834  251.219
  449.250    5.868    0.231    0.995   63.313  251.644
  449.500    5.909    0.198    1.003   68.098  251.355
  449.750    5.907    0.193    1.009   68.354  250.657
  450.000    5.862    0.204    0.988   66.404  249.959
  450.250    5.763    0.204    0.974   67.394  249.671
  450.500    5.708    0.207    0.988   69.914  250.197
  450.750    5.632    0.213    0.994   67.475  250.519
  451.000    5.589    0.210    0.999   68.587  251.352
  451.250    5.526    0.205    1.013   69.761  252.187
  451.500    5.524    0.204    1.022   66.280  252.713
  451.750    5.532    0.202    1.015   66.658  252.832
  452.000    5.499    0.194    0.999   72.729  252.848
  452.250    5.518    0.187    0.994   71.576  252.661
  452.500    5.537    0.188    0.998   72.382  251.860
  452.750    5.504    0.197    0.999   74.045  250.551
  453.000    5.482    0.212    0.997   69.769  250.567
  453.250    5.460    0.209    0.988   68.677  252.217
  453.500    5.438    0.200    0.977   68.993  252.846
  453.750    5.406    0.206    0.993   69.371  253.680
  454.000    5.404    0.211    1.011   67.483  254.513
  454.250    5.382    0.221    1.016   64.370  254.732
  454.500    5.312    0.231    1.010   60.645  254.545
  454.750    5.070    0.221    0.997   64.758  253.951
  455.000    4.804    0.205    0.986   69.666  252.845
  455.250    4.645    0.203    1.002   74.023  251.330
  455.500    4.686    0.209    1.025   73.176  249.101
  455.750    4.943    0.223    1.051   68.471  240.037
  456.000    5.380    0.263    1.032   60.522  232.400
  456.250    5.877    0.289    0.992   53.124  229.866
  456.500    6.314    0.289    0.969   52.216  230.087
  456.750    6.709    0.288    0.981   52.225  230.310
  457.000    6.895    0.287    0.994   53.337  230.529
  457.250    6.618    0.286    0.994   53.287  230.851
  457.500    6.156    0.284    0.979   52.316  231.991
  457.750    5.757    0.279    0.973   54.654  232.111
  458.000    5.455    0.267    0.991   58.766  232.025
  458.250    5.246    0.258    1.017   58.225  232.143
  458.500    5.072    0.263    1.033   51.500  232.264
  458.750    4.978    0.284    1.049   49.673  232.177
  459.000    4.930    0.293    1.037   48.948  232.192
  459.250    4.901    0.299    1.027   45.958  232.517
  459.500    4.872    0.309    1.016   46.826  232.940
  459.750    4.916    0.315    0.994   47.815  233.162
  460.000    4.996    0.314    0.999   45.070  233.384
  460.250    5.051    0.306    1.012   48.509  233.810
  460.500    5.105    0.300    1.000   50.906  234.130
  460.750    5.142    0.298    0.991   48.957  233.739
  461.000    5.149    0.298    0.981   46.886  233.040
  461.250    5.119    0.298    0.987   50.569  232.753
  461.500    5.070    0.297    1.002   53.701  232.768
  461.750    5.134    0.298    0.992   52.977  232.683
  462.000    5.190    0.300    0.996   51.517  232.598
  462.250    5.150    0.301    0.988   51.282  232.613
  462.500    5.215    0.283    0.989   51.170  233.548
  462.750    5.360    0.289    1.015   53.139  235.402
  463.000    5.458    0.297    1.018   48.497  236.133
  463.250    5.610    0.293    1.011   45.935  236.559
  463.500    5.597    0.287    1.001   47.353  236.983
  463.750    5.616    0.280    0.994   51.404  237.613
  464.000    5.625    0.275    0.987   57.475  237.935
  464.250    5.685    0.272    0.997   59.628  238.361
  464.500    5.758    0.281    0.995   57.618  238.580
  464.750    5.788    0.276    0.990   55.301  238.596
  465.000    5.937    0.270    1.013   54.699  238.920
  465.250    6.046    0.266    1.011   58.566  239.652
  465.500    5.900    0.261    1.000   64.576  239.871
  465.750    5.727    0.251    1.023   67.463  239.991
  466.000    5.537    0.245    1.040   67.412  240.721
  466.250    5.394    0.259    1.035   56.892  242.678
  466.500    5.158    0.270    1.041   60.453  246.163
  466.750    4.951    0.250    1.037   60.463  251.894
  467.000    4.665    0.229    1.037   62.493  256.808
  467.250    4.307    0.213    1.055   65.564  262.335
  467.500    4.029    0.200    1.063   66.676  267.453
  467.750    3.726    0.198    1.054   67.788  272.164
  468.000    3.557    0.194    1.044   67.799  275.446
  468.250    3.602    0.205    1.032   67.564  276.382
  468.500    3.709    0.217    1.013   65.737  270.479
  468.750    3.721    0.224    0.996   60.237  271.313
  469.000    3.693    0.265    1.040   60.859  276.534
  469.250    3.685    0.294    1.057   63.073  278.591
  469.500    3.690    0.281    1.032   64.308  278.811
  469.750    3.703    0.208    0.998   64.807  276.484
  470.000    3.812    0.206    1.009   65.185  274.458
  470.250    3.991    0.221    1.000   65.317  270.086
  470.500    4.257    0.234    0.991   64.347  268.062
  470.750    4.540    0.228    1.023   64.786  267.773
  471.000    4.735    0.216    1.043   66.572  268.096
  471.250    4.813    0.214    1.015   66.582  268.215
  471.500    4.820    0.222    1.006   62.000  268.945
  471.750    4.757    0.225    1.009   63.357  271.308
  472.000    4.625    0.225    1.019   67.469  272.549
  472.250    4.439    0.224    1.043   71.398  272.464
  472.500    4.214    0.221    1.035   71.041  271.155
  472.750    4.045    0.219    1.021   69.887  269.540
  473.000    4.006    0.217    1.023   68.673  266.086
  473.250    4.140    0.216    1.017   67.825  259.368
  473.500    4.415    0.232    1.006   66.243  256.426
  473.750    4.877    0.252    1.022   62.824  255.830
  474.000    5.068    0.256    1.037   59.222  258.398
  474.250    5.104    0.241    1.035   58.804  262.701
