~VERSION INFORMATION
 VERS.                 2.0:   CWLS LOG ASCII STANDARD -VERSION 2.0
 WRAP.                  NO:   ONE LINE PER DEPTH STEP
~WELL INFORMATION BLOCK
#MNEM.UNIT           DATA                    DESCRIPTION OF MNEMONIC
#---------    -------------------            -------------------------------
# Generated from Intellog Unique Number	CS_77_79/WELL/3299
WELL.         ATCOR LTD.                     : Well_name    - WELL
LOC .         00/08-34-077-13W4/0            : Location     - LOCATION
UWI .         00/08-34-077-13W4/0            : Uwi          - UNIQUE WELL ID
ENTR.         JO                             : Entered      - ENTERED BY
SRVC.         SCHLUMBERGER                   : Scn          - SERVICE COMPANY
DATE.         05/22/92                       : Date         - LOG DATE
STRT.M        270                            : top_depth    - START DEPTH
STOP.M        495                            : bot_depth    - STOP DEPTH
STEP.M        0.25                           : increment    - STEP LENGTH
 NULL. -999.2500:NULL Value
~CURVE INFORMATION BLOCK
#MNEM UNIT       ERCB CURVE CODE    CURVE DESCRIPTION
#-----------   ------------------   ----------------------------------
DEPT.M        00 001 00 00         : DEPTH        - DEPTH
GR  .API      00 310 00 00         : GR           - GAMMA RAY
NPHI.V/V      00 330 00 00         : PHIN         - NEUTRON POROSITY (SANDSTONE)
DPHI.V/V      00 890 00 00         : PHID         - DENSITY POROSITY (SANDSTONE)
ILD .OHMM     00 120 00 00         : RESD         - DEEP RESISTIVITY (DIL)
~PARAMETER INFORMATION
#MNEM.UNIT           DATA             DESCRIPTION OF MNEMONIC
#---------         -----------     ------------------------------
GL  .M        670.6                : gl           - GROUND LEVEL ELEVATION
EREF.M        674.2                : kb           - ELEVATION OF DEPTH REFERENCE
DATM.M        674.2                : datum        - DATUM ELEVATION
TDD .M        503                  : tdd          - TOTAL DEPTH DRILLER
RUN .         ONE                  : Run          - RUN NUMBER
ENG .         BILL                 : Engineer     - RECORDING ENGINEER
WIT .         JIM                  : Witness      - WITNESSED BY
MUD .         GEL                  : Mud_type     - MUD TYPE
MATR.         SANDSTONE            : Logunit      - NEUTRON MATRIX
TMAX.C        21                   : BHT          - MAXIMUM RECORDED TEMPERATURE
BHTD.M        503                  : BHTDEP       - MAXIMUM RECORDED TEMPERATURE
RMT .C        20                   : MDTP         - TEMPERATURE OF MUD
MUDD.KG/M     1130                 : MWT          - MUD DENSITY
NEUT.         1                    : NEUTRON      - NEUTRON TYPE
RESI.         0                    : RESIST       - RESISTIVITY TYPE
RM  .OHMM     4.81                 : RM           - RESISTIVITY OF MUD
RMC .OHMM     0                    : RMC          - RESISTIVITY OF MUD CAKE
RMF .OHMM     5.58                 : RMF          - RESISTIVITY OF MUD FILTRATE
SUFT.C        15                   : SUFT         - SURFACE TEMPERATURE
~A  DEPTH       GR     PHIN     PHID     RESD
  270.000  100.225    0.512    0.256    4.095
  270.250   99.726    0.526    0.251    4.028
  270.500  101.651    0.520    0.246    3.895
  270.750  102.337    0.521    0.249    3.903
  271.000  101.233    0.511    0.256    3.844
  271.250  101.340    0.520    0.260    3.924
  271.500  103.265    0.516    0.264    4.011
  271.750  102.793    0.459    0.258    4.170
  272.000   97.419    0.432    0.253    4.423
  272.250   92.073    0.457    0.255    4.602
  272.500   89.123    0.488    0.259    4.704
  272.750   94.737    0.499    0.257    4.627
  273.000   89.970    0.517    0.250    4.306
  273.250   84.597    0.509    0.209    3.796
  273.500   78.644    0.425    0.172    4.096
  273.750   90.291    0.440    0.058    4.592
  274.000  101.333    0.468    0.099    5.054
  274.250  103.890    0.475    0.221    5.068
  274.500  107.027    0.411    0.242    4.719
  274.750  111.376    0.421    0.235    4.311
  275.000  112.695    0.468    0.244    4.090
  275.250  116.438    0.492    0.259    4.101
  275.500  117.151    0.512    0.273    4.860
  275.750  106.957    0.442    0.273    5.859
  276.000   99.792    0.417    0.299    9.333
  276.250  100.505    0.408    0.330   12.147
  276.500   92.102    0.381    0.362   12.631
  276.750   76.401    0.339    0.387   19.738
  277.000   66.206    0.320    0.400   25.639
  277.250   67.552    0.345    0.390   27.175
  277.500   67.633    0.372    0.300   25.779
  277.750   68.346    0.385    0.214   20.326
  278.000   76.963    0.402    0.188   16.038
  278.250   83.156    0.406    0.236   14.915
  278.500   82.658    0.401    0.261   14.422
  278.750   85.768    0.394    0.281   15.296
  279.000   91.961    0.402    0.278   15.905
  279.250   96.310    0.410    0.283   15.959
  279.500   95.811    0.421    0.281   14.862
  279.750   90.465    0.427    0.274   13.084
  280.000   85.118    0.420    0.267   11.734
  280.250   80.351    0.412    0.269   11.131
  280.500   74.398    0.402    0.277   11.798
  280.750   70.896    0.375    0.297   13.734
  281.000   74.612    0.346    0.317   14.281
  281.250   83.230    0.346    0.312   14.587
  281.500   97.301    0.377    0.286   12.851
  281.750  101.044    0.407    0.246   10.703
  282.000  107.237    0.435    0.237    9.436
  282.250  108.556    0.435    0.231   10.001
  282.500  101.998    0.444    0.237   11.205
  282.750   91.171    0.438    0.261   13.269
  283.000   77.314    0.420    0.293   20.011
  283.250   73.179    0.424    0.324   21.195
  283.500   71.468    0.431    0.345   23.762
  283.750   67.307    0.423    0.344   24.708
  284.000   72.894    0.413    0.330   25.254
  284.250   81.485    0.408    0.333   24.859
  284.500   80.986    0.406    0.335   24.038
  284.750   77.484    0.413    0.334   23.646
  285.000   74.535    0.426    0.342   23.726
  285.250   67.976    0.419    0.353   23.791
  285.500   69.901    0.414    0.345   24.754
  285.750   76.674    0.412    0.324   25.267
  286.000   85.897    0.410    0.311   26.290
  286.250   90.852    0.410    0.309   26.872
  286.500   95.834    0.412    0.309   26.433
  286.750  100.789    0.419    0.306   24.165
  287.000   93.018    0.423    0.297   21.686
  287.250   87.039    0.394    0.267   19.462
  287.500   79.874    0.380    0.255   19.157
  287.750   73.895    0.332    0.248   17.840
  288.000   76.453    0.367    0.249   16.298
  288.250   75.954    0.401    0.259   12.850
  288.500   72.425    0.412    0.259   11.540
  288.750   73.138    0.392    0.196   11.780
  289.000   79.911    0.387    0.147   12.040
  289.250   87.922    0.404    0.156   10.805
  289.500   97.119    0.410    0.170    9.690
  289.750  109.372    0.430    0.198    8.853
  290.000  117.383    0.487    0.233    7.950
  290.250  119.308    0.457    0.244    7.403
  290.500  121.233    0.439    0.232    6.768
  290.750  120.735    0.439    0.223    6.416
  291.000  116.021    0.481    0.215    5.656
  291.250  113.071    0.491    0.207    5.881
  291.500  116.235    0.455    0.187    6.354
  291.750  115.130    0.451    0.149    6.490
  292.000  120.112    0.451    0.169    6.508
  292.250  117.768    0.463    0.216    6.289
  292.500  113.001    0.480    0.229    5.965
  292.750  119.194    0.505    0.237    5.354
  293.000  124.755    0.505    0.231    4.804
  293.250  126.680    0.510    0.222    4.389
  293.500  126.814    0.519    0.220    3.869
  293.750  129.345    0.555    0.234    3.666
  294.000  128.873    0.531    0.252    3.542
  294.250  125.923    0.475    0.262    4.121
  294.500  119.944    0.432    0.268    5.064
  294.750  109.117    0.410    0.279    7.774
  295.000  104.982    0.398    0.288    9.038
  295.250  108.119    0.405    0.284   10.514
  295.500  112.522    0.413    0.254   12.015
  295.750  112.629    0.423    0.244   12.256
  296.000  110.285    0.426    0.254   12.527
  296.250  104.912    0.416    0.276   12.331
  296.500   93.506    0.418    0.289   11.908
  296.750  108.789    0.437    0.251    9.564
  297.000  113.137    0.479    0.135    7.130
  297.250  108.397    0.433    0.104    6.518
  297.500  106.686    0.435    0.066    6.908
  297.750  120.151    0.425    0.162    7.459
  298.000  116.016    0.416    0.223    8.518
  298.250  109.431    0.407    0.242    9.368
  298.500  105.296    0.410    0.256   10.706
  298.750  107.854    0.416    0.261   11.332
  299.000  107.355    0.419    0.264   12.243
  299.250  104.406    0.419    0.271   12.739
  299.500   99.059    0.414    0.286   13.511
  299.750   94.898    0.409    0.299   13.539
  300.000   91.369    0.407    0.309   13.345
  300.250  101.198    0.414    0.292   12.878
  300.500  106.786    0.423    0.256   11.557
  300.750  110.556    0.411    0.247   10.763
  301.000  108.818    0.397    0.253   10.036
  301.250   99.203    0.389    0.264   10.050
  301.500   83.555    0.386    0.263   11.068
  301.750   76.364    0.407    0.262   11.290
  302.000   72.229    0.412    0.276   11.747
  302.250   73.548    0.412    0.301   12.007
  302.500   67.569    0.406    0.313   12.039
  302.750   61.616    0.413    0.254   12.306
  303.000   65.359    0.452    0.239   12.105
  303.250   74.582    0.453    0.253   12.130
  303.500   77.719    0.389    0.277   12.171
  303.750   83.913    0.383    0.287   12.204
  304.000   95.533    0.396    0.253   12.465
  304.250  115.691    0.422    0.226   12.279
  304.500  117.643    0.448    0.227   12.078
  304.750  109.845    0.457    0.235    9.876
  305.000  103.866    0.437    0.243    6.349
  305.250   96.702    0.426    0.253    6.254
  305.500   90.116    0.425    0.262    7.138
  305.750   87.194    0.433    0.273    7.997
  306.000   92.148    0.442    0.267    8.959
  306.250   94.706    0.431    0.262   10.232
  306.500   94.867    0.428    0.265   10.653
  306.750   92.496    0.439    0.264   10.882
  307.000   91.998    0.464    0.253   10.711
  307.250   94.528    0.436    0.239   10.154
  307.500   97.692    0.464    0.238    8.940
  307.750  100.802    0.479    0.264    7.590
  308.000  106.390    0.473    0.266    7.068
  308.250  106.524    0.456    0.275    7.364
  308.500  100.544    0.429    0.275    7.512
  308.750   98.201    0.459    0.269    7.962
  309.000   97.123    0.468    0.265    8.450
  309.250   95.385    0.453    0.269    8.631
  309.500   86.403    0.457    0.285    8.822
  309.750   78.632    0.471    0.303    9.173
  310.000   75.104    0.462    0.320    9.716
  310.250   72.760    0.442    0.329   10.109
  310.500   66.781    0.447    0.341   10.922
  310.750   68.733    0.449    0.350   11.364
  311.000   73.688    0.437    0.350   11.832
  311.250   81.093    0.446    0.340   11.232
  311.500   82.412    0.481    0.335   11.041
  311.750   77.039    0.450    0.336    9.721
  312.000   68.056    0.421    0.328    7.808
  312.250   62.104    0.408    0.298    6.048
  312.500   51.883    0.392    0.299    6.775
  312.750   42.900    0.383    0.303    9.840
  313.000   45.431    0.385    0.310   10.617
  313.250   46.144    0.379    0.314   12.343
