~VERSION INFORMATION
 VERS.                 2.0:   CWLS LOG ASCII STANDARD -VERSION 2.0
 WRAP.                  NO:   ONE LINE PER DEPTH STEP
~WELL INFORMATION BLOCK
#MNEM.UNIT           DATA                    DESCRIPTION OF MNEMONIC
#---------    -------------------            -------------------------------
# Generated from Intellog Unique Number	CS_77_79/WELL/853
WELL.         CANADIAN OCCIDENTAL            : Well_name    - WELL
LOC .         00/05-06-077-02W4/0            : Location     - LOCATION
UWI .         00/05-06-077-02W4/0            : Uwi          - UNIQUE WELL ID
ENTR.         SP                             : Entered      - ENTERED BY
SRVC.         SCHLUMBERGER                   : Scn          - SERVICE COMPANY
STRT.M        243.84                         : top_depth    - START DEPTH
STOP.M        527.09                         : bot_depth    - STOP DEPTH
STEP.M        0.25                           : increment    - STEP LENGTH
 NULL. -999.2500:NULL Value
~CURVE INFORMATION BLOCK
#MNEM UNIT       ERCB CURVE CODE    CURVE DESCRIPTION
#-----------   ------------------   ----------------------------------
DEPT.M        00 001 00 00         : DEPTH        - DEPTH
GR  .API      00 310 00 00         : GR           - GAMMA RAY
DPHI.V/V      00 890 00 00         : PHID         - DENSITY POROSITY (SANDSTONE)
NPHI.V/V      00 330 00 00         : PHIN         - NEUTRON POROSITY (SANDSTONE)
ILD .OHMM     00 120 00 00         : RESD         - DEEP RESISTIVITY (DIL)
~PARAMETER INFORMATION
#MNEM.UNIT           DATA             DESCRIPTION OF MNEMONIC
#---------         -----------     ------------------------------
GL  .M        612.648              : gl           - GROUND LEVEL ELEVATION
EREF.M        615.696              : kb           - ELEVATION OF DEPTH REFERENCE
DATM.M        612.648              : datum        - DATUM ELEVATION
TDD .M        536.448              : tdd          - TOTAL DEPTH DRILLER
RUN .         ONE                  : Run          - RUN NUMBER
ENG .         BILL                 : Engineer     - RECORDING ENGINEER
WIT .         JIM                  : Witness      - WITNESSED BY
MUD .         GEL                  : Mud_type     - MUD TYPE
MATR.         SANDSTONE            : Logunit      - NEUTRON MATRIX
TMAX.C        23.8889              : BHT          - MAXIMUM RECORDED TEMPERATURE
BHTD.M        536.448              : BHTDEP       - MAXIMUM RECORDED TEMPERATURE
MATR.         1                    : LOGUNIT      - NEUTRON MATRIX
RMT .C        25                   : MDTP         - TEMPERATURE OF MUD
NEUT.         1                    : NEUTRON      - NEUTRON TYPE
RESI.         0                    : RESIST       - RESISTIVITY TYPE
RMC .OHMM     0.25                 : RMC          - RESISTIVITY OF MUD CAKE
RMF .OHMM     0.25                 : RMF          - RESISTIVITY OF MUD FILTRATE
SUFT.C        15                   : SUFT         - SURFACE TEMPERATURE
~A  DEPTH       GR     PHID     PHIN     RESD
# ...
  461.340   48.097    0.216    0.331    2.611
  461.590   51.448    0.253    0.340    2.610
  461.840   55.028    0.251    0.354    2.612
  462.090   59.885    0.270    0.370    2.615
  462.340   56.776    0.255    0.375    2.568
  462.590   52.674    0.271    0.365    2.574
  462.840   50.297    0.274    0.346    2.576
  463.090   54.965    0.264    0.331    2.570
  463.340   60.470    0.242    0.317    2.696
  463.590   65.960    0.235    0.306    2.775
  463.840   72.264    0.227    0.332    2.862
  464.090   76.109    0.196    0.351    2.953
  464.340   77.620    0.179    0.362    3.014
  464.590   75.730    0.199    0.353    2.771
  464.840   72.627    0.223    0.348    2.537
  465.090   62.564    0.253    0.358    2.381
  465.340   53.825    0.279    0.378    2.328
  465.590   48.546    0.292    0.371    2.335
  465.840   54.547    0.294    0.361    2.362
  466.090   62.212    0.277    0.360    2.441
  466.340   68.336    0.252    0.375    2.475
  466.590   60.026    0.248    0.395    2.462
  466.840   53.469    0.271    0.389    2.279
  467.090   48.592    0.309    0.385    2.221
  467.340   53.334    0.301    0.380    2.227
  467.590   62.065    0.278    0.395    2.231
  467.840   59.995    0.263    0.404    2.304
  468.090   55.583    0.248    0.403    2.372
  468.340   54.692    0.258    0.392    2.497
  468.590   59.298    0.273    0.382    2.614
  468.840   64.534    0.277    0.372    2.653
  469.090   69.375    0.250    0.384    2.692
  469.340   72.095    0.233    0.387    2.699
  469.590   73.525    0.217    0.388    2.635
  469.840   71.931    0.232    0.399    2.563
  470.090   71.184    0.246    0.402    2.420
  470.340   71.171    0.261    0.421    2.290
  470.590   70.087    0.275    0.428    2.263
  470.840   69.580    0.276    0.419    2.275
  471.090   68.242    0.286    0.412    2.350
  471.340   68.699    0.292    0.402    2.500
  471.590   69.929    0.281    0.391    2.643
  471.840   74.258    0.259    0.381    2.723
  472.090   77.204    0.242    0.396    2.723
  472.340   73.680    0.241    0.405    2.714
  472.590   71.385    0.226    0.396    2.682
  472.840   72.230    0.235    0.409    2.586
  473.090   74.452    0.240    0.425    2.384
  473.340   66.490    0.252    0.415    2.281
  473.590   61.110    0.289    0.415    2.325
  473.840   52.792    0.323    0.457    2.373
  474.090   47.702    0.328    0.468    2.408
  474.340   46.706    0.335    0.404    2.421
  474.590   41.364    0.311    0.376    2.376
  474.840   39.343    0.298    0.361    2.252
  475.090   40.612    0.293    0.341    2.131
  475.340   42.113    0.284    0.352    2.136
  475.590   43.141    0.304    0.370    2.266
  475.840   44.528    0.317    0.381    2.459
  476.090   49.574    0.295    0.354    2.659
  476.340   57.438    0.271    0.330    2.751
  476.590   68.300    0.239    0.312    2.770
  476.840   90.573    0.217    0.307    2.617
  477.090   77.223    0.241    0.333    2.290
  477.340   70.152    0.261    0.358    2.104
  477.590   64.553    0.277    0.370    2.035
  477.840   59.620    0.293    0.388    2.097
  478.090   63.078    0.297    0.396    2.162
  478.340   67.460    0.301    0.400    2.269
  478.590   69.840    0.303    0.390    2.388
  478.840   67.865    0.291    0.373    2.506
  479.090   66.202    0.275    0.357    2.588
  479.340   69.833    0.274    0.349    2.599
  479.590   71.182    0.264    0.343    2.527
  479.840   59.770    0.254    0.354    2.297
  480.090   49.510    0.245    0.375    2.086
  480.340   42.404    0.266    0.392    2.000
  480.590   34.819    0.312    0.397    1.902
  480.840   30.791    0.337    0.386    1.852
  481.090   30.095    0.335    0.380    1.856
  481.340   30.310    0.325    0.378    1.865
  481.590   33.279    0.324    0.381    1.929
  481.840   34.278    0.315    0.373    1.950
  482.090   34.474    0.293    0.360    2.016
  482.340   34.485    0.292    0.370    2.042
  482.590   34.164    0.290    0.380    2.086
  482.840   33.935    0.283    0.373    2.081
  483.090   33.425    0.283    0.364    2.021
  483.340   32.391    0.312    0.374    2.014
  483.590   32.121    0.317    0.386    2.013
  483.840   32.613    0.304    0.388    2.023
  484.090   32.948    0.300    0.374    1.981
  484.340   33.336    0.313    0.365    1.986
  484.590   34.336    0.311    0.368    2.029
  484.840   35.270    0.296    0.363    2.036
  485.090   36.865    0.307    0.375    2.103
  485.340   38.016    0.310    0.357    2.168
  485.590   41.357    0.297    0.336    2.232
  485.840   42.697    0.274    0.328    2.229
  486.090   46.390    0.272    0.352    2.210
  486.340   50.604    0.299    0.375    2.191
  486.590   45.672    0.288    0.369    2.131
  486.840   37.502    0.273    0.342    1.980
  487.090   33.200    0.299    0.356    1.972
  487.340   30.795    0.317    0.368    1.996
  487.590   29.921    0.307    0.368    2.119
  487.840   35.164    0.290    0.361    2.208
  488.090   39.681    0.307    0.362    2.326
  488.340   44.561    0.305    0.358    2.331
  488.590   52.535    0.293    0.382    2.221
  488.840   54.232    0.281    0.416    2.070
  489.090   48.300    0.275    0.422    1.926
  489.340   43.266    0.343    0.419    1.786
  489.590   39.929    0.344    0.424    1.762
  489.840   42.017    0.340    0.423    1.824
  490.090   46.376    0.320    0.408    1.881
  490.340   51.313    0.300    0.391    1.938
  490.590   55.553    0.292    0.383    2.040
  490.840   58.687    0.295    0.399    2.078
  491.090   59.089    0.279    0.415    2.073
  491.340   54.388    0.270    0.420    1.972
  491.590   45.006    0.289    0.396    1.974
  491.840   37.811    0.309    0.378    2.045
  492.090   42.719    0.316    0.380    2.228
  492.340   47.694    0.321    0.373    2.563
  492.590   51.294    0.295    0.362    2.896
  492.840   59.941    0.282    0.383    3.274
  493.090   84.476    0.270    0.419    3.520
  493.340   99.360    0.222    0.438    3.782
  493.590  110.853    0.174    0.471    4.029
  493.840  115.924    0.151    0.541    4.172
  494.090  110.812    0.170    0.512    4.222
  494.340   97.444    0.202    0.449    4.229
  494.590   87.009    0.206    0.390    4.243
  494.840   82.750    0.202    0.346    4.462
  495.090   81.665    0.189    0.368    4.745
  495.340   82.086    0.177    0.368    5.047
  495.590   85.966    0.205    0.370    5.279
  495.840   94.115    0.231    0.399    5.406
  496.090  102.330    0.252    0.581    5.404
  496.340  107.726    0.311    0.611    5.336
  496.590  113.153    0.316    0.596    5.181
  496.840  118.764    0.307    0.537    5.036
  497.090  123.825    0.234    0.522    4.978
  497.340  124.840    0.214    0.504    4.965
  497.590  120.465    0.143    0.493    4.871
  497.840  121.093    0.150    0.505    4.820
  498.090  123.973    0.160    0.516    4.795
  498.340  127.062    0.166    0.527    4.790
  498.590  122.558    0.201    0.552    4.896
  498.840  113.868    0.273    0.600    4.887
  499.090  105.105    0.371    0.633    4.664
  499.340  109.435    0.440    0.624    4.490
  499.590  117.966    0.360    0.607    4.225
  499.840  122.815    0.308    0.616    3.984
  500.090  126.734    0.230    0.612    3.774
  500.340  130.633    0.224    0.582    3.743
  500.590  134.421    0.183    0.576    3.938
  500.840  136.013    0.170    0.571    4.061
  501.090  133.117    0.175    0.556    4.492
  501.340  129.013    0.147    0.529    4.862
  501.590  122.477    0.177    0.517    5.483
  501.840  116.217    0.226    0.527    5.810
  502.090  111.016    0.267    0.530    6.128
  502.340  109.690    0.281    0.507    6.305
  502.590  111.619    0.268    0.453    6.316
  502.840  114.986    0.188    0.440    6.193
  503.090  116.228    0.148    0.452    6.082
  503.340  110.270    0.134    0.435    5.979
  503.590  105.647    0.141    0.411    5.956
  503.840  100.915    0.128    0.407    5.892
  504.090   97.219    0.112    0.424    5.798
  504.340   96.689    0.085    0.428    5.523
  504.590   99.213    0.058    0.468    5.305
