~VERSION INFORMATION
 VERS.                 2.0:   CWLS LOG ASCII STANDARD -VERSION 2.0
 WRAP.                  NO:   ONE LINE PER DEPTH STEP
~WELL INFORMATION BLOCK
#MNEM.UNIT           DATA                    DESCRIPTION OF MNEMONIC
#---------    -------------------            -------------------------------
# Generated from Intellog Unique Number	CN_91_93/WELL/4153
WELL.         CDN-SUP LIEGE                  : Well_name    - WELL
LOC .         00/06-13-092-21W4/0            : Location     - LOCATION
UWI .         00/06-13-092-21W4/0            : Uwi          - UNIQUE WELL ID
ENTR.         TIM                            : Entered      - ENTERED BY
SRVC.         SCHLUMBERGER                   : Scn          - SERVICE COMPANY
DATE.         01/22/92                       : Date         - LOG DATE
STRT.M        50                             : top_depth    - START DEPTH
STOP.M        250                            : bot_depth    - STOP DEPTH
STEP.M        0.25                           : increment    - STEP LENGTH
 NULL. -999.2500:NULL Value
~CURVE INFORMATION BLOCK
#MNEM UNIT       ERCB CURVE CODE    CURVE DESCRIPTION
#-----------   ------------------   ----------------------------------
DEPT.M        00 001 00 00         : DEPTH        - DEPTH
GR  .API      00 310 00 00         : GR           - GAMMA RAY
NPHI.V/V      00 330 00 00         : PHIN         - NEUTRON POROSITY (SANDSTONE)
DPHI.V/V      00 890 00 00         : PHID         - DENSITY POROSITY (SANDSTONE)
ILD .OHMM     00 120 00 00         : RESD         - DEEP RESISTIVITY (DIL)
~PARAMETER INFORMATION
#MNEM.UNIT           DATA             DESCRIPTION OF MNEMONIC
#---------         -----------     ------------------------------
GL  .M        545.44               : gl           - GROUND LEVEL ELEVATION
EREF.M        549.3                : kb           - ELEVATION OF DEPTH REFERENCE
DATM.M        549.3                : datum        - DATUM ELEVATION
TDD .M        251                  : tdd          - TOTAL DEPTH DRILLER
RUN .         ONE                  : Run          - RUN NUMBER
ENG .         JO                   : Engineer     - RECORDING ENGINEER
WIT .         TIM                  : Witness      - WITNESSED BY
MUD .         GEL                  : Mud_type     - MUD TYPE
MATR.         SANDSTONE            : Logunit      - NEUTRON MATRIX
TMAX.C        20.5                 : BHT          - MAXIMUM RECORDED TEMPERATURE
BHTD.M        251                  : BHTDEP       - MAXIMUM RECORDED TEMPERATURE
RMT .C        18                   : MDTP         - TEMPERATURE OF MUD
MUDD.KG/M     1107                 : MWT          - MUD DENSITY
NEUT.         1                    : NEUTRON      - NEUTRON TYPE
RESI.         0                    : RESIST       - RESISTIVITY TYPE
RM  .OHMM     6.44                 : RM           - RESISTIVITY OF MUD
RMC .OHMM     6.5                  : RMC          - RESISTIVITY OF MUD CAKE
RMF .OHMM     6.35                 : RMF          - RESISTIVITY OF MUD FILTRATE
SUFT.C        4                    : SUFT         - SURFACE TEMPERATURE
~A  DEPTH       GR     PHIN     PHID     RESD
# ...
  137.000   93.167    0.489    0.220    6.014
  137.250   92.570    0.479    0.187    5.903
  137.500   90.767    0.451    0.158    5.909
  137.750   90.179    0.462    0.155    5.913
  138.000   90.197    0.481    0.192    5.918
  138.250   89.002    0.488    0.209    5.923
  138.500   87.811    0.492    0.229    5.928
  138.750   87.829    0.495    0.230    5.933
  139.000   87.847    0.494    0.235    5.826
  139.250   86.045    0.501    0.240    5.613
  139.500   83.636    0.505    0.244    5.408
  139.750   78.805    0.499    0.249    5.309
  140.000   73.965    0.432    0.250    5.213
  140.250   67.309    0.413    0.253    5.525
  140.500   60.051    0.395    0.204    6.204
  140.750   60.069    0.400    0.179    6.576
  141.000   63.117    0.428    0.188    6.970
  141.250   69.808    0.443    0.237    7.109
  141.500   75.894    0.453    0.247    7.252
  141.750   72.878    0.447    0.251    7.399
  142.000   69.260    0.450    0.259    7.549
  142.250   70.492    0.485    0.266    7.557
  142.500   72.932    0.506    0.267    7.561
  142.750   77.808    0.497    0.253    7.567
  143.000   83.291    0.495    0.246    7.291
  143.250   84.523    0.515    0.246    6.892
  143.500   84.541    0.506    0.247    6.637
  143.750   83.346    0.506    0.246    6.153
  144.000   79.112    0.513    0.244    5.705
  144.250   73.063    0.512    0.248    5.291
  144.500   70.654    0.507    0.223    5.096
  144.750   68.852    0.490    0.125    4.910
  145.000   67.050    0.452    0.112    5.305
  145.250   66.462    0.465    0.134    5.624
  145.500   68.300    0.473    0.203    5.847
  145.750   71.958    0.488    0.171    6.198
  146.000   73.796    0.456    0.144    6.447
  146.250   75.028    0.442    0.192    6.575
  146.500   76.264    0.426    0.214    6.709
  146.750   79.320    0.432    0.234    6.712
  147.000   81.765    0.466    0.245    6.718
  147.250   84.210    0.478    0.245    6.854
  147.500   87.261    0.467    0.246    6.861
  147.750   86.673    0.462    0.243    7.002
  148.000   86.691    0.479    0.233    7.005
  148.250   83.671    0.481    0.230    7.150
  148.500   82.475    0.476    0.234    7.156
  148.750   83.100    0.482    0.238    7.160
  149.000   83.725    0.492    0.241    7.165
  149.250   84.354    0.500    0.236    7.174
  149.500   84.372    0.509    0.230    7.177
  149.750   84.390    0.511    0.213    7.049
  150.000   85.015    0.473    0.189    6.921
  150.250   85.640    0.446    0.211    6.927
  150.500   83.842    0.473    0.232    6.802
  150.750   82.040    0.485    0.248    6.808
  151.000   80.845    0.493    0.245    6.812
  151.250   78.432    0.463    0.234    6.951
  151.500   72.383    0.447    0.221    7.229
  151.750   65.732    0.447    0.178    7.664
  152.000   64.532    0.414    0.129    7.968
  152.250   65.156    0.385    0.113    8.127
  152.500   68.208    0.395    0.147    8.451
  152.750   78.540    0.402    0.155    8.788
  153.000   84.023    0.409    0.199    8.797
  153.250   87.079    0.420    0.218    8.638
  153.500   89.524    0.424    0.232    8.319
  153.750   87.111    0.425    0.236    7.568
  154.000   82.882    0.427    0.238    7.018
  154.250   82.298    0.515    0.237    6.509
  154.500   87.165    0.492    0.236    6.267
  154.750   92.648    0.481    0.233    5.924
  155.000   94.481    0.483    0.234    5.706
  155.250   92.679    0.483    0.234    5.499
  155.500   89.057    0.471    0.211    5.399
  155.750   81.795    0.438    0.135    5.402
  156.000   83.026    0.415    0.076    5.306
  156.250   94.572    0.475    0.111    5.211
  156.500  100.666    0.491    0.209    5.214
  156.750   98.257    0.493    0.242    5.119
  157.000   95.848    0.486    0.232    5.124
  157.250   93.440    0.476    0.230    5.128
  157.500   92.240    0.468    0.234    5.231
  157.750   89.831    0.468    0.240    5.338
  158.000   86.820    0.468    0.245    5.550
  158.250   84.411    0.466    0.166    5.883
  158.500   81.998    0.458    0.100    6.001
  158.750   82.016    0.453    0.094    6.360
  159.000   85.674    0.456    0.112    6.614
  159.250   89.939    0.468    0.210    6.621
  159.500   91.778    0.480    0.231    6.259
  159.750   93.009    0.489    0.241    5.916
  160.000   93.032    0.479    0.237    5.807
  160.250   93.050    0.485    0.235    5.596
  160.500   92.461    0.503    0.239    5.494
  160.750   91.873    0.496    0.239    5.395
  161.000   90.677    0.482    0.218    5.399
  161.250   88.880    0.488    0.203    5.402
  161.500   87.078    0.501    0.209    5.514
  161.750   87.091    0.485    0.221    5.516
  162.000   85.896    0.479    0.222    5.737
  162.250   82.274    0.495   -0.007    6.081
  162.500   78.045    0.492    0.008    6.445
  162.750   74.427    0.450    0.093    7.098
  163.000   75.047    0.424    0.209    7.668
  163.250   76.886    0.416    0.231    8.284
  163.500   79.937    0.418    0.237    8.781
  163.750   83.600    0.427    0.238    8.622
  164.000   86.045    0.470    0.235    7.999
  164.250   87.276    0.501    0.231    7.702
  164.500   87.906    0.493    0.228    7.278
  164.750   88.530    0.482    0.227    6.748
  165.000   89.766    0.465    0.226    6.379
  165.250   90.382    0.461    0.223    6.387
  165.500   92.220    0.475    0.219    6.390
  165.750   94.665    0.490    0.214    6.395
  166.000   97.110    0.508    0.218    6.399
  166.250   95.915    0.523    0.228    6.405
  166.500   91.690    0.504    0.237    6.412
  166.750   88.670    0.444    0.238    6.670
  167.000   84.442    0.429    0.234    6.673
  167.250   82.033    0.436    0.234    6.940
  167.500   78.411    0.446    0.235    7.218
  167.750   79.035    0.456    0.227    7.361
  168.000   82.694    0.453    0.170    7.509
  168.250   78.465    0.420    0.001    7.661
  168.500   79.099    0.379    0.034    7.669
  168.750   83.966    0.380    0.088    7.529
  169.000   89.449    0.442    0.122    7.396
  169.250   93.103    0.471    0.150    7.259
  169.500   95.547    0.498    0.164    7.127
  169.750   97.997    0.504    0.172    6.869
  170.000   98.617    0.499    0.167    6.743
  170.250   98.640    0.499    0.161    6.749
  170.500   98.653    0.500    0.168    6.628
  170.750   98.064    0.499    0.180    6.386
  171.000   97.480    0.494    0.190    6.270
  171.250   96.285    0.489    0.106    6.158
  171.500   95.090    0.485    0.049    6.045
  171.750   93.288    0.483    0.043    5.934
  172.000   92.092    0.515    0.095    5.827
  172.250   92.717    0.527    0.146    5.723
  172.500   93.948    0.541    0.167    5.726
  172.750   95.180    0.511    0.198    5.842
  173.000   92.165    0.490    0.219    6.436
  173.250   86.116    0.454    0.223    6.952
  173.500   78.246    0.412    0.238    7.953
  173.750   67.344    0.378    0.262    9.454
  174.000   62.513    0.341    0.280   10.817
  174.250   64.351    0.354    0.283   12.615
  174.500   64.976    0.381    0.275   14.714
  174.750   61.960    0.373    0.267   16.516
  175.000   60.154    0.357    0.269   18.192
  175.250   57.745    0.360    0.203   19.274
  175.500   56.550    0.360    0.070   20.428
  175.750   55.359    0.335    0.109   21.247
  176.000   54.159    0.358    0.172   21.265
  176.250   52.964    0.412    0.223   20.881
  176.500   51.162    0.423    0.244   19.738
  176.750   50.573    0.366    0.270   19.010
  177.000   61.516    0.333    0.128   17.296
  177.250   73.668    0.385    0.115   16.346
  177.500   82.791    0.419    0.147   14.873
  177.750   86.450    0.426    0.173   14.053
  178.000   87.681    0.437    0.207   13.278
  178.250   86.481    0.447    0.227   11.628
  178.500   81.646    0.419    0.230   11.201
  178.750   76.208    0.409    0.235   10.586
  179.000   78.042    0.393    0.235   10.005
  179.250   84.131    0.414    0.217    9.456
  179.500   85.367    0.427    0.209    9.111
  179.750   85.381    0.437    0.229    8.942
  180.000   80.545    0.443    0.215    9.300
  180.250   72.676    0.441    0.221    9.486
