~VERSION INFORMATION
 VERS.                 2.0:   CWLS LOG ASCII STANDARD -VERSION 2.0
 WRAP.                  NO:   ONE LINE PER DEPTH STEP
~WELL INFORMATION BLOCK
#MNEM.UNIT           DATA                    DESCRIPTION OF MNEMONIC
#---------    -------------------            -------------------------------
# Generated from Intellog Unique Number	CC_84_87/WELL/1163
NULL.         -999.25                        : NULL_VALUE
WELL.         PCI PCEJ HANGST                : Well_name    - WELL              
LOC .         07-21-084-10W4                 : Location     - LOCATION          
UWI .         00/07-21-084-10W400            : Uwi          - UNIQUE WELL ID    
ENTR.         JHS                            : Entered      - ENTERED BY        
SRVC.         SCHLUMBERGER                   : Scn          - SERVICE COMPANY   
DATE.         21 FEB 86                      : Date         - LOG DATE
STRT.M        150                            : top_depth    - START DEPTH       
STOP.M        389.996                        : bot_depth    - STOP DEPTH        
STEP.M        0.3                            : increment    - STEP LENGTH       
~CURVE INFORMATION BLOCK
#MNEM UNIT       ERCB CURVE CODE    CURVE DESCRIPTION
#-----------   ------------------   ----------------------------------
DEPT.M        00 001 00 00         : DEPTH        - DEPTH                       
DPHI.V/V      00 890 00 00         : PHID         - DENSITY POROSITY (LIMESTONE)
NPHI.V/V      00 330 00 00         : PHIN         - NEUTRON POROSITY (LIMESTONE)
GR  .API      00 310 00 00         : GR           - GAMMA RAY                   
ILD .OHMM     00 120 00 00         : RESD         - DEEP RESISTIVITY (DIL)      
~PARAMETER INFORMATION       
#MNEM.UNIT           DATA             DESCRIPTION OF MNEMONIC
#---------         -----------     ------------------------------
GL  .M        633.5                : gl           - GROUND LEVEL ELEVATION      
EREF.M        637                  : kb           - ELEVATION OF DEPTH REFERENCE
DATM.M        637                  : datum        - DATUM ELEVATION             
TDD .M        399                  : tdd          - TOTAL DEPTH DRILLER         
RUN .         ONE                  : Run          - RUN NUMBER                  
ENG .         BILL                 : Engineer     - RECORDING ENGINEER          
WIT .         JIM                  : Witness      - WITNESSED BY                
MUD .         GEL                  : Mud_type     - MUD TYPE                    
MATR.         LIMESTONE            : Logunit      - NEUTRON MATRIX              
TMAX.C        15                   : BHT          - MAXIMUM RECORDED TEMPERATURE
BHTD.M        399                  : BHTDEP       - MAXIMUM RECORDED TEMPERATURE
MATR.         1                    : LOGUNIT      - NEUTRON MATRIX              
RMT .C        25                   : MDTP         - TEMPERATURE OF MUD          
NEUT.         1                    : NEUTRON      - NEUTRON TYPE                
RESI.         0                    : RESIST       - RESISTIVITY TYPE            
RMC .OHMM     0.25                 : RMC          - RESISTIVITY OF MUD CAKE     
RMF .OHMM     0.25                 : RMF          - RESISTIVITY OF MUD FILTRATE 
SUFT.C        15                   : SUFT         - SURFACE TEMPERATURE         
~A  DEPTH     PHID     PHIN       GR     RESD
# ...
  202.201    0.289    0.586  106.002    3.285
  202.501    0.294    0.558  100.602    9.669
  202.801    0.325    0.391   96.411   18.202
  203.101    0.329    0.395   86.796   22.332
  203.401    0.344    0.411   86.224   24.503
  203.701    0.341    0.422   89.263   22.736
  204.001    0.343    0.430   86.879   23.153
  204.301    0.343    0.432   91.125   24.478
  204.601    0.341    0.434   94.165   21.479
  204.901    0.328    0.462   96.609   18.501
  205.201    0.349    0.453  107.482   22.280
  205.501    0.355    0.424  101.483   26.831
  205.801    0.363    0.433   94.880   27.837
  206.101    0.349    0.424   95.512   24.428
  206.401    0.321    0.417   97.949   17.467
  206.701    0.305    0.438   97.977   13.707
  207.001    0.292    0.443  111.865   11.807
  207.301    0.264    0.454  117.317    7.410
  207.601    0.270    0.446  113.128    6.036
  207.901    0.339    0.420   96.278    9.791
  208.201    0.367    0.467   85.461   21.393
  208.501    0.354    0.456   86.694   24.820
  208.801    0.345    0.419   99.981   24.811
  209.101    0.329    0.403  113.265   23.898
  209.401    0.347    0.408  112.692   21.764
  209.701    0.334    0.406   91.624   19.457
  210.001    0.319    0.411   77.186   17.722
  210.301    0.354    0.423   78.420   16.756
  210.601    0.342    0.427   89.298   15.546
  210.901    0.299    0.417   94.750   14.427
  211.201    0.285    0.405  101.406   12.898
  211.501    0.280    0.394  102.637   11.318
  211.801    0.270    0.424   94.830   10.309
  212.101    0.279    0.410   72.560   16.413
  212.401    0.270    0.407   72.587   16.106
  212.701    0.298    0.437   81.053   12.639
  213.001    0.321    0.441   80.476   10.105
  213.301    0.339    0.432   71.466   18.674
  213.601    0.350    0.417   70.286   20.110
  213.901    0.335    0.418   73.336   17.647
  214.201    0.323    0.444   75.772   12.854
  214.501    0.323    0.443   76.395   11.072
  214.801    0.335    0.450   76.424    9.189
  215.101    0.324    0.478   80.067   10.081
  215.401    0.277    0.436   83.110   14.900
  215.701    0.146    0.329   75.302   14.894
  216.001    0.164    0.326   77.141   13.822
  216.301    0.232    0.449   80.781   10.845
  216.601    0.315    0.431   89.247   11.466
  216.901    0.303    0.424   96.507    8.832
  217.201    0.275    0.435  109.795    7.467
  217.501    0.264    0.438  111.028    6.196
  217.801    0.252    0.429  110.453    4.954
  218.101    0.246    0.436  103.849    5.966
  218.401    0.291    0.468   85.797   13.281
  218.701    0.339    0.487   77.990   17.883
  219.001    0.362    0.448   75.610   21.536
  219.301    0.365    0.445   75.639   24.523
  219.601    0.367    0.445   78.073   24.978
  219.901    0.365    0.449   80.513   24.970
  220.201    0.354    0.452   81.143   24.047
  220.501    0.341    0.446   84.184   21.904
  220.801    0.339    0.469   89.030   18.177
  221.101    0.327    0.476   92.074   15.656
  221.401    0.316    0.486   93.308   15.944
  221.701    0.324    0.495   98.756   14.255
  222.001    0.284    0.459  117.469    6.052
  222.301    0.261    0.434  118.704    6.279
  222.601    0.256    0.442  115.114    8.146
  222.901    0.260    0.433  112.127    8.773
  223.201    0.266    0.446  112.760    7.843
  223.501    0.267    0.450  115.199    7.840
  223.801    0.273    0.447  114.620    9.096
  224.101    0.297    0.454  109.223   11.370
  224.401    0.308    0.445  102.621   11.797
  224.701    0.314    0.435   99.034   12.705
  225.001    0.316    0.432  101.471   12.011
  225.301    0.315    0.431  100.899   12.232
  225.601    0.319    0.423   95.501   13.420
  225.901    0.320    0.416   90.707   13.669
  226.201    0.311    0.406   86.516   13.414
  226.501    0.299    0.424   87.748   11.131
  226.801    0.209    0.449   84.762    9.410
  227.101    0.166    0.407   70.929   12.438
  227.401    0.226    0.398   59.505   16.749
  227.701    0.346    0.408   53.512   19.073
  228.001    0.345    0.387   49.317   20.163
  228.301    0.338    0.393   49.348   20.920
  228.601    0.340    0.401   50.578   21.706
  228.901    0.335    0.411   50.608   20.906
  229.201    0.324    0.419   54.251   19.043
  229.501    0.340    0.422   57.894   20.127
  229.801    0.345    0.421   56.714   21.279
  230.101    0.340    0.438   53.126   21.271
  230.401    0.342    0.446   54.960   20.871
  230.701    0.336    0.417   58.606   20.102
  231.001    0.326    0.403   61.647   18.309
  231.301    0.318    0.438   62.879   18.303
  231.601    0.284    0.376   56.277   19.712
  231.901    0.107    0.225   50.276   20.073
  232.201    0.210    0.290   58.139   18.977
  232.501    0.310    0.401   66.605   17.285
  232.801    0.328    0.418   67.840   15.168
  233.101    0.316    0.420   70.883   14.608
  233.401    0.303    0.424   71.516   13.810
  233.701    0.322    0.423   73.947   13.056
  234.001    0.312    0.423   80.607   11.246
  234.301    0.284    0.414   90.883    9.160
  234.601    0.237    0.408  110.191    7.324
  234.901    0.224    0.456  117.452    5.965
  235.201    0.220    0.476  117.485    5.853
  235.501    0.216    0.453  118.110    5.851
  235.801    0.214    0.453  112.116    6.071
  236.101    0.214    0.465  113.948    6.539
  236.401    0.234    0.473  112.768    7.309
  236.701    0.249    0.460  104.964    8.967
  237.001    0.245    0.432  101.372    8.963
  237.301    0.217    0.423  110.441    8.164
  237.601    0.209    0.441  115.894    6.173
  237.901    0.220    0.467  115.324    6.648
  238.201    0.218    0.463  117.157    6.169
  238.501    0.215    0.461  119.595    5.216
  238.801    0.211    0.480  122.030    4.840
  239.101    0.217    0.530  113.623    4.838
  239.401    0.231    0.519  111.238    5.020
  239.701    0.247    0.490  111.868    4.834
  240.001    0.258    0.465  113.101    4.744
  240.301    0.262    0.470  111.319    4.402
  240.601    0.248    0.492  111.951    3.936
  240.901    0.248    0.557  105.351    3.454
  241.201    0.265    0.545  103.571    3.326
  241.501    0.294    0.504   92.747    3.582
  241.801    0.323    0.469   75.901   13.683
  242.101    0.338    0.427   69.901   16.173
  242.401    0.342    0.427   68.120   17.097
  242.701    0.345    0.444   65.741   18.758
  243.001    0.343    0.448   65.175   18.752
  243.301    0.347    0.445   65.799   18.399
  243.601    0.354    0.450   61.604   17.720
  243.901    0.363    0.452   55.001   17.387
  244.201    0.360    0.449   55.633   17.061
  244.501    0.353    0.463   56.261   17.055
  244.801    0.361    0.472   53.885   17.050
  245.101    0.375    0.446   52.704   17.365
  245.401    0.371    0.446   53.935   17.686
  245.701    0.356    0.451   56.378   18.010
  246.001    0.356    0.445   58.207   18.345
  246.301    0.362    0.428   54.619   18.339
  246.601    0.349    0.431   55.855   18.333
  246.901    0.339    0.453   58.895   18.325
  247.201    0.344    0.454   57.115   18.317
  247.501    0.349    0.458   55.940   18.314
  247.801    0.350    0.432   58.380   18.306
  248.101    0.351    0.431   62.019   18.302
  248.401    0.349    0.442   60.841   18.295
  248.701    0.341    0.432   59.062   18.633
  249.001    0.317    0.455   57.882   20.445
  249.301    0.242    0.478   54.294   24.166
  249.601    0.187    0.385   49.501   29.102
  249.901    0.090    0.213   51.337   25.065
  250.201    0.120    0.356   60.403   19.308
  250.501    0.311    0.423   63.445   17.915
  250.801    0.337    0.445   69.499   17.910
  251.101    0.331    0.456   72.540   17.905
  251.401    0.338    0.445   64.735   17.896
  251.701    0.340    0.437   64.766   17.560
  252.001    0.333    0.441   67.804   17.231
  252.301    0.329    0.468   67.226   16.909
  252.601    0.326    0.446   67.861   16.902
  252.901    0.307    0.422   69.094   17.215
  253.201    0.303    0.439   66.714   17.861
  253.501    0.323    0.465   61.312   18.191
  253.801    0.323    0.465   57.118   17.849
  254.101    0.287    0.455   57.151   17.516
