~VERSION INFORMATION
 VERS.                 2.0:   CWLS LOG ASCII STANDARD -VERSION 2.0
 WRAP.                  NO:   ONE LINE PER DEPTH STEP
~WELL INFORMATION BLOCK
#MNEM.UNIT           DATA                    DESCRIPTION OF MNEMONIC
#---------    -------------------            -------------------------------
# Generated from Intellog Unique Number	CS_77_79/WELL/842
WELL.         DOME PETROLEUM LIMITED         : Well_name    - WELL
LOC .         00/02-25-077-10W4/0            : Location     - LOCATION
UWI .         00/02-25-077-10W4/0            : Uwi          - UNIQUE WELL ID
ENTR.         SP                             : Entered      - ENTERED BY
SRVC.         SCHLUMBERGER                   : Scn          - SERVICE COMPANY
STRT.M        190                            : top_depth    - START DEPTH
STOP.M        430                            : bot_depth    - STOP DEPTH
STEP.M        0.25                           : increment    - STEP LENGTH
 NULL. -999.2500:NULL Value
~CURVE INFORMATION BLOCK
#MNEM UNIT       ERCB CURVE CODE    CURVE DESCRIPTION
#-----------   ------------------   ----------------------------------
DEPT.M        00 001 00 00         : DEPTH        - DEPTH
GR  .API      00 310 00 00         : GR           - GAMMA RAY
DPHI.V/V      00 890 00 00         : PHID         - DENSITY POROSITY (LIMESTONE)
NPHI.V/V      00 330 00 00         : PHIN         - NEUTRON POROSITY (LIMESTONE)
ILD .OHMM     00 120 00 00         : RESD         - DEEP RESISTIVITY (DIL)
~PARAMETER INFORMATION
#MNEM.UNIT           DATA             DESCRIPTION OF MNEMONIC
#---------         -----------     ------------------------------
GL  .M        610.6                : gl           - GROUND LEVEL ELEVATION
EREF.M        614.26               : kb           - ELEVATION OF DEPTH REFERENCE
DATM.M        610.6                : datum        - DATUM ELEVATION
TDD .M        450.3                : tdd          - TOTAL DEPTH DRILLER
RUN .         ONE                  : Run          - RUN NUMBER
ENG .         BILL                 : Engineer     - RECORDING ENGINEER
WIT .         JIM                  : Witness      - WITNESSED BY
MUD .         GEL                  : Mud_type     - MUD TYPE
MATR.         LIMESTONE            : Logunit      - NEUTRON MATRIX
TMAX.C        22                   : BHT          - MAXIMUM RECORDED TEMPERATURE
BHTD.M        450.3                : BHTDEP       - MAXIMUM RECORDED TEMPERATURE
MATR.         1                    : LOGUNIT      - NEUTRON MATRIX
RMT .C        25                   : MDTP         - TEMPERATURE OF MUD
NEUT.         1                    : NEUTRON      - NEUTRON TYPE
RESI.         0                    : RESIST       - RESISTIVITY TYPE
RMC .OHMM     0.25                 : RMC          - RESISTIVITY OF MUD CAKE
RMF .OHMM     0.25                 : RMF          - RESISTIVITY OF MUD FILTRATE
SUFT.C        15                   : SUFT         - SURFACE TEMPERATURE
~A  DEPTH       GR     PHID     PHIN     RESD
# ...
  364.000   97.151    0.225    0.448    3.253
  364.250   98.387    0.225    0.469    3.250
  364.500  100.859    0.220    0.487    3.247
  364.750  101.483    0.217    0.480    3.243
  365.000  102.725    0.220    0.476    3.180
  365.250  101.536    0.223    0.483    3.178
  365.500   99.728    0.225    0.475    3.173
  365.750  100.366    0.226    0.473    3.233
  366.000  100.994    0.229    0.482    3.355
  366.250  101.632    0.233    0.484    3.418
  366.500  101.043    0.222    0.479    3.616
  366.750  101.066    0.203    0.450    3.826
  367.000   98.648    0.189    0.437    4.127
  367.250   90.745    0.198    0.426    4.624
  367.500   85.893    0.204    0.416    5.281
  367.750   90.187    0.204    0.412    6.031
  368.000   92.645    0.193    0.408    6.757
  368.250   88.409    0.174    0.392    7.285
  368.500   83.547    0.153    0.391    7.422
  368.750   76.255    0.167    0.387    7.852
  369.000   71.400    0.210    0.379    8.308
  369.250   67.765    0.271    0.364    8.790
  369.500   64.129    0.272    0.363    9.300
  369.750   65.374    0.267    0.375    9.654
  370.000   66.620    0.251    0.387    9.830
  370.250   67.255    0.240    0.387   10.015
  370.500   66.669    0.238    0.386   10.199
  370.750   67.909    0.226    0.382   10.387
  371.000   71.605    0.218    0.380   10.990
  371.250   73.454    0.209    0.382   11.405
  371.500   74.085    0.213    0.406   11.837
  371.750   74.717    0.224    0.413   12.768
  372.000   74.740    0.235    0.399   14.310
  372.250   72.936    0.278    0.392   16.980
  372.500   70.519    0.303    0.377   21.748
  372.750   66.274    0.312    0.376   28.940
  373.000   63.247    0.314    0.370   38.511
  373.250   59.612    0.313    0.356   42.334
  373.500   58.415    0.309    0.354   42.297
  373.750   61.501    0.307    0.362   39.906
  374.000   63.346    0.301    0.374   36.239
  374.250   68.264    0.285    0.388   32.279
  374.500   70.112    0.263    0.386   28.758
  374.750   71.956    0.260    0.403   27.138
  375.000   75.644    0.275    0.408   24.167
  375.250   77.492    0.281    0.400   22.374
  375.500   75.684    0.291    0.389   21.109
  375.750   73.876    0.284    0.402   19.539
  376.000   76.346    0.265    0.413   18.086
  376.250   80.641    0.254    0.399   16.420
  376.500   83.713    0.243    0.392   15.202
  376.750   85.557    0.245    0.382   13.805
  377.000   89.850    0.246    0.386   12.778
  377.250   94.753    0.223    0.376   11.601
  377.500  100.263    0.215    0.378   11.159
  377.750  107.610    0.222    0.388   11.364
  378.000  112.505    0.236    0.406   12.728
  378.250  100.946    0.263    0.410   13.218
  378.500   83.285    0.278    0.393   14.530
  378.750   75.385    0.278    0.383   16.277
  379.000   65.648    0.254    0.368   17.218
  379.250   67.510    0.242    0.348   16.874
  379.500   72.416    0.226    0.333   16.548
  379.750   75.481    0.224    0.340   16.220
  380.000   77.941    0.237    0.371   15.899
  380.250   77.353    0.250    0.378   16.189
  380.500   73.720    0.265    0.371   17.125
  380.750   70.699    0.255    0.356   17.447
  381.000   70.720    0.225    0.337   17.432
  381.250   73.189    0.206    0.333   17.413
  381.500   73.821    0.210    0.347   17.402
  381.750   72.619    0.264    0.367   17.058
  382.000   68.381    0.298    0.381   17.371
  382.250   68.399    0.303    0.381   19.096
  382.500   69.645    0.293    0.375   20.992
  382.750   69.059    0.273    0.393   22.639
  383.000   67.881    0.240    0.391   21.771
  383.250   67.897    0.209    0.375   19.029
  383.500   69.133    0.184    0.358   16.633
  383.750   73.421    0.175    0.388   14.259
  384.000   81.988    0.174    0.408   11.769
  384.250   88.111    0.180    0.415   10.092
  384.500   92.400    0.190    0.419    8.821
  384.750   93.641    0.193    0.426    8.647
  385.000   94.883    0.198    0.434    8.637
  385.250   96.739    0.202    0.434    8.465
  385.500   91.887    0.213    0.410    8.301
  385.750   84.591    0.210    0.400    7.979
  386.000   84.005    0.205    0.394    7.677
  386.250   88.909    0.208    0.402    7.382
  386.500   92.589    0.213    0.410    6.701
  386.750   93.842    0.205    0.426    6.568
  387.000   94.466    0.203    0.421    6.317
  387.250   99.981    0.207    0.403    6.310
  387.500  101.225    0.210    0.411    6.429
  387.750  100.639    0.212    0.417    6.544
  388.000   97.003    0.221    0.422    6.667
  388.250   92.757    0.231    0.418    6.920
  388.500   87.908    0.245    0.398    7.047
  388.750   85.491    0.253    0.378    7.600
  389.000   83.073    0.245    0.365    8.043
  389.250   83.094    0.230    0.365    8.841
  389.500   85.558    0.222    0.371    9.351
  389.750   92.294    0.208    0.376    9.525
  390.000   97.197    0.200    0.383    9.516
  390.250   98.434    0.233    0.391    9.508
  390.500   93.579    0.240    0.397    9.685
  390.750   85.072    0.208    0.403   10.245
  391.000   80.821    0.174    0.393   11.049
  391.250   77.799    0.131    0.377   11.472
  391.500   77.212    0.168    0.367   12.138
  391.750   80.287    0.213    0.373   12.362
  392.000   88.245    0.263    0.398   11.885
  392.250   93.758    0.269    0.417   11.432
  392.500   96.821    0.270    0.418   10.781
  392.750  100.502    0.258    0.409   10.568
  393.000  104.796    0.230    0.415   10.359
  393.250  108.478    0.215    0.419   10.156
  393.500  112.160    0.203    0.416   10.147
  393.750  115.844    0.193    0.390   10.138
  394.000  110.379    0.184    0.373   10.325
  394.250  101.260    0.178    0.373   10.316
  394.500   95.183    0.201    0.381   10.708
  394.750   88.498    0.217    0.374   11.330
  395.000   83.036    0.215    0.358   11.986
  395.250   78.793    0.179    0.343   12.684
  395.500   74.545    0.118    0.338   13.940
  395.750   64.824    0.246    0.344   15.925
  396.000   59.960    0.287    0.354   22.441
  396.250   49.007    0.315    0.364   38.282
  396.500   37.447    0.325    0.370   49.989
  396.750   31.373    0.326    0.372   62.801
  397.000   27.742    0.323    0.365   69.021
  397.250   29.594    0.321    0.356   71.678
  397.500   31.450    0.327    0.344   77.302
  397.750   30.867    0.330    0.345   81.773
  398.000   30.885    0.333    0.360   86.521
  398.250   30.300    0.332    0.370   89.833
  398.500   30.929    0.329    0.373   96.882
  398.750   34.625    0.325    0.370  108.531
  399.000   35.860    0.315    0.374  117.022
  399.250   37.102    0.312    0.368  123.844
  399.500   37.740    0.313    0.358  138.735
  399.750   37.150    0.323    0.355  144.044
  400.000   35.228    0.330    0.348  158.345
  400.250   32.816    0.332    0.357  167.539
  400.500   29.198    0.332    0.365  184.132
  400.750   29.821    0.323    0.368  191.178
  401.000   31.055    0.319    0.365  202.279
  401.250   34.116    0.315    0.369  214.025
  401.500   34.134    0.320    0.379  213.791
  401.750   28.687    0.325    0.375  217.677
  402.000   27.501    0.325    0.365  217.534
  402.250   28.730    0.319    0.358  221.585
  402.500   31.175    0.312    0.360  221.295
  402.750   36.660    0.311    0.374  216.964
  403.000   33.035    0.321    0.394  208.648
  403.250   25.776    0.322    0.383  204.565
  403.500   26.395    0.325    0.376  200.519
  403.750   27.629    0.326    0.377  196.552
  404.000   25.836    0.328    0.378  189.018
  404.250   25.253    0.329    0.376  174.920
  404.500   26.482    0.332    0.375  155.873
  404.750   27.105    0.330    0.375  133.604
  405.000   27.123    0.329    0.373  130.990
  405.250   25.321    0.327    0.357  130.876
  405.500   24.127    0.332    0.358  130.733
  405.750   26.584    0.338    0.377  133.109
  406.000   28.422    0.339    0.385  133.051
  406.250   27.833    0.335    0.385  132.934
  406.500   27.851    0.336    0.379  130.276
  406.750   28.482    0.339    0.361  127.727
  407.000   28.509    0.339    0.358  120.507
  407.250   28.522    0.334    0.364  111.543
