~VERSION INFORMATION
 VERS.                 2.0:   CWLS LOG ASCII STANDARD -VERSION 2.0
 WRAP.                  NO:   ONE LINE PER DEPTH STEP
~WELL INFORMATION BLOCK
#MNEM.UNIT           DATA                    DESCRIPTION OF MNEMONIC
#---------    -------------------            -------------------------------
# Generated from Intellog Unique Number	CS_73_76/WELL/2103
WELL.         07-08-076-12W4                 : Well_name    - WELL
LOC .         00/07-08-076-12W4/0            : Location     - LOCATION
UWI .         00/07-08-076-12W4/0            : Uwi          - UNIQUE WELL ID
ENTR.         SP                             : Entered      - ENTERED BY
SRVC.         SCHLUMBERGER                   : Scn          - SERVICE COMPANY
STRT.M        329.184                        : top_depth    - START DEPTH
STOP.M        566.684                        : bot_depth    - STOP DEPTH
STEP.M        0.25                           : increment    - STEP LENGTH
 NULL. -999.2500:NULL Value
~CURVE INFORMATION BLOCK
#MNEM UNIT       ERCB CURVE CODE    CURVE DESCRIPTION
#-----------   ------------------   ----------------------------------
DEPT.M        00 001 00 00         : DEPTH        - DEPTH
GR  .API      00 310 00 00         : GR           - GAMMA RAY
DPHI.V/V      00 890 00 00         : PHID         - DENSITY POROSITY (SANDSTONE)
NPHI.V/V      00 330 00 00         : PHIN         - NEUTRON POROSITY (SANDSTONE)
ILD .OHMM     00 120 00 00         : RESD         - DEEP RESISTIVITY (DIL)
~PARAMETER INFORMATION
#MNEM.UNIT           DATA             DESCRIPTION OF MNEMONIC
#---------         -----------     ------------------------------
GL  .M        709.879              : gl           - GROUND LEVEL ELEVATION
EREF.M        713.842              : kb           - ELEVATION OF DEPTH REFERENCE
DATM.M        709.879              : datum        - DATUM ELEVATION
TDD .M        585.216              : tdd          - TOTAL DEPTH DRILLER
RUN .         ONE                  : Run          - RUN NUMBER
ENG .         BILL                 : Engineer     - RECORDING ENGINEER
WIT .         JIM                  : Witness      - WITNESSED BY
MUD .         GEL                  : Mud_type     - MUD TYPE
MATR.         SANDSTONE            : Logunit      - NEUTRON MATRIX
TMAX.C        32.2222              : BHT          - MAXIMUM RECORDED TEMPERATURE
BHTD.M        585.216              : BHTDEP       - MAXIMUM RECORDED TEMPERATURE
MATR.         1                    : LOGUNIT      - NEUTRON MATRIX
RMT .C        25                   : MDTP         - TEMPERATURE OF MUD
NEUT.         1                    : NEUTRON      - NEUTRON TYPE
RESI.         0                    : RESIST       - RESISTIVITY TYPE
RMC .OHMM     0.25                 : RMC          - RESISTIVITY OF MUD CAKE
RMF .OHMM     0.25                 : RMF          - RESISTIVITY OF MUD FILTRATE
SUFT.C        15                   : SUFT         - SURFACE TEMPERATURE
~A  DEPTH       GR     PHID     PHIN     RESD
# ...
  503.184   92.926    0.209    0.496    4.145
  503.434   95.300    0.198    0.510    4.044
  503.684   95.910    0.203    0.531    3.855
  503.934   95.520    0.207    0.552    3.594
  504.184   95.312    0.195    0.572    3.495
  504.434   98.084    0.189    0.583    3.447
  504.684   99.457    0.201    0.572    3.753
  504.934   99.760    0.199    0.541    4.263
  505.184   92.499    0.178    0.515    4.739
  505.434   88.276    0.162    0.495    5.209
  505.684   83.581    0.149    0.478    5.586
  505.934   83.302    0.157    0.462    5.969
  506.184   85.708    0.146    0.452    5.940
  506.434   91.054    0.123    0.463    5.872
  506.684   93.959    0.137    0.460    5.944
  506.934   94.563    0.183    0.466    6.190
  507.184   92.174    0.194    0.483    6.548
  507.434   91.158    0.205    0.499    6.948
  507.684   89.980    0.188    0.505    7.359
  507.934   84.897    0.175    0.481    7.570
  508.184   79.787    0.143    0.449    7.740
  508.434   76.288    0.114    0.425    7.719
  508.684   80.405    0.088    0.494    7.508
  508.934   82.771    0.172    0.528    6.981
  509.184   83.114    0.186    0.545    6.661
  509.434   84.562    0.168    0.548    6.277
  509.684   85.630    0.173    0.535    5.930
  509.934   87.238    0.176    0.565    5.876
  510.184   89.180    0.178    0.596    5.924
  510.434   91.092    0.199    0.618    6.243
  510.684   89.942    0.200    0.588    6.541
  510.934   82.949    0.182    0.540    6.791
  511.184   79.992    0.189    0.496    7.384
  511.434   81.100    0.159    0.451    7.829
  511.684   83.255    0.124    0.461    8.310
  511.934   85.539    0.153    0.471    8.818
  512.184   88.153    0.159    0.475    9.213
  512.434   88.017    0.189    0.475    9.528
  512.684   85.299    0.199    0.465    9.825
  512.934   83.530    0.196    0.450   10.126
  513.184   81.087    0.192    0.455   10.444
  513.434   77.595    0.209    0.470   10.569
  513.684   77.795    0.240    0.488   10.557
  513.934   81.684    0.270    0.496   10.845
  514.184   84.566    0.250    0.485   11.529
  514.434   85.330    0.220    0.474   12.203
  514.684   84.494    0.258    0.466   13.553
  514.934   82.444    0.258    0.436   13.331
  515.184   83.097    0.233    0.434   12.318
  515.434   87.904    0.212    0.462   10.128
  515.684   94.658    0.220    0.499    9.817
  515.934   98.462    0.224    0.528   10.227
  516.184  100.117    0.234    0.522   12.919
  516.434   91.742    0.286    0.466   17.199
  516.684   81.467    0.309    0.428   22.162
  516.934   59.953    0.276    0.399   31.238
  517.184   49.241    0.278    0.383   46.561
  517.434   49.391    0.275    0.384   59.923
  517.684   50.835    0.272    0.387   50.831
  517.934   53.084    0.277    0.402   45.116
  518.184   55.347    0.274    0.422   39.187
  518.434   54.031    0.282    0.435   34.323
  518.684   52.183    0.269    0.438   29.271
  518.934   51.562    0.254    0.409   25.397
  519.184   51.507    0.260    0.398   21.648
  519.434   56.120    0.245    0.383   19.150
  519.684   66.948    0.209    0.381   17.335
  519.934   73.377    0.189    0.381   18.677
  520.184   77.314    0.197    0.383   21.228
  520.434   76.190    0.200    0.407   22.404
  520.684   72.826    0.219    0.426   22.322
  520.934   69.110    0.248    0.407   20.138
  521.184   74.178    0.238    0.392   16.536
  521.434   82.261    0.225    0.371   13.877
  521.684   88.279    0.210    0.359   11.705
  521.934   95.458    0.199    0.384   10.332
  522.184   98.346    0.204    0.412    9.749
  522.434   98.623    0.218    0.442    9.658
  522.684   96.775    0.256    0.444    9.834
  522.934   87.813    0.294    0.426   10.077
  523.184   82.751    0.273    0.437   10.226
  523.434   77.598    0.241    0.443    9.489
  523.684   77.192    0.251    0.425    8.383
  523.934   77.987    0.246    0.422    7.956
  524.184   83.686    0.222    0.437    7.385
  524.434   87.975    0.224    0.437    7.194
  524.684   89.958    0.213    0.446    7.320
  524.934   88.485    0.240    0.464    7.421
  525.184   83.422    0.265    0.484    7.907
  525.434   78.879    0.289    0.496    8.156
  525.684   77.695    0.331    0.449    8.179
  525.934   81.678    0.252    0.426    8.342
  526.184   83.726    0.201    0.454    8.342
  526.434   81.857    0.236    0.443    8.345
  526.684   79.893    0.252    0.441    8.347
  526.934   80.658    0.258    0.462    8.402
  527.184   79.093    0.264    0.472    8.867
  527.434   76.530    0.290    0.454    9.685
  527.684   76.384    0.274    0.447   10.730
  527.934   74.891    0.278    0.487   12.378
  528.184   70.292    0.311    0.475   14.646
  528.434   62.523    0.231    0.379   15.800
  528.684   62.490    0.206    0.354   17.705
  528.934   63.864    0.235    0.391   17.488
  529.184   65.041    0.240    0.422   16.338
  529.434   65.928    0.284    0.446   14.532
  529.684   68.958    0.257    0.452   12.843
  529.934   73.639    0.240    0.472   12.475
  530.184   75.889    0.252    0.490   12.671
  530.434   75.777    0.270    0.488   13.301
  530.684   71.679    0.271    0.473   14.298
  530.934   69.090    0.296    0.471   15.209
  531.184   68.568    0.300    0.481   15.390
  531.434   66.472    0.337    0.451   15.570
  531.684   64.731    0.291    0.443   15.607
  531.934   66.278    0.268    0.471   15.276
  532.184   65.922    0.314    0.479   15.023
  532.434   65.001    0.300    0.475   14.758
  532.684   64.493    0.273    0.460   14.459
  532.934   68.152    0.273    0.443   14.248
  533.184   69.160    0.254    0.440   13.939
  533.434   70.168    0.256    0.441   13.955
  533.684   70.222    0.264    0.443   13.962
  533.934   68.753    0.277    0.460   14.057
  534.184   68.128    0.283    0.475   14.512
  534.434   67.231    0.308    0.475   14.739
  534.684   65.738    0.296    0.458   15.137
  534.934   65.827    0.289    0.432   15.593
  535.184   69.623    0.276    0.435   16.764
  535.434   72.047    0.260    0.445   18.435
  535.684   72.360    0.255    0.448   20.466
  535.934   71.160    0.232    0.456   21.680
  536.184   68.885    0.228    0.470   23.465
  536.434   65.460    0.245    0.480   24.534
  536.684   61.966    0.267    0.442   25.330
  536.934   56.153    0.283    0.420   26.145
  537.184   55.540    0.263    0.433   27.847
  537.434   60.583    0.262    0.460   28.828
  537.684   65.769    0.254    0.478   31.962
  537.934   65.543    0.259    0.490   34.621
  538.184   61.641    0.263    0.490   41.392
  538.434   56.689    0.265    0.474   47.621
  538.684   52.663    0.285    0.464   57.192
  538.934   49.208    0.301    0.447   67.060
  539.184   47.507    0.316    0.442   77.802
  539.434   48.877    0.332    0.466   86.237
  539.684   48.617    0.344    0.478   93.152
  539.934   45.459    0.353    0.472   98.975
  540.184   44.641    0.338    0.462  105.674
  540.434   44.751    0.318    0.489  113.123
  540.684   44.096    0.329    0.458  116.713
  540.934   42.217    0.326    0.441  117.635
  541.184   44.602    0.309    0.430  119.043
  541.434   44.209    0.309    0.425   99.766
  541.684   42.334    0.305    0.418   66.121
  541.934   40.982    0.322    0.405   50.663
  542.184   40.549    0.307    0.401   44.902
  542.434   42.310    0.291    0.402   38.341
  542.684   43.648    0.301    0.402   27.756
  542.934   48.281    0.281    0.388   19.742
  543.184   51.507    0.273    0.370   14.156
  543.434   57.797    0.251    0.358   12.450
  543.684   66.871    0.224    0.373   12.002
  543.934   75.894    0.209    0.387   11.637
  544.184   77.079    0.212    0.382   11.479
  544.434   75.559    0.218    0.378   11.363
  544.684   80.864    0.247    0.386   11.223
  544.934   88.318    0.259    0.407   11.018
  545.184   92.334    0.239    0.429   10.745
  545.434   94.570    0.234    0.427   10.637
  545.684   92.628    0.212    0.415   10.110
  545.934   90.064    0.203    0.410    9.805
  546.184   87.563    0.220    0.404    8.640
  546.434   84.462    0.239    0.413    8.260
