~VERSION INFORMATION
 VERS.                 2.0:   CWLS LOG ASCII STANDARD -VERSION 2.0
 WRAP.                  NO:   ONE LINE PER DEPTH STEP
~WELL INFORMATION BLOCK
#MNEM.UNIT           DATA                    DESCRIPTION OF MNEMONIC
#---------    -------------------            -------------------------------
# Generated from Intellog Unique Number	CS_77_79/WELL/910
WELL.         BOW VALLEY EXPLORATION         : Well_name    - WELL
LOC .         00/07-28-077-14W4/0            : Location     - LOCATION
UWI .         00/07-28-077-14W4/0            : Uwi          - UNIQUE WELL ID
ENTR.         SP                             : Entered      - ENTERED BY
SRVC.         SCHLUMBERGER                   : Scn          - SERVICE COMPANY
STRT.M        275                            : top_depth    - START DEPTH
STOP.M        535                            : bot_depth    - STOP DEPTH
STEP.M        0.25                           : increment    - STEP LENGTH
 NULL. -999.2500:NULL Value
~CURVE INFORMATION BLOCK
#MNEM UNIT       ERCB CURVE CODE    CURVE DESCRIPTION
#-----------   ------------------   ----------------------------------
DEPT.M        00 001 00 00         : DEPTH        - DEPTH
ILD .OHMM     00 120 00 00         : RESD         - DEEP RESISTIVITY (DIL)
DPHI.V/V      00 890 00 00         : PHID         - DENSITY POROSITY (LIMESTONE)
NPHI.V/V      00 330 00 00         : PHIN         - NEUTRON POROSITY (LIMESTONE)
GR  .API      00 310 00 00         : GR           - GAMMA RAY
~PARAMETER INFORMATION
#MNEM.UNIT           DATA             DESCRIPTION OF MNEMONIC
#---------         -----------     ------------------------------
GL  .M        674.43               : gl           - GROUND LEVEL ELEVATION
EREF.M        677.88               : kb           - ELEVATION OF DEPTH REFERENCE
DATM.M        674.43               : datum        - DATUM ELEVATION
TDD .M        544                  : tdd          - TOTAL DEPTH DRILLER
RUN .         ONE                  : Run          - RUN NUMBER
ENG .         BILL                 : Engineer     - RECORDING ENGINEER
WIT .         JIM                  : Witness      - WITNESSED BY
MUD .         GEL                  : Mud_type     - MUD TYPE
MATR.         LIMESTONE            : Logunit      - NEUTRON MATRIX
TMAX.C        25                   : BHT          - MAXIMUM RECORDED TEMPERATURE
BHTD.M        544                  : BHTDEP       - MAXIMUM RECORDED TEMPERATURE
MATR.         1                    : LOGUNIT      - NEUTRON MATRIX
RMT .C        25                   : MDTP         - TEMPERATURE OF MUD
NEUT.         1                    : NEUTRON      - NEUTRON TYPE
RESI.         0                    : RESIST       - RESISTIVITY TYPE
RMC .OHMM     0.25                 : RMC          - RESISTIVITY OF MUD CAKE
RMF .OHMM     0.25                 : RMF          - RESISTIVITY OF MUD FILTRATE
SUFT.C        15                   : SUFT         - SURFACE TEMPERATURE
~A  DEPTH     RESD     PHID     PHIN       GR
  275.000    3.143    0.276    0.537   91.845
  275.250    3.205    0.275    0.539   91.856
  275.500    3.147    0.278    0.529   90.648
  275.750    3.090    0.292    0.512   94.340
  276.000    3.150    0.296    0.527   96.190
  276.250    3.272    0.289    0.537   95.595
  276.500    3.337    0.288    0.551   93.159
  276.750    3.466    0.293    0.531   88.894
  277.000    3.533    0.281    0.536   87.068
  277.250    3.671    0.273    0.543   87.087
  277.500    3.742    0.265    0.554   87.709
  277.750    3.816    0.272    0.562   95.074
  278.000    3.891    0.276    0.564   96.313
  278.250    3.966    0.274    0.566   92.656
  278.500    3.968    0.265    0.564   90.836
  278.750    4.045    0.260    0.559   91.462
  279.000    4.125    0.261    0.538   97.601
  279.250    4.367    0.268    0.532  100.678
  279.500    4.451    0.265    0.511  100.083
  279.750    4.802    0.250    0.507   98.258
  280.000    4.895    0.226    0.504   91.538
  280.250    4.807    0.127    0.472   88.491
  280.500    4.719    0.100    0.474   91.570
  280.750    4.722    0.155    0.496   95.257
  281.000    4.815    0.241    0.512   90.985
  281.250    4.908    0.241    0.532   90.999
  281.500    5.006    0.236    0.477   96.526
  281.750    5.007    0.234    0.469   98.989
  282.000    5.011    0.237    0.476   97.169
  282.250    5.012    0.248    0.478   92.286
  282.500    4.923    0.254    0.449   93.525
  282.750    4.925    0.248    0.469   94.156
  283.000    4.929    0.244    0.483   96.623
  283.250    4.839    0.248    0.498   99.695
  283.500    4.664    0.243    0.513  100.322
  283.750    4.579    0.242    0.506   99.112
  284.000    4.413    0.247    0.482   97.292
  284.250    4.334    0.259    0.479   96.084
  284.500    4.255    0.259    0.499   94.259
  284.750    4.338    0.263    0.519   94.281
  285.000    4.423    0.265    0.528   94.291
  285.250    4.510    0.264    0.534   93.693
  285.500    4.512    0.259    0.540   90.651
  285.750    4.431    0.255    0.475   88.217
  286.000    4.433    0.250    0.470   87.005
  286.250    4.519    0.250    0.472   89.471
  286.500    4.696    0.259    0.483   91.320
  286.750    4.877    0.262    0.503   94.399
  287.000    5.260    0.259    0.515   94.413
  287.250    5.890    0.269    0.376   78.508
  287.500    6.722    0.257    0.345   68.728
  287.750    7.387    0.201    0.375   67.521
  288.000    7.675    0.219    0.419   69.986
  288.250    7.679    0.270    0.436   72.448
  288.500    7.682    0.265    0.421   76.135
  288.750    8.287    0.254    0.454   78.601
  289.000    9.108    0.273    0.481   76.168
  289.250   10.009    0.295    0.471   71.283
  289.500   11.001    0.320    0.387   69.463
  289.750   11.426    0.307    0.373   71.320
  290.000   12.326    0.287    0.396   71.947
  290.250   13.047    0.276    0.417   70.736
  290.500   13.809    0.302    0.410   66.462
  290.750   15.177    0.306    0.382   67.092
  291.000   15.767    0.279    0.377   68.334
  291.250   15.777    0.258    0.387   69.573
  291.500   15.491    0.280    0.402   68.972
  291.750   15.215    0.316    0.389   65.315
  292.000   14.937    0.328    0.362   65.329
  292.250   14.128    0.353    0.350   69.018
  292.500   13.616    0.321    0.375   70.874
  292.750   12.878    0.299    0.392   72.725
  293.000   11.954    0.276    0.395   74.575
  293.250   11.735    0.278    0.410   72.142
  293.500   11.309    0.294    0.426   70.935
  293.750   10.498    0.307    0.437   73.403
  294.000    9.743    0.314    0.446   74.634
  294.250    9.389    0.300    0.436   73.426
  294.500    9.048    0.287    0.426   71.005
  294.750    9.055    0.269    0.446   71.021
  295.000    9.405    0.269    0.453   71.643
  295.250   10.146    0.271    0.441   74.715
  295.500   10.738    0.272    0.449   75.951
  295.750   11.368    0.283    0.458   68.011
  296.000   11.588    0.301    0.453   62.515
  296.250   12.039    0.317    0.427   60.078
  296.500   12.045    0.298    0.426   63.156
  296.750   11.828    0.285    0.434   67.458
  297.000   11.188    0.289    0.442   65.027
  297.250   10.384    0.313    0.449   62.592
  297.500    9.283    0.337    0.380   65.668
  297.750    8.616    0.313    0.385   69.353
  298.000    9.648    0.302    0.430   65.085
  298.250   10.214    0.309    0.453   62.036
  298.500   10.413    0.330    0.475   57.768
  298.750    9.849    0.338    0.410   60.232
  299.000    9.314    0.328    0.412   63.313
  299.250    8.020    0.304    0.403   66.384
  299.500    7.729    0.293    0.406   73.135
  299.750    8.655    0.294    0.434   69.481
  300.000    9.336    0.293    0.434   65.826
  300.250    9.699    0.295    0.447   65.222
  300.500    9.887    0.305    0.460   65.848
  300.750   10.272    0.311    0.456   68.316
  301.000   10.471    0.317    0.445   68.330
  301.250   10.678    0.318    0.439   68.344
  301.500   10.883    0.296    0.434   65.909
  301.750   11.098    0.278    0.426   67.150
  302.000   11.106    0.256    0.418   72.677
  302.250   11.110    0.248    0.353   72.692
  302.500   11.119    0.242    0.366   68.419
  302.750   11.123    0.241    0.399   65.373
  303.000   10.923    0.247    0.408   64.782
  303.250   10.927    0.249    0.414   64.791
  303.500   10.532    0.245    0.415   64.806
  303.750   10.340    0.227    0.405   72.171
  304.000    9.782    0.213    0.397   78.926
  304.250    9.079    0.227    0.390   81.384
  304.500    8.747    0.231    0.403   85.689
  304.750    7.969    0.230    0.415   88.767
  305.000    7.260    0.223    0.425   90.615
  305.250    6.866    0.206    0.446   93.691
  305.500    6.494    0.185    0.436  101.054
  305.750    6.257    0.214    0.428  103.520
  306.000    5.919    0.223    0.452  104.758
  306.250    5.598    0.225    0.465  111.510
  306.500    5.294    0.221    0.475  113.360
  306.750    4.914    0.195    0.460  109.091
  307.000    4.825    0.186    0.455  112.779
  307.250    4.919    0.204    0.477  115.244
  307.500    5.015    0.213    0.501  115.259
  307.750    5.113    0.217    0.464  106.091
  308.000    5.312    0.207    0.455  101.818
  308.250    5.415    0.157    0.461  101.222
  308.500    5.419    0.158    0.465  114.713
  308.750    5.222    0.178    0.473  117.784
  309.000    4.938    0.205    0.494  120.861
  309.250    4.333    0.223    0.517  122.713
  309.500    3.801    0.238    0.575  123.951
  309.750    3.663    0.251    0.587  122.130
  310.000    4.680    0.261    0.532  116.636
  310.250    5.240    0.257    0.467  110.527
  310.500    6.567    0.268    0.434  104.421
  310.750    8.077    0.266    0.413  109.948
  311.000    9.216    0.252    0.393  111.187
  311.250    9.576    0.241    0.381  106.918
  311.500    9.580    0.244    0.402  102.648
  311.750    9.408    0.264    0.426   97.151
  312.000    8.897    0.279    0.432   90.436
  312.250    7.955    0.306    0.424   88.608
  312.500    7.246    0.311    0.423   88.013
  312.750    6.852    0.289    0.436  107.622
  313.000    6.604    0.258    0.488  116.210
  313.250    6.485    0.230    0.495  119.898
  313.500    6.488    0.221    0.480  118.690
  313.750    7.131    0.225    0.456  115.028
  314.000    8.448    0.240    0.432  105.862
  314.250    9.639    0.251    0.421   98.529
  314.500   10.594    0.254    0.419   93.643
  314.750   10.599    0.260    0.421   96.724
  315.000   10.408    0.268    0.422   98.580
  315.250   10.031    0.280    0.433   98.587
  315.500    9.666    0.285    0.437   94.324
  315.750    9.316    0.269    0.427   92.499
  316.000    9.148    0.257    0.423   93.125
  316.250    9.154    0.246    0.426  101.718
  316.500    9.158    0.257    0.437  104.789
  316.750    9.165    0.260    0.443  109.701
  317.000    9.167    0.256    0.432  109.715
  317.250    9.524    0.265    0.409  107.894
  317.500   11.286    0.274    0.410  100.563
  317.750   11.721    0.288    0.421   86.496
  318.000   12.410    0.321    0.433   73.041
  318.250   12.416    0.337    0.431   65.100
