~VERSION INFORMATION
 VERS.                 2.0:   CWLS LOG ASCII STANDARD -VERSION 2.0
 WRAP.                  NO:   ONE LINE PER DEPTH STEP
~WELL INFORMATION BLOCK
#MNEM.UNIT           DATA                    DESCRIPTION OF MNEMONIC
#---------    -------------------            -------------------------------
# Generated from Intellog Unique Number	CS_73_76/WELL/1030
WELL.         CAVALIER ENERGY INC.           : Well_name    - WELL
LOC .         00/06-02-076-15W4/0            : Location     - LOCATION
UWI .         00/06-02-076-15W4/0            : Uwi          - UNIQUE WELL ID
ENTR.         SP                             : Entered      - ENTERED BY
SRVC.         SCHLUMBERGER                   : Scn          - SERVICE COMPANY
STRT.M        344.424                        : top_depth    - START DEPTH
STOP.M        545.424                        : bot_depth    - STOP DEPTH
STEP.M        0.25                           : increment    - STEP LENGTH
 NULL. -999.2500:NULL Value
~CURVE INFORMATION BLOCK
#MNEM UNIT       ERCB CURVE CODE    CURVE DESCRIPTION
#-----------   ------------------   ----------------------------------
DEPT.M        00 001 00 00         : DEPTH        - DEPTH
GR  .API      00 310 00 00         : GR           - GAMMA RAY
DPHI.V/V      00 890 00 00         : PHID         - DENSITY POROSITY (SANDSTONE)
NPHI.V/V      00 330 00 00         : PHIN         - NEUTRON POROSITY (SANDSTONE)
ILD .OHMM     00 120 00 00         : RESD         - DEEP RESISTIVITY (DIL)
~PARAMETER INFORMATION
#MNEM.UNIT           DATA             DESCRIPTION OF MNEMONIC
#---------         -----------     ------------------------------
GL  .M        714.146              : gl           - GROUND LEVEL ELEVATION
EREF.M        717.194              : kb           - ELEVATION OF DEPTH REFERENCE
DATM.M        714.146              : datum        - DATUM ELEVATION
TDD .M        545.592              : tdd          - TOTAL DEPTH DRILLER
RUN .         ONE                  : Run          - RUN NUMBER
ENG .         BILL                 : Engineer     - RECORDING ENGINEER
WIT .         JIM                  : Witness      - WITNESSED BY
MUD .         GEL                  : Mud_type     - MUD TYPE
MATR.         SANDSTONE            : Logunit      - NEUTRON MATRIX
TMAX.C        17.7778              : BHT          - MAXIMUM RECORDED TEMPERATURE
BHTD.M        545.592              : BHTDEP       - MAXIMUM RECORDED TEMPERATURE
MATR.         1                    : LOGUNIT      - NEUTRON MATRIX
RMT .C        25                   : MDTP         - TEMPERATURE OF MUD
NEUT.         1                    : NEUTRON      - NEUTRON TYPE
RESI.         0                    : RESIST       - RESISTIVITY TYPE
RMC .OHMM     0.25                 : RMC          - RESISTIVITY OF MUD CAKE
RMF .OHMM     0.25                 : RMF          - RESISTIVITY OF MUD FILTRATE
SUFT.C        15                   : SUFT         - SURFACE TEMPERATURE
~A  DEPTH       GR     PHID     PHIN     RESD
# ...
  474.924   57.361    0.104    0.249    8.649
  475.174   59.001    0.119    0.254    9.297
  475.424   60.375    0.118    0.277   10.634
  475.674   61.657    0.137    0.304   12.047
  475.924   62.753    0.146    0.325   13.539
  476.174   63.125    0.184    0.347   15.429
  476.424   62.710    0.249    0.411   16.489
  476.674   60.721    0.299    0.396   16.760
  476.924   60.396    0.286    0.370   16.700
  477.174   62.930    0.271    0.350   15.536
  477.424   64.998    0.274    0.405   13.820
  477.674   65.982    0.293    0.428   10.678
  477.924   66.594    0.307    0.441    9.294
  478.174   66.603    0.298    0.437    8.531
  478.424   66.539    0.287    0.430    8.058
  478.674   65.584    0.279    0.432    7.786
  478.924   64.638    0.257    0.442    7.557
  479.174   67.620    0.240    0.457    7.326
  479.424   70.223    0.227    0.477    6.914
  479.674   71.561    0.270    0.481    6.695
  479.924   72.184    0.288    0.464    6.562
  480.174   70.557    0.274    0.477    6.488
  480.424   70.797    0.262    0.477    6.396
  480.674   72.930    0.272    0.470    6.408
  480.924   72.635    0.285    0.489    6.278
  481.174   70.880    0.296    0.479    6.163
  481.424   70.540    0.285    0.476    6.172
  481.674   70.497    0.272    0.481    6.218
  481.924   71.232    0.259    0.481    6.251
  482.174   71.700    0.273    0.474    6.247
  482.424   72.499    0.289    0.481    6.342
  482.674   72.486    0.279    0.484    6.335
  482.924   72.145    0.268    0.486    6.335
  483.174   69.328    0.285    0.482    6.336
  483.424   66.383    0.294    0.471    6.337
  483.674   65.732    0.263    0.478    6.279
  483.924   67.542    0.276    0.482    6.243
  484.174   68.918    0.270    0.475    6.101
  484.424   68.180    0.276    0.487    6.100
  484.674   67.723    0.276    0.497    6.085
  484.924   68.879    0.277    0.490    6.021
  485.174   70.333    0.278    0.478    6.023
  485.424   70.046    0.265    0.483    6.024
  485.674   68.082    0.266    0.471    6.025
  485.924   66.494    0.283    0.464    6.026
  486.174   67.333    0.272    0.460    6.028
  486.424   67.911    0.263    0.456    5.967
  486.674   67.792    0.247    0.436    5.951
  486.924   66.092    0.215    0.415    5.949
  487.174   65.070    0.208    0.379    5.953
  487.424   64.903    0.217    0.373    5.972
  487.674   65.525    0.225    0.398    6.030
  487.924   65.560    0.232    0.442    6.170
  488.174   65.594    0.259    0.470    6.216
  488.424   65.588    0.273    0.480    6.425
  488.674   66.860    0.275    0.486    6.586
  488.924   68.189    0.284    0.479    6.853
  489.174   68.582    0.291    0.469    7.114
  489.424   70.916    0.296    0.460    7.361
  489.674   73.176    0.285    0.452    7.305
  489.924   77.421    0.265    0.449    7.038
  490.174   80.212    0.251    0.456    6.902
  490.424   78.642    0.238    0.453    6.603
  490.674   75.620    0.256    0.452    6.466
  490.924   75.633    0.232    0.454    6.438
  491.174   77.334    0.206    0.451    6.514
  491.424   77.445    0.212    0.446    6.511
  491.674   77.663    0.227    0.443    6.608
  491.924   80.802    0.233    0.440    6.603
  492.174   83.646    0.240    0.441    6.639
  492.424   84.911    0.249    0.449    6.681
  492.674   87.377    0.237    0.467    6.746
  492.924   90.115    0.221    0.483    6.761
  493.174   90.372    0.236    0.490    6.765
  493.424   88.504    0.252    0.473    6.680
  493.674   82.508    0.246    0.452    6.671
  493.924   79.637    0.214    0.421    6.465
  494.174   76.593    0.174    0.378    6.019
  494.424   69.968    0.155    0.341    5.877
  494.674   67.834    0.119    0.362    5.743
  494.924   68.325    0.156    0.432    5.778
  495.174   67.164    0.199    0.470    6.444
  495.424   64.454    0.259    0.475    7.300
  495.674   62.345    0.275    0.460    8.227
  495.924   58.925    0.232    0.421    9.019
  496.174   60.715    0.183    0.364    9.082
  496.424   68.073    0.145    0.370    8.578
  496.674   75.333    0.131    0.411    8.133
  496.924   85.103    0.178    0.435    8.340
  497.174   84.497    0.224    0.453    8.929
  497.424   86.349    0.195    0.451    9.244
  497.674   87.033    0.184    0.436    8.851
  497.924   87.707    0.182    0.440    7.940
  498.174   88.765    0.200    0.459    7.361
  498.424   88.925    0.205    0.474    7.004
  498.674   88.977    0.190    0.464    6.943
  498.924   89.004    0.181    0.460    7.004
  499.174   89.056    0.185    0.460    6.991
  499.424   88.409    0.168    0.469    6.944
  499.674   87.864    0.178    0.483    6.851
  499.924   87.103    0.173    0.474    6.950
  500.174   84.938    0.173    0.456    7.022
  500.424   80.199    0.177    0.446    7.161
  500.674   75.595    0.170    0.418    7.333
  500.924   79.225    0.151    0.383    7.716
  501.174   83.244    0.138    0.368    8.528
  501.424   83.174    0.169    0.397    9.135
  501.674   80.551    0.187    0.418    9.320
  501.924   71.319    0.184    0.372    9.755
  502.174   70.567    0.106    0.299   10.331
  502.424   78.399    0.076    0.286   11.326
  502.674   87.514    0.056    0.313   12.330
  502.924   96.596    0.108    0.395   13.407
  503.174  101.430    0.144    0.439   12.950
  503.424  101.033    0.168    0.454   11.186
  503.674  102.026    0.194    0.448    9.504
  503.924  102.923    0.194    0.452    8.083
  504.174  101.400    0.192    0.441    7.293
  504.424  101.421    0.197    0.413    7.040
  504.674  104.182    0.205    0.413    7.130
  504.924  105.398    0.202    0.426    7.122
  505.174  103.261    0.215    0.432    7.126
  505.424   98.090    0.209    0.431    6.978
  505.674   94.272    0.193    0.443    6.712
  505.924   89.552    0.201    0.452    6.064
  506.174   88.172    0.215    0.440    5.819
  506.424   87.737    0.192    0.427    5.695
  506.674   90.095    0.166    0.429    5.504
  506.924   93.252    0.145    0.448    4.798
  507.174   96.256    0.124    0.453    4.075
  507.424   96.844    0.187    0.471    3.371
  507.674   95.162    0.238    0.522    2.782
  507.924   96.298    0.255    0.589    2.236
  508.174   96.982    0.259    0.580    2.057
  508.424   94.513    0.265    0.570    1.790
  508.674   94.448    0.254    0.574    1.791
  508.924   95.658    0.249    0.580    1.915
  509.174   97.731    0.256    0.574    1.956
  509.424   99.967    0.247    0.567    2.156
  509.674   98.656    0.231    0.547    2.613
  509.924   98.969    0.218    0.546    3.124
  510.174   98.589    0.226    0.559    3.702
  510.424   94.278    0.221    0.476    4.576
  510.674   92.308    0.201    0.457    5.295
  510.924   95.441    0.188    0.436    5.683
  511.174   98.698    0.156    0.412    6.131
  511.424   99.756    0.153    0.429    6.188
  511.674   94.614    0.174    0.445    6.209
  511.924   86.277    0.160    0.455    6.346
  512.174   87.144    0.130    0.361    6.272
  512.424   90.739    0.128    0.372    6.201
  512.674   91.346    0.166    0.404    6.347
  512.924   89.466    0.198    0.432    6.665
  513.174   90.490    0.199    0.453    6.845
  513.424   88.344    0.180    0.441    6.984
  513.674   87.569    0.160    0.427    6.991
  513.924   89.218    0.137    0.422    7.002
  514.174   89.932    0.116    0.436    7.072
  514.424   85.459    0.168    0.445    7.010
  514.674   88.648    0.157    0.432    6.831
  514.924   92.491    0.135    0.416    6.921
  515.174   95.648    0.107    0.415    7.480
  515.424   97.006    0.164    0.434    7.799
  515.674   95.549    0.195    0.429    8.543
  515.924   95.316    0.176    0.436    8.855
  516.174   94.087    0.171    0.443    9.378
  516.424   88.913    0.153    0.409    9.683
  516.674   85.048    0.144    0.379    9.961
  516.924   84.034    0.113    0.372    9.878
  517.174   85.769    0.110    0.391    9.641
  517.424   83.465    0.137    0.397    9.184
  517.674   80.938    0.152    0.384    8.359
  517.924   83.259    0.096    0.361    7.853
  518.174   92.678    0.074    0.364    7.222
