~VERSION INFORMATION
 VERS.                 2.0:   CWLS LOG ASCII STANDARD -VERSION 2.0
 WRAP.                  NO:   ONE LINE PER DEPTH STEP
~WELL INFORMATION BLOCK
#MNEM.UNIT           DATA                    DESCRIPTION OF MNEMONIC
#---------    -------------------            -------------------------------
# Generated from Intellog Unique Number	CW_73_75/WELL/875
WELL.         HOME UNIT MARTEN HILLS 07-33   : Well_name    - WELL
LOC .         00/07-33-074-24W4/0            : Location     - LOCATION
UWI .         00/07-33-074-24W4/0            : Uwi          - UNIQUE WELL ID
ENTR.         JAYE                           : Entered      - ENTERED BY
SRVC.         WESTERN ATLAS                  : Scn          - SERVICE COMPANY
DATE.         22 JAN 85                      : Date         - LOG DATE
STRT.M        410                            : top_depth    - START DEPTH
STOP.M        605                            : bot_depth    - STOP DEPTH
STEP.M        0.25                           : increment    - STEP LENGTH
 NULL. -999.2500:NULL Value
~CURVE INFORMATION BLOCK
#MNEM UNIT       ERCB CURVE CODE    CURVE DESCRIPTION
#-----------   ------------------   ----------------------------------
DEPT.M        00 001 00 00         : DEPTH        - DEPTH
ILD .OHMM     00 120 00 00         : RESD         - DEEP RESISTIVITY (DIL)
NPHI.V/V      00 330 00 00         : PHIN         - NEUTRON POROSITY (SANDSTONE)
DPHI.V/V      00 890 00 00         : PHID         - DENSITY POROSITY (SANDSTONE)
GR  .API      00 310 00 00         : GR           - GAMMA RAY
CALI.MM       00 280 01 00         : CAL          - CALIPER
~PARAMETER INFORMATION
#MNEM.UNIT           DATA             DESCRIPTION OF MNEMONIC
#---------         -----------     ------------------------------
GL  .M        687.1                : gl           - GROUND LEVEL ELEVATION
EREF.M        691.7                : kb           - ELEVATION OF DEPTH REFERENCE
DATM.M        687.1                : datum        - DATUM ELEVATION
TDD .M        611                  : tdd          - TOTAL DEPTH DRILLER
RUN .         ONE                  : Run          - RUN NUMBER
ENG .         MONAGLE              : Engineer     - RECORDING ENGINEER
WIT .         SAEA                 : Witness      - WITNESSED BY
BASE.         2150                 : Branch       - HOME BASE OF LOGGING UNIT
MUD .         GEL CHEM             : Mud_type     - MUD TYPE
MATR.         SANDSTONE            : Logunit      - NEUTRON MATRIX
TMAX.C        25                   : BHT          - MAXIMUM RECORDED TEMPERATURE
BHTD.M        611.2                : BHTDEP       - MAXIMUM RECORDED TEMPERATURE
RMT .C        15                   : MDTP         - TEMPERATURE OF MUD
MUDD.KG/M     1220                 : MWT          - MUD DENSITY
NEUT.         1                    : NEUTRON      - NEUTRON TYPE
RESI.         0                    : RESIST       - RESISTIVITY TYPE
RM  .OHMM     5.7                  : RM           - RESISTIVITY OF MUD
RMC .OHMM     5.2                  : RMC          - RESISTIVITY OF MUD CAKE
RMF .OHMM     6                    : RMF          - RESISTIVITY OF MUD FILTRATE
SUFT.C        0                    : SUFT         - SURFACE TEMPERATURE
~A  DEPTH     RESD     PHIN     PHID       GR      CAL
# ...
  556.000    8.383    0.349    0.173   74.465  190.611
  556.250    8.686    0.344    0.131   64.256  191.377
  556.500    8.816    0.344    0.128   70.732  191.001
  556.750    8.813    0.343    0.154   75.467  189.595
  557.000    8.679    0.350    0.162   72.390  190.359
  557.250    8.515    0.344    0.162   80.722  192.256
  557.500    8.384    0.348    0.173   82.918  194.054
  557.750    8.210    0.360    0.164   81.329  195.439
  558.000    8.070    0.353    0.137   75.957  196.621
  558.250    8.037    0.361    0.144   78.648  197.376
  558.500    8.081    0.354    0.159   77.307  198.661
  558.750    8.186    0.352    0.151   76.525  199.839
  559.000    8.339    0.353    0.174   83.308  200.185
  559.250    8.657    0.349    0.176   83.642  200.226
  559.500    9.857    0.350    0.186   76.348  200.266
  559.750   11.436    0.354    0.200   69.178  200.301
  560.000   12.898    0.360    0.158   60.707  199.929
  560.250   14.303    0.333    0.087   59.428  200.072
  560.500   15.980    0.312    0.042   61.684  200.318
  560.750   17.325    0.321    0.070   59.850  200.153
  561.000   18.053    0.334    0.124   61.609  199.883
  561.250   18.741    0.336    0.134   64.980  198.889
  561.500   20.165    0.338    0.120   59.733  197.790
  561.750   22.069    0.348    0.175   55.354  195.970
  562.000   23.700    0.350    0.217   53.022  192.596
  562.250   23.471    0.344    0.208   55.589  187.054
  562.500   21.678    0.326    0.194   58.217  184.202
  562.750   19.392    0.318    0.021   58.054  187.135
  563.000   17.710    0.318    0.109   57.335  191.514
  563.250   15.992    0.332    0.144   59.093  195.173
  563.500   14.938    0.343    0.135   51.552  196.146
  563.750   13.955    0.341    0.123   57.467  196.185
  564.000   13.460    0.339    0.115   65.182  196.117
  564.250   12.765    0.347    0.150   64.214  195.538
  564.500   11.247    0.338    0.162   65.724  194.855
  564.750   11.372    0.335    0.137   62.275  194.376
  565.000   11.198    0.338    0.126   58.764  193.907
  565.250   10.761    0.335    0.121   60.400  193.938
  565.500   10.205    0.326    0.122   59.309  194.185
  565.750    9.641    0.333    0.106   59.084  194.637
  566.000    9.143    0.337    0.099   65.742  195.091
  566.250    8.477    0.337    0.141   74.571  195.445
  566.500    7.919    0.339    0.154   72.796  196.208
  566.750    7.624    0.345    0.098   79.765  196.656
  567.000    7.395    0.357    0.111   84.193  195.563
  567.250    7.214    0.345    0.130   83.908  194.464
  567.500    7.077    0.343    0.127   83.187  193.054
  567.750    6.956    0.349    0.128   83.395  192.168
  568.000    6.902    0.352    0.131   84.971  192.721
  568.250    6.784    0.354    0.138   91.628  193.381
  568.500    6.731    0.358    0.132   85.638  193.832
  568.750    6.691    0.358    0.131   83.056  194.395
  569.000    6.690    0.352    0.148   95.608  194.843
  569.250    6.738    0.340    0.159   94.948  195.606
  569.500    6.774    0.336    0.103   87.034  196.373
  569.750    6.862    0.333    0.093   79.802  196.720
  570.000    6.991    0.329    0.137   79.085  196.141
  570.250    7.258    0.326    0.129   81.152  192.869
  570.500    7.868    0.323    0.084   75.409  192.499
  570.750    8.514    0.317    0.059   63.590  192.536
  571.000    9.161    0.313    0.050   64.731  193.614
  571.250    9.421    0.307    0.084   73.310  194.888
  571.500    9.543    0.310    0.119   73.955  196.997
  571.750    9.631    0.319    0.127   69.762  198.902
  572.000    9.719    0.328    0.123   77.350  200.902
  572.250    9.753    0.324    0.114   81.962  201.868
  572.500    9.769    0.323    0.131   84.653  201.185
  572.750    9.766    0.328    0.108   86.350  200.817
  573.000    9.837    0.322    0.101   94.312  200.649
  573.250    9.909    0.314    0.048   84.724  200.582
  573.500   10.076    0.309    0.007   69.680  200.619
  573.750   10.381    0.307    0.055   73.176  200.144
  574.000   10.656    0.304    0.080   69.354  198.839
  574.250   10.713    0.306    0.072   56.232  196.399
  574.500   10.102    0.302    0.074   62.892  194.994
  574.750    9.244    0.312    0.084   76.061  193.584
  575.000    8.782    0.328    0.114   82.534  191.867
  575.250    8.913    0.345    0.106   73.444  190.977
  575.500    9.114    0.341    0.084   71.730  192.357
  575.750    9.303    0.328    0.099   72.870  194.053
  576.000    9.230    0.328    0.075   74.940  190.063
  576.250    9.107    0.332    0.072   78.746  189.998
  576.500    8.918    0.337    0.096   82.492  190.967
  576.750    8.815    0.338    0.117   82.020  193.382
  577.000    9.048    0.333    0.089   75.532  197.142
  577.250    9.166    0.321    0.040   64.146  196.149
  577.500    8.807    0.321    0.037   71.920  193.918
  577.750    8.321    0.336    0.114   83.229  191.682
  578.000    7.966    0.340    0.085   90.695  189.963
  578.250    7.640    0.339    0.061   84.642  193.313
  578.500    7.467    0.340    0.090   83.487  197.381
  578.750    7.521    0.344    0.138   86.302  201.140
  579.000    7.634    0.352    0.140   91.286  201.599
  579.250    7.791    0.354    0.126   90.194  201.024
  579.500    7.967    0.337    0.118   85.194  200.848
  579.750    7.950    0.329    0.104   81.559  200.475
  580.000    7.525    0.331    0.132   78.546  199.893
  580.250    7.136    0.336    0.111   83.034  199.521
  580.500    6.909    0.342    0.083   76.857  199.146
  580.750    6.766    0.341    0.073   79.918  198.679
  581.000    6.650    0.332    0.125   90.546  198.300
  581.250    6.673    0.336    0.114   83.687  197.506
  581.500    6.659    0.344    0.095   84.394  196.725
  581.750    6.545    0.348    0.137   74.742  196.759
  582.000    6.361    0.343    0.169   70.983  196.494
  582.250    6.147    0.336    0.121   82.417  196.532
  582.500    5.818    0.334    0.125   85.418  196.885
  582.750    5.384    0.335    0.103   79.736  197.338
  583.000    5.011    0.338    0.086   81.063  197.680
  583.250    4.415    0.339    0.143   92.681  198.342
  583.500    3.567    0.408    0.156   92.398  198.896
  583.750    3.108    0.447    0.150   89.009  198.939
  584.000    2.892    0.417    0.126   86.676  198.671
  584.250    2.991    0.399    0.136   85.398  198.194
  584.500    3.298    0.414    0.147   89.453  197.816
  584.750    3.720    0.419    0.144   96.855  197.545
  585.000    4.300    0.370    0.110   84.104  197.380
  585.250    5.045    0.343    0.068   78.609  197.315
  585.500    5.931    0.332    0.081   87.626  197.045
  585.750    6.406    0.329    0.077   84.734  196.772
  586.000    6.563    0.340    0.059   91.456  196.298
  586.250    6.561    0.346    0.072   89.060  195.821
  586.500    6.486    0.346    0.128   77.798  194.928
  586.750    6.375    0.340    0.084   82.225  193.936
  587.000    6.254    0.340    0.083   86.155  193.152
  587.250    6.288    0.343    0.097   88.784  192.465
  587.500    6.639    0.339    0.079   84.839  191.471
  587.750    7.211    0.316    0.017   58.508  190.686
  588.000    8.195    0.276    0.293   37.820  190.206
  588.250   11.351    0.225    0.327   31.953  189.831
  588.500   21.376    0.198    0.345   33.775  189.457
  588.750   34.426    0.201    0.345   37.645  189.087
  589.000   43.150    0.213    0.337   39.528  188.610
  589.250   48.941    0.220    0.331   35.646  188.335
  589.500   51.388    0.237    0.336   32.011  187.760
  589.750   54.259    0.225    0.336   31.850  187.490
  590.000   55.172    0.229    0.329   32.245  187.014
  590.250   55.155    0.231    0.320   33.013  186.845
  590.500   55.557    0.219    0.311   34.587  186.571
  590.750   55.124    0.222    0.325   34.733  186.610
  591.000   53.975    0.229    0.327   30.727  186.649
  591.250   53.558    0.225    0.313   33.044  186.689
  591.500   53.041    0.226    0.308   36.605  186.833
  591.750   53.127    0.233    0.307   36.875  186.977
  592.000   52.513    0.236    0.281   32.248  187.639
  592.250   51.326    0.235    0.240   30.351  188.401
