~VERSION INFORMATION
 VERS.                 2.0:   CWLS LOG ASCII STANDARD -VERSION 2.0
 WRAP.                  NO:   ONE LINE PER DEPTH STEP
~WELL INFORMATION BLOCK
#MNEM.UNIT           DATA                    DESCRIPTION OF MNEMONIC
#---------    -------------------            -------------------------------
# Generated from Intellog Unique Number	CW_73_75/WELL/3519
WELL.         PINNACLE RESOURCES             : Well_name    - WELL
LOC .         00/04-05-074-02W5/0            : Location     - LOCATION
UWI .         00/04-05-074-02W5/0            : Uwi          - UNIQUE WELL ID
ENTR.         T                              : Entered      - ENTERED BY
SRVC.         SCHLUMBERGER                   : Scn          - SERVICE COMPANY
STRT.M        390                            : top_depth    - START DEPTH
STOP.M        655                            : bot_depth    - STOP DEPTH
STEP.M        0.25                           : increment    - STEP LENGTH
 NULL. -999.2500:NULL Value
~CURVE INFORMATION BLOCK
#MNEM UNIT       ERCB CURVE CODE    CURVE DESCRIPTION
#-----------   ------------------   ----------------------------------
DEPT.M        00 001 00 00         : DEPTH        - DEPTH
ILD .OHMM     00 120 00 00         : RESD         - DEEP RESISTIVITY (DIL)
DPHI.V/V      00 890 00 00         : PHID         - DENSITY POROSITY (SANDSTONE)
NPHI.V/V      00 330 00 00         : PHIN         - NEUTRON POROSITY (SANDSTONE)
GR  .API      00 310 00 00         : GR           - GAMMA RAY
~PARAMETER INFORMATION
#MNEM.UNIT           DATA             DESCRIPTION OF MNEMONIC
#---------         -----------     ------------------------------
GL  .M        665                  : gl           - GROUND LEVEL ELEVATION
EREF.M        669.22               : kb           - ELEVATION OF DEPTH REFERENCE
DATM.M        669.22               : datum        - DATUM ELEVATION
TDD .M        670                  : tdd          - TOTAL DEPTH DRILLER
RUN .         ONE                  : Run          - RUN NUMBER
ENG .         BILL                 : Engineer     - RECORDING ENGINEER
WIT .         JIM                  : Witness      - WITNESSED BY
MUD .         GEL                  : Mud_type     - MUD TYPE
MATR.         SANDSTONE            : Logunit      - NEUTRON MATRIX
TMAX.C        30                   : BHT          - MAXIMUM RECORDED TEMPERATURE
BHTD.M        670                  : BHTDEP       - MAXIMUM RECORDED TEMPERATURE
RMT .C        30                   : MDTP         - TEMPERATURE OF MUD
MUDD.KG/M     1120                 : MWT          - MUD DENSITY
NEUT.         1                    : NEUTRON      - NEUTRON TYPE
RESI.         0                    : RESIST       - RESISTIVITY TYPE
RM  .OHMM     3.1                  : RM           - RESISTIVITY OF MUD
RMC .OHMM     0.29                 : RMC          - RESISTIVITY OF MUD CAKE
RMF .OHMM     2.26                 : RMF          - RESISTIVITY OF MUD FILTRATE
SUFT.C        4                    : SUFT         - SURFACE TEMPERATURE
~A  DEPTH     RESD     PHID     PHIN       GR
# ...
  607.500    6.951    0.133    0.340   75.109
  607.750    6.934    0.131    0.339   81.461
  608.000    6.798    0.130    0.340   80.248
  608.250    6.655    0.130    0.341   78.453
  608.500    6.524    0.130    0.344   79.556
  608.750    6.277    0.130    0.347   81.847
  609.000    6.151    0.130    0.351   84.114
  609.250    6.141    0.131    0.354   85.228
  609.500    6.015    0.131    0.356   85.773
  609.750    5.894    0.131    0.357   85.725
  610.000    5.883    0.130    0.356   85.651
  610.250    5.764    0.130    0.353   86.184
  610.500    5.750    0.131    0.349   86.717
  610.750    5.637    0.136    0.345   86.668
  611.000    5.521    0.146    0.342   86.606
  611.250    5.120    0.146    0.343   85.975
  611.500    4.578    0.135    0.344   84.787
  611.750    4.170    0.103    0.345   81.828
  612.000    3.527    0.076    0.351   81.172
  612.250    3.039    0.102    0.360   84.640
  612.500    2.525    0.172    0.374   95.066
  612.750    2.057    0.205    0.399   98.508
  613.000    1.773    0.238    0.449   99.611
  613.250    1.675    0.250    0.467   97.246
  613.500    1.672    0.246    0.475   93.099
  613.750    1.861    0.233    0.464   94.202
  614.000    1.964    0.218    0.456   95.341
  614.250    2.072    0.198    0.449   97.620
  614.500    2.265    0.184    0.443   98.153
  614.750    2.390    0.153    0.438   97.497
  615.000    2.615    0.128    0.426   97.473
  615.250    2.967    0.121    0.399   96.248
  615.500    3.624    0.114    0.383   95.047
  615.750    4.425    0.100    0.348   93.252
  616.000    5.212    0.085    0.339   88.535
  616.250    5.598    0.068    0.336   84.994
  616.500    5.587    0.111    0.345   83.199
  616.750    5.472    0.124    0.356   82.568
  617.000    5.070    0.128    0.363   85.429
  617.250    4.973    0.122    0.361   90.618
  617.500    4.785    0.120    0.356   93.466
  617.750    4.517    0.122    0.351   94.581
  618.000    4.424    0.127    0.343   96.278
  618.250    4.418    0.129    0.349   97.974
  618.500    4.411    0.121    0.359   99.102
  618.750    4.480    0.106    0.360   99.635
  619.000    4.558    0.083    0.349   96.094
  619.250    4.804    0.037    0.336   75.664
  619.500    5.066    0.035    0.327   72.705
  619.750    5.243    0.073    0.332   87.205
  620.000    5.235    0.126    0.337   93.557
  620.250    5.418    0.144    0.342   93.508
  620.500    5.410    0.141    0.347   89.373
  620.750    5.399    0.133    0.346   87.578
  621.000    5.194    0.130    0.347   85.784
  621.250    5.087    0.124    0.349   85.734
  621.500    4.985    0.122    0.353   87.431
  621.750    4.973    0.115    0.358   90.849
  622.000    4.963    0.111    0.360   91.407
  622.250    4.958    0.105    0.364   92.522
  622.500    4.946    0.111    0.365   91.891
  622.750    5.025    0.114    0.368   92.424
  623.000    5.203    0.111    0.369   98.194
  623.250    5.292    0.108    0.369  101.043
  623.500    5.783    0.101    0.350  103.321
  623.750    5.990    0.096    0.328  106.194
  624.000    6.320    0.093    0.273  106.727
  624.250    7.444    0.095    0.230   52.532
  624.500    9.783    0.120    0.210   43.754
  624.750   11.308    0.227    0.193   34.963
  625.000   12.139    0.289    0.180   20.947
  625.250    8.398    0.269    0.188   16.218
  625.500    6.021    0.272    0.269   17.320
  625.750    5.189    0.293    0.301   19.042
  626.000    4.722    0.279    0.314   22.460
  626.250    5.072    0.245    0.311   23.587
  626.500    5.450    0.224    0.298   24.714
  626.750    6.413    0.203    0.232   27.575
  627.000    6.885    0.182    0.262   30.993
  627.250    7.002    0.283    0.295   33.284
  627.500    6.988    0.389    0.356   36.145
  627.750    6.975    0.415    0.438   39.600
  628.000    7.090    0.450    0.562   45.952
  628.250    6.944    0.480    0.543   66.284
  628.500    6.556    0.455    0.479   78.456
  628.750    6.430    0.343    0.434   88.312
  629.000    6.074    0.292    0.466   98.738
  629.250    5.952    0.387    0.491   96.931
  629.500    5.940    0.483    0.539   93.402
  629.750    6.264    0.516    0.563   82.866
  630.000    6.725    0.315    0.533   76.997
  630.250    6.349    0.168    0.474   85.096
  630.500    5.888    0.167    0.337   93.776
  630.750    5.876    0.182    0.337   89.653
  631.000    6.200    0.274    0.342   62.822
  631.250    7.299    0.348    0.375   51.134
  631.500    8.441    0.288    0.462   59.814
  631.750    9.574    0.235    0.453   73.732
  632.000    9.732    0.170    0.441   83.576
  632.250    9.193    0.125    0.383   72.470
  632.500    8.218    0.098    0.343   67.183
  632.750    7.210    0.095    0.316   61.302
  633.000    7.744    0.095    0.263   61.253
  633.250    8.628    0.109    0.292   76.347
  633.500    9.443    0.126    0.304   87.355
  633.750   10.717    0.170    0.266   73.315
  634.000   11.301    0.179    0.261   69.204
  634.250   11.700    0.208    0.282   70.901
  634.500   14.030    0.231    0.334   83.061
  634.750   14.518    0.226    0.367   86.516
  635.000   14.226    0.220    0.379   90.553
  635.250   13.431    0.211    0.373   88.164
  635.500   12.687    0.200    0.363   76.463
  635.750   11.990    0.202    0.350   72.353
  636.000   11.966    0.205    0.345   69.964
  636.250   12.389    0.208    0.343   70.497
  636.500   13.065    0.209    0.342   76.279
  636.750   13.039    0.209    0.337   78.546
  637.000   12.539    0.202    0.336   77.915
  637.250   12.287    0.195    0.337   80.169
  637.500   12.490    0.193    0.337   82.460
  637.750   13.171    0.191    0.340   85.333
  638.000   14.415    0.163    0.343   89.952
  638.250   15.201    0.093    0.318   85.817
  638.500   15.738    0.053    0.308   72.371
  638.750   15.414    0.040    0.254   57.748
  639.000   15.384    0.031    0.227   54.232
  639.250   15.936    0.017    0.198   43.114
  639.500   17.747    0.012    0.179   38.991
  639.750   18.049    0.042    0.169   34.868
  640.000   18.005    0.057    0.167   29.569
  640.250   17.651    0.066    0.165   24.852
  640.500   17.280    0.063    0.164   22.488
  640.750   17.263    0.061    0.163   20.111
  641.000   16.002    0.061    0.161   18.304
  641.250   14.038    0.064    0.159   17.091
  641.500   13.019    0.069    0.158   15.866
  641.750   12.520    0.080    0.158   15.222
  642.000   12.280    0.080    0.160   14.616
  642.250   12.027    0.076    0.165   14.542
  642.500   11.571    0.069    0.170   14.505
  642.750   10.930    0.066    0.174   13.874
  643.000   10.314    0.081    0.181   13.838
  643.250    9.933    0.096    0.186   13.776
  643.500    9.378    0.105    0.194   13.727
  643.750    8.858    0.100    0.202   13.678
  644.000    8.215    0.101    0.205   13.047
  644.250    7.760    0.108    0.209   12.986
  644.500    7.600    0.103    0.213   12.949
  644.750    7.585    0.093    0.214   13.470
  645.000    7.574    0.101    0.216   14.002
  645.250    7.559    0.106    0.218   14.535
  645.500    7.676    0.110    0.219   15.081
  645.750    7.665    0.107    0.220   16.171
  646.000    7.796    0.102    0.223   16.134
  646.250    7.917    0.099    0.228   16.679
  646.500    7.909    0.094    0.233   17.794
  646.750    7.893    0.090    0.242   18.327
  647.000    7.320    0.086    0.253   20.024
  647.250    6.662    0.084    0.287   22.303
  647.500    5.845    0.087    0.314   26.327
  647.750    5.228    0.090    0.333   33.249
  648.000    4.423    0.120    0.375   39.032
  648.250    3.810    0.233    0.396   58.782
  648.500    3.533    0.219    0.410   70.372
  648.750    3.277    0.200    0.420   84.871
  649.000    3.153    0.218    0.424   94.146
  649.250    3.032    0.239    0.431   98.740
  649.500    3.027    0.254    0.432   98.109
  649.750    3.021    0.273    0.432   96.896
  650.000    3.128    0.282    0.431   95.089
  650.250    3.239    0.287    0.430   93.864
  650.500    3.353    0.274    0.426   93.815
  650.750    3.468    0.262    0.424   93.790
