~VERSION INFORMATION
 VERS.                 2.0:   CWLS LOG ASCII STANDARD -VERSION 2.0
 WRAP.                  NO:   ONE LINE PER DEPTH STEP
~WELL INFORMATION BLOCK
#MNEM.UNIT           DATA                    DESCRIPTION OF MNEMONIC
#---------    -------------------            -------------------------------
# Generated from Intellog Unique Number	CX_WELLS/WELL/2544
WELL.         DOME ET AL NEWBY               : Well_name    - WELL
LOC .         00/07-25-080-03W4/0            : Location     - LOCATION
UWI .         00/07-25-080-03W400            : Uwi          - UNIQUE WELL ID
ENTR.         T                              : Entered      - ENTERED BY
SRVC.         SCHLUMBERGER                   : Scn          - SERVICE COMPANY
STRT.M        75                             : top_depth    - START DEPTH
STOP.M        330                            : bot_depth    - STOP DEPTH
STEP.M        0.25                           : increment    - STEP LENGTH
 NULL. -999.2500:NULL Value
~CURVE INFORMATION BLOCK
#MNEM UNIT       ERCB CURVE CODE    CURVE DESCRIPTION
#-----------   ------------------   ----------------------------------
DEPT.M        00 001 00 00         : DEPTH        - DEPTH
GR  .API      00 310 00 00         : GR           - GAMMA RAY
NPHI.V/V      00 330 00 00         : PHIN         - NEUTRON POROSITY (SANDSTONE)
DPHI.V/V      00 890 00 00         : PHID         - DENSITY POROSITY (SANDSTONE)
ILD .OHMM     00 120 00 00         : RESD         - DEEP RESISTIVITY (DIL)
~PARAMETER INFORMATION
#MNEM.UNIT           DATA             DESCRIPTION OF MNEMONIC
#---------         -----------     ------------------------------
GL  .M        482.7                : gl           - GROUND LEVEL ELEVATION
EREF.M        486.3                : kb           - ELEVATION OF DEPTH REFERENCE
DATM.M        486.3                : datum        - DATUM ELEVATION
TDD .M        338                  : tdd          - TOTAL DEPTH DRILLER
RUN .         ONE                  : Run          - RUN NUMBER
ENG .         BILL                 : Engineer     - RECORDING ENGINEER
WIT .         JIM                  : Witness      - WITNESSED BY
MUD .         GEL                  : Mud_type     - MUD TYPE
MATR.         SANDSTONE            : Logunit      - NEUTRON MATRIX
TMAX.C        20                   : BHT          - MAXIMUM RECORDED TEMPERATURE
BHTD.M        338                  : BHTDEP       - MAXIMUM RECORDED TEMPERATURE
MATR.         1                    : LOGUNIT      - NEUTRON MATRIX
RMT .C        18                   : MDTP         - TEMPERATURE OF MUD
NEUT.         1                    : NEUTRON      - NEUTRON TYPE
RESI.         2.4                  : RESIST       - RESISTIVITY TYPE
RMC .OHMM     2.16                 : RMC          - RESISTIVITY OF MUD CAKE
RMF .OHMM     2.16                 : RMF          - RESISTIVITY OF MUD FILTRATE
SUFT.C        5                    : SUFT         - SURFACE TEMPERATURE
~A  DEPTH       GR     PHIN     PHID     RESD
# ...
  118.500   92.293    0.457    0.328   18.323
  118.750   94.007    0.452    0.316   17.968
  119.000   95.722    0.449    0.304   18.279
  119.250   97.453    0.447    0.289   18.271
  119.500  100.910    0.445    0.275   18.942
  119.750  102.635    0.444    0.259   19.637
  120.000  105.517    0.440    0.254   20.737
  120.250  108.393    0.434    0.267   22.718
  120.500  100.818    0.436    0.290   24.432
  120.750   92.081    0.432    0.309   24.876
  121.000   93.800    0.425    0.314   26.258
  121.250  107.720    0.414    0.324   26.241
  121.500  105.373    0.403    0.336   26.712
  121.750   91.977    0.393    0.334   27.180
  122.000   88.474    0.396    0.333   26.659
  122.250   86.128    0.429    0.338   25.200
  122.500   91.333    0.454    0.342   23.386
  122.750   97.700    0.451    0.338   21.304
  123.000  104.067    0.426    0.316   19.409
  123.250  110.435    0.430    0.295   18.007
  123.500  113.891    0.446    0.283   16.710
  123.750  114.449    0.439    0.276   15.216
  124.000  115.007    0.428    0.271   14.120
  124.250  114.990    0.435    0.269   13.856
  124.500  115.536    0.450    0.264   13.585
  124.750  115.519    0.458    0.259   13.575
  125.000  114.323    0.450    0.259   13.563
  125.250  113.725    0.443    0.296   14.862
  125.500  111.384    0.443    0.331   16.289
  125.750  106.713    0.439    0.344   18.177
  126.000   98.552    0.431    0.343   19.200
  126.250   92.719    0.414    0.340   20.275
  126.500   88.624    0.396    0.334   21.020
  126.750   90.919    0.398    0.328   20.608
  127.000   92.069    0.420    0.325   20.213
  127.250   92.035    0.430    0.323   20.195
  127.500   89.688    0.430    0.335   20.177
  127.750   87.347    0.426    0.344   20.530
  128.000   85.582    0.419    0.344   20.517
  128.250   84.978    0.434    0.324   21.265
  128.500   83.793    0.462    0.332   21.652
  128.750   77.374    0.445    0.341   22.865
  129.000   69.799    0.435    0.357   24.141
  129.250   56.995    0.434    0.357   26.452
  129.500   47.091    0.428    0.353   28.985
  129.750   59.267    0.418    0.347   29.506
  130.000   60.406    0.412    0.345   30.022
  130.250   62.701    0.412    0.343   29.434
  130.500   63.840    0.438    0.341   28.348
  130.750   63.242    0.452    0.331   27.302
  131.000   61.465    0.455    0.308   25.803
  131.250   61.447    0.453    0.298   24.391
  131.500   62.586    0.447    0.319   23.491
  131.750   66.049    0.441    0.329   23.036
  132.000   70.673    0.438    0.322   22.594
  132.250   76.459    0.437    0.317   22.569
  132.500   80.503    0.430    0.320   23.839
  132.750   79.899    0.421    0.328   25.174
  133.000   82.200    0.419    0.341   26.579
  133.250   87.399    0.428    0.347   27.044
  133.500   82.734    0.422    0.349   27.032
  133.750   78.064    0.419    0.354   27.009
  134.000   76.293    0.419    0.356   27.488
  134.250   75.689    0.424    0.344   29.028
  134.500   79.145    0.433    0.327   29.002
  134.750   82.033    0.452    0.308   28.446
  135.000   88.981    0.480    0.292   26.878
  135.250   93.600    0.568    0.283   25.401
  135.500   91.840    0.609    0.270   24.464
  135.750   84.845    0.588    0.253   24.001
  136.000   74.360    0.546    0.228   23.980
  136.250   67.366    0.484    0.216   24.400
  136.500   71.990    0.516    0.251   24.832
  136.750   73.704    0.542    0.285   24.811
  137.000   72.519    0.519    0.284   24.340
  137.250   70.754    0.483    0.277   22.573
  137.500   67.814    0.461    0.302   22.563
  137.750   66.641    0.442    0.306   22.130
  138.000   63.133    0.433    0.312   22.106
  138.250   60.205    0.430    0.321   22.503
  138.500   56.110    0.425    0.324   23.764
  138.750   59.572    0.402    0.313   24.636
  139.000   64.778    0.380    0.282   23.716
  139.250   68.234    0.383    0.238   22.837
  139.500   64.726    0.399    0.201   22.811
  139.750   62.385    0.366    0.172   23.659
  140.000   60.032    0.380    0.197   24.068
  140.250   62.920    0.396    0.219   23.607
  140.500   65.784    0.413    0.241   22.726
  140.750   66.348    0.428    0.247   22.295
  141.000   66.912    0.430    0.280   21.468
  141.250   67.469    0.428    0.339   20.676
  141.500   68.608    0.431    0.357   19.909
  141.750   70.322    0.434    0.353   20.631
  142.000   73.204    0.436    0.351   21.392
  142.250   75.505    0.444    0.362   21.777
  142.500   75.482    0.460    0.371   22.986
  142.750   75.459    0.452    0.382   23.830
  143.000   74.855    0.452    0.371   24.699
  143.250   74.832    0.460    0.367   24.689
  143.500   75.965    0.470    0.370   24.667
  143.750   76.523    0.471    0.373   23.317
  144.000   76.500    0.458    0.372   22.452
  144.250   75.902    0.449    0.367   22.021
  144.500   74.130    0.448    0.360   21.997
  144.750   75.838    0.442    0.346   22.387
  145.000   75.827    0.437    0.303   22.363
  145.250   72.318    0.434    0.281   22.338
  145.500   67.642    0.435    0.257   22.328
  145.750   68.206    0.446    0.259   22.308
  146.000   72.813    0.451    0.279   22.289
  146.250   75.125    0.446    0.302   21.457
  146.500   79.750    0.439    0.302   20.665
  146.750   86.117    0.432    0.301   19.535
  147.000   90.741    0.460    0.292   18.462
  147.250   97.684    0.477    0.281   16.815
  147.500  101.733    0.483    0.263   15.038
  147.750  102.291    0.478    0.262   13.703
  148.000  101.106    0.475    0.262   11.383
  148.250   99.921    0.471    0.265    9.994
  148.500   96.988    0.465    0.268    9.274
  148.750   89.993    0.463    0.273    8.765
  149.000   88.222    0.469    0.281    8.436
  149.250   89.942    0.480    0.287    8.276
  149.500   93.404    0.492    0.296    8.119
  149.750   93.381    0.502    0.299    7.960
  150.000   93.364    0.507    0.293    7.955
  150.250   93.916    0.503    0.288    7.946
  150.500   95.055    0.493    0.288    7.797
  150.750   96.775    0.486    0.288    7.506
  151.000   96.746    0.487    0.287    7.361
  151.250   96.148    0.492    0.287    7.356
  151.500   94.957    0.495    0.288    7.348
  151.750   93.772    0.499    0.292    7.478
  152.000   95.492    0.500    0.293    7.612
  152.250   94.883    0.499    0.299    7.892
  152.500   91.955    0.495    0.307    8.180
  152.750   88.452    0.490    0.314    8.638
  153.000   86.106    0.484    0.323    8.953
  153.250   82.591    0.475    0.335    8.949
  153.500   77.921    0.464    0.348    9.275
  153.750   73.250    0.456    0.357    9.795
  154.000   69.155    0.466    0.358   10.154
  154.250   67.970    0.470    0.361   10.523
  154.500   67.361    0.463    0.358   10.711
  154.750   67.343    0.460    0.352   11.105
  155.000   66.728    0.460    0.349   11.512
  155.250   66.716    0.467    0.345   11.719
  155.500   65.526    0.470    0.348   12.373
  155.750   64.341    0.484    0.351   12.827
  156.000   63.743    0.487    0.353   13.295
  156.250   61.971    0.474    0.349   13.537
  156.500   59.624    0.439    0.337   14.561
  156.750   55.535    0.164    0.290   17.179
  157.000   54.350    0.178    0.247   18.133
  157.250   62.460    0.224    0.086   17.148
  157.500   67.665    0.468    0.352   15.049
  157.750   71.122    0.477    0.353   13.969
  158.000   71.099    0.483    0.354   12.264
  158.250   69.914    0.490    0.355   11.381
  158.500   69.305    0.489    0.359   10.959
  158.750   68.120    0.482    0.365   10.746
  159.000   67.516    0.473    0.368   10.739
  159.250   66.331    0.466    0.369   10.730
  159.500   64.565    0.469    0.370   10.718
  159.750   62.224    0.469    0.370   10.512
  160.000   58.710    0.465    0.370   10.503
  160.250   58.106    0.462    0.369   10.489
  160.500   58.083    0.460    0.368   10.482
  160.750   57.479    0.458    0.367   10.475
  161.000   55.133    0.448    0.367   10.464
  161.250   55.690    0.445    0.367   10.455
  161.500   56.818    0.442    0.367   10.443
  161.750   56.795    0.441    0.367   10.438
