~VERSION INFORMATION
 VERS.                 2.0:   CWLS LOG ASCII STANDARD -VERSION 2.0
 WRAP.                  NO:   ONE LINE PER DEPTH STEP
~WELL INFORMATION BLOCK
#MNEM.UNIT           DATA                    DESCRIPTION OF MNEMONIC
#---------    -------------------            -------------------------------
# Generated from Intellog Unique Number	CS_77_79/WELL/903
WELL.         CANADIAN WORLDWIDE ENERGY      : Well_name    - WELL
LOC .         00/07-22-077-05W4/0            : Location     - LOCATION
UWI .         00/07-22-077-05W4/0            : Uwi          - UNIQUE WELL ID
ENTR.         SP                             : Entered      - ENTERED BY
SRVC.         SCHLUMBERGER                   : Scn          - SERVICE COMPANY
STRT.M        175                            : top_depth    - START DEPTH
STOP.M        425                            : bot_depth    - STOP DEPTH
STEP.M        0.25                           : increment    - STEP LENGTH
 NULL. -999.2500:NULL Value
~CURVE INFORMATION BLOCK
#MNEM UNIT       ERCB CURVE CODE    CURVE DESCRIPTION
#-----------   ------------------   ----------------------------------
DEPT.M        00 001 00 00         : DEPTH        - DEPTH
GR  .API      00 310 00 00         : GR           - GAMMA RAY
DPHI.V/V      00 890 00 00         : PHID         - DENSITY POROSITY (LIMESTONE)
NPHI.V/V      00 330 00 00         : PHIN         - NEUTRON POROSITY (LIMESTONE)
ILD .OHMM     00 120 00 00         : RESD         - DEEP RESISTIVITY (DIL)
~PARAMETER INFORMATION
#MNEM.UNIT           DATA             DESCRIPTION OF MNEMONIC
#---------         -----------     ------------------------------
GL  .M        582                  : gl           - GROUND LEVEL ELEVATION
EREF.M        585                  : kb           - ELEVATION OF DEPTH REFERENCE
DATM.M        582                  : datum        - DATUM ELEVATION
TDD .M        434                  : tdd          - TOTAL DEPTH DRILLER
RUN .         ONE                  : Run          - RUN NUMBER
ENG .         BILL                 : Engineer     - RECORDING ENGINEER
WIT .         JIM                  : Witness      - WITNESSED BY
MUD .         GEL                  : Mud_type     - MUD TYPE
MATR.         LIMESTONE            : Logunit      - NEUTRON MATRIX
TMAX.C        23                   : BHT          - MAXIMUM RECORDED TEMPERATURE
BHTD.M        434                  : BHTDEP       - MAXIMUM RECORDED TEMPERATURE
MATR.         1                    : LOGUNIT      - NEUTRON MATRIX
RMT .C        25                   : MDTP         - TEMPERATURE OF MUD
NEUT.         1                    : NEUTRON      - NEUTRON TYPE
RESI.         0                    : RESIST       - RESISTIVITY TYPE
RMC .OHMM     0.25                 : RMC          - RESISTIVITY OF MUD CAKE
RMF .OHMM     0.25                 : RMF          - RESISTIVITY OF MUD FILTRATE
SUFT.C        15                   : SUFT         - SURFACE TEMPERATURE
~A  DEPTH       GR     PHID     PHIN     RESD
# ...
  349.000   75.057    0.252    0.371   12.755
  349.250   78.184    0.235    0.342   12.997
  349.500   80.066    0.216    0.337   13.243
  349.750   75.728    0.225    0.357   13.494
  350.000   76.365    0.226    0.375   14.011
  350.250   78.871    0.231    0.390   14.277
  350.500   71.414    0.248    0.394   15.105
  350.750   67.692    0.191    0.378   16.285
  351.000   65.844    0.149    0.346   16.594
  351.250   63.372    0.172    0.333   18.578
  351.500   62.758    0.227    0.330   21.596
  351.750   67.128    0.237    0.322   26.562
  352.000   54.696    0.236    0.320   32.061
  352.250   44.130    0.300    0.323   37.270
  352.500   37.920    0.315    0.326   44.986
  352.750   40.426    0.320    0.328   49.424
  353.000   39.817    0.306    0.331   57.452
  353.250   36.722    0.303    0.332   66.785
  353.500   35.496    0.302    0.331   74.766
  353.750   36.750    0.303    0.328   85.291
  354.000   41.124    0.305    0.323   97.297
  354.250   39.270    0.305    0.318  102.947
  354.500   36.177    0.305    0.313  121.943
  354.750   34.949    0.308    0.316  139.108
  355.000   34.334    0.312    0.323  144.440
  355.250   34.977    0.303    0.323  161.700
  355.500   36.855    0.298    0.319  167.897
  355.750   32.511    0.293    0.323  181.018
  356.000   33.149    0.291    0.325  191.525
  356.250   38.147    0.293    0.324  198.860
  356.500   36.290    0.297    0.328  202.631
  356.750   31.326    0.301    0.331  206.472
  357.000   28.230    0.306    0.338  210.385
  357.250   27.000    0.309    0.338  214.372
  357.500   28.882    0.310    0.329  218.431
  357.750   33.877    0.312    0.336  222.575
  358.000   38.870    0.315    0.345  226.792
  358.250   41.996    0.315    0.345  235.479
  358.500   43.257    0.309    0.337  235.468
  358.750   45.139    0.303    0.325  231.065
  359.000   53.245    0.303    0.330  226.746
  359.250   61.350    0.300    0.337  218.360
  359.500   73.190    0.294    0.345  210.286
  359.750   65.737    0.293    0.353  187.814
  360.000   58.908    0.300    0.348  177.493
  360.250   58.920    0.306    0.336  167.742
  360.500   62.669    0.308    0.329  161.540
  360.750   56.461    0.305    0.325  155.567
  361.000   61.455    0.304    0.332  147.020
  361.250   72.672    0.298    0.338  136.350
  361.500   90.738    0.293    0.349  128.859
  361.750   78.303    0.296    0.332  119.508
  362.000   73.341    0.301    0.327  106.739
  362.250   64.642    0.291    0.337  100.874
  362.500   58.432    0.289    0.352   95.333
  362.750   55.957    0.296    0.354   93.551
  363.000   62.818    0.300    0.343   90.088
  363.250   59.720    0.300    0.338   88.406
  363.500   68.454    0.294    0.333   83.547
  363.750   71.575    0.286    0.336   76.039
  364.000   75.324    0.285    0.344   71.862
  364.250   70.984    0.287    0.349   51.208
  364.500   70.375    0.289    0.347   37.891
  364.750   74.126    0.284    0.337   21.542
  365.000  112.105    0.221    0.322   14.237
  365.250  117.100    0.175    0.329   11.794
  365.500  109.025    0.170    0.338   10.734
  365.750   95.351    0.171    0.332   10.337
  366.000   91.007    0.174    0.321   10.336
  366.250   88.532    0.180    0.316   10.532
  366.500   86.061    0.211    0.313   10.732
  366.750   84.201    0.214    0.318   10.935
  367.000   81.106    0.207    0.320   11.354
  367.250   78.633    0.204    0.323   11.570
  367.500   79.274    0.197    0.325   11.789
  367.750   77.416    0.196    0.328   12.012
  368.000   66.849    0.215    0.347   12.012
  368.250   65.623    0.247    0.339   12.011
  368.500   72.483    0.245    0.320   12.010
  368.750   81.215    0.231    0.314   12.238
  369.000   85.583    0.217    0.324   12.470
  369.250   90.575    0.205    0.329   12.707
  369.500   85.610    0.219    0.340   13.194
  369.750   82.512    0.232    0.356   13.443
  370.000   81.282    0.236    0.366   13.698
  370.250   77.565    0.240    0.366   13.958
  370.500   73.844    0.239    0.345   13.957
  370.750   76.348    0.195    0.332   14.492
  371.000   79.474    0.173    0.327   15.333
  371.250   77.623    0.195    0.334   15.920
  371.500   72.661    0.204    0.338   17.164
  371.750   71.432    0.246    0.346   17.822
  372.000   70.827    0.262    0.347   18.857
  372.250   71.458    0.259    0.347   19.951
  372.500   71.476    0.264    0.347   20.329
  372.750   73.358    0.279    0.343   20.715
  373.000   70.882    0.253    0.338   21.508
  373.250   62.805    0.244    0.331   22.757
  373.500   58.464    0.290    0.328   24.078
  373.750   55.987    0.312    0.338   25.959
  374.000   56.005    0.326    0.348   26.954
  374.250   56.638    0.332    0.358   26.953
  374.500   59.774    0.326    0.344   23.624
  374.750   61.648    0.306    0.329   21.501
  375.000   68.510    0.283    0.321   19.722
  375.250   72.883    0.273    0.321   17.933
  375.500   75.388    0.274    0.321   18.964
  375.750   74.156    0.259    0.318   20.440
  376.000   69.813    0.261    0.331   22.447
  376.250   61.738    0.289    0.364   24.191
  376.500   53.660    0.319    0.371   25.585
  376.750   46.206    0.319    0.360   26.055
  377.000   56.182    0.295    0.349   24.602
  377.250   59.929    0.285    0.338   22.795
  377.500   63.680    0.298    0.345   21.530
  377.750   70.539    0.293    0.346   19.944
  378.000   72.421    0.277    0.355   19.197
  378.250   64.347    0.282    0.380   18.829
  378.500   60.628    0.292    0.380   18.467
  378.750   59.395    0.292    0.372   17.770
  379.000   58.788    0.288    0.368   17.100
  379.250   58.803    0.314    0.365   16.146
  379.500   59.447    0.302    0.360   15.538
  379.750   59.455    0.289    0.351   15.823
  380.000   68.185    0.283    0.347   16.734
  380.250   77.534    0.249    0.342   18.381
  380.500   73.194    0.256    0.346   20.572
  380.750   56.405    0.287    0.383   23.022
  381.000   50.817    0.318    0.389   24.344
  381.250   45.229    0.330    0.378   24.796
  381.500   40.886    0.339    0.374   22.977
  381.750   44.639    0.340    0.371   20.502
  382.000   46.518    0.332    0.372   18.294
  382.250   42.798    0.343    0.372   16.636
  382.500   39.703    0.350    0.369   15.713
  382.750   39.716    0.340    0.364   14.559
  383.000   39.733    0.337    0.359   14.012
  383.250   39.746    0.327    0.363   13.229
  383.500   50.963    0.315    0.369   13.222
  383.750   47.873    0.305    0.372   13.464
  384.000   45.393    0.328    0.391   13.458
  384.250   39.805    0.347    0.399   13.446
  384.500   37.953    0.337    0.388   13.441
  384.750   48.548    0.318    0.374   12.932
  385.000   61.010    0.304    0.362   12.444
  385.250   63.517    0.299    0.346   12.207
  385.500   59.800    0.299    0.358   11.747
  385.750   54.212    0.310    0.369   11.737
  386.000   48.622    0.326    0.373   11.731
  386.250   43.038    0.334    0.378   11.718
  386.500   41.805    0.338    0.381   11.712
  386.750   44.312    0.324    0.379   11.930
  387.000   52.417    0.317    0.364   11.922
  387.250   51.812    0.326    0.352   11.691
  387.500   48.720    0.333    0.344   11.465
  387.750   46.861    0.343    0.347   11.245
  388.000   43.767    0.345    0.364   11.027
  388.250   42.532    0.343    0.374   10.610
  388.500   43.794    0.334    0.377   10.210
  388.750   45.674    0.325    0.380   10.206
  389.000   47.558    0.319    0.380   10.200
  389.250   48.815    0.333    0.383   10.784
  389.500   48.210    0.351    0.392   11.193
  389.750   45.733    0.361    0.388   11.615
  390.000   36.411    0.350    0.370   11.829
  390.250   28.956    0.340    0.364   11.822
  390.500   27.728    0.341    0.362   11.164
  390.750   30.235    0.333    0.359   10.345
  391.000   35.231    0.325    0.349    9.407
  391.250   37.109    0.320    0.344    8.555
  391.500   38.992    0.323    0.350    7.352
  391.750   38.387    0.330    0.353    6.199
  392.000   37.779    0.348    0.360    5.532
  392.250   37.171    0.344    0.361    5.126
