~VERSION INFORMATION
 VERS.                 2.0:   CWLS LOG ASCII STANDARD -VERSION 2.0
 WRAP.                  NO:   ONE LINE PER DEPTH STEP
~WELL INFORMATION BLOCK
#MNEM.UNIT           DATA                    DESCRIPTION OF MNEMONIC
#---------    -------------------            -------------------------------
# Generated from Intellog Unique Number	CW_82_90/WELL/3031
WELL.         MIAMI AMACO                    : Well_name    - WELL
LOC .         00/07-01-084-26W4/0            : Location     - LOCATION
UWI .         00/07-01-084-26W4/0            : Uwi          - UNIQUE WELL ID
ENTR.         TIM                            : Entered      - ENTERED BY
SRVC.         COMPUTALOG                     : Scn          - SERVICE COMPANY
DATE.         8 MAR 77                       : Date         - LOG DATE
STRT.F        700                            : top_depth    - START DEPTH
STOP.F        1329.92                        : bot_depth    - STOP DEPTH
STEP.F        0.82                           : increment    - STEP LENGTH
 NULL. -999.2500:NULL Value
~CURVE INFORMATION BLOCK
#MNEM UNIT       ERCB CURVE CODE    CURVE DESCRIPTION
#-----------   ------------------   ----------------------------------
DEPT.F        00 001 00 00         : DEPTH        - DEPTH
GR  .API      00 310 00 00         : GR           - GAMMA RAY
NPHI.V/V      00 330 00 00         : PHIN         - NEUTRON POROSITY (SANDSTONE)
~PARAMETER INFORMATION
#MNEM.UNIT           DATA             DESCRIPTION OF MNEMONIC
#---------         -----------     ------------------------------
GL  .F        1800                 : gl           - GROUND LEVEL ELEVATION
EREF.F        1811                 : kb           - ELEVATION OF DEPTH REFERENCE
DATM.F        1811                 : datum        - DATUM ELEVATION
TDD .F        1336                 : tdd          - TOTAL DEPTH DRILLER
RUN .         ONE                  : Run          - RUN NUMBER
ENG .         KING                 : Engineer     - RECORDING ENGINEER
WIT .         CONNELLY             : Witness      - WITNESSED BY
BASE.         MEDICINE HAT         : Branch       - HOME BASE OF LOGGING UNIT
MUD .         CHEM GEL             : Mud_type     - MUD TYPE
MATR.         SANDSTONE            : Logunit      - NEUTRON MATRIX
TMAX.F        62                   : BHT          - MAXIMUM RECORDED TEMPERATURE
BHTD.F        1336                 : BHTDEP       - MAXIMUM RECORDED TEMPERATURE
RMT .F        60                   : MDTP         - TEMPERATURE OF MUD
MUDD.LB/G     9.5                  : MWT          - MUD DENSITY
NEUT.         0                    : NEUTRON      - NEUTRON TYPE
RESI.         1                    : RESIST       - RESISTIVITY TYPE
RM  .OHMM     4.2                  : RM           - RESISTIVITY OF MUD
RMC .OHMM     0                    : RMC          - RESISTIVITY OF MUD CAKE
RMF .OHMM     3.9                  : RMF          - RESISTIVITY OF MUD FILTRATE
SUFT.F        39.2                 : SUFT         - SURFACE TEMPERATURE
~A  DEPTH       GR     PHIN
# ...
  934.580   63.254   -0.156
  935.400   64.714   -0.220
  936.220   66.186   -0.236
  937.041   67.175   -0.225
  937.861   68.175   -0.208
  938.681   68.669   -0.213
  939.501   68.716   -0.222
  940.322   68.762   -0.126
  941.142   68.360   -0.112
  941.962   68.383   -0.163
  942.782   68.900   -0.233
  943.602   69.418   -0.282
  944.423   68.533   -0.290
  945.243   67.637   -0.247
  946.063   66.740   -0.084
  946.883   65.844    0.057
  947.703   64.476    0.123
  948.524   63.097    0.126
  949.344   60.787    0.085
  950.164   58.936    0.016
  950.984   58.511   -0.104
  951.804   62.799   -0.168
  952.625   66.627   -0.108
  953.445   69.030   -0.117
  954.265   70.019   -0.119
  955.085   68.191   -0.083
  955.906   66.341   -0.072
  956.726   62.145   -0.044
  957.546   59.352   -0.007
  958.366   51.386    0.026
  959.186   47.673    0.048
  960.007   49.605   -0.082
  960.827   50.594    0.193
  961.647   49.697    0.272
  962.467   47.398    0.236
  963.287   46.950    0.204
  964.108   45.583    0.166
  964.928   43.755    0.104
  965.748   42.847    0.075
  966.568   41.962    0.039
  967.388   41.054    0.032
  968.209   40.618    0.062
  969.029   39.261    0.060
  969.849   38.836    0.035
  970.669   39.342   -0.026
  971.490   42.711   -0.061
  972.310   45.573   -0.104
  973.130   48.447   -0.128
  973.950   52.276   -0.175
  974.770   54.207   -0.236
  975.591   56.150   -0.285
  976.411   56.656   -0.293
  977.231   57.162   -0.274
  978.051   58.633   -0.238
  978.871   59.151   -0.197
  979.692   59.692   -0.176
  980.512   59.726   -0.177
  981.332   59.761   -0.251
  982.152   59.819   -0.293
  982.972   60.336   -0.353
  983.793   62.268   -0.336
  984.613   64.187   -0.173
  985.433   64.245   -0.132
  986.253   64.280   -0.129
  987.073   62.912   -0.153
  987.894   60.130   -0.110
  988.714   54.981   -0.105
  989.534   52.211   -0.169
  990.354   60.269   -0.183
  991.175   58.913   -0.164
  991.995   56.120   -0.150
  992.815   53.798   -0.141
  993.635   49.131   -0.136
  994.455   46.349   -0.133
  995.276   44.993   -0.129
  996.096   45.499   -0.132
  996.916   47.442   -0.137
  997.736   47.477   -0.144
  998.556   47.523   -0.156
  999.377   47.110   -0.169
 1000.200   47.167   -0.174
 1001.020   47.191   -0.174
 1001.840   45.823   -0.176
 1002.660   44.455   -0.178
 1003.480   43.559   -0.178
 1004.300   45.961   -0.178
 1005.120   51.663   -0.178
 1005.940   55.491   -0.183
 1006.760   55.078   -0.187
 1007.580   52.296   -0.185
 1008.400   50.434   -0.179
 1009.220   47.181   -0.165
 1010.040   43.928   -0.162
 1010.860   45.388   -0.187
 1011.680   49.676   -0.188
 1012.500   57.746   -0.148
 1013.320   56.850   -0.131
 1014.140   54.068   -0.139
 1014.960   53.655   -0.134
 1015.780   54.632   -0.100
 1016.600   53.736   -0.068
 1017.420   50.483   -0.030
 1018.240   46.747    0.006
 1019.060   41.609    0.030
 1019.880   38.827    0.045
 1020.700   49.725    0.002
 1021.520   52.128   -0.086
 1022.340   56.887   -0.134
 1023.160   56.002   -0.187
 1023.980   53.680   -0.171
 1024.800   52.795   -0.158
 1025.620   52.382   -0.148
 1026.440   50.991   -0.148
 1027.260   49.163   -0.165
 1028.080   47.301   -0.161
 1028.900   44.048   -0.151
 1029.720   45.037   -0.139
 1030.540   52.636   -0.120
 1031.360   55.050   -0.126
 1032.190   54.614   -0.139
 1033.010   53.717   -0.136
 1033.830   54.718   -0.136
 1034.650   58.523   -0.145
 1035.470   60.454   -0.156
 1036.290   60.029   -0.153
 1037.110   60.075   -0.150
 1037.930   60.593   -0.148
 1038.750   62.524   -0.147
 1039.570   64.478   -0.144
 1040.390   63.559   -0.147
 1041.210   62.663   -0.160
 1042.030   65.100   -0.165
 1042.850   66.066   -0.162
 1043.670   66.583   -0.175
 1044.490   65.216   -0.194
 1045.310   66.216   -0.213
 1046.130   67.193   -0.228
 1046.950   69.125   -0.225
 1047.770   71.056   -0.218
 1048.590   70.160   -0.181
 1049.410   63.608   -0.021
 1050.230   54.216    0.406
 1051.050   45.308    0.428
 1051.870   46.768    0.426
 1052.690   59.079    0.419
 1053.510   59.137    0.416
 1054.330   58.689    0.409
 1055.150   56.850    0.397
 1055.970   52.183    0.366
 1056.790   47.987    0.331
 1057.610   44.735    0.258
 1058.430   41.493    0.244
 1059.250   40.114    0.212
 1060.070   39.689    0.209
 1060.890   39.735    0.239
 1061.710   40.264    0.269
 1062.530   41.241    0.279
 1063.350   43.173    0.306
 1064.170   45.576    0.314
 1064.990   49.875    0.327
 1065.810   53.209    0.345
 1066.630   55.612    0.360
 1067.450   57.554    0.353
 1068.270   56.658    0.343
 1069.090   54.808    0.332
 1069.910   57.210    0.335
 1070.730   67.637    0.344
 1071.560   73.810    0.351
 1072.380   61.142    0.358
 1073.200   51.763    0.365
 1074.020   48.958    0.369
 1074.840   43.348    0.377
 1075.660   43.406    0.383
 1076.480   46.269    0.388
 1077.300   50.085    0.387
 1078.120   49.189    0.389
 1078.940   43.579    0.392
 1079.760   40.327    0.398
 1080.580   43.683    0.407
 1081.400   47.017    0.429
 1082.220   49.891    0.432
 1083.040   49.466    0.429
 1083.860   47.639    0.385
 1084.680   43.903    0.350
 1085.500   41.604    0.340
 1086.320   44.467    0.340
 1087.140   49.709    0.351
 1087.960   52.571    0.357
 1088.780   54.043    0.361
 1089.600   53.135    0.366
 1090.420   51.296    0.367
 1091.240   52.768    0.366
 1092.060   53.273    0.364
 1092.880   53.803    0.364
 1093.700   53.860    0.359
 1094.520   53.907    0.349
 1095.340   53.010    0.344
 1096.160   52.562    0.344
 1096.980   50.723    0.352
 1097.800   50.298    0.360
 1098.620   55.080    0.363
 1099.440   55.126    0.374
 1100.260   52.816    0.380
 1101.080   51.437    0.381
 1101.900   50.540    0.376
 1102.720   50.598    0.375
 1103.540   50.621    0.370
 1104.360   50.679    0.365
 1105.180   51.208    0.365
 1106.000   52.197    0.366
 1106.820   52.714    0.369
 1107.640   53.703    0.372
 1108.460   54.221    0.375
 1109.280   53.784    0.378
 1110.100   50.060    0.386
 1110.930   45.382    0.394
 1111.750   41.186    0.408
 1112.570   43.600    0.411
 1113.390   46.463    0.401
 1114.210   50.774    0.387
 1115.030   50.831    0.367
 1115.850   51.337    0.369
 1116.670   52.809    0.378
 1117.490   53.775    0.384
 1118.310   54.764    0.386
 1119.130   51.511    0.382
 1119.950   52.500    0.379
 1120.770   55.845    0.366
 1121.590   57.305    0.345
 1122.410   56.409    0.328
 1123.230   51.742    0.313
 1124.050   46.592    0.299
 1124.870   43.351    0.304
 1125.690   44.799    0.337
 1126.510   50.053    0.346
 1127.330   51.502    0.363
 1128.150   52.031    0.362
 1128.970   52.065    0.354
 1129.790   52.111    0.338
 1130.610   50.755    0.312
 1131.430   48.905    0.275
 1132.250   45.181    0.286
 1133.070   44.273    0.323
 1133.890   49.526    0.326
 1134.710   53.343    0.338
 1135.530   54.320    0.355
 1136.350   54.849    0.368
 1137.170   54.884    0.371
 1137.990   54.930    0.376
 1138.810   54.976    0.372
 1139.630   53.149    0.366
 1140.450   49.413    0.354
 1141.270   42.849    0.345
 1142.090   35.826    0.352
 1142.910   38.229    0.368
 1143.730   44.413    0.381
 1144.550   50.115    0.392
 1145.370   50.667    0.399
 1146.190   50.691    0.404
 1147.010   51.208    0.405
 1147.830   52.197    0.402
 1148.650   53.197    0.399
 1149.480   54.163    0.394
 1150.300   55.623    0.403
 1151.120   58.037    0.413
 1151.940   46.761    0.423
 1152.760   43.979    0.419
 1153.580   45.439    0.406
 1154.400   47.842    0.401
 1155.220   51.659    0.413
 1156.040   55.947    0.410
 1156.860   55.522    0.397
 1157.680   54.165    0.383
 1158.500   54.212    0.364
 1159.320   54.258    0.346
 1160.140   50.993    0.358
 1160.960   45.384    0.374
 1161.780   43.545    0.388
 1162.600   46.890    0.398
 1163.420   49.764    0.407
 1164.240   50.753    0.408
 1165.060   51.305    0.407
 1165.880   51.788    0.403
 1166.700   52.777    0.398
 1167.520   54.248    0.395
 1168.340   55.237    0.395
