~VERSION INFORMATION
 VERS.                 2.0:   CWLS LOG ASCII STANDARD -VERSION 2.0
 WRAP.                  NO:   ONE LINE PER DEPTH STEP
~WELL INFORMATION BLOCK
#MNEM.UNIT           DATA                    DESCRIPTION OF MNEMONIC
#---------    -------------------            -------------------------------
# Generated from Intellog Unique Number	CN_94_101/WELL/2765
WELL.         PARAMOUNT LTD.                 : Well_name    - WELL
LOC .         00/07-15-094-21W4/0            : Location     - LOCATION
UWI .         00/07-15-094-21W4/0            : Uwi          - UNIQUE WELL ID
ENTR.         JOETTE                         : Entered      - ENTERED BY
SRVC.         COMPUTALOG                     : Scn          - SERVICE COMPANY
DATE.         07\03\92                       : Date         - LOG DATE
STRT.M        210                            : top_depth    - START DEPTH
STOP.M        380                            : bot_depth    - STOP DEPTH
STEP.M        0.25                           : increment    - STEP LENGTH
 NULL. -999.2500:NULL Value
~CURVE INFORMATION BLOCK
#MNEM UNIT       ERCB CURVE CODE    CURVE DESCRIPTION
#-----------   ------------------   ----------------------------------
DEPT.M        00 001 00 00         : DEPTH        - DEPTH
CALI.MM       00 280 01 00         : CAL          - CALIPER
GR  .API      00 310 00 00         : GR           - GAMMA RAY
NPHI.V/V      00 330 00 00         : PHIN         - NEUTRON POROSITY (SANDSTONE)
DPHI.V/V      00 890 00 00         : PHID         - DENSITY POROSITY (SANDSTONE)
ILD .OHMM     00 120 00 00         : RESD         - DEEP RESISTIVITY (DIL)
~PARAMETER INFORMATION
#MNEM.UNIT           DATA             DESCRIPTION OF MNEMONIC
#---------         -----------     ------------------------------
GL  .M        690.4                : gl           - GROUND LEVEL ELEVATION
EREF.M        693.5                : kb           - ELEVATION OF DEPTH REFERENCE
DATM.M        693.5                : datum        - DATUM ELEVATION
TDD .M        383.5                : tdd          - TOTAL DEPTH DRILLER
RUN .         ONE                  : Run          - RUN NUMBER
ENG .         JO                   : Engineer     - RECORDING ENGINEER
WIT .         TIM                  : Witness      - WITNESSED BY
MUD .         GEL                  : Mud_type     - MUD TYPE
MATR.         SANDSTONE            : Logunit      - NEUTRON MATRIX
TMAX.C        35                   : BHT          - MAXIMUM RECORDED TEMPERATURE
BHTD.M        383.5                : BHTDEP       - MAXIMUM RECORDED TEMPERATURE
RMT .C        13                   : MDTP         - TEMPERATURE OF MUD
MUDD.KG/M     1070                 : MWT          - MUD DENSITY
NEUT.         1                    : NEUTRON      - NEUTRON TYPE
RESI.         0                    : RESIST       - RESISTIVITY TYPE
RM  .OHMM     2.6                  : RM           - RESISTIVITY OF MUD
RMC .OHMM     2.6                  : RMC          - RESISTIVITY OF MUD CAKE
RMF .OHMM     3.7                  : RMF          - RESISTIVITY OF MUD FILTRATE
SUFT.C        4                    : SUFT         - SURFACE TEMPERATURE
~A  DEPTH      CAL       GR     PHIN     PHID     RESD
  210.000  158.452  124.064    0.494    0.237    3.988
  210.250  160.551  124.097    0.501    0.230    4.067
  210.500  160.624  127.799    0.494    0.223    4.068
  210.750  159.684  131.490    0.496    0.223    3.995
  211.000  157.749  130.318    0.499    0.227    3.924
  211.250  155.814  124.902    0.496    0.229    3.853
  211.500  155.851  123.100    0.490    0.229    3.856
  211.750  156.937  123.763    0.482    0.226    3.858
  212.000  163.125  128.062    0.488    0.225    3.862
  212.250  167.269  131.775    0.498    0.225    3.936
  212.500  168.319  132.404    0.504    0.224    3.938
  212.750  169.423  128.801    0.511    0.222    4.016
  213.000  169.514  123.982    0.514    0.219    4.094
  213.250  168.538  119.162    0.488    0.214    4.174
  213.500  168.611  114.951    0.477    0.216    4.586
  213.750  167.671  113.779    0.438    0.218    5.430
  214.000  165.717  111.391    0.426    0.215    6.078
  214.250  160.725  108.395    0.409    0.194    6.678
  214.500  156.745  104.792    0.412    0.127    6.559
  214.750  159.876  111.523    0.420    0.170    6.205
  215.000  160.944  117.645    0.428    0.214    5.655
  215.250  161.035  123.779    0.445    0.225    4.963
  215.500  157.055  123.812    0.454    0.231    4.608
  215.750  155.084  121.446    0.453    0.231    4.698
  216.000  152.136  123.291    0.452    0.222    5.775
  216.250  152.190  131.868    0.455    0.214    6.228
  216.500  153.276  132.519    0.478    0.219    5.783
  216.750  160.460  130.121    0.488    0.230    5.574
  217.000  163.572  127.125    0.453    0.232    5.576
  217.250  164.677  124.748    0.439    0.219    5.902
  217.500  163.736  122.371    0.417    0.212    6.130
  217.750  160.770  119.973    0.418    0.216    6.252
  218.000  158.817  118.182    0.437    0.212    6.254
  218.250  161.929  123.697    0.453    0.207    6.141
  218.500  165.042  127.996    0.464    0.207    5.703
  218.750  167.123  128.050    0.456    0.210    5.198
  219.000  168.227  120.789    0.449    0.212    5.009
  219.250  167.269  115.361    0.446    0.215    4.828
  219.500  165.352  109.326    0.444    0.214    5.207
  219.750  162.349   95.389    0.433    0.217    6.521
  220.000  156.343   80.224    0.354    0.253   10.032
  220.250  149.324   29.195    0.319    0.264   14.867
  220.500  147.389   27.415    0.309    0.229   21.624
  220.750  152.528   29.282    0.315    0.190   27.089
  221.000  160.706   34.189    0.334    0.239   28.139
  221.250  169.915   39.096    0.359    0.272   27.630
  221.500  174.023   43.395    0.364    0.304   25.658
  221.750  175.127   49.540    0.370    0.337   24.277
  222.000  177.208   51.407    0.386    0.346   23.392
  222.250  180.321   49.627    0.383    0.337   22.977
  222.500  178.367   44.797    0.377    0.324   22.561
  222.750  172.380   43.625    0.376    0.319   21.749
  223.000  166.374   44.288    0.379    0.383   21.356
  223.250  168.455   43.724    0.384    0.437   19.835
  223.500  178.659   43.767    0.374    0.473   18.758
  223.750  195.974   47.448    0.367    0.280   18.081
  224.000  202.126   62.689    0.372    0.233   15.578
  224.250  178.897   76.117    0.392    0.221   12.928
  224.500  168.820   87.103    0.405    0.217   11.563
  224.750  160.788   90.794    0.415    0.216    9.964
  225.000  168.984  101.194    0.424    0.217    8.425
  225.250  167.031  101.834    0.429    0.214    8.752
  225.500  164.083  103.713    0.429    0.214    7.401
  225.750  164.174  103.138    0.428    0.216    7.267
  226.000  164.211  100.153    0.419    0.225    7.136
  226.250  166.346   97.146    0.415    0.236    7.142
  226.500  167.414   97.212    0.418    0.237    7.282
  226.750  167.487   99.058    0.415    0.234    7.150
  227.000  165.534  102.771    0.414    0.232    7.021
  227.250  160.523  104.019    0.419    0.233    6.768
  227.500  158.570  104.660    0.427    0.235    6.524
  227.750  162.695  104.118    0.435    0.240    6.406
  228.000  167.834  103.543    0.426    0.237    6.655
  228.250  169.933  102.382    0.424    0.228    7.451
  228.500  166.985  101.199    0.429    0.224    8.034
  228.750  161.974   96.987    0.456    0.248    9.514
  229.000  164.073   90.334    0.483    0.279   10.258
  229.250  172.270   61.199    0.429    0.349   11.701
  229.500  168.290   49.682    0.390    0.395   11.929
  229.750  160.276   55.197    0.380    0.408   11.498
  230.000  160.349   72.880    0.369    0.305   10.878
  230.250  157.365   83.866    0.383    0.247   10.290
  230.500  152.372   89.392    0.411    0.239    9.919
  230.750  154.471   91.270    0.427    0.227    9.923
  231.000  162.649   90.706    0.437    0.218   10.120
  231.250  165.762   87.699    0.444    0.222   10.709
  231.500  161.801   78.625    0.446    0.232   11.548
  231.750  164.913   67.716    0.429    0.241   12.452
  232.000  168.007   58.641    0.413    0.209   13.426
  232.250  168.098   58.077    0.377    0.160   14.753
  232.500  165.132   59.945    0.384    0.154   15.322
  232.750  163.161   59.380    0.391    0.239   16.221
  233.000  161.225   56.993    0.378    0.284   16.535
  233.250  164.338   55.213    0.369    0.285   16.863
  233.500  168.445   59.523    0.385    0.279   16.873
  233.750  167.523   60.197    0.384    0.274   17.205
  234.000  163.544   61.445    0.374    0.275   17.207
  234.250  160.577   63.910    0.365    0.266   17.218
  234.500  158.624   59.698    0.367    0.243   17.554
  234.750  158.715   53.663    0.369    0.231   17.567
  235.000  158.788   59.178    0.377    0.229   17.910
  235.250  157.830   63.488    0.395    0.285   17.918
  235.500  155.895   61.089    0.414    0.289   17.929
  235.750  155.968   55.054    0.413    0.289   18.278
  236.000  156.041   49.627    0.399    0.294   18.989
  236.250  160.148   42.387    0.384    0.306   20.095
  236.500  163.261   39.380    0.357    0.310   22.502
  236.750  161.307   37.600    0.352    0.313   23.370
  237.000  158.341   35.832    0.362    0.312   25.208
  237.250  159.445   38.307    0.373    0.311   25.692
  237.500  160.513   42.595    0.382    0.309   25.708
  237.750  162.631   47.502    0.392    0.304   25.251
  238.000  163.717   45.722    0.398    0.301   24.798
  238.250  161.764   42.130    0.392    0.298   23.898
  238.500  161.855   42.781    0.376    0.301   22.193
  238.750  163.954   44.030    0.370    0.316   21.791
  239.000  164.027   47.743    0.377    0.326   21.004
  239.250  167.158   47.765    0.387    0.336   21.020
  239.500  169.221   45.985    0.388    0.343   21.838
  239.750  175.373   38.126    0.380    0.344   22.260
  240.000  179.498   35.141    0.372    0.344   24.008
  240.250  180.584   34.566    0.366    0.346   24.469
  240.500  178.631   34.610    0.368    0.347   25.421
  240.750  171.612   33.438    0.381    0.340   25.916
  241.000  167.651   32.277    0.386    0.332   25.448
  241.250  169.732   34.753    0.377    0.339   24.528
  241.500  164.739   38.455    0.391    0.351   23.646
  241.750  164.830   40.322    0.405    0.370   23.225
  242.000  165.916   42.190    0.405    0.383   23.232
  242.250  165.971   41.626    0.395    0.353   22.819
  242.500  179.252   38.619    0.378    0.344   22.407
  242.750  177.280   31.987    0.376    0.330   22.012
  243.000  170.279   28.980    0.378    0.362   21.220
  243.250  167.295   30.240    0.374    0.388   20.836
  243.500  164.328   35.147    0.369    0.401   20.083
  243.750  163.406   37.014    0.369    0.374   18.999
  244.000  165.506   33.422    0.372    0.344   17.640
  244.250  161.526   34.670    0.378    0.335   16.376
  244.500  156.533   43.832    0.381    0.364   15.205
  244.750  159.664   59.692    0.387    0.377   13.599
  245.000  161.727   87.710    0.399    0.321   11.717
  245.250  165.852   93.832    0.422    0.277   10.095
  245.500  168.006   98.750    0.424    0.243    8.861
  245.750  168.043   99.402    0.433    0.219    7.354
  246.000  168.116  102.474    0.449    0.211    6.103
  246.250  168.207  108.619    0.482    0.223    5.161
