~VERSION INFORMATION
 VERS.                 2.0:   CWLS LOG ASCII STANDARD -VERSION 2.0
 WRAP.                  NO:   ONE LINE PER DEPTH STEP
~WELL INFORMATION BLOCK
#MNEM.UNIT           DATA                    DESCRIPTION OF MNEMONIC
#---------    -------------------            -------------------------------
# Generated from Intellog Unique Number	CX_WELLS/WELL/2993
WELL.         TRITON ATCOR THORNBURY         : Well_name    - WELL
LOC .         00/08-11-082-12W4/0            : Location     - LOCATION
UWI .         00/08-11-082-12W400            : Uwi          - UNIQUE WELL ID
ENTR.         T                              : Entered      - ENTERED BY
SRVC.         SCHLUMBERGER                   : Scn          - SERVICE COMPANY
STRT.M        300                            : top_depth    - START DEPTH
STOP.M        534                            : bot_depth    - STOP DEPTH
STEP.M        0.25                           : increment    - STEP LENGTH
 NULL. -999.2500:NULL Value
~CURVE INFORMATION BLOCK
#MNEM UNIT       ERCB CURVE CODE    CURVE DESCRIPTION
#-----------   ------------------   ----------------------------------
DEPT.M        00 001 00 00         : DEPTH        - DEPTH
GR  .API      00 310 00 00         : GR           - GAMMA RAY
NPHI.V/V      00 330 00 00         : PHIN         - NEUTRON POROSITY (SANDSTONE)
DPHI.V/V      00 890 00 00         : PHID         - DENSITY POROSITY (SANDSTONE)
ILD .OHMM     00 120 00 00         : RESD         - DEEP RESISTIVITY (OTHER)
~PARAMETER INFORMATION
#MNEM.UNIT           DATA             DESCRIPTION OF MNEMONIC
#---------         -----------     ------------------------------
GL  .M        762                  : gl           - GROUND LEVEL ELEVATION
EREF.M        766                  : kb           - ELEVATION OF DEPTH REFERENCE
DATM.M        766                  : datum        - DATUM ELEVATION
TDD .M        546                  : tdd          - TOTAL DEPTH DRILLER
RUN .         ONE                  : Run          - RUN NUMBER
ENG .         BILL                 : Engineer     - RECORDING ENGINEER
WIT .         JIM                  : Witness      - WITNESSED BY
MUD .         GEL                  : Mud_type     - MUD TYPE
MATR.         SANDSTONE            : Logunit      - NEUTRON MATRIX
TMAX.C        22                   : BHT          - MAXIMUM RECORDED TEMPERATURE
BHTD.M        546                  : BHTDEP       - MAXIMUM RECORDED TEMPERATURE
MATR.         1                    : LOGUNIT      - NEUTRON MATRIX
RMT .C        12.5                 : MDTP         - TEMPERATURE OF MUD
NEUT.         1                    : NEUTRON      - NEUTRON TYPE
RESI.         4.2                  : RESIST       - RESISTIVITY TYPE
RMC .OHMM     2                    : RMC          - RESISTIVITY OF MUD CAKE
RMF .OHMM     3.9                  : RMF          - RESISTIVITY OF MUD FILTRATE
SUFT.C        4                    : SUFT         - SURFACE TEMPERATURE
~A  DEPTH       GR     PHIN     PHID     RESD
  300.000   87.852    0.566    0.282    3.325
  300.250   88.388    0.573    0.277    3.324
  300.500   88.923    0.571    0.274    3.320
  300.750   90.041    0.565    0.273    3.378
  301.000   90.006    0.556    0.273    3.375
  301.250   90.530    0.545    0.273    3.372
  301.500   91.078    0.531    0.273    3.305
  301.750   91.032    0.531    0.275    3.303
  302.000   90.986    0.554    0.279    3.237
  302.250   92.103    0.578    0.283    3.172
  302.500   93.209    0.599    0.287    3.110
  302.750   94.315    0.602    0.291    3.106
  303.000   93.698    0.574    0.289    3.104
  303.250   91.326    0.556    0.281    3.100
  303.500   88.348    0.545    0.278    3.098
  303.750   88.906    0.540    0.281    3.152
  304.000   90.024    0.545    0.284    3.209
  304.250   91.723    0.557    0.288    3.264
  304.500   92.259    0.568    0.293    3.261
  304.750   92.201    0.572    0.294    3.321
  305.000   90.969    0.572    0.294    3.380
  305.250   90.364    0.558    0.291    3.441
  305.500   91.481    0.563    0.285    3.437
  305.750   93.180    0.569    0.278    3.498
  306.000   93.716    0.566    0.271    3.494
  306.250   93.670    0.550    0.265    3.691
  306.500   93.019    0.556    0.262    3.758
  306.750   92.403    0.560    0.257    3.898
  307.000   91.775    0.560    0.256    3.968
  307.250   91.718    0.536    0.253    4.038
  307.500   93.417    0.525    0.252    4.109
  307.750   95.116    0.518    0.249    4.185
  308.000   93.895    0.512    0.247    4.181
  308.250   92.709    0.502    0.245    4.253
  308.500   92.081    0.488    0.241    4.249
  308.750   93.198    0.485    0.241    4.243
  309.000   94.897    0.508    0.243    4.241
  309.250   93.676    0.536    0.244    4.316
  309.500   91.885    0.530    0.249    4.312
  309.750   91.839    0.515    0.254    4.305
  310.000   94.108    0.528    0.256    4.302
  310.250   92.899    0.539    0.255    4.296
  310.500   92.283    0.538    0.254    4.373
  310.750   92.818    0.534    0.253    4.534
  311.000   93.342    0.529    0.248    4.618
  311.250   93.296    0.502    0.245    4.699
  311.500   93.250    0.483    0.244    4.782
  311.750   93.204    0.498    0.243    4.869
  312.000   94.310    0.502    0.243    5.049
  312.250   94.264    0.486    0.243    5.046
  312.500   94.230    0.468    0.243    5.039
  312.750   92.438    0.453    0.243    4.938
  313.000   91.811    0.478    0.243    4.842
  313.250   90.590    0.499    0.244    4.837
  313.500   89.380    0.482    0.247    5.307
  313.750   83.517    0.445    0.248    6.163
  314.000   75.327    0.394    0.252    8.008
  314.250   68.870    0.388    0.279   10.603
  314.500   65.322    0.386    0.305   11.206
  314.750   64.694    0.383    0.311   11.404
  315.000   72.222    0.382    0.299   11.395
  315.250   76.237    0.389    0.278   11.380
  315.500   75.027    0.392    0.258   11.583
  315.750   74.981    0.398    0.246   12.474
  316.000   75.517    0.395    0.258   13.691
  316.250   76.053    0.400    0.248   16.816
  316.500   71.934    0.413    0.248   20.269
  316.750   63.163    0.366    0.261   23.530
  317.000   57.881    0.351    0.281   26.808
  317.250   53.170    0.337    0.311   28.869
  317.500   49.051    0.298    0.368   33.488
  317.750   44.933    0.246    0.390   36.063
  318.000   39.059    0.242    0.373   36.044
  318.250   42.503    0.261    0.351   34.669
  318.500   44.191    0.269    0.358   33.356
  318.750   43.563    0.280    0.369   31.503
  319.000   42.923    0.352    0.376   28.116
  319.250   42.307    0.381    0.374   25.562
  319.500   41.098    0.387    0.355   23.674
  319.750   41.052    0.394    0.348   23.215
  320.000   40.412    0.400    0.352   23.191
  320.250   39.785    0.418    0.356   23.166
  320.500   40.320    0.431    0.353   23.580
  320.750   40.286    0.443    0.350   23.562
  321.000   40.821    0.449    0.350   23.537
  321.250   40.775    0.436    0.350   22.639
  321.500   40.148    0.418    0.351   21.776
  321.750   64.546    0.420    0.356   20.561
  322.000   74.389    0.449    0.363   19.047
  322.250   92.365    0.521    0.378   17.985
  322.500   85.931    0.486    0.412   16.670
  322.750   86.467    0.454    0.334   15.159
  323.000   93.983    0.479    0.309   13.786
  323.250   98.009    0.496    0.325   13.768
  323.500   89.819    0.507    0.335   16.914
  323.750   64.747    0.452    0.330   20.008
  324.000   39.676    0.386    0.337   23.662
  324.250   39.048    0.376    0.344   25.964
  324.500   43.074    0.380    0.349   26.436
  324.750   46.507    0.389    0.352   26.901
  325.000   49.369    0.405    0.357   26.380
  325.250   50.487    0.418    0.350   23.531
  325.500   53.349    0.412    0.315   21.405
  325.750   57.957    0.409    0.288   19.465
  326.000   63.147    0.418    0.250   16.727
  326.250   63.671    0.429    0.261   15.212
  326.500   60.727    0.432    0.299   14.359
  326.750   56.028    0.428    0.313   16.364
  327.000   55.400    0.436    0.339   19.358
  327.250   57.087    0.438    0.347   18.967
  327.500   60.543    0.433    0.337   18.253
  327.750   69.805    0.423    0.300   17.567
  328.000   74.413    0.423    0.272   15.669
  328.250   74.355    0.429    0.265   14.250
  328.500   73.727    0.431    0.278   13.970
  328.750   73.088    0.423    0.283   15.333
  329.000   72.460    0.409    0.274   17.144
  329.250   73.578    0.405    0.263   18.457
  329.500   75.859    0.404    0.260   18.438
  329.750   76.394    0.415    0.266   18.076
  330.000   78.093    0.421    0.269   17.716
  330.250   80.386    0.413    0.277   18.042
  330.500   82.073    0.405    0.273   19.068
  330.750   79.700    0.401    0.270   19.767
  331.000   76.164    0.404    0.276   20.125
  331.250   71.464    0.414    0.285   20.104
  331.500   67.928    0.420    0.298   22.049
  331.750   66.707    0.408    0.317   22.037
  332.000   68.406    0.399    0.327   22.431
  332.250   70.105    0.408    0.328   22.407
  332.500   71.222    0.419    0.333   22.808
  332.750   72.340    0.433    0.340   23.216
  333.000   72.887    0.432    0.341   23.625
  333.250   74.004    0.426    0.327   24.048
  333.500   75.099    0.425    0.317   24.465
  333.750   74.471    0.431    0.320   24.445
  334.000   73.261    0.437    0.325   24.883
  334.250   70.888    0.442    0.331   25.321
  334.500   68.527    0.438    0.338   25.294
  334.750   70.226    0.434    0.342   25.261
  335.000   73.671    0.432    0.344   25.241
  335.250   77.103    0.436    0.344   25.221
  335.500   80.548    0.439    0.344   25.181
  335.750   80.501    0.439    0.341   25.161
  336.000   79.862    0.438    0.335   25.141
  336.250   79.805    0.433    0.329   25.114
  336.500   80.363    0.429    0.322   25.088
  336.750   81.469    0.420    0.325   25.061
  337.000   83.168    0.411    0.333   25.035
  337.250   84.868    0.412    0.322   24.080
  337.500   87.742    0.412    0.298   21.898
  337.750   92.931    0.410    0.281   18.823
  338.000   95.794    0.410    0.268   16.180
  338.250   96.329    0.412    0.257   14.171
  338.500   93.957    0.409    0.250   12.175
  338.750   95.656    0.401    0.241   11.285
  339.000   96.191    0.402    0.228   10.069
  339.250   95.540    0.419    0.202    9.509
  339.500   95.494    0.427    0.184    8.812
  339.750   97.787    0.431    0.162    7.712
  340.000  102.383    0.435    0.165    7.424
  340.250  108.747    0.472    0.165    7.278
  340.500  114.530    0.485    0.158    7.270
  340.750  116.788    0.489    0.147    7.400
  341.000  114.427    0.481    0.134    7.392
  341.250  109.727    0.477    0.144    7.247
  341.500  110.262    0.479    0.197    6.715
  341.750  116.022    0.487    0.212    6.104
  342.000  118.885    0.498    0.222    5.765
  342.250  117.093    0.505    0.230    5.241
  342.500  117.047    0.517    0.240    4.949
  342.750  117.595    0.529    0.234    5.037
  343.000  118.119    0.532    0.234    5.426
  343.250  117.480    0.518    0.242    7.887
