~VERSION INFORMATION
 VERS.                 2.0:   CWLS LOG ASCII STANDARD -VERSION 2.0
 WRAP.                  NO:   ONE LINE PER DEPTH STEP
~WELL INFORMATION BLOCK
#MNEM.UNIT           DATA                    DESCRIPTION OF MNEMONIC
#---------    -------------------            -------------------------------
# Generated from Intellog Unique Number	CS_71_72/WELL/840
WELL.         MAYNARD ET AL TWEEDIE          : Well_name    - WELL
LOC .         00/09-13-072-12W4/0            : Location     - LOCATION
UWI .         00/09-13-072-12W4/0            : Uwi          - UNIQUE WELL ID
ENTR.         SP                             : Entered      - ENTERED BY
SRVC.         SCHLUMBERGER                   : Scn          - SERVICE COMPANY
STRT.M        290                            : top_depth    - START DEPTH
STOP.M        525                            : bot_depth    - STOP DEPTH
STEP.M        0.25                           : increment    - STEP LENGTH
 NULL. -999.2500:NULL Value
~CURVE INFORMATION BLOCK
#MNEM UNIT       ERCB CURVE CODE    CURVE DESCRIPTION
#-----------   ------------------   ----------------------------------
DEPT.M        00 001 00 00         : DEPTH        - DEPTH
GR  .API      00 310 00 00         : GR           - GAMMA RAY
NPHI.V/V      00 330 00 00         : PHIN         - NEUTRON POROSITY (LIMESTONE)
DPHI.V/V      00 890 00 00         : PHID         - DENSITY POROSITY (LIMESTONE)
ILD .OHMM     00 120 00 00         : RESD         - DEEP RESISTIVITY (DIL)
~PARAMETER INFORMATION
#MNEM.UNIT           DATA             DESCRIPTION OF MNEMONIC
#---------         -----------     ------------------------------
GL  .M        639.4                : gl           - GROUND LEVEL ELEVATION
EREF.M        642.75               : kb           - ELEVATION OF DEPTH REFERENCE
DATM.M        639.4                : datum        - DATUM ELEVATION
TDD .M        540                  : tdd          - TOTAL DEPTH DRILLER
RUN .         ONE                  : Run          - RUN NUMBER
ENG .         BILL                 : Engineer     - RECORDING ENGINEER
WIT .         JIM                  : Witness      - WITNESSED BY
MUD .         GEL                  : Mud_type     - MUD TYPE
MATR.         LIMESTONE            : Logunit      - NEUTRON MATRIX
TMAX.C        10                   : BHT          - MAXIMUM RECORDED TEMPERATURE
BHTD.M        540                  : BHTDEP       - MAXIMUM RECORDED TEMPERATURE
MATR.         1                    : LOGUNIT      - NEUTRON MATRIX
RMT .C        25                   : MDTP         - TEMPERATURE OF MUD
NEUT.         1                    : NEUTRON      - NEUTRON TYPE
RESI.         0                    : RESIST       - RESISTIVITY TYPE
RMC .OHMM     0.25                 : RMC          - RESISTIVITY OF MUD CAKE
RMF .OHMM     0.25                 : RMF          - RESISTIVITY OF MUD FILTRATE
SUFT.C        15                   : SUFT         - SURFACE TEMPERATURE
~A  DEPTH       GR     PHIN     PHID     RESD
# ...
  377.000   63.817    0.429    0.379   10.916
  377.250   57.212    0.443    0.383   11.158
  377.500   53.614    0.425    0.382   11.479
  377.750   51.818    0.404    0.367   11.721
  378.000   54.856    0.392    0.366   11.963
  378.250   56.071    0.393    0.364   12.043
  378.500   58.498    0.406    0.367   12.124
  378.750   59.724    0.416    0.367   12.125
  379.000   59.735    0.421    0.363   12.126
  379.250   60.362    0.426    0.362   12.046
  379.500   60.979    0.433    0.374   11.966
  379.750   62.202    0.438    0.376   11.727
  380.000   63.427    0.435    0.384   11.727
  380.250   65.258    0.426    0.391   11.647
  380.500   66.478    0.422    0.387   11.648
  380.750   67.089    0.427    0.396   11.568
  381.000   65.899    0.432    0.387   11.569
  381.250   63.504    0.434    0.381   11.650
  381.500   62.320    0.432    0.377   11.651
  381.750   62.942    0.428    0.366   11.732
  382.000   64.163    0.427    0.352   11.893
  382.250   62.371    0.422    0.348   11.974
  382.500   61.785    0.419    0.339   12.055
  382.750   61.202    0.427    0.343   11.975
  383.000   61.821    0.430    0.353   11.333
  383.250   63.643    0.425    0.358   10.691
  383.500   64.865    0.421    0.366   10.049
  383.750   65.484    0.419    0.372    9.167
  384.000   66.721    0.428    0.372    8.444
  384.250   67.935    0.443    0.368    7.883
  384.500   69.151    0.457    0.364    7.241
  384.750   72.191    0.465    0.347    7.000
  385.000   73.409    0.470    0.341    7.242
  385.250   74.628    0.469    0.343    7.323
  385.500   75.242    0.461    0.345    7.806
  385.750   76.465    0.456    0.337    8.288
  386.000   72.874    0.448    0.334    8.771
  386.250   72.286    0.444    0.353    9.013
  386.500   74.119    0.443    0.360    9.254
  386.750   74.732    0.436    0.368    9.255
  387.000   75.347    0.428    0.369    9.014
  387.250   76.574    0.424    0.367    8.212
  387.500   79.600    0.424    0.372    7.731
  387.750   83.230    0.433    0.362    7.169
  388.000   88.066    0.443    0.349    7.009
  388.250   92.299    0.454    0.328    6.849
  388.500   95.328    0.469    0.311    6.769
  388.750   99.562    0.479    0.295    6.690
  389.000  101.989    0.491    0.287    6.691
  389.250  103.215    0.493    0.292    6.611
  389.500  103.230    0.491    0.304    6.612
  389.750  102.643    0.485    0.301    6.532
  390.000  102.663    0.481    0.294    6.532
  390.250  102.686    0.498    0.289    6.533
  390.500  102.700    0.514    0.286    6.534
  390.750  102.716    0.523    0.296    6.535
  391.000  100.922    0.508    0.307    6.696
  391.250  104.558    0.475    0.331    6.857
  391.500  106.985    0.468    0.355    7.420
  391.750  106.395    0.456    0.355    7.742
  392.000   97.379    0.435    0.359    8.385
  392.250   87.156    0.418    0.364    9.029
  392.500   78.741    0.384    0.335    9.511
  392.750   73.334    0.354    0.280    9.753
  393.000   65.516    0.318    0.222    9.673
  393.250   64.330    0.291    0.174    9.192
  393.500   69.165    0.272    0.090    8.711
  393.750   78.826    0.310    0.208    8.149
  394.000   86.677    0.350    0.248    7.427
  394.250   90.302    0.400    0.263    7.026
  394.500   92.128    0.420    0.278    6.545
  394.750   91.547    0.437    0.287    6.465
  395.000   90.958    0.432    0.293    6.546
  395.250   91.576    0.427    0.303    6.788
  395.500   91.598    0.432    0.317    6.949
  395.750   92.218    0.437    0.326    7.030
  396.000   91.634    0.439    0.334    7.111
  396.250   91.647    0.443    0.337    7.112
  396.500   91.068    0.446    0.328    7.032
  396.750   91.679    0.455    0.317    6.712
  397.000   92.903    0.461    0.308    6.632
  397.250   93.523    0.471    0.306    6.472
  397.500   92.337    0.480    0.308    6.392
  397.750   91.146    0.486    0.320    6.312
  398.000   89.357    0.475    0.322    6.233
  398.250   88.771    0.455    0.312    6.314
  398.500   91.202    0.447    0.301    6.314
  398.750   93.630    0.440    0.284    6.395
  399.000   93.644    0.439    0.271    6.477
  399.250   91.856    0.442    0.279    6.557
  399.500   90.666    0.445    0.278    6.719
  399.750   90.080    0.448    0.284    6.880
  400.000   90.100    0.456    0.290    7.122
  400.250   91.317    0.462    0.301    7.203
  400.500   94.954    0.450    0.316    7.364
  400.750   97.379    0.464    0.326    7.445
  401.000   98.598    0.468    0.324    7.446
  401.250   99.223    0.471    0.319    7.366
  401.500   98.635    0.472    0.319    7.366
  401.750   99.252    0.464    0.320    7.207
  402.000  101.077    0.460    0.314    7.207
  402.250  102.303    0.454    0.310    7.208
  402.500   98.701    0.452    0.303    7.289
  402.750   93.901    0.452    0.301    7.370
  403.000   89.699    0.460    0.318    7.451
  403.250   86.104    0.467    0.331    7.532
  403.500   87.324    0.479    0.343    7.452
  403.750   90.959    0.487    0.348    7.212
  404.000   93.986    0.495    0.298    6.972
  404.250   97.021    0.479    0.284    6.892
  404.500   99.444    0.467    0.291    6.572
  404.750  100.663    0.462    0.293    6.411
  405.000  102.492    0.454    0.300    6.332
  405.250  101.904    0.454    0.292    6.252
  405.500  100.722    0.459    0.279    6.333
  405.750  101.939    0.465    0.281    6.494
  406.000  103.161    0.468    0.282    6.495
  406.250  105.588    0.471    0.283    6.657
  406.500  107.415    0.474    0.282    6.657
  406.750  107.431    0.475    0.282    6.658
  407.000  107.452    0.476    0.278    6.658
  407.250  107.463    0.480    0.275    6.659
  407.500  107.480    0.482    0.276    6.579
  407.750  106.895    0.481    0.282    6.420
  408.000  102.694    0.468    0.283    6.340
  408.250  101.511    0.456    0.282    6.340
  408.500  100.921    0.456    0.277    6.421
  408.750  102.746    0.458    0.258    6.663
  409.000  104.570    0.463    0.252    6.744
  409.250  100.979    0.453    0.243    6.825
  409.500   99.183    0.457    0.237    6.745
  409.750   97.392    0.472    0.241    6.585
  410.000   98.017    0.483    0.254    6.345
  410.250  100.441    0.494    0.259    6.266
  410.500  101.663    0.498    0.257    6.186
  410.750  102.281    0.483    0.256    6.106
  411.000  105.313    0.464    0.260    6.107
  411.250  105.932    0.452    0.273    6.348
  411.500  107.160    0.446    0.278    6.349
  411.750  107.772    0.446    0.285    6.189
  412.000  110.202    0.453    0.279    5.306
  412.250  112.633    0.470    0.274    4.423
  412.500  113.244    0.499    0.281    3.540
  412.750  115.677    0.518    0.303    3.220
  413.000  117.500    0.540    0.311    2.739
  413.250  118.116    0.556    0.319    2.578
  413.500  118.132    0.581    0.326    2.338
  413.750  114.538    0.599    0.331    2.339
  414.000  110.945    0.576    0.335    2.340
  414.250  109.754    0.544    0.321    2.421
  414.500  109.168    0.513    0.314    2.903
  414.750  109.182    0.485    0.309    3.466
  415.000  109.202    0.466    0.289    3.788
  415.250  108.011    0.464    0.275    4.271
  415.500  105.018    0.469    0.272    4.673
  415.750  103.830    0.466    0.277    5.075
  416.000  103.250    0.459    0.287    5.317
  416.250  102.056    0.458    0.290    5.478
  416.500  100.874    0.471    0.296    5.559
  416.750   99.681    0.476    0.292    5.480
  417.000   97.890    0.482    0.282    5.400
  417.250   96.103    0.470    0.277    5.401
  417.500   96.121    0.467    0.271    5.401
  417.750   99.156    0.463    0.273    5.402
  418.000  100.371    0.465    0.276    5.403
  418.250  104.011    0.477    0.301    5.403
  418.500  102.211    0.475    0.322    5.404
  418.750   99.821    0.480    0.326    5.405
  419.000  104.665    0.481    0.330    5.406
  419.250  106.482    0.480    0.321    5.486
  419.500  108.304    0.473    0.318    5.487
  419.750  104.105    0.466    0.314    5.648
  420.000   97.498    0.463    0.313    5.729
  420.250   92.092    0.459    0.326    5.890
