~VERSION INFORMATION
 VERS.                 2.0:   CWLS LOG ASCII STANDARD -VERSION 2.0
 WRAP.                  NO:   ONE LINE PER DEPTH STEP
~WELL INFORMATION BLOCK
#MNEM.UNIT           DATA                    DESCRIPTION OF MNEMONIC
#---------    -------------------            -------------------------------
# Generated from Intellog Unique Number	CW_76_78/WELL/288
WELL.         PRECAM ET AL MARTEN HILLS 05-2 : Well_name    - WELL
LOC .         00/05-23-076-01W5/0            : Location     - LOCATION
UWI .         00/05-23-076-01W5/0            : Uwi          - UNIQUE WELL ID
ENTR.         JAYE                           : Entered      - ENTERED BY
SRVC.         SCHLUMBERGER                   : Scn          - SERVICE COMPANY
DATE.         11 FEB 84                      : Date         - LOG DATE
STRT.M        575                            : top_depth    - START DEPTH
STOP.M        775                            : bot_depth    - STOP DEPTH
STEP.M        0.25                           : increment    - STEP LENGTH
 NULL. -999.2500:NULL Value
~CURVE INFORMATION BLOCK
#MNEM UNIT       ERCB CURVE CODE    CURVE DESCRIPTION
#-----------   ------------------   ----------------------------------
DEPT.M        00 001 00 00         : DEPTH        - DEPTH
ILD .OHMM     00 120 00 00         : RESD         - DEEP RESISTIVITY (DIL)
NPHI.V/V      00 330 00 00         : PHIN         - NEUTRON POROSITY (SANDSTONE)
DPHI.V/V      00 890 00 00         : PHID         - DENSITY POROSITY (SANDSTONE)
GR  .API      00 310 00 00         : GR           - GAMMA RAY
CALI.MM       00 280 01 00         : CAL          - CALIPER
~PARAMETER INFORMATION
#MNEM.UNIT           DATA             DESCRIPTION OF MNEMONIC
#---------         -----------     ------------------------------
GL  .M        862.83               : gl           - GROUND LEVEL ELEVATION
EREF.M        866.33               : kb           - ELEVATION OF DEPTH REFERENCE
DATM.M        862.83               : datum        - DATUM ELEVATION
TDD .M        776                  : tdd          - TOTAL DEPTH DRILLER
RUN .         ONE                  : Run          - RUN NUMBER
ENG .         ACKERMAN             : Engineer     - RECORDING ENGINEER
WIT .         KOCSIS               : Witness      - WITNESSED BY
BASE.         EDM                  : Branch       - HOME BASE OF LOGGING UNIT
MUD .         GEL CHEM             : Mud_type     - MUD TYPE
MATR.         SANDSTONE            : Logunit      - NEUTRON MATRIX
TMAX.C        32.2                 : BHT          - MAXIMUM RECORDED TEMPERATURE
BHTD.M        773                  : BHTDEP       - MAXIMUM RECORDED TEMPERATURE
RMT .C        22                   : MDTP         - TEMPERATURE OF MUD
MUDD.KG/M     9.5                  : MWT          - MUD DENSITY
NEUT.         1                    : NEUTRON      - NEUTRON TYPE
RESI.         0                    : RESIST       - RESISTIVITY TYPE
RM  .OHMM     4.377                : RM           - RESISTIVITY OF MUD
RMC .OHMM     0                    : RMC          - RESISTIVITY OF MUD CAKE
RMF .OHMM     5.828                : RMF          - RESISTIVITY OF MUD FILTRATE
SUFT.C        0                    : SUFT         - SURFACE TEMPERATURE
~A  DEPTH     RESD     PHIN     PHID       GR      CAL
  575.000    2.714    0.484    0.202  109.781  219.075
  575.250    2.685    0.476    0.201  105.638  219.843
  575.500    2.681    0.466    0.195  110.149  219.684
  575.750    2.657    0.459    0.187  114.097  219.947
  576.000    2.648    0.466    0.191  109.772  219.686
  576.250    2.619    0.478    0.195  105.571  219.109
  576.500    2.587    0.490    0.191  102.984  218.948
  576.750    2.587    0.486    0.175   96.666  218.898
  577.000    2.603    0.466    0.175   94.644  218.320
  577.250    2.658    0.487    0.178  106.807  217.751
  577.500    2.802    0.441    0.183  108.081  217.065
  577.750    2.943    0.463    0.192  103.568  217.006
  578.000    3.096    0.474    0.182   96.999  217.067
  578.250    3.295    0.430    0.162   93.296  216.794
  578.500    3.715    0.406    0.160   89.463  216.234
  578.750    3.901    0.389    0.164   88.685  215.657
  579.000    3.859    0.406    0.172   92.200  214.662
  579.250    3.678    0.425    0.180   91.546  213.993
  579.500    3.395    0.439    0.194   87.529  213.509
  579.750    3.122    0.452    0.204   89.860  213.150
  580.000    2.834    0.476    0.213   93.873  212.677
  580.250    2.680    0.491    0.224   96.515  212.205
  580.500    2.498    0.519    0.227   87.457  212.155
  580.750    2.536    0.534    0.232   77.407  212.310
  581.000    2.892    0.399    0.244   65.114  212.353
  581.250    3.990    0.393    0.251   61.845  212.402
  581.500    5.956    0.406    0.252   64.859  212.560
  581.750    7.471    0.409    0.256   67.254  212.816
  582.000    8.893    0.402    0.260   68.094  212.972
  582.250    9.953    0.397    0.257   62.769  213.125
  582.500   10.316    0.412    0.239   58.942  213.273
  582.750   10.515    0.427    0.222   52.250  213.428
  583.000   10.819    0.437    0.227   47.736  213.475
  583.250   10.965    0.433    0.247   50.193  213.423
  583.500   11.031    0.412    0.276   54.516  213.057
  583.750   10.892    0.404    0.282   56.096  212.684
  584.000   10.776    0.413    0.286   55.817  212.534
  584.250   10.720    0.429    0.294   52.860  211.848
  584.500   10.723    0.431    0.289   51.645  211.285
  584.750   10.869    0.426    0.289   52.295  210.809
  585.000   11.099    0.416    0.290   52.763  210.446
  585.250   11.548    0.408    0.296   52.853  210.485
  585.500   12.174    0.420    0.292   56.306  210.749
  585.750   12.857    0.440    0.287   52.038  210.992
  586.000   13.377    0.458    0.282   48.213  211.058
  586.250   13.659    0.460    0.277   47.804  210.993
  586.500   14.081    0.437    0.277   51.379  210.732
  586.750   14.325    0.418    0.283   51.723  210.575
  587.000   14.627    0.409    0.298   51.876  210.730
  587.250   15.050    0.416    0.302   53.398  210.669
  587.500   15.398    0.408    0.305   53.615  210.506
  587.750   15.900    0.408    0.301   54.140  210.359
  588.000   16.267    0.436    0.297   57.407  210.298
  588.250   16.396    0.456    0.296   54.821  210.236
  588.500   16.372    0.443    0.297   53.231  210.195
  588.750   16.135    0.415    0.295   53.448  210.137
  589.000   15.962    0.429    0.295   53.974  210.394
  589.250   15.790    0.454    0.303   55.500  210.758
  589.500   15.707    0.456    0.309   54.656  211.208
  589.750   15.597    0.444    0.312   52.384  211.375
  590.000   15.200    0.429    0.305   52.598  211.519
  590.250   14.648    0.416    0.298   53.378  211.563
  590.500   14.168    0.444    0.288   53.965  211.416
  590.750   13.476    0.469    0.277   52.004  211.259
  591.000   12.770    0.421    0.278   48.857  211.088
  591.250   12.214    0.397    0.280   52.248  210.937
  591.500   11.617    0.408    0.289   54.330  210.870
  591.750   11.070    0.411    0.305   51.997  210.921
  592.000   10.452    0.436    0.320   55.572  210.971
  592.250   10.166    0.465    0.312   59.149  211.032
  592.500    9.815    0.468    0.301   61.605  210.978
  592.750    9.583    0.455    0.291   60.951  211.330
  593.000    9.287    0.458    0.292   55.005  211.685
  593.250    9.084    0.430    0.296   51.737  211.735
  593.500    8.903    0.443    0.298   56.309  211.990
  593.750    8.906    0.439    0.299   58.453  212.032
  594.000    9.095    0.406    0.299   56.554  212.096
  594.250    9.323    0.410    0.296   56.397  212.132
  594.500    9.449    0.404    0.292   58.854  212.191
  594.750    9.524    0.384    0.295   59.563  212.335
  595.000    9.563    0.394    0.293   55.737  211.973
  595.250    9.567    0.411    0.283   52.904  210.890
  595.500    9.606    0.421    0.282   52.620  209.273
  595.750    9.664    0.426    0.283   52.901  209.224
  596.000    9.507    0.428    0.286   55.350  209.684
  596.250    9.264    0.423    0.293   56.691  210.252
  596.500    9.029    0.413    0.295   55.103  210.719
  596.750    8.766    0.424    0.287   52.517  211.067
  597.000    8.639    0.442    0.285   51.735  211.331
  597.250    8.740    0.435    0.283   53.386  211.485
  597.500    9.026    0.410    0.289   57.146  211.529
  597.750    9.373    0.405    0.291   59.045  211.681
  598.000    9.644    0.417    0.277   57.085  211.734
  598.250    9.720    0.424    0.266   50.453  212.095
  598.500    9.455    0.428    0.264   47.433  212.863
  598.750    8.959    0.419    0.268   46.654  213.419
  599.000    8.554    0.422    0.282   48.299  213.794
  599.250    8.336    0.441    0.291   50.448  214.368
  599.500    8.386    0.434    0.286   51.784  215.544
  599.750    8.613    0.403    0.281   48.327  216.427
  600.000    8.794    0.407    0.273   46.427  216.782
  600.250    9.167    0.373    0.264   47.574  217.357
  600.500    9.700    0.379    0.263   48.540  217.715
  600.750   10.073    0.388    0.268   47.884  217.861
  601.000   10.133    0.385    0.263   48.288  217.919
  601.250    9.876    0.372    0.254   47.942  217.763
  601.500    9.535    0.378    0.245   45.109  217.919
  601.750    9.035    0.378    0.236   47.317  218.278
  602.000    8.278    0.356    0.226   58.798  218.934
  602.250    7.252    0.358    0.212   69.034  219.300
  602.500    6.509    0.371    0.203   73.855  219.863
  602.750    5.670    0.384    0.197   80.168  220.340
  603.000    5.118    0.399    0.182   87.045  221.429
  603.250    4.725    0.419    0.176   92.797  222.618
  603.500    4.536    0.445    0.192   97.185  222.771
  603.750    4.782    0.468    0.220   88.749  219.812
  604.000    5.703    0.438    0.206   81.996  217.365
  604.250    7.248    0.367    0.192   74.496  216.279
  604.500    7.946    0.349    0.184   68.860  216.535
  604.750    8.471    0.333    0.187   70.383  218.137
  605.000    6.912    0.384    0.159   83.420  219.424
  605.250    5.273    0.399    0.132   95.584  220.614
  605.500    4.286    0.416    0.133  105.074  221.910
  605.750    3.420    0.439    0.157  117.673  222.482
  606.000    3.058    0.463    0.163  122.746  221.909
  606.250    3.059    0.477    0.148  112.505  220.707
  606.500    3.379    0.452    0.134  112.473  219.715
  606.750    3.691    0.433    0.128  121.774  218.621
  607.000    3.994    0.486    0.147  124.790  218.577
  607.250    4.282    0.526    0.207  114.800  218.207
  607.500    4.765    0.472    0.231  101.450  217.639
  607.750    5.383    0.413    0.258   85.049  217.066
  608.000    6.219    0.375    0.256   81.777  216.595
  608.250    7.158    0.371    0.241   80.689  216.847
  608.500    7.848    0.364    0.238   86.631  217.515
  608.750    8.304    0.363    0.233   94.190  218.391
  609.000    8.338    0.367    0.200   92.474  219.487
  609.250    8.080    0.371    0.185   93.627  221.294
  609.500    7.307    0.381    0.197   98.697  222.476
  609.750    6.377    0.393    0.194  107.502  223.158
  610.000    5.312    0.410    0.201  115.309  223.407
  610.250    4.688    0.438    0.195  108.182  222.427
  610.500    4.896    0.431    0.201   94.644  220.607
  610.750    6.411    0.392    0.230   79.986  218.164
  611.000    7.908    0.372    0.271   67.754  216.137
  611.250    9.084    0.376    0.281   62.369  215.255
