~VERSION INFORMATION
 VERS.                 2.0:   CWLS LOG ASCII STANDARD -VERSION 2.0
 WRAP.                  NO:   ONE LINE PER DEPTH STEP
~WELL INFORMATION BLOCK
#MNEM.UNIT           DATA                    DESCRIPTION OF MNEMONIC
#---------    -------------------            -------------------------------
# Generated from Intellog Unique Number	CS_77_79/WELL/901
WELL.         CWWE WINEFRED                  : Well_name    - WELL
LOC .         00/07-19-078-03W4/0            : Location     - LOCATION
UWI .         00/07-19-078-03W4/0            : Uwi          - UNIQUE WELL ID
ENTR.         JHS                            : Entered      - ENTERED BY
SRVC.         SCHLUMBERGER                   : Scn          - SERVICE COMPANY
STRT.M        135                            : top_depth    - START DEPTH
STOP.M        415                            : bot_depth    - STOP DEPTH
STEP.M        0.25                           : increment    - STEP LENGTH
 NULL. -999.2500:NULL Value
~CURVE INFORMATION BLOCK
#MNEM UNIT       ERCB CURVE CODE    CURVE DESCRIPTION
#-----------   ------------------   ----------------------------------
DEPT.M        00 001 00 00         : DEPTH        - DEPTH
DPHI.V/V      00 890 00 00         : PHID         - DENSITY POROSITY (LIMESTONE)
NPHI.V/V      00 330 00 00         : PHIN         - NEUTRON POROSITY (LIMESTONE)
GR  .API      00 310 00 00         : GR           - GAMMA RAY
ILD .OHMM     00 120 00 00         : RESD         - DEEP RESISTIVITY (DIL)
RHOB.KG/M3    00 350 00 00         : DENS         - BULK DENSITY
~PARAMETER INFORMATION
#MNEM.UNIT           DATA             DESCRIPTION OF MNEMONIC
#---------         -----------     ------------------------------
GL  .M        556.2                : gl           - GROUND LEVEL ELEVATION
EREF.M        560.15               : kb           - ELEVATION OF DEPTH REFERENCE
DATM.M        560.15               : datum        - DATUM ELEVATION
TDD .M        423                  : tdd          - TOTAL DEPTH DRILLER
RUN .         ONE                  : Run          - RUN NUMBER
ENG .         BILL                 : Engineer     - RECORDING ENGINEER
WIT .         JIM                  : Witness      - WITNESSED BY
MUD .         GEL                  : Mud_type     - MUD TYPE
MATR.         LIMESTONE            : Logunit      - NEUTRON MATRIX
TMAX.C        24                   : BHT          - MAXIMUM RECORDED TEMPERATURE
BHTD.M        423                  : BHTDEP       - MAXIMUM RECORDED TEMPERATURE
MATR.         1                    : LOGUNIT      - NEUTRON MATRIX
RMT .C        25                   : MDTP         - TEMPERATURE OF MUD
NEUT.         1                    : NEUTRON      - NEUTRON TYPE
RESI.         0                    : RESIST       - RESISTIVITY TYPE
RMC .OHMM     0.25                 : RMC          - RESISTIVITY OF MUD CAKE
RMF .OHMM     0.25                 : RMF          - RESISTIVITY OF MUD FILTRATE
SUFT.C        15                   : SUFT         - SURFACE TEMPERATURE
~A  DEPTH     PHID     PHIN       GR     RESD     DENS
# ...
  281.000    0.225    0.455   84.627    7.226 2325.190
  281.250    0.210    0.440   84.635    7.372 2350.560
  281.500    0.203    0.430   87.785    7.665 2363.260
  281.750    0.206    0.424   87.793    7.820 2356.970
  282.000    0.218    0.420   87.173    8.136 2338.000
  282.250    0.227    0.413   84.673    7.988 2321.140
  282.500    0.237    0.413   81.545    7.998 2304.290
  282.750    0.243    0.431   81.555    7.710 2293.770
  283.000    0.242    0.426   83.447    7.870 2295.910
  283.250    0.256    0.403   82.827    8.025 2272.720
  283.500    0.279    0.391   73.423    8.190 2232.650
  283.750    0.287    0.387   72.179    8.351 2220.020
  284.000    0.269    0.384   74.069    8.207 2249.610
  284.250    0.241    0.398   77.846    7.911 2298.200
  284.500    0.225    0.420   80.993    7.624 2325.680
  284.750    0.222    0.441   83.513    7.210 2329.940
  285.000    0.227    0.441   82.894    6.571 2321.530
  285.250    0.237    0.427   80.392    6.331 2304.670
  285.500    0.230    0.422   84.796    5.767 2317.390
  285.750    0.228    0.437   84.177    5.250 2319.520
  286.000    0.237    0.454   83.561    4.434 2304.780
  286.250    0.267    0.478   83.571    3.604 2254.150
  286.500    0.283    0.511   81.069    2.821 2226.740
  286.750    0.275    0.523   80.450    2.522 2239.450
  287.000    0.270    0.513   80.460    2.385 2247.920
  287.250    0.273    0.515   79.843    2.343 2243.740
  287.500    0.281    0.510   79.851    2.303 2228.990
  287.750    0.289    0.492   77.977    2.305 2216.360
  288.000    0.282    0.490   74.849    2.352 2226.950
  288.250    0.284    0.511   79.880    2.354 2224.870
  288.500    0.275    0.542   84.910    2.448 2239.690
  288.750    0.266    0.538   86.176    2.545 2254.510
  289.000    0.259    0.519   83.048    2.696 2267.210
  289.250    0.253    0.498   79.291    3.082 2277.800
  289.500    0.247    0.474   76.163    3.456 2288.380
  289.750    0.250    0.406   74.288    3.876 2282.080
  290.000    0.264    0.393   73.042    4.346 2258.900
  290.250    0.245    0.418   78.074    4.782 2290.600
  290.500    0.230    0.421   79.965    5.366 2315.970
  290.750    0.227    0.407   78.093    5.472 2322.340
  291.000    0.235    0.396   78.101    5.798 2307.600
  291.250    0.230    0.385   78.741    6.030 2316.080
  291.500    0.229    0.378   76.238    6.151 2318.220
  291.750    0.246    0.382   79.387    5.817 2288.700
  292.000    0.251    0.402   82.534    5.202 2280.290
  292.250    0.240    0.418   85.680    4.919 2299.350
  292.500    0.238    0.434   91.339    4.652 2303.590
  292.750    0.233    0.440   95.115    4.317 2312.070
  293.000    0.228    0.431   91.985    4.084 2320.560
  293.250    0.222    0.426   84.463    3.863 2331.150
  293.500    0.217    0.426   88.865    3.724 2339.620
  293.750    0.214    0.436   91.385    3.659 2343.880
  294.000    0.219    0.451   90.769    3.594 2335.470
  294.250    0.223    0.470   93.915    3.529 2329.160
  294.500    0.220    0.476   92.043    3.534 2333.420
  294.750    0.224    0.465   89.544    3.537 2327.130
  295.000    0.230    0.460   88.297    3.610 2316.600
  295.250    0.231    0.478   88.306    3.683 2314.530
  295.500    0.229    0.484   90.826    3.902 2318.790
  295.750    0.229    0.478   90.207    4.057 2318.830
  296.000    0.234    0.467   85.196    4.551 2310.420
  296.250    0.245    0.439   80.811    4.821 2291.450
  296.500    0.256    0.418   77.058    5.108 2272.480
  296.750    0.261    0.409   77.065    5.516 2264.070
  297.000    0.241    0.416   81.469    5.525 2297.880
  297.250    0.226    0.424   83.989    5.529 2323.250
  297.500    0.214    0.429   85.880    5.640 2344.400
  297.750    0.214    0.425   87.145    5.976 2344.440
  298.000    0.227    0.398   80.249    6.704 2321.250
  298.250    0.237    0.363   68.965    7.240 2304.390
  298.500    0.200    0.325   65.835    7.815 2367.760
  298.750    0.069    0.301   61.449    8.932 2591.570
  299.000    0.048    0.280   56.440   10.405 2627.500
  299.250    0.182    0.266   61.468   11.233 2399.530
  299.500    0.285    0.277   67.757   12.365 2222.230
  299.750    0.296    0.310   69.021   12.855 2203.270
  300.000    0.307    0.307   69.366   12.630 2185.290
  300.250    0.303    0.291   72.528   12.164 2191.730
  300.500    0.277    0.301   75.064   10.659 2236.280
  300.750    0.268    0.315   70.100    9.517 2251.220
  301.000    0.279    0.331   67.648    7.731 2232.290
  301.250    0.285    0.350   68.298    6.400 2221.860
  301.500    0.278    0.387   75.835    5.400 2234.670
  301.750    0.258    0.413   84.621    4.731 2268.640
  302.000    0.242    0.411   89.663    4.557 2296.240
  302.250    0.223    0.399   90.323    4.646 2328.100
  302.500    0.203    0.379   88.485    4.919 2362.060
  302.750    0.198    0.342   83.515    5.307 2370.650
  303.000    0.212    0.307   73.559    6.415 2347.500
  303.250    0.235    0.282   67.966    8.524 2307.440
  303.500    0.254    0.261   63.634   12.216 2275.850
  303.750    0.284    0.250   55.542   15.048 2225.200
  304.000    0.328    0.238   46.207   20.766 2149.200
  304.250    0.322    0.222   51.250   28.119 2159.910
  304.500    0.306    0.210   54.404   34.637 2187.520
  304.750    0.291    0.203   54.445   40.314 2213.000
  305.000    0.279    0.204   51.978   39.572 2232.180
  305.250    0.284    0.208   45.771   38.114 2223.830
  305.500    0.294    0.200   41.426   38.125 2207.040
  305.750    0.314    0.178   34.591   41.138 2173.320
  306.000    0.346    0.158   28.376   47.880 2118.450
  306.250    0.348    0.149   27.170   57.872 2114.380
  306.500    0.342    0.150   28.452   71.290 2125.040
  306.750    0.341    0.160   28.489   81.416 2127.300
  307.000    0.337    0.164   29.147   83.000 2133.770
  307.250    0.331    0.166   32.934   81.475 2144.480
  307.500    0.326    0.175   33.597   79.972 2153.050
  307.750    0.334    0.170   31.764   79.996 2138.370
  308.000    0.349    0.155   29.924   81.551 2113.100
  308.250    0.353    0.155   31.833   77.073 2106.880
  308.500    0.359    0.170   40.621   70.144 2096.450
  308.750    0.345    0.230   43.782   65.044 2119.840
  309.000    0.322    0.239   43.815   59.191 2160.130
  309.250    0.310    0.240   38.854   54.893 2179.300
  309.500    0.320    0.237   33.892   51.880 2162.500
  309.750    0.330    0.232   29.555   51.897 2145.720
  310.000    0.321    0.227   29.587   50.942 2160.640
  310.250    0.304    0.220   32.127   49.069 2190.370
  310.500    0.300    0.222   33.420   47.259 2196.840
  310.750    0.310    0.228   34.074   43.829 2180.060
  311.000    0.316    0.233   36.609   39.884 2169.580
  311.250    0.307    0.241   36.025   35.615 2184.510
  311.500    0.308    0.250   35.439   33.030 2182.520
  311.750    0.313    0.255   35.476   32.423 2174.190
  312.000    0.316    0.253   34.258   32.432 2170.110
  312.250    0.323    0.237   31.795   32.442 2157.520
  312.500    0.330    0.227   34.961   31.846 2144.970
  312.750    0.325    0.227   38.745   31.256 2153.540
  313.000    0.310    0.230   40.655   28.447 2179.060
  313.250    0.309    0.229   37.575   26.379 2181.280
  313.500    0.328    0.225   34.483   21.429 2149.690
  313.750    0.349    0.219   32.636   18.078 2113.850
  314.000    0.358    0.213   30.798   14.140 2097.050
  314.250    0.353    0.210   30.216   10.649 2105.660
  314.500    0.340    0.224   30.872    8.020 2129.030
  314.750    0.320    0.252   32.164    5.392 2162.990
  315.000    0.299    0.290   32.843    4.138 2199.080
  315.250    0.284    0.303   32.860    3.237 2224.580
  315.500    0.290    0.312   31.020    2.783 2214.120
  315.750    0.310    0.317   27.309    2.581 2180.410
  316.000    0.322    0.325   25.481    2.486 2159.390
  316.250    0.328    0.341   27.380    2.440 2148.930
  316.500    0.328    0.360   33.051    2.441 2149.070
  316.750    0.317    0.371   34.952    2.396 2168.230
  317.000    0.307    0.363   33.739    2.397 2185.280
  317.250    0.314    0.348   31.899    2.397 2172.700
