~VERSION INFORMATION
 VERS.                 2.0:   CWLS LOG ASCII STANDARD -VERSION 2.0
 WRAP.                  NO:   ONE LINE PER DEPTH STEP
~WELL INFORMATION BLOCK
#MNEM.UNIT           DATA                    DESCRIPTION OF MNEMONIC
#---------    -------------------            -------------------------------
# Generated from Intellog Unique Number	CS_77_79/WELL/854
WELL.         HB THORNBURY                   : Well_name    - WELL
LOC .         00/05-10-078-12W4/0            : Location     - LOCATION
UWI .         00/05-10-078-12W4/0            : Uwi          - UNIQUE WELL ID
ENTR.         JHS                            : Entered      - ENTERED BY
SRVC.         SCHLUMBERGER                   : Scn          - SERVICE COMPANY
STRT.M        256.032                        : top_depth    - START DEPTH
STOP.M        478.282                        : bot_depth    - STOP DEPTH
STEP.M        0.25                           : increment    - STEP LENGTH
 NULL. -999.2500:NULL Value
~CURVE INFORMATION BLOCK
#MNEM UNIT       ERCB CURVE CODE    CURVE DESCRIPTION
#-----------   ------------------   ----------------------------------
DEPT.M        00 001 00 00         : DEPTH        - DEPTH
RHOB.KG/M3    00 350 00 00         : DENS         - BULK DENSITY
GR  .API      00 310 00 00         : GR           - GAMMA RAY
DPHI.V/V      00 890 00 00         : PHID         - DENSITY POROSITY (SANDSTONE)
NPHI.V/V      00 330 00 00         : PHIN         - NEUTRON POROSITY (SANDSTONE)
ILD .OHMM     00 120 00 00         : RESD         - DEEP RESISTIVITY (DIL)
~PARAMETER INFORMATION
#MNEM.UNIT           DATA             DESCRIPTION OF MNEMONIC
#---------         -----------     ------------------------------
GL  .M        674.797              : gl           - GROUND LEVEL ELEVATION
EREF.M        674.797              : kb           - ELEVATION OF DEPTH REFERENCE
DATM.M        674.797              : datum        - DATUM ELEVATION
TDD .M        484.632              : tdd          - TOTAL DEPTH DRILLER
RUN .         ONE                  : Run          - RUN NUMBER
ENG .         BILL                 : Engineer     - RECORDING ENGINEER
WIT .         JIM                  : Witness      - WITNESSED BY
MUD .         GEL                  : Mud_type     - MUD TYPE
MATR.         SANDSTONE            : Logunit      - NEUTRON MATRIX
TMAX.C        21.6667              : BHT          - MAXIMUM RECORDED TEMPERATURE
BHTD.M        484.632              : BHTDEP       - MAXIMUM RECORDED TEMPERATURE
MATR.         1                    : LOGUNIT      - NEUTRON MATRIX
RMT .C        25                   : MDTP         - TEMPERATURE OF MUD
NEUT.         1                    : NEUTRON      - NEUTRON TYPE
RESI.         0                    : RESIST       - RESISTIVITY TYPE
RMC .OHMM     0.25                 : RMC          - RESISTIVITY OF MUD CAKE
RMF .OHMM     0.25                 : RMF          - RESISTIVITY OF MUD FILTRATE
SUFT.C        15                   : SUFT         - SURFACE TEMPERATURE
~A  DEPTH     DENS       GR     PHID     PHIN     RESD
# ...
  402.032    0.000   77.898    0.326    0.484    5.840
  402.282    0.000   76.227    0.315    0.475    5.844
  402.532    0.000   76.197    0.304    0.461    5.855
  402.782   -0.000   78.253    0.305    0.466    5.754
  403.032   -0.000   83.480    0.324    0.494    5.750
  403.282   -0.000   84.762    0.345    0.507    5.742
  403.532    0.000   83.718    0.332    0.505    5.557
  403.782    0.000   82.409    0.342    0.495    5.508
  404.032    0.000   81.125    0.338    0.492    5.455
  404.282   -0.000   81.224    0.326    0.494    5.455
  404.532   -0.000   80.341    0.317    0.487    5.462
  404.782   -0.000   79.398    0.319    0.480    5.464
  405.032    0.000   78.751    0.320    0.482    5.575
  405.282    0.000   79.777    0.328    0.488    5.574
  405.532   -0.000   81.865    0.329    0.497    5.570
  405.782   -0.000   82.954    0.343    0.497    5.690
  406.032   -0.000   83.185    0.327    0.493    5.685
  406.282    0.000   83.231    0.333    0.502    5.688
  406.532    0.000   83.188    0.325    0.485    5.680
  406.782    0.000   83.914    0.311    0.470    5.805
  407.032   -0.000   84.431    0.299    0.463    5.893
  407.282   -0.000   84.794    0.302    0.463    5.950
  407.532   -0.000   85.217    0.295    0.463    6.150
  407.782    0.000   85.933    0.291    0.466    6.265
  408.032    0.000   85.234    0.283    0.468    6.261
  408.282   -0.000   84.685    0.277    0.464    6.267
  408.532   -0.000   83.262    0.298    0.478    6.159
  408.782   -0.000   82.827    0.311    0.491    6.033
  409.032    0.000   85.125    0.294    0.480    6.056
  409.282    0.000   87.751    0.301    0.471    5.934
  409.532    0.000   86.339    0.316    0.477    5.950
  409.782   -0.000   85.879    0.299    0.471    5.863
  410.032   -0.000   87.950    0.284    0.477    5.678
  410.282   -0.000   88.493    0.299    0.465    5.625
  410.532    0.002   87.904    0.308    0.447    5.287
  410.782    0.018   90.468    0.296    0.443    5.004
  411.032    0.014   95.985    0.281    0.500    4.965
  411.282   -1.209   98.798    0.268    0.489    5.192
  411.532  -10.625   97.207    0.276    0.479    5.398
  411.782   18.029   91.367    0.269    0.468    5.756
  412.032 1344.890   87.081    0.280    0.448    5.997
  412.282 2156.520   83.392    0.291    0.456    6.409
  412.532 2233.250   78.832    0.281    0.477    6.797
  412.782 2296.470   79.214    0.242    0.459    7.220
  413.032 2373.020   85.329    0.197    0.413    7.490
  413.282 2424.730   92.047    0.167    0.441    7.386
  413.532 2280.060   94.639    0.251    0.503    6.918
  413.782 2202.350   93.151    0.297    0.501    6.449
  414.032 2198.280   92.117    0.299    0.478    6.150
  414.282 2225.450   92.929    0.283    0.464    5.996
  414.532 2256.660   96.926    0.265    0.466    6.130
  414.782 2297.010   98.617    0.242    0.468    6.132
  415.032 2311.470   98.724    0.233    0.471    6.137
  415.282 2314.370   97.124    0.231    0.477    6.141
  415.532 2324.060   96.457    0.226    0.467    6.156
  415.782 2357.510   96.628    0.206    0.468    6.025
  416.032 2340.330   98.798    0.216    0.468    6.050
  416.282 2303.740  100.048    0.238    0.481    5.932
  416.532 2314.310  102.869    0.231    0.493    5.822
  416.782 2344.590  105.473    0.214    0.481    5.833
  417.032 2331.970  106.442    0.221    0.467    5.835
  417.282 2289.300  105.757    0.246    0.471    5.838
  417.532 2319.410  105.849    0.228    0.499    5.833
  417.782 2326.020  104.957    0.225    0.491    5.992
  418.032 2341.760  104.667    0.215    0.477    6.176
  418.282 2322.060  103.128    0.227    0.470    6.364
  418.532 2339.400  101.713    0.217    0.467    6.753
  418.782 2379.410  102.169    0.193    0.458    7.164
  419.032 2400.550  106.728    0.181    0.431    7.386
  419.282 2443.660  110.568    0.156    0.418    7.620
  419.532 2451.370  113.683    0.151    0.415    7.632
  419.782 2360.110  113.958    0.205    0.430    7.399
  420.032 2409.730  113.324    0.176    0.480    7.176
  420.282 2327.640  114.773    0.224    0.458    6.936
  420.532 2345.630  116.326    0.213    0.437    6.759
  420.782 2349.800  116.502    0.211    0.440    6.697
  421.032 2345.600  115.595    0.213    0.459    6.413
  421.282 2358.150  113.807    0.206    0.477    6.144
  421.532 2332.740  111.261    0.221    0.484    5.794
  421.782 2316.750  107.847    0.230    0.466    5.577
  422.032 2305.390  106.181    0.237    0.465    5.252
  422.282 2311.560  106.665    0.233    0.496    4.862
  422.532 2306.540  109.250    0.236    0.482    4.524
  422.782 2314.780  109.443    0.231    0.473    4.198
  423.032 2332.650  107.072    0.221    0.487    3.431
  423.282 2320.410  102.949    0.228    0.514    2.683
  423.532 2233.870  100.333    0.278    0.541    2.314
  423.782 2212.400   97.615    0.291    0.556    2.217
  424.032 2229.700   95.258    0.281    0.561    2.143
  424.282 2236.180   95.056    0.277    0.574    2.078
  424.532 2214.430   95.017    0.290    0.603    2.079
  424.782 2196.220   95.810    0.300    0.615    2.078
  425.032 2218.880   98.472    0.287    0.591    2.114
  425.282 2225.890  102.175    0.283    0.578    2.177
  425.532 2225.380  105.867    0.283    0.573    2.295
  425.782 2249.440  108.947    0.269    0.576    2.562
  426.032 2276.420  108.948    0.254    0.540    2.898
  426.282 2296.630  107.949    0.242    0.508    3.209
  426.532 2342.190  105.949    0.215    0.478    3.619
  426.782 2352.310  104.371    0.209    0.471    4.447
  427.032 2388.030  103.426    0.188    0.449    5.038
  427.282 2345.660  101.768    0.213    0.443    5.767
  427.532 2345.660  101.810    0.213    0.432    6.175
  427.782 2369.400  102.752    0.199    0.419    5.950
  428.032 2364.230  107.743    0.202    0.408    5.472
  428.282 2349.520  110.931    0.211    0.417    4.572
  428.532 2342.310  111.900    0.215    0.440    3.940
  428.782 2315.730  111.996    0.231    0.479    3.626
  429.032 2338.730  111.256    0.217    0.494    3.691
  429.282 2333.430  108.313    0.220    0.494    4.101
  429.532 2337.450  102.491    0.218    0.491    4.829
  429.782 2334.410   96.086    0.220    0.478    6.165
  430.032 2392.080   91.212    0.186    0.466    7.136
  430.282 2451.950   89.074    0.151    0.439    7.859
  430.532 2547.530   90.204    0.095    0.378    7.641
  430.782 2576.670   96.069    0.078    0.369    6.709
  431.032 2496.720  104.559    0.125    0.402    5.608
  431.282 2383.220  108.809    0.191    0.443    4.536
  431.532 2367.760  112.081    0.200    0.458    3.717
  431.782 2349.120  116.006    0.211    0.475    3.449
  432.032 2305.800  117.089    0.236    0.521    3.509
  432.282 2345.800  114.737    0.213    0.531    3.670
  432.532 2327.910  113.148    0.223    0.520    3.941
  432.782 2270.680  110.029    0.257    0.492    4.078
  433.032 2278.980  108.417    0.252    0.517    4.077
  433.282 2254.900  107.294    0.266    0.548    3.993
  433.532 2206.980  108.966    0.294    0.528    4.068
  433.782 2228.640  112.792    0.281    0.502    4.185
  434.032 2282.490  114.577    0.250    0.492    4.437
  434.282 2332.630  113.638    0.221    0.507    4.891
  434.532 2339.430  111.756    0.217    0.501    5.432
  434.782 2354.940  109.372    0.208    0.465    5.738
  435.032 2397.550  105.659    0.183    0.456    5.856
  435.282 2462.750  104.283    0.145    0.429    5.978
  435.532 2489.710  105.284    0.129    0.425    6.158
  435.782 2498.120  106.218    0.124    0.445    6.376
  436.032 2394.640  105.486    0.184    0.421    6.927
  436.282 2392.910  101.853    0.185    0.429    7.802
  436.532 2358.850   93.163    0.205    0.434    9.039
  436.782 2321.760   88.647    0.227    0.404   10.308
  437.032 2336.620   95.771    0.218    0.381   10.866
  437.282 2318.080   99.232    0.229    0.360   10.652
  437.532 2287.670   99.719    0.247    0.367    9.978
  437.782 2259.840   95.478    0.263    0.399    9.900
  438.032 2254.300   91.256    0.266    0.415   11.142
  438.282 2251.790   85.133    0.268    0.447   14.210
