~VERSION INFORMATION
 VERS.                 2.0:   CWLS LOG ASCII STANDARD -VERSION 2.0
 WRAP.                  NO:   ONE LINE PER DEPTH STEP
~WELL INFORMATION BLOCK
#MNEM.UNIT           DATA                    DESCRIPTION OF MNEMONIC
#---------    -------------------            -------------------------------
# Generated from Intellog Unique Number	CW_70_72/WELL/927
NULL.         -999.25                        : NULL_VALUE
WELL.         LANDBANK ET AL MITSUE 07-29    : Well_name    - WELL              
LOC .         07-29-071-02W5                 : Location     - LOCATION          
UWI .         00/07-29-071-02W5/0            : Uwi          - UNIQUE WELL ID    
ENTR.         JAYE                           : Entered      - ENTERED BY        
SRVC.         SCHLUMBERGER                   : Scn          - SERVICE COMPANY   
DATE.         25 FEB 83                      : Date         - LOG DATE          
STRT.M        400                            : top_depth    - START DEPTH       
STOP.M        630                            : bot_depth    - STOP DEPTH        
STEP.M        0.25                           : increment    - STEP LENGTH       
~CURVE INFORMATION BLOCK
#MNEM UNIT       ERCB CURVE CODE    CURVE DESCRIPTION
#-----------   ------------------   ----------------------------------
DEPT.M        00 001 00 00         : DEPTH        - DEPTH                       
DPHI.V/V      00 890 00 00         : PHID         - DENSITY POROSITY (SANDSTONE)
NPHI.V/V      00 330 00 00         : PHIN         - NEUTRON POROSITY (SANDSTONE)
GR  .API      00 310 00 00         : GR           - GAMMA RAY                   
CALI.MM       00 280 01 00         : CAL          - CALIPER                     
ILD .OHMM     00 120 00 00         : RESD         - DEEP RESISTIVITY (DIL)      
~PARAMETER INFORMATION       
#MNEM.UNIT           DATA             DESCRIPTION OF MNEMONIC
#---------         -----------     ------------------------------
GL  .M        592.56               : gl           - GROUND LEVEL ELEVATION      
EREF.M        596.21               : kb           - ELEVATION OF DEPTH REFERENCE
DATM.M        592.56               : datum        - DATUM ELEVATION             
TDD .M        649                  : tdd          - TOTAL DEPTH DRILLER         
RUN .         ONE                  : Run          - RUN NUMBER                  
ENG .         WRIGHT               : Engineer     - RECORDING ENGINEER          
WIT .         SMITH                : Witness      - WITNESSED BY                
BASE.         EDM                  : Branch       - HOME BASE OF LOGGING UNIT   
MUD .         GEL CHEM             : Mud_type     - MUD TYPE                    
MATR.         SANDSTONE            : Logunit      - NEUTRON MATRIX              
TMAX.C        35.6                 : BHT          - MAXIMUM RECORDED TEMPERATURE
BHTD.M        650                  : BHTDEP       - MAXIMUM RECORDED TEMPERATURE
RMT .C        15.6                 : MDTP         - TEMPERATURE OF MUD          
MUDD.KG/M     1200                 : MWT          - MUD DENSITY                 
NEUT.         1                    : NEUTRON      - NEUTRON TYPE                
RESI.         0                    : RESIST       - RESISTIVITY TYPE            
RM  .OHMM     6.49                 : RM           - RESISTIVITY OF MUD          
RMC .OHMM     0                    : RMC          - RESISTIVITY OF MUD CAKE     
RMF .OHMM     5.45                 : RMF          - RESISTIVITY OF MUD FILTRATE 
SUFT.C        0                    : SUFT         - SURFACE TEMPERATURE         
~A  DEPTH     PHID     PHIN       GR      CAL     RESD
# ...
  509.500    0.336    0.421   58.535  159.493    2.139
  509.750    0.325    0.425   60.504  160.927    2.139
  510.000    0.285    0.424   64.507  162.463    2.167
  510.250    0.250    0.449   71.283  163.485    2.237
  510.500    0.236    0.429   72.389  163.789    2.462
  510.750    0.240    0.405   71.955  163.988    2.806
  511.000    0.252    0.378   71.521  164.189    3.133
  511.250    0.271    0.386   69.669  164.492    3.223
  511.500    0.284    0.398   68.063  165.206    2.986
  511.750    0.296    0.409   65.781  166.023    2.822
  512.000    0.233    0.412   58.875  166.018    2.776
  512.250    0.134    0.371   52.895  165.910    2.833
  512.500    0.151    0.352   58.746  165.082    2.914
  512.750    0.262    0.369   63.118  164.667    3.015
  513.000    0.299    0.398   65.581  164.149    3.106
  513.250    0.280    0.391   65.146  163.835    3.083
  513.500    0.268    0.401   65.328  163.523    2.855
  513.750    0.266    0.414   67.359  163.414    2.720
  514.000    0.264    0.415   66.863  163.101    2.746
  514.250    0.277    0.389   61.437  163.097    2.857
  514.500    0.290    0.374   62.234  163.092    2.960
  514.750    0.293    0.373   64.142  162.983    3.050
  515.000    0.293    0.384   67.528  162.876    3.090
  515.250    0.290    0.385   68.944  162.872    3.046
  515.500    0.281    0.390   69.495  162.868    2.955
  515.750    0.273    0.407   67.890  162.965    2.846
  516.000    0.283    0.426   64.621  162.960    2.768
  516.250    0.292    0.418   63.755  163.057    2.706
  516.500    0.289    0.418   63.752  163.053    2.677
  516.750    0.285    0.422   64.981  162.739    2.677
  517.000    0.281    0.425   66.766  162.735    2.678
  517.250    0.302    0.422   68.118  162.421    2.668
  517.500    0.303    0.426   68.670  162.108    2.663
  517.750    0.288    0.433   69.838  162.206    2.668
  518.000    0.272    0.427   72.608  162.201    2.694
  518.250    0.252    0.427   77.104  162.710    2.734
  518.500    0.270    0.436   78.087  163.115    2.770
  518.750    0.267    0.435   70.689  163.316    2.801
  519.000    0.271    0.425   68.775  163.311    2.829
  519.250    0.285    0.437   69.697  163.100    2.833
  519.500    0.298    0.451   68.954  162.993    2.834
  519.750    0.302    0.448   70.677  162.988    2.829
  520.000    0.298    0.435   73.447  162.880    2.823
  520.250    0.292    0.417   74.923  162.566    2.808
  520.500    0.284    0.430   73.071  162.357    2.802
  520.750    0.268    0.455   76.088  162.146    2.788
  521.000    0.253    0.440   80.399  161.834    2.772
  521.250    0.252    0.424   79.533  161.827    2.777
  521.500    0.282    0.433   74.723  162.028    2.778
  521.750    0.301    0.440   72.625  162.126    2.783
  522.000    0.289    0.421   68.308  162.225    2.814
  522.250    0.281    0.421   66.148  162.323    2.905
  522.500    0.282    0.428   64.851  162.420    3.119
  522.750    0.284    0.424   65.095  162.415    3.343
  523.000    0.283    0.418   66.817  162.614    3.564
  523.250    0.275    0.417   68.047  162.611    3.785
  523.500    0.272    0.422   70.817  162.708    3.973
  523.750    0.280    0.413   74.696  162.806    4.170
  524.000    0.265    0.388   79.130  162.903    4.298
  524.250    0.245    0.383   83.811  162.899    4.290
  524.500    0.229    0.393   79.864  162.894    4.086
  524.750    0.262    0.427   76.718  162.684    3.864
  525.000    0.280    0.440   77.270  162.576    3.525
  525.250    0.263    0.443   78.561  162.571    3.041
  525.500    0.257    0.438   73.628  162.257    2.930
  525.750    0.272    0.428   70.236  162.047    2.881
  526.000    0.283    0.420   72.020  162.043    2.855
  526.250    0.291    0.422   74.297  161.730    2.850
  526.500    0.290    0.431   71.213  161.724    2.882
  526.750    0.273    0.448   70.285  161.719    2.936
  527.000    0.257    0.441   72.624  161.715    3.066
  527.250    0.239    0.416   74.778  161.606    3.236
  527.500    0.222    0.398   77.487  161.293    3.417
  527.750    0.202    0.377   81.859  161.288    3.602
  528.000    0.209    0.395   82.103  161.592    3.703
  528.250    0.240    0.430   78.525  161.792    3.767
  528.500    0.238    0.397   85.486  162.301    3.817
  528.750    0.219    0.399   90.783  164.042    3.860
  529.000    0.189    0.419   91.643  167.530    3.898
  529.250    0.181    0.440   86.279  165.470    3.948
  529.500    0.212    0.433   78.880  163.514    4.024
  529.750    0.227    0.389   78.261  162.687    4.062
  530.000    0.224    0.390   82.818  162.168    4.047
  530.250    0.213    0.404   85.835  162.163    3.965
  530.500    0.207    0.403   89.345  162.159    3.877
  530.750    0.193    0.408   89.280  162.462    3.826
  531.000    0.202    0.416   85.025  162.149    3.812
  531.250    0.193    0.392   82.064  162.247    3.842
  531.500    0.180    0.365   89.271  163.987    3.914
  531.750    0.164    0.387   92.165  165.934    4.071
  532.000    0.141    0.413   84.705  167.778    4.314
  532.250    0.097    0.334   78.663  166.335    4.702
  532.500    0.090    0.338   82.049  164.071    4.882
  532.750    0.149    0.371   87.100  163.039    4.720
  533.000    0.177    0.403   90.486  162.828    4.523
  533.250    0.187    0.407   91.223  163.336    4.431
  533.500    0.196    0.400   92.760  163.845    4.423
  533.750    0.205    0.404   95.284  164.354    4.449
  534.000    0.199    0.403   93.555  165.376    4.490
  534.250    0.189    0.386   92.690  167.220    4.524
  534.500    0.182    0.370   93.426  169.987    4.584
  534.750    0.171    0.385   94.532  170.599    4.644
  535.000    0.156    0.397   96.317  170.491    4.707
  535.250    0.150    0.393  100.196  170.076    4.770
  535.500    0.158    0.397   94.585  168.325    4.787
  535.750    0.164    0.402   94.829  166.574    4.787
  536.000    0.171    0.402   98.400  165.747    4.760
  536.250    0.180    0.402   96.733  165.537    4.690
  536.500    0.187    0.393   93.649  165.531    4.604
  536.750    0.196    0.390   95.063  165.732    4.569
  537.000    0.199    0.404   95.615  165.933    4.536
  537.250    0.196    0.414   94.195  166.133    4.545
  537.500    0.191    0.406   87.475  166.334    4.579
  537.750    0.172    0.389   80.877  166.534    4.657
  538.000    0.155    0.379   82.168  166.837    4.790
  538.250    0.155    0.373   93.012  167.243    4.964
  538.500    0.172    0.387   95.166  167.854    5.067
  538.750    0.181    0.393   97.813  168.773    5.078
  539.000    0.186    0.385  102.000  169.693    5.010
  539.250    0.183    0.382  104.832  170.510    4.881
  539.500    0.176    0.396  104.460  171.532    4.739
  539.750    0.174    0.406  102.238  171.014    4.650
  540.000    0.166    0.416   99.277  168.852    4.583
  540.250    0.173    0.425   89.291  166.176    4.591
  540.500    0.191    0.406   84.481  163.603    4.749
  540.750    0.214    0.392   98.960  162.572    5.032
  541.000    0.225    0.409  111.529  162.464    5.484
  541.250    0.203    0.429  121.386  162.870    6.080
  541.500    0.134    0.412  109.058  163.789    6.614
  541.750    0.118    0.364   81.015  164.400    7.062
  542.000    0.121    0.342   85.264  165.217    7.024
  542.250    0.132    0.374   88.404  166.650    6.326
  542.500    0.139    0.398   89.633  167.981    5.727
  542.750    0.146    0.429   92.219  169.413    5.178
  543.000    0.153    0.430   94.249  170.127    4.743
  543.250    0.165    0.410   90.549  170.533    4.595
  543.500    0.169    0.398   93.319  170.837    4.586
  543.750    0.136    0.399   98.863  171.243    4.620
  544.000    0.122    0.405  106.132  171.339    4.725
  544.250    0.136    0.404  101.322  171.335    4.824
  544.500    0.151    0.388   95.341  171.227    4.934
  544.750    0.157    0.372   93.119  171.016    5.046
  545.000    0.159    0.393   94.164  171.012    5.104
  545.250    0.154    0.414   97.920  170.905    5.076
  545.500    0.147    0.402   94.836  170.694    4.964
  545.750    0.126    0.412   95.079  170.689    4.799
