~VERSION INFORMATION
 VERS.                 2.0:   CWLS LOG ASCII STANDARD -VERSION 2.0
 WRAP.                  NO:   ONE LINE PER DEPTH STEP
~WELL INFORMATION BLOCK
#MNEM.UNIT           DATA                    DESCRIPTION OF MNEMONIC
#---------    -------------------            -------------------------------
# Generated from Intellog Unique Number	CS_77_79/WELL/862
WELL.         ICGR CHARD                     : Well_name    - WELL
LOC .         00/05-21-078-05W4/0            : Location     - LOCATION
UWI .         00/05-21-078-05W4/0            : Uwi          - UNIQUE WELL ID
ENTR.         JHS                            : Entered      - ENTERED BY
SRVC.         SCHLUMBERGER                   : Scn          - SERVICE COMPANY
STRT.M        155                            : top_depth    - START DEPTH
STOP.M        415                            : bot_depth    - STOP DEPTH
STEP.M        0.25                           : increment    - STEP LENGTH
 NULL. -999.2500:NULL Value
~CURVE INFORMATION BLOCK
#MNEM UNIT       ERCB CURVE CODE    CURVE DESCRIPTION
#-----------   ------------------   ----------------------------------
DEPT.M        00 001 00 00         : DEPTH        - DEPTH
DPHI.V/V      00 890 00 00         : PHID         - DENSITY POROSITY (LIMESTONE)
NPHI.V/V      00 330 00 00         : PHIN         - NEUTRON POROSITY (LIMESTONE)
GR  .API      00 310 00 00         : GR           - GAMMA RAY
ILD .OHMM     00 120 00 00         : RESD         - DEEP RESISTIVITY (DIL)
RHOB.KG/M3    00 350 00 00         : DENS         - BULK DENSITY
~PARAMETER INFORMATION
#MNEM.UNIT           DATA             DESCRIPTION OF MNEMONIC
#---------         -----------     ------------------------------
GL  .M        575.9                : gl           - GROUND LEVEL ELEVATION
EREF.M        579.5                : kb           - ELEVATION OF DEPTH REFERENCE
DATM.M        579.5                : datum        - DATUM ELEVATION
TDD .M        425                  : tdd          - TOTAL DEPTH DRILLER
RUN .         ONE                  : Run          - RUN NUMBER
ENG .         BILL                 : Engineer     - RECORDING ENGINEER
WIT .         JIM                  : Witness      - WITNESSED BY
MUD .         GEL                  : Mud_type     - MUD TYPE
MATR.         LIMESTONE            : Logunit      - NEUTRON MATRIX
TMAX.C        21                   : BHT          - MAXIMUM RECORDED TEMPERATURE
BHTD.M        425                  : BHTDEP       - MAXIMUM RECORDED TEMPERATURE
MATR.         1                    : LOGUNIT      - NEUTRON MATRIX
RMT .C        25                   : MDTP         - TEMPERATURE OF MUD
NEUT.         1                    : NEUTRON      - NEUTRON TYPE
RESI.         0                    : RESIST       - RESISTIVITY TYPE
RMC .OHMM     0.25                 : RMC          - RESISTIVITY OF MUD CAKE
RMF .OHMM     0.25                 : RMF          - RESISTIVITY OF MUD FILTRATE
SUFT.C        15                   : SUFT         - SURFACE TEMPERATURE
~A  DEPTH     PHID     PHIN       GR     RESD     DENS
# ...
  301.000    0.246    0.448   91.641    6.913 2290.050
  301.250    0.230    0.443   86.117    6.661 2317.540
  301.500    0.229    0.462   80.594    6.795 2317.580
  301.750    0.216    0.495   78.143    7.334 2340.830
  302.000    0.122    0.384   70.159    7.916 2501.320
  302.250    0.096    0.323   62.792    7.921 2545.690
  302.500    0.153    0.375   77.555    7.778 2448.610
  302.750    0.232    0.444   86.787    7.354 2313.530
  303.000    0.250    0.461   89.255    6.824 2281.900
  303.250    0.239    0.475   88.035    6.702 2300.940
  303.500    0.233    0.505   89.274    6.707 2311.540
  303.750    0.238    0.503   90.513    6.712 2303.130
  304.000    0.243    0.480   85.604    6.845 2294.720
  304.250    0.239    0.468   81.925    6.980 2301.090
  304.500    0.239    0.463   85.007    7.118 2301.130
  304.750    0.243    0.469   89.935    7.123 2294.830
  305.000    0.246    0.474   88.715    6.995 2288.530
  305.250    0.243    0.465   85.038    7.002 2294.900
  305.500    0.241    0.469   85.047    6.875 2297.050
  305.750    0.248    0.483   82.595    6.880 2286.530
  306.000    0.257    0.485   78.917    6.885 2269.680
  306.250    0.274    0.456   77.082    6.890 2242.270
  306.500    0.286    0.454   77.090    6.766 2221.190
  306.750    0.291    0.460   78.945    6.643 2212.790
  307.000    0.290    0.451   78.339    6.282 2214.930
  307.250    0.287    0.439   78.963    5.829 2219.200
  307.500    0.287    0.445   83.276    5.511 2219.240
  307.750    0.285    0.461   85.744    5.016 2223.490
  308.000    0.277    0.477   86.369    4.154 2236.190
  308.250    0.272    0.512   85.148    3.506 2244.670
  308.500    0.283    0.568   84.543    3.074 2225.710
  308.750    0.299    0.583   82.707    2.799 2198.300
  309.000    0.302    0.561   80.872    2.646 2194.120
  309.250    0.297    0.583   80.268    2.502 2202.600
  309.500    0.295    0.577   80.891    2.457 2204.750
  309.750    0.298    0.560   79.056    2.413 2200.550
  310.000    0.302    0.565   76.606    2.369 2194.270
  310.250    0.298    0.569   78.460    2.371 2200.640
  310.500    0.290    0.566   85.847    2.464 2213.340
  310.750    0.284    0.563   90.159    2.513 2223.930
  311.000    0.283    0.564   90.783    2.764 2226.080
  311.250    0.271    0.566   89.563    3.158 2247.230
  311.500    0.261    0.536   86.499    3.474 2264.150
  311.750    0.245    0.503   84.663    4.045 2291.630
  312.000    0.236    0.506   90.821    4.449 2306.450
  312.250    0.235    0.503   93.290    5.181 2308.600
  312.500    0.233    0.482   88.994    5.808 2310.750
  312.750    0.230    0.453   84.088    6.269 2317.120
  313.000    0.221    0.429   86.554    6.516 2331.930
  313.250    0.216    0.431   85.949    6.278 2340.410
  313.500    0.221    0.436   82.884    5.609 2332.000
  313.750    0.230    0.441   79.205    5.011 2317.250
  314.000    0.237    0.453   84.747    4.562 2304.640
  314.250    0.246    0.465   94.593    4.313 2289.890
  314.500    0.258    0.477   95.217    4.156 2268.810
  314.750    0.248    0.486   89.694    4.082 2285.740
  315.000    0.241    0.491   83.556    4.008 2298.440
  315.250    0.237    0.488   88.483    4.010 2304.820
  315.500    0.237    0.489   89.107    3.938 2304.850
  315.750    0.238    0.501   91.575    3.867 2302.780
  316.000    0.241    0.517   91.585    3.797 2298.590
  316.250    0.247    0.492   89.136    3.729 2288.070
  316.500    0.249    0.471   90.373    3.662 2283.890
  316.750    0.243    0.475   92.842    3.596 2294.480
  317.000    0.241    0.510   93.467    3.531 2298.730
  317.250    0.244    0.507   91.016    3.534 2292.450
  317.500    0.243    0.503   92.255    3.815 2294.590
  317.750    0.245    0.513   92.266    4.117 2290.400
  318.000    0.252    0.531   88.587    4.529 2279.880
  318.250    0.259    0.548   84.907    4.982 2267.250
  318.500    0.268    0.490   83.072    5.586 2252.510
  318.750    0.269    0.447   81.235    5.696 2250.430
  319.000    0.243    0.428   78.786    5.810 2294.800
  319.250    0.229    0.445   82.483    5.814 2318.060
  319.500    0.228    0.470   88.642    6.642 2320.210
  319.750    0.221    0.477   91.725    8.185 2332.910
  320.000    0.195    0.407   86.201    9.177 2377.280
  320.250    0.050    0.360   72.684    9.539 2624.330
  320.500    0.034    0.333   69.005    9.729 2651.810
  320.750    0.161    0.372   78.853    9.554 2434.400
  321.000    0.215    0.412   81.320    9.381 2341.540
  321.250    0.236    0.413   78.870    8.870 2305.690
  321.500    0.255    0.362   72.732    8.230 2274.060
  321.750    0.282    0.318   66.593    7.635 2227.640
  322.000    0.299    0.304   67.834    6.820 2198.130
  322.250    0.304    0.334   74.604    6.698 2189.720
  322.500    0.296    0.449   80.147    6.830 2204.530
  322.750    0.314    0.418   81.385    7.512 2172.900
  323.000    0.325    0.350   77.091    9.986 2153.940
  323.250    0.308    0.378   74.026   12.542 2183.530
  323.500    0.286    0.329   66.659   14.883 2221.570
  323.750    0.282    0.283   60.522   17.328 2227.940
  324.000    0.288    0.288   60.529   19.796 2217.430
  324.250    0.286    0.261   56.235   22.194 2221.680
  324.500    0.298    0.241   49.482   23.508 2200.610
  324.750    0.310    0.227   45.802   23.981 2179.530
  325.000    0.331    0.232   47.041   24.000 2143.670
  325.250    0.336    0.253   49.510   24.468 2135.260
  325.500    0.310    0.261   51.980   25.923 2179.640
  325.750    0.290    0.225   51.987   27.982 2213.450
  326.000    0.305    0.198   43.390   29.077 2188.150
  326.250    0.350    0.194   39.096   29.658 2112.190
  326.500    0.367    0.208   40.950   28.036 2082.670
  326.750    0.362    0.205   40.345   21.940 2091.150
  327.000    0.363    0.217   42.198   15.915 2089.080
  327.250    0.354    0.247   47.126   12.934 2103.890
  327.500    0.320    0.317   53.285   11.553 2163.040
  327.750    0.289    0.354   54.523   10.321 2215.860
  328.000    0.304    0.332   51.458    9.759 2190.560
  328.250    0.309    0.364   60.689    9.403 2182.150
  328.500    0.296    0.373   68.074    8.892 2203.300
  328.750    0.305    0.351   71.157    8.249 2188.550
  329.000    0.317    0.351   75.471    7.801 2167.490
  329.250    0.302    0.363   81.012    7.516 2192.850
  329.500    0.295    0.367   82.257    7.666 2205.560
  329.750    0.293    0.373   82.263    7.969 2209.810
  330.000    0.284    0.388   84.731    7.971 2224.640
  330.250    0.273    0.406   89.042    8.286 2243.670
  330.500    0.262    0.422   95.813    8.293 2262.710
  330.750    0.247    0.442  106.275    7.841 2288.070
  331.000    0.239    0.460  113.046    7.556 2300.780
  331.250    0.268    0.471  117.359    7.279 2252.260
  331.500    0.270    0.487  116.755    7.013 2248.080
  331.750    0.260    0.479  110.000    7.019 2265.000
  332.000    0.239    0.450   97.715    7.025 2300.920
  332.250    0.229    0.418   89.733    7.165 2317.850
  332.500    0.238    0.410   83.595    7.169 2303.110
  332.750    0.248    0.407   79.915    7.040 2286.260
  333.000    0.249    0.402   81.153    6.784 2284.180
  333.250    0.255    0.411   81.162    6.537 2273.660
  333.500    0.287    0.375   75.023    6.419 2218.810
  333.750    0.317    0.337   62.122    6.304 2168.170
  334.000    0.335    0.321   48.606    6.191 2136.550
  334.250    0.334    0.312   40.010    6.080 2138.690
  334.500    0.330    0.319   38.788    5.968 2145.070
  334.750    0.332    0.329   43.104    5.862 2142.990
  335.000    0.334    0.332   46.801    5.756 2138.800
  335.250    0.334    0.335   44.350    5.759 2138.840
  335.500    0.338    0.344   39.443    5.764 2132.540
  335.750    0.335    0.336   38.221    5.767 2136.800
  336.000    0.328    0.330   39.461    5.772 2149.510
  336.250    0.322    0.328   38.240    5.887 2160.100
  336.500    0.319    0.340   35.789    6.004 2164.350
  336.750    0.328    0.354   33.957    6.008 2149.610
  337.000    0.334    0.345   37.037    6.012 2139.100
  337.250    0.336    0.331   40.120    6.017 2134.910
