~VERSION INFORMATION
 VERS.                 2.0:   CWLS LOG ASCII STANDARD -VERSION 2.0
 WRAP.                  NO:   ONE LINE PER DEPTH STEP
~WELL INFORMATION BLOCK
#MNEM.UNIT           DATA                    DESCRIPTION OF MNEMONIC
#---------    -------------------            -------------------------------
# Generated from Intellog Unique Number	CW_76_78/WELL/2798
WELL.         SCURRY MIN CROOKED 07-19       : Well_name    - WELL
LOC .         00/07-19-077-19W4/0            : Location     - LOCATION
UWI .         00/07-19-077-19W4/0            : Uwi          - UNIQUE WELL ID
ENTR.         JJ                             : Entered      - ENTERED BY
SRVC.         WESTERN ATLAS                  : Scn          - SERVICE COMPANY
DATE.         4 JAN 71                       : Date         - LOG DATE
STRT.M        304.8                          : top_depth    - START DEPTH
STOP.M        432.8                          : bot_depth    - STOP DEPTH
STEP.M        0.25                           : increment    - STEP LENGTH
 NULL. -999.2500:NULL Value
~CURVE INFORMATION BLOCK
#MNEM UNIT       ERCB CURVE CODE    CURVE DESCRIPTION
#-----------   ------------------   ----------------------------------
DEPT.M        00 001 00 00         : DEPTH        - DEPTH
DELT.US/F     00 520 00 00         : DELT         - SONIC TRAVEL TIME
GR  .API      00 310 00 00         : GR           - GAMMA RAY
CALI.MM       00 280 01 00         : CAL          - CALIPER
ILD .OHMM     00 120 00 00         : RESD         - DEEP RESISTIVITY (DIL)
~PARAMETER INFORMATION
#MNEM.UNIT           DATA             DESCRIPTION OF MNEMONIC
#---------         -----------     ------------------------------
GL  .M        562.356              : gl           - GROUND LEVEL ELEVATION
EREF.M        565.404              : kb           - ELEVATION OF DEPTH REFERENCE
DATM.M        562.356              : datum        - DATUM ELEVATION
TDD .M        542.849              : tdd          - TOTAL DEPTH DRILLER
RUN .         ONE                  : Run          - RUN NUMBER
ENG .         RICHER               : Engineer     - RECORDING ENGINEER
WIT .         MARTYNA              : Witness      - WITNESSED BY
BASE.         EDM                  : Branch       - HOME BASE OF LOGGING UNIT
MUD .         MUD                  : Mud_type     - MUD TYPE
MATR.         SANDSTONE            : Logunit      - NEUTRON MATRIX
TMAX.C        28.3333              : BHT          - MAXIMUM RECORDED TEMPERATURE
BHTD.M        543.458              : BHTDEP       - MAXIMUM RECORDED TEMPERATURE
RMT .C        20                   : MDTP         - TEMPERATURE OF MUD
MUDD.KG/M     1080                 : MWT          - MUD DENSITY
NEUT.         1                    : NEUTRON      - NEUTRON TYPE
RESI.         0                    : RESIST       - RESISTIVITY TYPE
RM  .OHMM     4.5                  : RM           - RESISTIVITY OF MUD
RMC .OHMM     4.8                  : RMC          - RESISTIVITY OF MUD CAKE
RMF .OHMM     4                    : RMF          - RESISTIVITY OF MUD FILTRATE
SUFT.C        5                    : SUFT         - SURFACE TEMPERATURE
~A  DEPTH     DELT       GR      CAL     RESD
  304.800  392.814   61.411  203.412   10.251
  305.050  384.676   61.962  203.190   10.357
  305.300  395.647   61.302  203.585   10.432
  305.550  398.971   57.334  204.454   10.410
  305.800  399.480   58.884  204.754   10.221
  306.050  399.524   63.270  205.066    9.969
  306.300  399.293   60.648  205.314    9.652
  306.550  399.539   55.970  205.523    9.304
  306.800  400.853   53.091  205.116    9.101
  307.050  408.869   56.164  205.069    9.143
  307.300  403.216   60.798  205.086    9.305
  307.550  400.035   59.487  205.003    9.715
  307.800  396.584   58.126  204.954    9.885
  308.050  392.947   64.675  205.200   10.038
  308.300  391.044   66.240  205.159    9.483
  308.550  383.510   67.703  205.820    8.959
  308.800  386.637   69.659  206.883    9.169
  309.050  388.017   67.540  207.739   10.097
  309.300  382.897   62.563  208.585   11.486
  309.550  333.399   64.062  208.998   13.457
  309.800  255.742   70.967  209.010   13.962
  310.050  309.147   68.599  208.571   11.933
  310.300  348.606   61.189  207.296   10.469
  310.550  375.060   55.849  206.868    9.379
  310.800  383.413   64.159  207.939    9.772
  311.050  419.790   74.391  208.579   11.082
  311.300  423.250   79.674  209.308   11.890
  311.550  386.688   79.626  211.538   11.916
  311.800  287.447   73.380  212.282   10.086
  312.050  319.128   71.056  208.458    8.957
  312.300  352.019   69.498  206.967    8.139
  312.550  395.569   73.187  207.167    7.504
  312.800  413.509   75.598  207.636    7.156
  313.050  414.891   79.025  207.704    7.039
  313.300  419.757   84.706  207.804    7.106
  313.550  415.440   82.036  208.350    7.124
  313.800  412.802   76.850  209.198    7.047
  314.050  411.634   69.595  211.005    6.890
  314.300  418.650   72.614  213.356    6.789
  314.550  410.512   81.228  216.556    6.680
  314.800  409.211   82.587  221.474    6.476
  315.050  413.545   83.902  224.970    6.271
  315.300  419.417   85.053  226.790    6.098
  315.550  418.653   84.101  226.141    5.751
  315.800  407.702   81.880  230.300    5.482
  316.050  420.880   81.930  234.566    5.269
  316.300  423.469   86.314  236.048    5.440
  316.550  425.320   84.856  236.584    5.761
  316.800  431.598   81.988  232.093    6.122
  317.050  439.884   80.467  219.622    6.428
  317.300  422.094   85.003  214.396    6.582
  317.550  414.088   89.178  216.107    6.505
  317.800  419.894   86.715  217.168    6.380
  318.050  419.668   84.599  217.408    6.231
  318.300  413.474   83.287  217.183    6.114
  318.550  414.656   82.928  215.876    6.053
  318.800  422.945   86.513  212.030    5.961
  319.050  416.014   89.777  209.476    5.907
  319.300  394.335   87.260  213.843    5.766
  319.550  406.643   78.598  212.137    5.633
  319.800  426.195   79.702  209.681    5.421
  320.050  412.224   81.311  211.618    5.089
  320.300  418.364   80.305  209.272    4.709
  320.550  424.374   84.842  208.626    3.851
  320.800  417.911   90.837  211.408    2.562
  321.050  445.103   95.364  217.360    2.150
  321.300  467.670   91.187  228.115    1.994
  321.550  443.039   88.817  228.118    2.116
  321.800  430.278   92.892  226.944    2.684
  322.050  440.106  101.517  226.540    3.293
  322.300  431.231  102.815  228.053    3.877
  322.550  429.394   98.335  230.638    4.247
  322.800  428.359   99.389  231.665    4.465
  323.050  427.196   98.384  232.375    4.395
  323.300  424.222   97.980  233.251    3.649
  323.550  425.337   98.934  234.331    2.791
  323.800  434.764   93.958  234.716    2.132
  324.050  428.503   90.626  235.827    1.745
  324.300  422.711   89.913  236.435    1.563
  324.550  432.743   95.359  237.613    1.407
  324.800  442.035   94.963  238.560    1.409
  325.050  436.446   93.451  240.146    1.731
  325.300  441.578   91.678  237.197    2.100
  325.550  445.779   90.821  235.366    2.581
  325.800  444.480   90.730  234.384    3.261
  326.050  438.220   94.342  233.740    3.998
  326.300  441.813   94.448  232.717    4.414
  326.550  439.572   94.290  232.905    5.038
  326.800  431.705   95.405  233.348    5.543
  327.050  427.122   94.393  233.956    5.873
  327.300  428.704   89.960  233.006    6.179
  327.550  423.919   88.700  228.747    6.412
  327.800  420.137   85.573  224.576    6.822
  328.050  417.901   87.839  219.335    7.199
  328.300  413.519   88.543  213.363    7.911
  328.550  410.477   88.097  211.467    8.885
  328.800  410.987   93.430  208.152   11.542
  329.050  391.789   89.903  207.710   18.193
  329.300  453.840   81.896  208.135   19.327
  329.550  478.082   74.339  209.542   19.848
  329.800  402.035   65.570  211.359   20.225
  330.050  269.073   51.469  212.508   19.526
  330.300  226.612   48.996  213.177   16.524
  330.550  220.217   54.699  213.778   14.136
  330.800  343.407   54.743  213.930   12.018
  331.050  371.336   57.204  213.808   10.299
  331.300  374.260   66.479  212.725    9.338
  331.550  350.972   72.569  208.342    8.950
  331.800  333.383   76.857  204.823    8.658
  332.050  363.859   78.310  204.622    8.325
  332.300  403.385   81.935  207.156    8.073
  332.550  406.707   87.879  209.746    8.012
  332.800  412.450   87.229  211.254    8.014
  333.050  434.144   81.993  211.951    8.057
  333.300  478.230   76.191  213.158    8.115
  333.550  403.321   85.563  214.642    8.142
  333.800  404.371   85.262  216.543    8.129
  334.050  411.514   85.562  218.241    8.107
  334.300  411.153   89.342  219.751    8.078
  334.550  410.057   90.946  220.579    8.017
  334.800  408.625   87.221  221.247    7.924
  335.050  410.208   86.670  221.648    7.863
  335.300  421.176   86.870  221.774    7.778
  335.550  421.013   85.455  222.494    7.717
  335.800  417.638   90.691  222.708    7.640
  336.050  413.524   92.306  223.998    7.547
  336.300  406.992   92.654  226.343    7.319
  336.550  419.569   93.311  224.876    7.123
  336.800  419.276   94.621  223.665    7.005
  337.050  412.681   92.851  224.308    6.841
  337.300  399.652   89.631  231.120    6.803
  337.550  411.759   86.810  232.663    6.854
  337.800  427.218   88.373  231.579    7.144
  338.050  425.249   91.190  229.740    7.401
  338.300  416.577   94.562  226.456    7.627
  338.550  412.457   96.979  225.261    7.853
  338.800  415.855   98.195  224.401    7.935
  339.050  430.710   96.280  223.035    7.962
  339.300  461.389   92.946  218.758    7.996
  339.550  473.027   90.838  210.546    8.134
  339.800  426.813   89.372  207.124    8.280
  340.050  425.579   84.840  209.576    8.458
  340.300  478.645   85.592  210.850    8.811
  340.550  480.835   91.949  210.435    9.182
  340.800  406.728   94.062  208.299    9.296
  341.050  409.185   90.582  208.606    9.354
  341.300  366.256   85.291  210.848    9.133
  341.550  380.978   77.225  213.850    8.849
  341.800  394.963   81.105  215.979    8.661
  342.050  398.558   86.948  217.565    8.591
  342.300  401.005   90.069  219.276    8.522
  342.550  404.070   89.064  220.777    8.397
  342.800  404.448   88.104  221.747    8.225
  343.050  397.248   93.290  221.948    8.140
  343.300  398.426   90.829  222.060    8.110
  343.550  404.436   85.945  222.456    8.113
  343.800  407.024   85.131  222.558    8.244
  344.050  403.980   84.825  222.029    8.374
  344.300  401.675   91.070  221.377    8.632
  344.550  399.638   95.158  218.828    8.873
  344.800  396.731   98.123  214.037    9.027
  345.050  414.405  102.301  209.146    9.006
  345.300  455.271   98.686  207.634    8.618
  345.550  493.927   93.840  208.472    8.214
  345.800  485.522   90.824  216.046    7.786
  346.050  455.729   85.979  223.077    7.271
  346.300  395.103   85.627  233.536    7.138
  346.550  406.269   90.917  238.435    7.237
  346.800  407.252   93.587  234.382    7.455
  347.050  403.602   97.712  223.924    7.720
  347.300  407.134   93.833  209.958    8.193
  347.550  408.248   96.955  202.064    8.491
  347.800  445.026   96.407  201.849    8.653
  348.050  423.547   95.643  202.806    8.886
