~VERSION INFORMATION
 VERS.                 2.0:   CWLS LOG ASCII STANDARD -VERSION 2.0
 WRAP.                  NO:   ONE LINE PER DEPTH STEP
~WELL INFORMATION BLOCK
#MNEM.UNIT           DATA                    DESCRIPTION OF MNEMONIC
#---------    -------------------            -------------------------------
# Generated from Intellog Unique Number	CX_WELLS/WELL/1049
LOC .         00/03-10-088-03W4/0            : Location     - LOCATION
UWI .         00/03-10-088-03W400            : Uwi          - UNIQUE WELL ID
ENTR.         TIM                            : Entered      - ENTERED BY
SRVC.         SCHLUMBERGER                   : Scn          - SERVICE COMPANY
STRT.F        100                            : top_depth    - START DEPTH
STOP.F        689.731                        : bot_depth    - STOP DEPTH
STEP.F        0.82                           : increment    - STEP LENGTH
 NULL. -999.2500:NULL Value
~CURVE INFORMATION BLOCK
#MNEM UNIT       ERCB CURVE CODE    CURVE DESCRIPTION
#-----------   ------------------   ----------------------------------
DEPT.F        00 001 00 00         : DEPTH        - DEPTH
GR  .API      00 310 00 00         : GR           - GAMMA RAY
NPHI.V/V      00 330 00 00         : PHIN         - NEUTRON POROSITY (SANDSTONE)
DPHI.V/V      00 890 00 00         : PHID         - DENSITY POROSITY (SANDSTONE)
ILD .OHMM     00 120 00 00         : RESD         - DEEP RESISTIVITY (DIL)
~PARAMETER INFORMATION
#MNEM.UNIT           DATA             DESCRIPTION OF MNEMONIC
#---------         -----------     ------------------------------
GL  .M        474.269              : gl           - GROUND LEVEL ELEVATION
EREF.M        475.488              : kb           - ELEVATION OF DEPTH REFERENCE
DATM.M        475.488              : datum        - DATUM ELEVATION
TDD .M        213.97               : tdd          - TOTAL DEPTH DRILLER
RUN .         ONE                  : Run          - RUN NUMBER
ENG .         BILL                 : Engineer     - RECORDING ENGINEER
WIT .         JIM                  : Witness      - WITNESSED BY
MUD .         GEL                  : Mud_type     - MUD TYPE
MATR.         SANDSTONE            : Logunit      - NEUTRON MATRIX
TMAX.C        21.1111              : BHT          - MAXIMUM RECORDED TEMPERATURE
BHTD.M        213.97               : BHTDEP       - MAXIMUM RECORDED TEMPERATURE
MATR.         1                    : LOGUNIT      - NEUTRON MATRIX
RMT .C        25                   : MDTP         - TEMPERATURE OF MUD
NEUT.         1                    : NEUTRON      - NEUTRON TYPE
RESI.         0                    : RESIST       - RESISTIVITY TYPE
RMC .OHMM     0.25                 : RMC          - RESISTIVITY OF MUD CAKE
RMF .OHMM     0.25                 : RMF          - RESISTIVITY OF MUD FILTRATE
SUFT.C        15                   : SUFT         - SURFACE TEMPERATURE
~A  DEPTH       GR     PHIN     PHID     RESD
# ...
  528.150   72.569    0.366    0.277    6.749
  528.970   68.383    0.355    0.267    6.644
  529.790   62.371    0.346    0.266    6.536
  530.610   56.358    0.354    0.270    6.422
  531.430   49.736    0.362    0.283    6.312
  532.251   49.832    0.365    0.290    6.098
  533.071   50.499    0.360    0.294    5.991
  533.891   51.812    0.351    0.291    5.787
  534.711   50.671    0.346    0.286    5.591
  535.531   48.350    0.342    0.274    5.493
  536.352   47.190    0.352    0.262    5.401
  537.172   46.638    0.356    0.265    5.410
  537.992   45.516    0.352    0.269    5.422
  538.812   44.394    0.344    0.275    5.429
  539.633   43.823    0.345    0.273    5.438
  540.453   42.701    0.349    0.271    5.550
  541.273   41.579    0.348    0.263    5.559
  542.093   41.047    0.343    0.261    5.673
  542.913   39.906    0.346    0.267    5.906
  543.734   39.373    0.350    0.277    5.913
  544.554   38.841    0.353    0.287    6.034
  545.374   38.289    0.355    0.294    6.045
  546.194   37.795    0.358    0.303    5.941
  547.014   37.853    0.364    0.306    5.737
  547.835   38.538    0.371    0.310    5.542
  548.655   41.070    0.377    0.311    5.547
  549.475   43.601    0.379    0.310    5.557
  550.295   46.114    0.383    0.308    5.464
  551.115   46.799    0.382    0.308    5.274
  551.936   46.876    0.373    0.308    5.095
  552.756   46.382    0.364    0.309    5.102
  553.576   46.420    0.355    0.307    5.113
  554.396   45.888    0.358    0.303    5.119
  555.217   45.964    0.364    0.300    5.128
  556.037   46.669    0.365    0.299    5.047
  556.857   48.002    0.364    0.301    4.963
  557.677   49.277    0.364    0.303    4.969
  558.497   51.199    0.364    0.311    4.800
  559.318   53.103    0.364    0.316    4.806
  560.138   54.397    0.362    0.317    4.724
  560.958   53.884    0.361    0.317    4.566
  561.778   53.941    0.365    0.315    4.572
  562.598   53.428    0.366    0.314    4.493
  563.419   52.877    0.367    0.313    4.422
  564.239   50.517    0.371    0.311    4.426
  565.059   47.569    0.378    0.312    4.436
  565.879   47.645    0.384    0.317    4.362
  566.699   48.940    0.391    0.325    4.369
  567.520   48.407    0.394    0.331    4.461
  568.340   46.048    0.388    0.336    4.466
  569.160   43.099    0.382    0.338    4.478
  569.980   43.195    0.381    0.336    4.488
  570.801   44.451    0.382    0.333    4.491
  571.621   45.746    0.385    0.331    4.499
  572.441   47.668    0.387    0.325    4.593
  573.261   48.373    0.391    0.323    4.687
  574.081   48.449    0.388    0.312    4.784
  574.902   46.071    0.383    0.297    4.792
  575.722   44.949    0.376    0.275    4.802
  576.542   45.635    0.365    0.262    4.808
  577.362   47.538    0.355    0.262    4.643
  578.182   49.460    0.351    0.269    4.566
  579.003   51.383    0.357    0.296    4.495
  579.823   53.286    0.372    0.303    4.501
  580.643   55.170    0.371    0.310    4.424
  581.463   58.311    0.376    0.320    4.430
  582.283   60.233    0.384    0.326    4.441
  583.104   61.528    0.398    0.334    4.365
  583.924   60.995    0.397    0.342    4.294
  584.744   59.264    0.390    0.353    4.466
  585.564   57.495    0.382    0.349    4.556
  586.385   58.789    0.376    0.337    4.829
  587.205   63.148    0.384    0.320    4.833
  588.025   67.487    0.393    0.316    4.752
  588.845   68.191    0.374    0.315    4.505
  589.665   65.242    0.358    0.313    4.268
  590.486   61.646    0.367    0.301    4.356
  591.306   60.505    0.378    0.290    4.445
  592.126   60.562    0.387    0.302    4.454
  592.946   60.677    0.390    0.321    4.460
  593.766   60.735    0.388    0.329    4.468
  594.587   60.831    0.384    0.329    4.314
  595.407   60.888    0.383    0.326    4.326
  596.227   60.375    0.388    0.317    4.331
  597.047   58.682    0.396    0.308    4.339
  597.867   58.092    0.403    0.304    4.344
  598.688   56.951    0.406    0.311    4.352
  599.508   55.220    0.401    0.318    4.361
  600.328   54.079    0.396    0.323    4.450
  601.148   53.547    0.392    0.325    4.460
  601.969   53.014    0.392    0.324    4.466
  602.789   52.501    0.394    0.322    4.477
  603.609   53.187    0.395    0.320    4.322
  604.429   56.917    0.396    0.316    4.248
  605.249   61.864    0.396    0.306    4.257
  606.070   68.030    0.396    0.305    4.264
  606.890   66.908    0.396    0.318    4.433
  607.710   64.530    0.399    0.324    4.528
  608.530   60.363    0.400    0.328    4.619
  609.350   55.569    0.404    0.333    4.540
  610.171   51.972    0.406    0.336    4.303
  610.991   47.806    0.407    0.337    4.004
  611.811   46.075    0.410    0.341    3.933
  612.631   46.132    0.413    0.342    3.730
  613.451   46.818    0.416    0.344    3.602
  614.272   48.721    0.422    0.349    3.605
  615.092   51.252    0.411    0.349    3.613
  615.912   53.156    0.402    0.346    3.688
  616.732   55.078    0.398    0.341    3.692
  617.552   55.764    0.397    0.336    3.692
  618.373   54.623    0.395    0.332    3.923
  619.193   51.654    0.392    0.330    3.853
  620.013   47.469    0.383    0.330    3.863
  620.833   43.302    0.379    0.329    3.797
  621.654   40.924    0.378    0.326    3.803
  622.474   39.174    0.390    0.324    3.740
  623.294   39.878    0.422    0.339    3.677
  624.114   40.545    0.425    0.346    3.616
  624.934   43.685    0.412    0.330    3.622
  625.755   46.825    0.397    0.314    3.911
  626.575   49.966    0.381    0.295    4.142
  627.395   53.715    0.377    0.279    4.387
  628.215   56.189    0.383    0.266    4.477
  629.035   61.156    0.390    0.251    4.654
  629.856   65.495    0.402    0.260    4.752
  630.676   70.481    0.412    0.305    4.851
  631.496   67.513    0.415    0.310    4.855
  632.316   64.526    0.411    0.315    4.864
  633.136   64.622    0.400    0.303    4.876
  633.957   66.506    0.397    0.279    5.069
  634.777   69.018    0.406    0.273    5.171
  635.597   72.159    0.416    0.264    5.378
  636.417   74.671    0.408    0.264    5.491
  637.238   79.048    0.399    0.267    5.603
  638.058   79.714    0.406    0.266    5.507
  638.878   80.419    0.417    0.263    5.316
  639.698   79.887    0.421    0.263    5.327
  640.518   81.200    0.418    0.265    5.434
  641.339   81.867    0.407    0.266    5.550
  642.159   83.199    0.400    0.265    5.664
  642.979   83.238    0.415    0.259    5.783
  643.799   82.705    0.432    0.253    5.788
  644.619   80.974    0.453    0.250    5.691
  645.440   79.224    0.451    0.299    5.300
  646.260   73.840    0.448    0.304    5.304
  647.080   68.417    0.441    0.328    5.124
  647.900   61.776    0.435    0.331    5.034
  648.720   54.546    0.430    0.337    4.682
  649.541   52.187    0.425    0.344    4.355
  650.361   53.500    0.423    0.344    4.050
  651.181   57.839    0.422    0.335    3.984
  652.001   62.178    0.422    0.327    4.147
  652.822   67.754    0.421    0.316    4.227
  653.642   72.721    0.421    0.303    4.394
  654.462   74.625    0.425    0.292    4.656
  655.282   72.266    0.429    0.289    4.931
  656.102   68.689    0.431    0.293    4.942
  656.923   65.721    0.431    0.303    4.859
  657.743   64.579    0.431    0.300    4.868
  658.563   64.656    0.428    0.246    4.967
  659.383   70.232    0.430    0.226    5.071
  660.203   84.333    0.441    0.195    5.270
  661.024  100.869    0.438    0.162    5.581
  661.844  118.624    0.437    0.117    6.372
  662.664  120.546    0.436    0.086    7.001
  663.484  116.969    0.401    0.071    8.601
  664.304  114.591    0.367    0.075   10.976
  665.125  112.841    0.341    0.081   11.411
  665.945  108.655    0.322    0.089   11.426
  666.765  109.969    0.383    0.101   11.038
  667.585  109.436    0.382    0.108   11.052
  668.406  105.859    0.355    0.101   11.279
  669.226   99.238    0.325    0.088   12.174
  670.046   91.398    0.293    0.077   13.893
