~VERSION INFORMATION
 VERS.                 2.0:   CWLS LOG ASCII STANDARD -VERSION 2.0
 WRAP.                  NO:   ONE LINE PER DEPTH STEP
~WELL INFORMATION BLOCK
#MNEM.UNIT           DATA                    DESCRIPTION OF MNEMONIC
#---------    -------------------            -------------------------------
# Generated from Intellog Unique Number	CW_73_75/WELL/416
WELL.         ULSTER MARTEN HILLS 03-09      : Well_name    - WELL
LOC .         00/03-09-075-23W4/0            : Location     - LOCATION
UWI .         00/03-09-075-23W4/0            : Uwi          - UNIQUE WELL ID
ENTR.         JAYE                           : Entered      - ENTERED BY
SRVC.         WESTERN ATLAS                  : Scn          - SERVICE COMPANY
DATE.         22 MAR 88                      : Date         - LOG DATE
STRT.M        400                            : top_depth    - START DEPTH
STOP.M        600                            : bot_depth    - STOP DEPTH
STEP.M        0.25                           : increment    - STEP LENGTH
 NULL. -999.2500:NULL Value
~CURVE INFORMATION BLOCK
#MNEM UNIT       ERCB CURVE CODE    CURVE DESCRIPTION
#-----------   ------------------   ----------------------------------
DEPT.M        00 001 00 00         : DEPTH        - DEPTH
ILD .OHMM     00 120 00 00         : RESD         - DEEP RESISTIVITY (DIL)
NPHI.V/V      00 330 00 00         : PHIN         - NEUTRON POROSITY (SANDSTONE)
DPHI.V/V      00 890 00 00         : PHID         - DENSITY POROSITY (SANDSTONE)
GR  .API      00 310 00 00         : GR           - GAMMA RAY
CALI.MM       00 280 01 00         : CAL          - CALIPER
~PARAMETER INFORMATION
#MNEM.UNIT           DATA             DESCRIPTION OF MNEMONIC
#---------         -----------     ------------------------------
GL  .M        686.6                : gl           - GROUND LEVEL ELEVATION
EREF.M        689.9                : kb           - ELEVATION OF DEPTH REFERENCE
DATM.M        686.6                : datum        - DATUM ELEVATION
TDD .M        609                  : tdd          - TOTAL DEPTH DRILLER
RUN .         ONE                  : Run          - RUN NUMBER
ENG .         SELINGER             : Engineer     - RECORDING ENGINEER
WIT .         OLIVER               : Witness      - WITNESSED BY
BASE.         RDD                  : Branch       - HOME BASE OF LOGGING UNIT
MUD .         GEL CHEM             : Mud_type     - MUD TYPE
MATR.         SANDSTONE            : Logunit      - NEUTRON MATRIX
TMAX.C        27                   : BHT          - MAXIMUM RECORDED TEMPERATURE
BHTD.M        602.6                : BHTDEP       - MAXIMUM RECORDED TEMPERATURE
RMT .C        18                   : MDTP         - TEMPERATURE OF MUD
MUDD.KG/M     1110                 : MWT          - MUD DENSITY
NEUT.         1                    : NEUTRON      - NEUTRON TYPE
RESI.         0                    : RESIST       - RESISTIVITY TYPE
RM  .OHMM     3.18                 : RM           - RESISTIVITY OF MUD
RMC .OHMM     3.98                 : RMC          - RESISTIVITY OF MUD CAKE
RMF .OHMM     3.65                 : RMF          - RESISTIVITY OF MUD FILTRATE
SUFT.C        0                    : SUFT         - SURFACE TEMPERATURE
~A  DEPTH     RESD     PHIN     PHID       GR      CAL
# ...
  436.500    2.983    0.514    0.222  111.827  225.095
  436.750    2.948    0.534    0.237  119.964  227.896
  437.000    2.925    0.542    0.246  116.358  230.599
  437.250    2.939    0.529    0.253  110.723  228.482
  437.500    2.998    0.525    0.261  107.303  220.012
  437.750    3.087    0.548    0.279  110.460  226.507
  438.000    3.178    0.563    0.284  118.043  233.614
  438.250    3.346    0.514    0.246  114.867  219.307
  438.500    3.543    0.494    0.240  110.033  216.881
  438.750    3.730    0.486    0.241  113.805  212.919
  439.000    3.919    0.478    0.242  118.991  216.951
  439.250    4.126    0.496    0.236  116.185  221.496
  439.500    4.385    0.494    0.238  111.842  219.588
  439.750    4.497    0.492    0.240  114.201  215.729
  440.000    4.495    0.507    0.236  115.144  215.563
  440.250    4.476    0.503    0.240  112.340  218.773
  440.500    4.482    0.485    0.228  109.653  217.580
  440.750    4.615    0.469    0.221  104.881  211.980
  441.000    4.778    0.450    0.222   98.569  207.405
  441.250    4.938    0.475    0.215   92.810  203.854
  441.500    5.075    0.503    0.242   87.792  201.126
  441.750    5.224    0.525    0.262   82.833  200.445
  442.000    5.379    0.492    0.255   78.736  200.685
  442.250    5.487    0.479    0.225   74.947  201.441
  442.500    5.525    0.477    0.258   72.261  202.400
  442.750    5.521    0.442    0.296   68.594  202.544
  443.000    5.458    0.418    0.290   64.373  202.577
  443.250    5.394    0.430    0.288   60.829  202.711
  443.500    5.302    0.421    0.296   62.757  202.339
  443.750    5.202    0.448    0.269   67.760  202.070
  444.000    5.141    0.480    0.223   71.409  201.897
  444.250    5.303    0.504    0.219   74.444  202.555
  444.500    5.512    0.498    0.235   76.924  202.997
  444.750    5.663    0.342    0.212   75.225  203.031
  445.000    5.755    0.348    0.073   69.898  202.764
  445.250    5.732    0.395    0.196   75.637  202.390
  445.500    5.612    0.470    0.290   84.390  202.322
  445.750    5.486    0.465    0.289   95.295  201.845
  446.000    5.442    0.459    0.273  105.277  201.676
  446.250    5.429    0.488    0.258  101.856  201.819
  446.500    5.538    0.493    0.239   98.741  202.568
  446.750    5.576    0.462    0.231  104.543  204.254
  447.000    5.562    0.441    0.239  111.880  205.517
  447.250    5.487    0.416    0.248  107.967  205.650
  447.500    5.354    0.373    0.241   97.539  204.253
  447.750    5.243    0.413    0.244   93.317  203.161
  448.000    5.182    0.454    0.248   90.879  204.120
  448.250    5.170    0.444    0.248   87.336  206.722
  448.500    5.157    0.421    0.246   81.638  209.421
  448.750    5.136    0.402    0.244   77.050  211.300
  449.000    5.171    0.425    0.239   80.022  212.462
  449.250    5.343    0.448    0.242   81.397  212.092
  449.500    5.533    0.471    0.267   79.881  209.563
  449.750    5.857    0.490    0.248   71.050  206.319
  450.000    6.042    0.443    0.210   61.480  204.408
  450.250    5.829    0.387    0.212   57.012  204.957
  450.500    5.309    0.433    0.240   73.452  214.728
  450.750    4.955    0.477    0.254   87.614  218.968
  451.000    4.727    0.473    0.258   78.660  215.314
  451.250    4.451    0.425    0.278   67.183  211.353
  451.500    4.208    0.453    0.274   56.629  206.370
  451.750    4.022    0.471    0.256   66.554  206.302
  452.000    3.774    0.492    0.263   82.190  213.409
  452.250    3.521    0.525    0.283   89.590  225.128
  452.500    3.273    0.489    0.267   93.242  223.219
  452.750    3.083    0.473    0.260   94.982  222.333
  453.000    3.042    0.513    0.272   93.406  226.058
  453.250    3.114    0.507    0.288   87.466  227.428
  453.500    3.291    0.502    0.297   86.378  223.570
  453.750    3.445    0.499    0.313   78.100  213.151
  454.000    3.689    0.472    0.321   71.112  204.689
  454.250    4.030    0.445    0.272   73.164  204.104
  454.500    4.354    0.400    0.243   81.732  204.550
  454.750    4.628    0.443    0.228   94.049  206.945
  455.000    4.746    0.476    0.220  104.646  210.573
  455.250    4.915    0.467    0.213  116.043  212.654
  455.500    4.967    0.458    0.204  117.479  213.407
  455.750    4.982    0.457    0.216  101.269  212.520
  456.000    5.064    0.489    0.225   88.750  209.482
  456.250    5.146    0.515    0.214   84.773  206.343
  456.500    5.249    0.488    0.199   89.775  206.999
  456.750    5.295    0.454    0.180   90.412  210.206
  457.000    5.283    0.445    0.194   88.590  215.369
  457.250    5.340    0.480    0.206   91.931  218.068
  457.500    5.488    0.523    0.220   81.316  213.184
  457.750    5.681    0.520    0.299   72.853  204.312
  458.000    5.882    0.467    0.337   64.084  202.602
  458.250    6.112    0.448    0.352   58.388  200.597
  458.500    6.282    0.430    0.350   58.040  199.601
  458.750    6.050    0.407    0.340   61.197  199.230
  459.000    5.623    0.446    0.320   64.294  198.546
  459.250    5.316    0.443    0.306   62.594  198.071
  459.500    5.091    0.432    0.303   59.541  197.186
  459.750    4.986    0.458    0.306   59.811  196.809
  460.000    4.937    0.495    0.311   63.090  196.852
  460.250    4.897    0.506    0.310   68.400  196.984
  460.500    4.840    0.484    0.303   72.233  197.025
  460.750    4.696    0.457    0.291   74.714  197.986
  461.000    4.556    0.470    0.275   74.181  199.961
  461.250    4.188    0.486    0.270   78.384  202.358
  461.500    3.745    0.505    0.271   85.910  207.825
  461.750    3.667    0.535    0.284   91.956  217.595
  462.000    3.741    0.547    0.306   77.466  220.908
  462.250    3.902    0.521    0.326   66.176  211.620
  462.500    4.280    0.521    0.346   59.864  203.153
  462.750    4.907    0.502    0.323   52.692  199.298
  463.000    5.764    0.348    0.168   52.655  198.718
  463.250    6.810    0.312    0.104   52.797  200.188
  463.500    7.330    0.281    0.087   52.635  201.968
  463.750    7.450    0.291    0.099   55.794  202.823
  464.000    7.042    0.332    0.164   63.254  202.351
  464.250    6.044    0.407    0.290   70.284  201.766
  464.500    5.294    0.459    0.311   71.167  201.195
  464.750    4.913    0.502    0.301   68.913  201.020
  465.000    4.784    0.525    0.242   73.425  201.262
  465.250    4.721    0.503    0.203   78.365  202.121
  465.500    4.752    0.466    0.191   81.954  202.767
  465.750    4.866    0.448    0.189   86.032  203.631
  466.000    4.927    0.434    0.196   91.281  204.278
  466.250    5.026    0.430    0.197   90.136  204.824
  466.500    5.070    0.459    0.188   88.126  205.476
  466.750    5.173    0.488    0.194   90.485  206.023
  467.000    5.266    0.505    0.203   90.691  206.477
  467.250    5.332    0.492    0.201   89.729  206.303
  467.500    5.379    0.475    0.200   94.117  206.133
  467.750    5.396    0.426    0.204   94.692  205.866
  468.000    5.393    0.408    0.204   93.175  205.798
  468.250    5.349    0.410    0.199   96.950  206.144
  468.500    5.297    0.432    0.199   99.430  206.279
  468.750    5.226    0.425    0.201  100.251  206.521
  469.000    5.175    0.412    0.200   96.278  206.563
  469.250    5.125    0.463    0.194   90.888  206.495
  469.500    5.132    0.488    0.189   86.974  206.632
  469.750    5.206    0.489    0.189   89.517  207.078
  470.000    5.231    0.465    0.190   96.549  207.113
  470.250    5.239    0.430    0.190   94.848  206.746
  470.500    5.177    0.404    0.189   90.566  206.773
  470.750    5.127    0.415    0.194   92.495  206.920
  471.000    4.974    0.478    0.197   97.372  207.266
  471.250    4.870    0.536    0.196  103.605  207.297
  471.500    4.851    0.511    0.192   97.907  207.433
  471.750    4.884    0.465    0.195   91.045  207.677
  472.000    4.928    0.426    0.199   93.342  208.017
  472.250    4.942    0.434    0.202   95.761  208.876
  472.500    4.930    0.477    0.204   93.692  209.426
  472.750    4.909    0.530    0.202   87.258  209.767
