~VERSION INFORMATION
 VERS.                 2.0:   CWLS LOG ASCII STANDARD -VERSION 2.0
 WRAP.                  NO:   ONE LINE PER DEPTH STEP
~WELL INFORMATION BLOCK
#MNEM.UNIT           DATA                    DESCRIPTION OF MNEMONIC
#---------    -------------------            -------------------------------
# Generated from Intellog Unique Number	CS_77_79/WELL/867
WELL.         ICGR GRAHAM                    : Well_name    - WELL
LOC .         00/06-05-079-05W4/0            : Location     - LOCATION
UWI .         00/06-05-079-05W4/0            : Uwi          - UNIQUE WELL ID
ENTR.         JHS                            : Entered      - ENTERED BY
SRVC.         SCHLUMBERGER                   : Scn          - SERVICE COMPANY
STRT.M        105                            : top_depth    - START DEPTH
STOP.M        365                            : bot_depth    - STOP DEPTH
STEP.M        0.25                           : increment    - STEP LENGTH
 NULL. -999.2500:NULL Value
~CURVE INFORMATION BLOCK
#MNEM UNIT       ERCB CURVE CODE    CURVE DESCRIPTION
#-----------   ------------------   ----------------------------------
DEPT.M        00 001 00 00         : DEPTH        - DEPTH
DPHI.V/V      00 890 00 00         : PHID         - DENSITY POROSITY (LIMESTONE)
NPHI.V/V      00 330 00 00         : PHIN         - NEUTRON POROSITY (LIMESTONE)
GR  .API      00 310 00 00         : GR           - GAMMA RAY
ILD .OHMM     00 120 00 00         : RESD         - DEEP RESISTIVITY (DIL)
RHOB.KG/M3    00 350 00 00         : DENS         - BULK DENSITY
~PARAMETER INFORMATION
#MNEM.UNIT           DATA             DESCRIPTION OF MNEMONIC
#---------         -----------     ------------------------------
GL  .M        529.39               : gl           - GROUND LEVEL ELEVATION
EREF.M        533.04               : kb           - ELEVATION OF DEPTH REFERENCE
DATM.M        533.04               : datum        - DATUM ELEVATION
TDD .M        374                  : tdd          - TOTAL DEPTH DRILLER
RUN .         ONE                  : Run          - RUN NUMBER
ENG .         BILL                 : Engineer     - RECORDING ENGINEER
WIT .         JIM                  : Witness      - WITNESSED BY
MUD .         GEL                  : Mud_type     - MUD TYPE
MATR.         LIMESTONE            : Logunit      - NEUTRON MATRIX
TMAX.C        20.4                 : BHT          - MAXIMUM RECORDED TEMPERATURE
BHTD.M        374                  : BHTDEP       - MAXIMUM RECORDED TEMPERATURE
MATR.         1                    : LOGUNIT      - NEUTRON MATRIX
RMT .C        25                   : MDTP         - TEMPERATURE OF MUD
NEUT.         1                    : NEUTRON      - NEUTRON TYPE
RESI.         0                    : RESIST       - RESISTIVITY TYPE
RMC .OHMM     0.25                 : RMC          - RESISTIVITY OF MUD CAKE
RMF .OHMM     0.25                 : RMF          - RESISTIVITY OF MUD FILTRATE
SUFT.C        15                   : SUFT         - SURFACE TEMPERATURE
~A  DEPTH     PHID     PHIN       GR     RESD     DENS
# ...
  324.000    0.351    0.406   41.106    3.739 2109.770
  324.250    0.350    0.404   37.349    3.669 2111.930
  324.500    0.347    0.389   35.476    3.600 2116.190
  324.750    0.365    0.381   40.508    3.533 2086.540
  325.000    0.397    0.401   40.518    3.467 2031.450
  325.250    0.405    0.501   38.016    3.402 2016.640
  325.500    0.388    0.450   35.515    3.401 2046.340
  325.750    0.376    0.424   34.268    3.338 2067.570
  326.000    0.376    0.410   36.788    3.275 2067.600
  326.250    0.367    0.424   38.682    3.275 2082.470
  326.500    0.363    0.405   39.946    3.336 2088.850
  326.750    0.366    0.388   43.094    3.399 2084.640
  327.000    0.362    0.378   53.145    3.463 2091.030
  327.250    0.346    0.393   58.803    3.595 2118.610
  327.500    0.327    0.412   58.185    3.663 2150.440
  327.750    0.350    0.445   53.173    3.731 2112.310
  328.000    0.364    0.446   50.672    3.874 2086.900
  328.250    0.316    0.403   60.096    4.021 2169.600
  328.500    0.286    0.385   70.148    4.097 2220.500
  328.750    0.270    0.421   75.179    4.174 2248.090
  329.000    0.283    0.433   65.774    4.019 2226.920
  329.250    0.316    0.411   48.837    3.871 2169.710
  329.500    0.339    0.415   40.688    3.728 2129.470
  329.750    0.348    0.410   35.048    3.523 2114.650
  330.000    0.349    0.420   28.156    3.457 2112.560
  330.250    0.353    0.418   26.281    3.392 2106.230
  330.500    0.361    0.410   23.780    3.392 2093.530
  330.750    0.365    0.401   23.164    3.328 2085.080
  331.000    0.357    0.391   23.799    3.328 2099.950
  331.250    0.353    0.386   25.066    3.327 2106.330
  331.500    0.354    0.393   23.817    3.327 2104.240
  331.750    0.359    0.406   20.065    3.326 2095.790
  332.000    0.362    0.409   20.071    3.326 2091.590
  332.250    0.363    0.409   23.848    3.325 2089.490
  332.500    0.367    0.399   25.741    3.388 2083.160
  332.750    0.363    0.386   24.496    3.452 2089.540
  333.000    0.345    0.372   23.248    3.651 2119.240
  333.250    0.328    0.349   26.395    3.790 2148.960
  333.500    0.314    0.353   31.425    4.009 2172.300
  333.750    0.301    0.349   33.947    4.486 2195.640
  334.000    0.278    0.319   33.328    4.835 2233.830
  334.250    0.265    0.292   32.082    5.115 2257.180
  334.500    0.249    0.282   31.463    5.114 2284.760
  334.750    0.252    0.322   30.217    5.210 2278.430
  335.000    0.282    0.337   27.090    5.209 2227.580
  335.250    0.297    0.317   28.982    5.208 2202.170
  335.500    0.271    0.302   29.619    5.208 2246.710
  335.750    0.261    0.294   29.630    5.110 2263.700
  336.000    0.262    0.313   30.898    5.015 2261.610
  336.250    0.286    0.345   32.160    4.829 2221.360
  336.500    0.297    0.355   34.050    4.739 2202.310
  336.750    0.304    0.342   37.826    4.563 2189.610
  337.000    0.301    0.325   43.484    4.563 2196.000
  337.250    0.247    0.346   60.439    4.477 2287.180
  337.500    0.241    0.417   62.960    4.477 2297.810
  337.750    0.262    0.382   55.437    4.476 2261.800
  338.000    0.262    0.341   46.660    4.476 2261.830
  338.250    0.257    0.405   51.063    4.392 2270.330
  338.500    0.266    0.416   41.658    4.309 2255.520
  338.750    0.305    0.350   29.114    4.228 2187.710
  339.000    0.310    0.330   29.125    4.228 2179.260
  339.250    0.293    0.357   36.667    4.149 2208.970
  339.500    0.286    0.372   33.539    3.995 2221.720
  339.750    0.289    0.387   26.015    3.921 2215.390
  340.000    0.338    0.396   19.748    3.705 2132.740
  340.250    0.361    0.372   15.366    3.636 2092.490
  340.500    0.352    0.364   13.492    3.501 2107.360
  340.750    0.342    0.359   14.131    3.436 2124.340
  341.000    0.341    0.360   16.650    3.435 2126.500
  341.250    0.337    0.364   22.307    3.435 2132.880
  341.500    0.334    0.381   21.690    3.499 2139.270
  341.750    0.342    0.398   17.305    3.499 2124.450
  342.000    0.350    0.386   14.177    3.498 2111.760
  342.250    0.352    0.378   14.815    3.498 2107.550
  342.500    0.331    0.378   15.452    3.497 2143.610
  342.750    0.318    0.366   14.207    3.432 2166.960
  343.000    0.323    0.356   12.960    3.367 2158.510
  343.250    0.331    0.366   12.970    3.304 2143.700
  343.500    0.344    0.382   13.607    3.304 2122.530
  343.750    0.356    0.383   13.616    3.242 2101.360
  344.000    0.362    0.376   13.626    3.242 2090.790
  344.250    0.355    0.361   14.889    3.241 2103.540
  344.500    0.353    0.357   14.899    3.302 2105.680
  344.750    0.350    0.366   13.655    3.364 2112.070
  345.000    0.347    0.371   13.036    3.364 2116.330
  345.250    0.345    0.355   14.302    3.427 2120.600
  345.500    0.337    0.366   15.565    3.426 2133.350
  345.750    0.348    0.402   14.945    3.491 2114.290
  346.000    0.361    0.429   14.331    3.490 2093.120
  346.250    0.353    0.377   13.711    3.425 2105.870
  346.500    0.353    0.372   13.720    3.425 2105.900
  346.750    0.348    0.364   14.985    3.424 2114.410
  347.000    0.333    0.361   16.878    3.423 2139.880
  347.250    0.332    0.363   17.514    3.554 2142.030
  347.500    0.328    0.372   18.779    3.689 2148.410
  347.750    0.311    0.366   21.300    3.902 2178.110
  348.000    0.305    0.351   21.312    3.976 2188.750
  348.250    0.301    0.366   20.691    4.050 2195.130
  348.500    0.294    0.380   20.702    4.050 2207.880
  348.750    0.289    0.361   20.084    4.126 2216.380
  349.000    0.292    0.358   19.464    4.126 2210.050
  349.250    0.308    0.365   20.730    4.203 2182.510
  349.500    0.292    0.375   20.738    4.202 2210.100
  349.750    0.277    0.385   18.864    4.202 2235.570
  350.000    0.279    0.387   17.619    4.123 2233.470
  350.250    0.296    0.372   17.001    4.123 2203.830
  350.500    0.300    0.365   17.637    4.045 2197.490
  350.750    0.302    0.368   17.020    3.970 2193.280
  351.000    0.317    0.377   15.776    3.895 2167.870
  351.250    0.333    0.362   17.043    3.822 2140.340
  351.500    0.326    0.350   18.931    3.894 2153.090
  351.750    0.306    0.375   42.162    4.042 2187.030
  352.000    0.306    0.544   81.713    4.276 2187.060
  352.250    0.319    0.585  106.826    4.609 2163.770
  352.500    0.298    0.552  121.272    4.968 2199.830
  352.750    0.233    0.520  118.143    5.254 2312.210
  353.000    0.212    0.504  118.782    5.455 2348.280
  353.250    0.286    0.547  121.301    5.663 2221.110
  353.500    0.304    0.561  117.545    5.878 2189.340
  353.750    0.220    0.545  112.532    5.989 2333.520
  354.000    0.166    0.513  110.032    5.877 2426.820
  354.250    0.159    0.492  118.200    5.766 2437.450
  354.500    0.194    0.485  123.861    5.658 2378.120
  354.750    0.224    0.490  120.730    5.658 2327.270
  355.000    0.214    0.480  121.367    5.657 2344.260
  355.250    0.182    0.462  124.518    5.656 2399.400
  355.500    0.157    0.456  123.898    5.655 2441.830
  355.750    0.148    0.485  118.259    5.762 2456.690
  356.000    0.138    0.501  113.873    5.761 2473.680
  356.250    0.144    0.475  109.491    5.980 2463.110
  356.500    0.159    0.468  106.990    6.568 2437.700
  356.750    0.170    0.496  101.977    7.350 2418.650
  357.000    0.177    0.532   92.572    8.539 2408.080
  357.250    0.180    0.361   65.594    9.922    0.000
  357.500    0.111    0.268   32.967   13.649    0.000
  357.750    0.055    0.189   24.817   18.777    0.000
  358.000    0.023    0.149   22.317   23.518    0.000
  358.250    0.002    0.148   24.837   30.581    0.000
  358.500    0.000    0.147   22.963   35.532    0.000
  358.750    0.009    0.140   17.324   40.514    0.000
  359.000    0.030    0.124   12.940   43.667    0.000
  359.250    0.017    0.117   11.069   47.063    0.000
  359.500    0.005    0.109   10.450   49.782    0.000
  359.750    0.004    0.107   11.087   51.683    0.000
  360.000    0.003    0.112   11.726   55.702    0.000
  360.250    0.000    0.121   12.990   57.825    0.000
