~VERSION INFORMATION
 VERS.                 2.0:   CWLS LOG ASCII STANDARD -VERSION 2.0
 WRAP.                  NO:   ONE LINE PER DEPTH STEP
~WELL INFORMATION BLOCK
#MNEM.UNIT           DATA                    DESCRIPTION OF MNEMONIC
#---------    -------------------            -------------------------------
# Generated from Intellog Unique Number	CS_77_79/WELL/920
WELL.         CANADIAN WORLDWIDE ENERGY      : Well_name    - WELL
LOC .         00/08-20-077-05W4/0            : Location     - LOCATION
UWI .         00/08-20-077-05W4/0            : Uwi          - UNIQUE WELL ID
ENTR.         SP                             : Entered      - ENTERED BY
SRVC.         SCHLUMBERGER                   : Scn          - SERVICE COMPANY
STRT.M        155.250                        : top_depth    - START DEPTH
STOP.M        408.000                        : bot_depth    - STOP DEPTH
STEP.M        0.25                           : increment    - STEP LENGTH
 NULL. -999.2500:NULL Value
~CURVE INFORMATION BLOCK
#MNEM UNIT       ERCB CURVE CODE    CURVE DESCRIPTION
#-----------   ------------------   ----------------------------------
DEPT.M        00 001 00 00         : DEPTH        - DEPTH
ILD .OHMM     00 120 00 00         : RESD         - DEEP RESISTIVITY (DIL)
DPHI.V/V      00 890 00 00         : PHID         - DENSITY POROSITY (SANDSTONE)
NPHI.V/V      00 330 00 00         : PHIN         - NEUTRON POROSITY (SANDSTONE)
GR  .API      00 310 00 00         : GR           - GAMMA RAY
~PARAMETER INFORMATION
#MNEM.UNIT           DATA             DESCRIPTION OF MNEMONIC
#---------         -----------     ------------------------------
GL  .M        570.1                : gl           - GROUND LEVEL ELEVATION
EREF.M        574                  : kb           - ELEVATION OF DEPTH REFERENCE
DATM.M        570.1                : datum        - DATUM ELEVATION
TDD .M        415                  : tdd          - TOTAL DEPTH DRILLER
RUN .         ONE                  : Run          - RUN NUMBER
ENG .         BILL                 : Engineer     - RECORDING ENGINEER
WIT .         JIM                  : Witness      - WITNESSED BY
MUD .         GEL                  : Mud_type     - MUD TYPE
MATR.         SANDSTONE            : Logunit      - NEUTRON MATRIX
TMAX.C        20                   : BHT          - MAXIMUM RECORDED TEMPERATURE
BHTD.M        415                  : BHTDEP       - MAXIMUM RECORDED TEMPERATURE
MATR.         1                    : LOGUNIT      - NEUTRON MATRIX
RMT .C        25                   : MDTP         - TEMPERATURE OF MUD
NEUT.         1                    : NEUTRON      - NEUTRON TYPE
RESI.         0                    : RESIST       - RESISTIVITY TYPE
RMC .OHMM     0.25                 : RMC          - RESISTIVITY OF MUD CAKE
RMF .OHMM     0.25                 : RMF          - RESISTIVITY OF MUD FILTRATE
SUFT.C        15                   : SUFT         - SURFACE TEMPERATURE
~A  DEPTH     RESD     PHID     PHIN       GR
# ...
  198.750   19.684    0.294    0.402   94.499
  199.000   19.709    0.288    0.409   93.301
  199.250   19.722    0.292    0.410   97.613
  199.500   20.111    0.292    0.389   99.468
  199.750   20.519    0.278    0.363   97.652
  200.000   20.920    0.272    0.356   92.777
  200.250   21.340    0.256    0.356   81.168
  200.500   22.176    0.242    0.352   80.574
  200.750   23.936    0.220    0.343   76.314
  201.000   25.342    0.216    0.342   77.564
  201.250   26.831    0.251    0.348   81.254
  201.500   28.951    0.285    0.352   72.707
  201.750   31.240    0.291    0.349   50.691
  202.000   31.854    0.280    0.326   37.244
  202.250   31.882    0.274    0.307   27.471
  202.500   30.172    0.293    0.300   26.269
  202.750   28.547    0.307    0.303   31.809
  203.000   27.006    0.311    0.304   34.271
  203.250   25.549    0.302    0.307   43.477
  203.500   24.175    0.281    0.317   69.211
  203.750   23.753    0.259    0.336   73.517
  204.000   23.328    0.275    0.349   64.970
  204.250   22.495    0.303    0.354   50.911
  204.500   22.093    0.321    0.340   45.427
  204.750   20.905    0.316    0.340   48.510
  205.000   19.777    0.300    0.342   58.941
  205.250   18.368    0.283    0.348   73.654
  205.500   17.709    0.274    0.357   80.406
  205.750   17.066    0.280    0.373   80.435
  206.000   16.455    0.280    0.373   81.677
  206.250   15.573    0.276    0.346   87.822
  206.500   15.008    0.292    0.346   90.291
  206.750   13.942    0.299    0.354   93.987
  207.000   13.692    0.308    0.356  101.355
  207.250   13.450    0.278    0.354   99.541
  207.500   13.207    0.255    0.354   98.342
  207.750   13.220    0.244    0.354  102.034
  208.000   13.233    0.248    0.358   95.328
  208.250   13.252    0.261    0.359   89.838
  208.500   13.261    0.253    0.358   86.799
  208.750   13.270    0.242    0.352   90.496
  209.000   13.037    0.236    0.331   97.249
  209.250   12.334    0.227    0.332  100.331
  209.500   11.670    0.216    0.339  105.864
  209.750   11.042    0.211    0.348  118.132
  210.000   10.449    0.204    0.355  119.386
  210.250   10.072    0.214    0.369  118.786
  210.500    9.530    0.223    0.374  117.595
  210.750    9.364    0.227    0.378  117.612
  211.000    9.370    0.228    0.381  117.631
  211.250    9.736    0.228    0.386  116.428
  211.500   10.705    0.233    0.391  114.615
  211.750   11.768    0.240    0.388  113.409
  212.000   12.700    0.245    0.384  107.923
  212.250   13.197    0.263    0.388   96.926
  212.500   13.714    0.280    0.390   92.661
  212.750   13.728    0.287    0.392   97.587
  213.000   14.005    0.274    0.388  103.732
  213.250   14.013    0.262    0.383  106.196
  213.500   14.563    0.261    0.383  103.769
  213.750   15.135    0.265    0.384   96.446
  214.000   15.437    0.255    0.380   94.635
  214.250   15.745    0.238    0.372   97.103
  214.500   16.060    0.231    0.367   78.759
  214.750   16.078    0.268    0.360   61.032
  215.000   16.087    0.303    0.358   54.316
  215.250   15.805    0.298    0.353   61.073
  215.500   15.525    0.274    0.365   72.731
  215.750   15.541    0.271    0.373   81.319
  216.000   14.983    0.294    0.370   74.617
  216.250   14.440    0.306    0.344   71.570
  216.500   12.915    0.293    0.340   80.782
  216.750   11.552    0.277    0.355   83.251
  217.000    9.952    0.263    0.371   85.105
  217.250    9.238    0.242    0.401   91.859
  217.500    8.417    0.226    0.417  106.580
  217.750    7.816    0.233    0.418  109.045
  218.000    8.595    0.248    0.403  103.565
  218.250    9.628    0.263    0.378   99.907
  218.500   10.584    0.273    0.366   91.978
  218.750   12.082    0.285    0.360   89.546
  219.000   12.792    0.287    0.362   88.963
  219.250   13.295    0.278    0.351   90.201
  219.500   12.822    0.273    0.352   92.672
  219.750   12.360    0.264    0.364   91.471
  220.000   11.691    0.249    0.400   93.335
  220.250   10.854    0.235    0.415   93.969
  220.500   10.865    0.227    0.410   91.539
  220.750   11.082    0.242    0.394   86.057
  221.000   11.739    0.251    0.374   84.237
  221.250   12.195    0.262    0.359   81.209
  221.500   12.441    0.266    0.352   80.611
  221.750   12.456    0.265    0.365   79.406
  222.000   12.232    0.269    0.375   79.430
  222.250   12.014    0.273    0.369   78.837
  222.500   11.582    0.280    0.357   77.649
  222.750   11.813    0.284    0.361   77.661
  223.000   12.279    0.288    0.370   77.069
  223.250   12.526    0.294    0.375   74.033
  223.500   12.302    0.300    0.369   71.603
  223.750   12.083    0.306    0.360   72.236
  224.000   11.647    0.295    0.369   75.321
  224.250   11.230    0.279    0.378   80.861
  224.500   11.453    0.274    0.378   82.711
  224.750   11.901    0.285    0.378   80.294
  225.000   12.367    0.311    0.382   75.413
  225.250   14.126    0.337    0.382   65.638
  225.500   14.675    0.352    0.379   60.761
  225.750   15.535    0.351    0.377   58.950
  226.000   16.453    0.349    0.373   58.357
  226.250   17.101    0.357    0.372   58.381
  226.500   17.442    0.357    0.373   60.239
  226.750   17.791    0.355    0.374   60.260
  227.000   17.807    0.358    0.372   56.617
  227.250   17.821    0.359    0.373   56.018
  227.500   17.506    0.359    0.385   59.105
  227.750   17.203    0.352    0.405   60.351
  228.000   17.213    0.344    0.407   57.931
  228.250   17.227    0.339    0.394   56.727
  228.500   17.571    0.334    0.391   59.812
  228.750   18.263    0.318    0.397   61.672
  229.000   19.337    0.296    0.406   61.686
  229.250   20.093    0.276    0.405   61.104
  229.500   20.493    0.138    0.363   61.118
  229.750   20.518    0.140    0.277   59.305
  230.000   20.533    0.214    0.302   58.716
  230.250   20.549    0.291    0.353   56.902
  230.500   19.821    0.357    0.379   55.086
  230.750   19.463    0.360    0.388   56.950
  231.000   18.766    0.357    0.390   59.426
  231.250   18.777    0.356    0.386   60.666
  231.500   18.459    0.357    0.390   61.298
  231.750   18.475    0.360    0.407   60.705
  232.000   18.145    0.363    0.414   59.504
  232.250   18.163    0.359    0.419   60.750
  232.500   18.177    0.353    0.376   62.001
  232.750   18.535    0.351    0.376   60.801
  233.000   18.563    0.353    0.378   57.757
  233.250   18.573    0.357    0.381   56.553
  233.500   18.945    0.363    0.385   55.966
  233.750   18.955    0.369    0.392   57.216
  234.000   18.626    0.373    0.397   57.240
  234.250   18.294    0.373    0.379   53.585
  234.500   17.967    0.367    0.368   51.767
  234.750   16.684    0.357    0.369   53.634
  235.000   15.496    0.354    0.369   54.268
  235.250   14.386    0.358    0.369   53.670
  235.500   13.112    0.348    0.370   52.472
  235.750   12.881    0.337    0.375   50.661
  236.000   13.895    0.330    0.385   50.683
  236.250   15.566    0.326    0.384   54.376
  236.500   17.443    0.322    0.375   61.740
  236.750   18.121    0.317    0.370   69.720
  237.000   19.189    0.328    0.369   59.339
  237.250   19.571    0.345    0.384   54.468
  237.500   19.231    0.351    0.393   53.870
  237.750   18.892    0.351    0.374   53.893
  238.000   18.562    0.354    0.366   53.925
  238.250   18.581    0.350    0.364   53.942
  238.500   18.601    0.342    0.364   54.575
  238.750   17.931    0.347    0.361   52.153
  239.000   17.616    0.352    0.368   50.953
  239.250   17.302    0.350    0.363   51.580
  239.500   16.987    0.344    0.357   51.610
  239.750   15.188    0.337    0.350   51.623
  240.000   12.604    0.334    0.351   51.652
  240.250   10.857    0.329    0.352   51.671
  240.500    9.891    0.319    0.356   51.688
  240.750    8.684    0.300    0.369   52.939
  241.000    8.064    0.273    0.384   61.529
  241.250    7.775    0.258    0.399   73.183
  241.500    7.781    0.256    0.398   81.775
  241.750    7.789    0.253    0.369   85.470
  242.000    7.794    0.254    0.363   88.557
