~VERSION INFORMATION
 VERS.                 2.0:   CWLS LOG ASCII STANDARD -VERSION 2.0
 WRAP.                  NO:   ONE LINE PER DEPTH STEP
~WELL INFORMATION BLOCK
#MNEM.UNIT           DATA                    DESCRIPTION OF MNEMONIC
#---------    -------------------            -------------------------------
# Generated from Intellog Unique Number	CW_70_72/WELL/3290
NULL.         -999.25                        : NULL_VALUE
WELL.         SULPETRO ET AL MITSUE 05-18    : Well_name    - WELL              
LOC .         05-18-071-05W5                 : Location     - LOCATION          
UWI .         00/05-18-071-05W5/0            : Uwi          - UNIQUE WELL ID    
ENTR.         JAYE                           : Entered      - ENTERED BY        
SRVC.         SCHLUMBERGER                   : Scn          - SERVICE COMPANY   
DATE.         1 MAR 81                       : Date         - LOG DATE          
STRT.M        650                            : top_depth    - START DEPTH       
STOP.M        895                            : bot_depth    - STOP DEPTH        
STEP.M        0.25                           : increment    - STEP LENGTH       
~CURVE INFORMATION BLOCK
#MNEM UNIT       ERCB CURVE CODE    CURVE DESCRIPTION
#-----------   ------------------   ----------------------------------
DEPT.M        00 001 00 00         : DEPTH        - DEPTH                       
DPHI.V/V      00 890 00 00         : PHID         - DENSITY POROSITY (SANDSTONE)
ILD .OHMM     00 120 00 00         : RESD         - DEEP RESISTIVITY (DIL)      
CALI.MM       00 280 01 00         : CAL          - CALIPER                     
GR  .API      00 310 00 00         : GR           - GAMMA RAY                   
NPHI.V/V      00 330 00 00         : PHIN         - NEUTRON POROSITY (SANDSTONE)
~PARAMETER INFORMATION       
#MNEM.UNIT           DATA             DESCRIPTION OF MNEMONIC
#---------         -----------     ------------------------------
GL  .M        795.4                : gl           - GROUND LEVEL ELEVATION      
EREF.M        798.4                : kb           - ELEVATION OF DEPTH REFERENCE
DATM.M        795.4                : datum        - DATUM ELEVATION             
TDD .M        895                  : tdd          - TOTAL DEPTH DRILLER         
RUN .         ONE                  : Run          - RUN NUMBER                  
ENG .         VALLANCOURT          : Engineer     - RECORDING ENGINEER          
WIT .         THACKER              : Witness      - WITNESSED BY                
BASE.         EDM                  : Branch       - HOME BASE OF LOGGING UNIT   
MUD .         GEL CHEM             : Mud_type     - MUD TYPE                    
MATR.         SANDSTONE            : Logunit      - NEUTRON MATRIX              
TMAX.C        32.8                 : BHT          - MAXIMUM RECORDED TEMPERATURE
BHTD.M        895                  : BHTDEP       - MAXIMUM RECORDED TEMPERATURE
RMT .C        20                   : MDTP         - TEMPERATURE OF MUD          
MUDD.KG/M     1130                 : MWT          - MUD DENSITY                 
NEUT.         1                    : NEUTRON      - NEUTRON TYPE                
RESI.         0                    : RESIST       - RESISTIVITY TYPE            
RM  .OHMM     4.57                 : RM           - RESISTIVITY OF MUD          
RMC .OHMM     0.25                 : RMC          - RESISTIVITY OF MUD CAKE     
RMF .OHMM     3.86                 : RMF          - RESISTIVITY OF MUD FILTRATE 
SUFT.C        5                    : SUFT         - SURFACE TEMPERATURE         
~A  DEPTH     PHID     RESD      CAL       GR     PHIN
# ...
  686.500    0.280    2.280  151.708   74.867    0.418
  686.750    0.231    2.279  153.019   79.320    0.418
  687.000    0.206    2.260  156.815   84.082    0.408
  687.250    0.169    2.268  159.782   89.031    0.396
  687.500    0.239    2.275  157.675   88.140    0.435
  687.750    0.274    2.304  152.356   78.300    0.489
  688.000    0.295    2.347  150.664   74.238    0.462
  688.250    0.277    2.363  149.797   79.251    0.452
  688.500    0.268    2.380  149.968   79.601    0.444
  688.750    0.289    2.347  150.969   68.458    0.431
  689.000    0.307    2.246  152.691   58.680    0.403
  689.250    0.311    2.122  155.349   52.695    0.384
  689.500    0.313    2.042  159.662   50.684    0.367
  689.750    0.325    1.969  161.904   50.662    0.363
  690.000    0.331    1.917  159.176   53.251    0.369
  690.250    0.336    1.880  160.487   56.274    0.379
  690.500    0.341    1.857  160.243   57.555    0.393
  690.750    0.343    1.853  155.959   57.846    0.408
  691.000    0.330    1.863  156.854   59.377    0.411
  691.250    0.320    1.915  158.887   61.655    0.406
  691.500    0.317    1.965  160.715   62.129    0.408
  691.750    0.317    2.009  161.613   58.254    0.397
  692.000    0.316    2.077  160.956   58.420    0.396
  692.250    0.317    2.156  157.297   62.748    0.404
  692.500    0.322    2.208  153.119   66.019    0.413
  692.750    0.319    2.249  150.701   67.488    0.403
  693.000    0.312    2.277  150.353   68.400    0.395
  693.250    0.304    2.246  150.522   66.202    0.397
  693.500    0.301    2.182  151.000   62.017    0.407
  693.750    0.311    2.133  151.587   60.441    0.399
  694.000    0.323    2.111  151.554   61.788    0.398
  694.250    0.334    2.130  151.722   64.190    0.424
  694.500    0.342    2.207  151.478   67.771    0.426
  694.750    0.348    2.360  151.135   66.817    0.412
  695.000    0.352    2.468  150.366   64.560    0.399
  695.250    0.348    2.443  150.544   60.683    0.387
  695.500    0.330    2.347  150.510   57.433    0.436
  695.750    0.333    2.268  150.573   56.790    0.441
  696.000    0.344    2.203  151.055   60.434    0.415
  696.250    0.327    2.145  152.574   61.842    0.411
  696.500    0.317    2.120  155.128   60.700    0.418
  696.750    0.320    2.091  157.265   61.113    0.425
  697.000    0.324    2.082  157.226   63.765    0.427
  697.250    0.323    2.084  156.156   66.103    0.436
  697.500    0.325    2.103  155.391   63.472    0.445
  697.750    0.333    2.130  154.427   61.587    0.449
  698.000    0.333    2.157  153.871   61.006    0.437
  698.250    0.319    2.180  153.107   61.232    0.427
  698.500    0.313    2.204  152.660   62.826    0.428
  698.750    0.321    2.202  152.628   64.793    0.442
  699.000    0.334    2.189  153.933   63.529    0.434
  699.250    0.337    2.131  154.000   63.069    0.421
  699.500    0.336    2.106  152.932   62.241    0.424
  699.750    0.330    2.093  151.337   59.425    0.423
  700.000    0.333    2.103  151.100   58.719    0.416
  700.250    0.335    2.166  151.166   59.254    0.411
  700.500    0.330    2.296  152.370   60.787    0.420
  700.750    0.313    2.469  153.890   63.437    0.429
  701.000    0.268    2.646  156.340   62.298    0.417
  701.250    0.273    2.746  155.057   60.660    0.365
  701.500    0.296    2.653  153.264   63.807    0.405
  701.750    0.306    2.520  151.770   68.695    0.421
  702.000    0.303    2.358  151.428   72.152    0.427
  702.250    0.297    2.185  151.079   69.956    0.423
  702.500    0.305    2.119  151.451   66.579    0.426
  702.750    0.314    2.090  151.731   63.388    0.418
  703.000    0.315    2.078  152.005   61.503    0.408
  703.250    0.302    2.080  152.285   65.209    0.403
  703.500    0.296    2.091  152.970   67.238    0.418
  703.750    0.293    2.106  154.906   69.204    0.434
  704.000    0.286    2.112  158.700   71.482    0.420
  704.250    0.281    2.131  160.941   73.758    0.429
  704.500    0.277    2.154  161.732   71.874    0.459
  704.750    0.284    2.177  161.389   67.067    0.442
  705.000    0.298    2.197  159.589   65.243    0.417
  705.250    0.308    2.179  156.139   66.402    0.406
  705.500    0.322    2.125  153.513   73.278    0.412
  705.750    0.311    2.042  156.168   82.637    0.423
  706.000    0.279    1.921  161.517   86.282    0.465
  706.250    0.266    1.842  164.794   85.328    0.499
  706.500    0.262    1.817  164.448   83.877    0.504
  706.750    0.266    1.886  161.507   79.507    0.490
  707.000    0.291    2.013  158.058   73.395    0.507
  707.250    0.354    2.133  154.295   64.425    0.538
  707.500    0.373    2.226  149.492   60.862    0.548
  707.750    0.337    2.251  146.249   61.339    0.498
  708.000    0.319    2.166  142.173   61.252    0.463
  708.250    0.314    2.065  144.515   58.374    0.461
  708.500    0.319    1.973  150.073   57.542    0.447
  708.750    0.326    1.902  153.041   61.935    0.429
  709.000    0.334    1.859  153.730   66.076    0.417
  709.250    0.326    1.872  153.176   66.427    0.421
  709.500    0.312    1.935  152.203   65.596    0.438
  709.750    0.304    2.009  151.445   64.893    0.450
  710.000    0.301    2.077  151.408   65.493    0.440
  710.250    0.300    2.139  151.582   67.394    0.423
  710.500    0.298    2.199  152.785   69.053    0.416
  710.750    0.296    2.244  155.652   69.528    0.450
  711.000    0.301    2.268  159.965   63.293    0.469
  711.250    0.322    2.276  160.135   58.424    0.445
  711.500    0.334    2.257  156.682   57.842    0.427
  711.750    0.327    2.210  152.399   56.703    0.398
  712.000    0.325    2.155  148.632   54.694    0.402
  712.250    0.326    2.082  145.699   52.807    0.423
  712.500    0.331    2.050  147.218   51.295    0.428
  712.750    0.349    2.092  151.736   50.836    0.419
  713.000    0.372    2.150  153.046   51.934    0.408
  713.250    0.429    2.219  153.323   53.901    0.489
  713.500    0.367    2.290  151.931   58.166    0.546
  713.750    0.327    2.333  152.318   63.488    0.497
  714.000    0.320    2.380  153.729   68.500    0.459
  714.250    0.318    2.415  153.796   72.081    0.444
  714.500    0.311    2.432  153.965   72.681    0.442
  714.750    0.310    2.458  154.035   73.654    0.447
  715.000    0.300    2.499  154.310   75.930    0.443
  715.250    0.281    2.540  154.585   77.898    0.432
  715.500    0.264    2.577  154.232   77.503    0.437
  715.750    0.250    2.655  154.305   77.916    0.440
  716.000    0.242    2.740  155.095   82.554    0.425
  716.250    0.242    2.817  155.991   83.093    0.427
  716.500    0.252    2.896  156.888   84.685    0.451
  716.750    0.245    2.955  158.091   88.826    0.453
  717.000    0.230    2.981  158.990   88.494    0.434
  717.250    0.225    3.053  159.575   87.539    0.421
  717.500    0.236    3.122  160.162   90.316    0.401
  717.750    0.229    3.270  164.782   91.161    0.415
  718.000    0.243    3.466  166.821   88.593    0.445
  718.250    0.297    3.770  166.472   77.202    0.492
  718.500    0.563    4.025  164.056   66.182    0.537
  718.750    0.638    4.297  163.399   53.671    0.690
  719.000    0.648    4.336  165.225   74.651    0.742
  719.250    0.399    4.095  168.709   87.491    0.654
  719.500    0.282    3.732  168.671   90.264    0.587
  719.750    0.232    3.343  166.874   83.720    0.472
  720.000    0.240    2.939  162.803   80.033    0.437
  720.250    0.266    2.663  157.586   77.276    0.434
  720.500    0.284    2.501  152.789   73.216    0.429
  720.750    0.296    2.367  149.437   72.759    0.413
  721.000    0.292    2.265  147.332   72.488    0.411
  721.250    0.291    2.180  145.740   71.163    0.430
  721.500    0.301    2.179  145.600   68.965    0.425
  721.750    0.302    2.203  145.876   67.391    0.419
  722.000    0.299    2.218  147.702   67.058    0.416
  722.250    0.304    2.280  149.843   69.895    0.415
  722.500    0.311    2.336  154.671   72.545    0.421
  722.750    0.316    2.366  159.294   70.659    0.419
