~VERSION INFORMATION
 VERS.                 2.0:   CWLS LOG ASCII STANDARD -VERSION 2.0
 WRAP.                  NO:   ONE LINE PER DEPTH STEP
~WELL INFORMATION BLOCK
#MNEM.UNIT           DATA                    DESCRIPTION OF MNEMONIC
#---------    -------------------            -------------------------------
# Generated from Intellog Unique Number	CS_71_72/WELL/818
WELL.         BOW VALLEY INDUSTRIES          : Well_name    - WELL
LOC .         00/07-25-071-18W4/0            : Location     - LOCATION
UWI .         00/07-25-071-18W4/0            : Uwi          - UNIQUE WELL ID
ENTR.         SP                             : Entered      - ENTERED BY
SRVC.         SCHLUMBERGER                   : Scn          - SERVICE COMPANY
STRT.M        289.56                         : top_depth    - START DEPTH
STOP.M        460.06                         : bot_depth    - STOP DEPTH
STEP.M        0.25                           : increment    - STEP LENGTH
 NULL. -999.2500:NULL Value
~CURVE INFORMATION BLOCK
#MNEM UNIT       ERCB CURVE CODE    CURVE DESCRIPTION
#-----------   ------------------   ----------------------------------
DEPT.M        00 001 00 00         : DEPTH        - DEPTH
GR  .API      00 310 00 00         : GR           - GAMMA RAY
DPHI.V/V      00 890 00 00         : PHID         - DENSITY POROSITY (SANDSTONE)
NPHI.V/V      00 330 00 00         : PHIN         - NEUTRON POROSITY (SANDSTONE)
ILD .OHMM     00 120 00 00         : RESD         - DEEP RESISTIVITY (DIL)
~PARAMETER INFORMATION
#MNEM.UNIT           DATA             DESCRIPTION OF MNEMONIC
#---------         -----------     ------------------------------
GL  .M        590.245              : gl           - GROUND LEVEL ELEVATION
EREF.M        592.836              : kb           - ELEVATION OF DEPTH REFERENCE
DATM.M        590.245              : datum        - DATUM ELEVATION
TDD .M        487.68               : tdd          - TOTAL DEPTH DRILLER
RUN .         ONE                  : Run          - RUN NUMBER
ENG .         BILL                 : Engineer     - RECORDING ENGINEER
WIT .         JIM                  : Witness      - WITNESSED BY
MUD .         GEL                  : Mud_type     - MUD TYPE
MATR.         SANDSTONE            : Logunit      - NEUTRON MATRIX
TMAX.C        11.6667              : BHT          - MAXIMUM RECORDED TEMPERATURE
BHTD.M        487.68               : BHTDEP       - MAXIMUM RECORDED TEMPERATURE
MATR.         1                    : LOGUNIT      - NEUTRON MATRIX
RMT .C        25                   : MDTP         - TEMPERATURE OF MUD
NEUT.         1                    : NEUTRON      - NEUTRON TYPE
RESI.         0                    : RESIST       - RESISTIVITY TYPE
RMC .OHMM     0.25                 : RMC          - RESISTIVITY OF MUD CAKE
RMF .OHMM     0.25                 : RMF          - RESISTIVITY OF MUD FILTRATE
SUFT.C        15                   : SUFT         - SURFACE TEMPERATURE
~A  DEPTH       GR     PHID     PHIN     RESD
  289.560  103.583    0.194    0.522    2.997
  289.810  106.444    0.191    0.524    2.836
  290.060  104.930    0.186    0.514    2.795
  290.310  102.554    0.186    0.495    2.816
  290.560  104.816    0.181    0.481    2.950
  290.810  104.209    0.184    0.477    3.144
  291.060  104.956    0.189    0.484    3.193
  291.310  109.964    0.197    0.497    3.206
  291.560  108.881    0.207    0.509    3.218
  291.810  104.982    0.212    0.509    3.192
  292.060  101.250    0.214    0.499    3.161
  292.310   98.126    0.212    0.487    3.120
  292.560   96.628    0.205    0.472    3.089
  292.810   97.164    0.217    0.479    3.036
  293.060   97.854    0.249    0.489    3.038
  293.310   95.541    0.270    0.501    3.059
  293.560   94.093    0.284    0.508    3.109
  293.810   87.945    0.304    0.491    3.235
  294.060   81.022    0.328    0.503    3.485
  294.310   73.494    0.357    0.526    3.762
  294.560   66.137    0.373    0.568    4.205
  294.810   63.499    0.352    0.524    4.605
  295.060   67.947    0.291    0.451    4.845
  295.310   68.854    0.295    0.403    4.898
  295.560   69.945    0.300    0.397    4.698
  295.810   71.833    0.305    0.416    4.358
  296.060   72.834    0.307    0.426    4.204
  296.310   71.791    0.306    0.431    4.076
  296.560   68.955    0.300    0.426    4.011
  296.810   67.533    0.299    0.416    4.035
  297.060   68.538    0.300    0.411    4.139
  297.310   74.443    0.296    0.410    4.411
  297.560   81.011    0.287    0.414    4.662
  297.810   86.723    0.277    0.420    4.817
  298.060   90.988    0.263    0.429    4.987
  298.310   95.407    0.249    0.433    5.121
  298.560   95.586    0.240    0.419    5.246
  298.810   95.525    0.236    0.410    5.361
  299.060   93.213    0.231    0.413    5.410
  299.310   90.870    0.231    0.417    5.388
  299.560   90.076    0.232    0.408    5.285
  299.810   91.744    0.229    0.398    5.325
  300.060   93.031    0.222    0.388    5.479
  300.310   98.956    0.214    0.379    5.875
  300.560  102.104    0.215    0.373    5.925
  300.810  101.473    0.208    0.372    5.955
  301.060   96.746    0.207    0.385    6.008
  301.310   93.222    0.219    0.397    6.056
  301.560   89.129    0.223    0.398    5.963
  301.810   86.782    0.208    0.378    5.882
  302.060   83.708    0.192    0.359    5.733
  302.310   76.169    0.192    0.348    5.497
  302.560   68.600    0.207    0.346    5.260
  302.810   62.369    0.215    0.355    5.085
  303.060   59.975    0.214    0.365    5.038
  303.310   62.033    0.208    0.367    5.072
  303.560   67.142    0.201    0.363    5.111
  303.810   72.563    0.186    0.358    5.129
  304.060   73.627    0.171    0.358    5.113
  304.310   71.522    0.164    0.374    5.028
  304.560   72.472    0.174    0.386    4.927
  304.810   76.018    0.179    0.382    4.731
  305.060   81.841    0.153    0.373    4.616
  305.310   93.203    0.140    0.380    4.467
  305.560  102.866    0.155    0.399    4.373
  305.810  110.920    0.167    0.449    4.375
  306.060  115.210    0.158    0.485    4.431
  306.310  122.464    0.150    0.466    4.444
  306.560  124.979    0.151    0.454    4.182
  306.810  121.969    0.145    0.467    3.974
  307.060  122.016    0.140    0.507    3.770
  307.310  121.336    0.137    0.552    3.605
  307.560  120.015    0.152    0.536    3.518
  307.810  121.100    0.167    0.523    3.456
  308.060  123.784    0.177    0.519    3.464
  308.310  125.030    0.182    0.517    3.454
  308.560  123.787    0.187    0.501    3.345
  308.810  121.839    0.191    0.505    3.236
  309.060  118.088    0.200    0.493    3.131
  309.310  113.871    0.212    0.456    3.241
  309.560  110.378    0.226    0.432    3.586
  309.810  105.208    0.236    0.410    3.906
  310.060  108.361    0.224    0.418    4.364
  310.310  108.071    0.220    0.427    4.898
  310.560  107.861    0.218    0.436    5.638
  310.810   99.025    0.216    0.445    5.979
  311.060   83.704    0.224    0.461    6.336
  311.310   76.109    0.236    0.453    6.618
  311.560   76.459    0.237    0.425    6.673
  311.810   87.617    0.217    0.431    6.567
  312.060   94.027    0.201    0.443    6.392
  312.310   94.010    0.193    0.462    6.088
  312.560   92.867    0.223    0.450    5.674
  312.810   91.658    0.251    0.439    5.289
  313.060   85.912    0.268    0.433    5.061
  313.310   79.892    0.275    0.418    4.944
  313.560   77.452    0.281    0.419    4.836
  313.810   75.397    0.276    0.422    4.855
  314.060   74.945    0.276    0.400    4.930
  314.310   75.842    0.274    0.400    4.986
  314.560   76.947    0.267    0.411    5.053
  314.810   77.188    0.266    0.419    5.131
  315.060   78.284    0.262    0.428    5.195
  315.310   79.929    0.258    0.432    5.320
  315.560   82.088    0.246    0.440    5.429
  315.810   85.055    0.240    0.448    5.544
  316.060   87.437    0.238    0.440    5.747
  316.310   89.654    0.232    0.417    5.982
  316.560   88.422    0.223    0.416    6.287
  316.810   89.434    0.214    0.421    6.478
  317.060   91.672    0.207    0.399    6.587
  317.310   92.269    0.201    0.389    6.579
  317.560   93.900    0.206    0.401    6.493
  317.810   97.885    0.209    0.416    6.284
  318.060  101.005    0.204    0.436    6.054
  318.310  102.265    0.207    0.447    5.847
  318.560  102.213    0.213    0.439    5.660
  318.810  103.707    0.215    0.444    5.632
  319.060  105.727    0.208    0.448    5.649
  319.310  109.406    0.202    0.444    5.753
  319.560  111.243    0.200    0.436    5.857
  319.810  114.624    0.206    0.430    5.967
  320.060  120.387    0.210    0.422    6.024
  320.310  123.951    0.209    0.425    5.992
  320.560  119.437    0.211    0.436    5.912
  320.810  113.866    0.215    0.447    5.921
  321.060  108.425    0.209    0.406    6.019
  321.310  107.294    0.200    0.392    6.262
  321.560  105.885    0.192    0.381    6.433
  321.810  107.074    0.190    0.371    6.271
  322.060  110.762    0.190    0.380    5.889
  322.310  113.997    0.191    0.410    5.287
  322.560  117.171    0.180    0.431    4.950
  322.810  119.137    0.188    0.449    4.443
  323.060  119.698    0.202    0.465    4.014
  323.310  117.833    0.214    0.460    3.832
  323.560  112.098    0.230    0.455    4.066
  323.810  105.533    0.239    0.460    4.277
  324.060   97.290    0.229    0.471    4.573
  324.310   89.226    0.234    0.451    4.841
  324.560   83.472    0.225    0.448    5.149
  324.810   85.746    0.246    0.465    5.359
  325.060   82.847    0.263    0.433    5.457
  325.310   81.118    0.278    0.417    5.430
  325.560   84.181    0.285    0.408    5.317
  325.810   86.207    0.284    0.407    5.242
  326.060   87.410    0.275    0.420    5.241
  326.310   86.891    0.269    0.431    5.295
  326.560   86.157    0.261    0.442    5.476
  326.810   82.866    0.260    0.455    5.657
  327.060   74.451    0.255    0.448    5.991
  327.310   65.853    0.260    0.446    6.504
  327.560   58.776    0.269    0.442    7.093
  327.810   51.343    0.279    0.412    8.062
  328.060   48.931    0.287    0.397    9.089
  328.310   51.306    0.292    0.389    9.730
  328.560   56.931    0.284    0.402    9.554
  328.810   61.175    0.292    0.415    8.662
  329.060   63.901    0.291    0.429    7.904
  329.310   64.101    0.298    0.411    7.267
  329.560   62.337    0.301    0.401    6.687
  329.810   62.992    0.296    0.394    6.266
  330.060   72.526    0.288    0.408    6.013
  330.310   74.543    0.284    0.425    5.873
  330.560   75.472    0.285    0.432    5.919
  330.810   77.987    0.284    0.442    6.019
  331.060   78.117    0.279    0.453    6.112
  331.310   77.090    0.282    0.444    6.221
  331.560   80.282    0.270    0.434    6.286
  331.810   84.691    0.256    0.432    6.361
  332.060   88.132    0.251    0.443    6.392
  332.310   91.601    0.245    0.442    6.320
  332.560   92.918    0.240    0.444    6.131
  332.810   92.689    0.233    0.449    5.838
