~VERSION INFORMATION
 VERS.                 2.0:   CWLS LOG ASCII STANDARD -VERSION 2.0
 WRAP.                  NO:   ONE LINE PER DEPTH STEP
~WELL INFORMATION BLOCK
#MNEM.UNIT           DATA                    DESCRIPTION OF MNEMONIC
#---------    -------------------            -------------------------------
# Generated from Intellog Unique Number	CS_73_76/WELL/618
WELL.         AMOCO AEC IPIATIK              : Well_name    - WELL
LOC .         00/06-07-073-06W4/0            : Location     - LOCATION
UWI .         00/06-07-073-06W4/0            : Uwi          - UNIQUE WELL ID
ENTR.         SP                             : Entered      - ENTERED BY
SRVC.         SCHLUMBERGER                   : Scn          - SERVICE COMPANY
STRT.M        330                            : top_depth    - START DEPTH
STOP.M        550                            : bot_depth    - STOP DEPTH
STEP.M        0.25                           : increment    - STEP LENGTH
 NULL. -999.2500:NULL Value
~CURVE INFORMATION BLOCK
#MNEM UNIT       ERCB CURVE CODE    CURVE DESCRIPTION
#-----------   ------------------   ----------------------------------
DEPT.M        00 001 00 00         : DEPTH        - DEPTH
ILD .OHMM     00 120 00 00         : RESD         - DEEP RESISTIVITY (DIL)
DPHI.V/V      00 890 00 00         : PHID         - DENSITY POROSITY (LIMESTONE)
NPHI.V/V      00 330 00 00         : PHIN         - NEUTRON POROSITY (LIMESTONE)
GR  .API      00 310 00 00         : GR           - GAMMA RAY
~PARAMETER INFORMATION
#MNEM.UNIT           DATA             DESCRIPTION OF MNEMONIC
#---------         -----------     ------------------------------
GL  .M        711.41               : gl           - GROUND LEVEL ELEVATION
EREF.M        716.11               : kb           - ELEVATION OF DEPTH REFERENCE
DATM.M        711.41               : datum        - DATUM ELEVATION
TDD .M        576                  : tdd          - TOTAL DEPTH DRILLER
RUN .         ONE                  : Run          - RUN NUMBER
ENG .         BILL                 : Engineer     - RECORDING ENGINEER
WIT .         JIM                  : Witness      - WITNESSED BY
MUD .         GEL                  : Mud_type     - MUD TYPE
MATR.         LIMESTONE            : Logunit      - NEUTRON MATRIX
TMAX.C        12                   : BHT          - MAXIMUM RECORDED TEMPERATURE
BHTD.M        576                  : BHTDEP       - MAXIMUM RECORDED TEMPERATURE
MATR.         1                    : LOGUNIT      - NEUTRON MATRIX
RMT .C        25                   : MDTP         - TEMPERATURE OF MUD
NEUT.         1                    : NEUTRON      - NEUTRON TYPE
RESI.         0                    : RESIST       - RESISTIVITY TYPE
RMC .OHMM     0.25                 : RMC          - RESISTIVITY OF MUD CAKE
RMF .OHMM     0.25                 : RMF          - RESISTIVITY OF MUD FILTRATE
SUFT.C        15                   : SUFT         - SURFACE TEMPERATURE
~A  DEPTH     RESD     PHID     PHIN       GR
# ...
  460.500    6.529    0.230    0.466   92.496
  460.750    6.533    0.238    0.460   91.879
  461.000    6.537    0.231    0.458   92.470
  461.250    6.539    0.190    0.443   90.041
  461.500    6.667    0.184    0.422   88.216
  461.750    6.670    0.203    0.424   90.013
  462.000    6.674    0.216    0.443   90.610
  462.250    6.802    0.223    0.442   89.994
  462.500    7.200    0.229    0.444   89.372
  462.750    7.618    0.241    0.460   88.760
  463.000    8.215    0.179    0.480   83.306
  463.250    8.533    0.110    0.242   71.198
  463.500    8.699    0.075    0.240   74.211
  463.750    8.227    0.103    0.278   85.085
  464.000    6.217    0.158    0.356   92.333
  464.250    5.355    0.196    0.380   98.974
  464.500    4.879    0.211    0.394   97.751
  464.750    4.703    0.206    0.409   94.109
  465.000    4.704    0.194    0.428   91.076
  465.250    4.619    0.219    0.457   86.826
  465.500    4.131    0.230    0.480   85.606
  465.750    3.626    0.242    0.443   85.594
  466.000    3.429    0.251    0.443   83.771
  466.250    3.066    0.268    0.480   81.944
  466.500    2.900    0.267    0.514   84.955
  466.750    2.693    0.261    0.527   87.365
  467.000    2.644    0.267    0.501   89.167
  467.250    2.596    0.257    0.490   89.156
  467.500    2.647    0.246    0.474   94.585
  467.750    2.648    0.244    0.480   98.205
  468.000    2.650    0.240    0.488   98.193
  468.250    2.752    0.241    0.482   98.784
  468.500    2.968    0.236    0.481   99.985
  468.750    3.140    0.245    0.501   95.736
  469.000    3.582    0.241    0.516   91.494
  469.250    3.720    0.227    0.467   86.039
  469.500    4.165    0.223    0.445   87.233
  469.750    4.575    0.224    0.450   87.829
  470.000    5.520    0.221    0.444   89.028
  470.250    7.882    0.244    0.444   81.153
  470.500   11.047    0.264    0.438   73.278
  470.750   14.913    0.281    0.414   67.217
  471.000   18.677    0.309    0.382   62.368
  471.250   22.115    0.340    0.359   62.358
  471.500   24.296    0.366    0.352   63.554
  471.750   25.712    0.353    0.346   64.752
  472.000   24.785    0.349    0.349   65.952
  472.250   24.334    0.359    0.374   62.917
  472.500   23.896    0.358    0.387   63.507
  472.750   23.907    0.356    0.368   63.495
  473.000   24.371    0.352    0.352   61.063
  473.250   25.794    0.367    0.354   59.240
  473.500   26.790    0.350    0.374   59.830
  473.750   29.438    0.331    0.386   60.427
  474.000   30.571    0.327    0.361   56.181
  474.250   32.353    0.305    0.334   54.355
  474.500   32.982    0.264    0.328   53.735
  474.750   30.619    0.230    0.341   54.933
  475.000   27.896    0.282    0.380   57.948
  475.250   25.898    0.330    0.398   59.752
  475.500   24.495    0.346    0.409   57.319
  475.750   24.055    0.330    0.429   54.886
  476.000   24.523    0.309    0.431   55.481
  476.250   24.532    0.282    0.437   58.492
  476.500   24.545    0.300    0.452   60.299
  476.750   24.103    0.307    0.461   64.515
  477.000   23.667    0.324    0.459   66.321
  477.250   22.812    0.337    0.451   68.127
  477.500   23.255    0.335    0.486   62.063
  477.750   23.705    0.332    0.492   59.029
  478.000   25.565    0.316    0.462   57.203
  478.250   26.056    0.248    0.442   61.423
  478.500   27.066    0.171    0.408   65.644
  478.750   28.118    0.203    0.303   66.843
  479.000   28.125    0.285    0.416   66.829
  479.250   28.145    0.333    0.436   66.822
  479.500   28.154    0.327    0.447   65.602
  479.750   28.175    0.321    0.454   61.958
  480.000   28.716    0.325    0.456   60.134
  480.250   29.282    0.326    0.454   61.329
  480.500   29.846    0.325    0.450   61.322
  480.750   29.856    0.322    0.442   60.100
  481.000   30.442    0.324    0.438   63.109
  481.250   30.452    0.318    0.442   65.513
  481.500   31.630    0.327    0.448   66.114
  481.750   33.473    0.337    0.455   66.100
  482.000   36.776    0.322    0.452   63.063
  482.250   44.376    0.227    0.446   58.818
  482.500   52.541    0.156    0.435   54.572
  482.750   65.805    0.000    0.353   51.540
  483.000   83.985    0.000    0.158   47.293
  483.250   95.788    0.000    0.135   50.306
  483.500   71.036    0.037    0.127   51.504
  483.750   47.082    0.143    0.123   52.702
  484.000   39.798    0.227    0.273   58.133
  484.250   32.412    0.284    0.414   62.354
  484.500   29.527    0.301    0.435   64.156
  484.750   31.847    0.296    0.444   64.747
  485.000   37.006    0.290    0.435   65.345
  485.250   45.487    0.282    0.442   64.125
  485.500   56.978    0.223    0.425   57.456
  485.750   64.983    0.066    0.269   53.818
  486.000   70.069    0.020    0.160   49.574
  486.250   66.277    0.009    0.145   45.933
  486.500   50.080    0.013    0.141   53.779
  486.750   41.548    0.040    0.255   57.400
  487.000   33.837    0.190    0.350   61.019
  487.250   30.828    0.259    0.384   63.425
  487.500   30.842    0.299    0.408   62.203
  487.750   32.039    0.307    0.427   60.980
  488.000   32.659    0.310    0.442   60.972
  488.250   32.680    0.295    0.450   62.769
  488.500   32.698    0.294    0.443   63.368
  488.750   32.711    0.309    0.437   62.147
  489.000   32.731    0.315    0.431   63.946
  489.250   32.743    0.317    0.459   65.750
  489.500   32.156    0.319    0.454   65.134
  489.750   32.170    0.322    0.460   64.515
  490.000   32.798    0.321    0.461   64.505
  490.250   32.812    0.318    0.467   62.074
  490.500   33.452    0.312    0.461   61.460
  490.750   33.461    0.303    0.448   60.842
  491.000   33.482    0.294    0.453   59.619
  491.250   32.884    0.298    0.442   60.213
  491.500   32.893    0.310    0.432   62.016
  491.750   32.908    0.311    0.443   64.424
  492.000   32.313    0.300    0.454   63.204
  492.250   32.330    0.294    0.462   61.979
  492.500   31.748    0.289    0.447   61.366
  492.750   31.766    0.275    0.440   60.749
  493.000   31.195    0.268    0.437   61.946
  493.250   30.627    0.281    0.436   63.745
  493.500   29.519    0.285    0.447   63.738
  493.750   27.919    0.274    0.458   62.517
  494.000   26.408    0.234    0.475   60.689
  494.250   24.517    0.227    0.484   62.493
  494.500   22.759    0.246    0.468   65.505
  494.750   22.347    0.261    0.448   67.914
  495.000   21.537    0.270    0.439   70.319
  495.250   21.149    0.276    0.448   70.916
  495.500   20.383    0.269    0.422   69.088
  495.750   19.646    0.292    0.411   64.844
  496.000   18.583    0.304    0.410   66.646
  496.250   18.244    0.315    0.427   71.471
  496.500   16.938    0.303    0.439   75.692
  496.750   16.631    0.293    0.444   84.757
  497.000   16.030    0.285    0.439   95.027
  497.250   16.651    0.264    0.407   91.990
  497.500   16.971    0.241    0.393   79.275
  497.750   17.303    0.268    0.395   70.799
  498.000   16.365    0.289    0.410   73.809
  498.250   13.837    0.288    0.415   79.240
  498.500   13.085    0.261    0.391   84.672
  498.750   12.149    0.237    0.365   88.291
  499.000   11.928    0.225    0.354   89.490
  499.250   12.625    0.250    0.352   79.798
  499.500   13.115    0.280    0.332   74.345
  499.750   13.120    0.299    0.308   80.379
  500.000   12.644    0.276    0.288   86.418
  500.250   11.308    0.251    0.263   91.851
  500.500   10.694    0.234    0.348   90.023
  500.750   10.114    0.215    0.350   88.195
  501.000    9.217    0.207    0.357   86.978
  501.250    8.882    0.213    0.339   89.984
  501.500    8.886    0.211    0.324   91.188
  501.750   10.138    0.204    0.338   90.571
  502.000   11.562    0.197    0.361   86.321
  502.250   13.185    0.237    0.356   84.499
  502.500   16.828    0.275    0.353   80.853
  502.750   21.883    0.292    0.355   78.424
  503.000   26.898    0.290    0.359   76.600
  503.250   31.260    0.279    0.363   72.356
  503.500   37.019    0.300    0.339   66.901
  503.750   41.441    0.313    0.323   68.099
