~VERSION INFORMATION
 VERS.                 2.0:   CWLS LOG ASCII STANDARD -VERSION 2.0
 WRAP.                  NO:   ONE LINE PER DEPTH STEP
~WELL INFORMATION BLOCK
#MNEM.UNIT           DATA                    DESCRIPTION OF MNEMONIC
#---------    -------------------            -------------------------------
# Generated from Intellog Unique Number	CW_82_90/WELL/199
WELL.         SHELL FINA RUBIN 03-25         : Well_name    - WELL
LOC .         00/03-25-083-02W5/0            : Location     - LOCATION
UWI .         00/03-25-083-02W5/0            : Uwi          - UNIQUE WELL ID
ENTR.         JAYE                           : Entered      - ENTERED BY
SRVC.         SCHLUMBERGER                   : Scn          - SERVICE COMPANY
DATE.         9 JAN 79                       : Date         - LOG DATE
STRT.M        225                            : top_depth    - START DEPTH
STOP.M        485                            : bot_depth    - STOP DEPTH
STEP.M        0.25                           : increment    - STEP LENGTH
 NULL. -999.2500:NULL Value
~CURVE INFORMATION BLOCK
#MNEM UNIT       ERCB CURVE CODE    CURVE DESCRIPTION
#-----------   ------------------   ----------------------------------
DEPT.M        00 001 00 00         : DEPTH        - DEPTH
CALI.MM       00 280 01 00         : CAL          - CALIPER
GR  .API      00 310 00 00         : GR           - GAMMA RAY
NPHI.V/V      00 330 00 00         : PHIN         - NEUTRON POROSITY (SANDSTONE)
DPHI.V/V      00 890 00 00         : PHID         - DENSITY POROSITY (SANDSTONE)
ILD .OHMM     00 120 00 00         : RESD         - DEEP RESISTIVITY (DIL)
~PARAMETER INFORMATION
#MNEM.UNIT           DATA             DESCRIPTION OF MNEMONIC
#---------         -----------     ------------------------------
GL  .M        613.4                : gl           - GROUND LEVEL ELEVATION
EREF.M        618                  : kb           - ELEVATION OF DEPTH REFERENCE
DATM.M        613.4                : datum        - DATUM ELEVATION
TDD .M        413.2                : tdd          - TOTAL DEPTH DRILLER
RUN .         ONE                  : Run          - RUN NUMBER
WIT .         CRAIG                : Witness      - WITNESSED BY
BASE.         EDMONTON             : Branch       - HOME BASE OF LOGGING UNIT
MUD .         GEL                  : Mud_type     - MUD TYPE
MATR.         SANDSTONE            : Logunit      - NEUTRON MATRIX
TMAX.C        0                    : BHT          - MAXIMUM RECORDED TEMPERATURE
BHTD.M        413.2                : BHTDEP       - MAXIMUM RECORDED TEMPERATURE
RMT .C        15                   : MDTP         - TEMPERATURE OF MUD
MUDD.KG/M     1050                 : MWT          - MUD DENSITY
NEUT.         1                    : NEUTRON      - NEUTRON TYPE
RESI.         0                    : RESIST       - RESISTIVITY TYPE
RM  .OHMM     2.26                 : RM           - RESISTIVITY OF MUD
RMC .OHMM     0                    : RMC          - RESISTIVITY OF MUD CAKE
RMF .OHMM     3.6                  : RMF          - RESISTIVITY OF MUD FILTRATE
SUFT.C        0                    : SUFT         - SURFACE TEMPERATURE
~A  DEPTH      CAL       GR     PHIN     PHID     RESD
# ...
  407.500  307.206  102.569    0.408    0.131   14.792
  407.750  307.164  100.877    0.429    0.156   13.441
  408.000  304.970   97.545    0.474    0.196   12.195
  408.250  304.413   96.335    0.460    0.238   11.235
  408.500  310.940   92.422    0.438    0.233   10.614
  408.750  308.544   90.675    0.449    0.228   10.244
  409.000  306.863   90.711    0.460    0.229   10.229
  409.250  304.874   95.744    0.467    0.236   10.477
  409.500  304.011   92.522    0.468    0.243   11.051
  409.750  303.361   90.639    0.470    0.248   12.053
  410.000  303.007   88.149    0.429    0.149   13.396
  410.250  303.071   84.491    0.421    0.176   14.607
  410.500  303.237   84.344    0.435    0.208   15.003
  410.750  303.501   86.802    0.446    0.231   14.382
  411.000  303.051   87.625    0.456    0.249   13.159
  411.250  304.863   94.443    0.468    0.233   12.257
  411.500  306.663   97.934    0.479    0.232   12.058
  411.750  307.858   84.965    0.427    0.106   12.132
  412.000  307.506   81.919    0.378    0.062   12.371
  412.250  306.541   80.909    0.336    0.050   12.612
  412.500  304.046   81.195    0.425    0.077   12.588
  412.750  297.441   84.868    0.447    0.119   12.570
  413.000  281.715   82.503    0.461    0.149   12.779
  413.250  279.726   76.808    0.472    0.201   13.037
  413.500  279.069   84.429    0.450    0.223   13.225
  413.750  277.492   88.660    0.434    0.230   13.381
  414.000  263.359   80.379    0.420    0.229   14.783
  414.250  259.486   79.230    0.404    0.234   14.676
  414.500  259.059   78.966    0.394    0.239   13.924
  414.750  258.139   78.706    0.380    0.240   13.210
  415.000  257.720   79.929    0.363    0.246   12.995
  415.250  260.254   82.042    0.347    0.251   13.260
  415.500  262.772   82.380    0.339    0.247   13.903
  415.750  265.798   83.603    0.331    0.245   14.180
  416.000  266.839   84.835    0.321    0.240   14.077
  416.250  271.342   85.753    0.311    0.246   13.113
  416.500  275.829   87.865    0.303    0.258   12.109
  416.750  274.917   89.681    0.297    0.252   11.279
  417.000  273.989   89.130    0.294    0.247   10.604
  417.250  275.539   86.790    0.292    0.251    9.529
  417.500  281.018   83.867    0.297    0.259    9.123
  417.750  284.053   83.307    0.299    0.273    9.477
  418.000  281.156   83.344    0.292    0.233   11.176
  418.250  280.228   82.496    0.277    0.216   12.834
  418.500  281.294   80.749    0.271    0.253   14.203
  418.750  283.311   76.932    0.279    0.262   17.063
  419.000  289.299   71.335    0.278    0.216   19.944
  419.250  291.817   64.845    0.257    0.193   24.179
  419.500  289.429   60.138    0.243    0.156   24.003
  419.750  289.001   55.135    0.225    0.190   17.501
  420.000  292.019   59.323    0.210    0.207   12.876
  420.250  298.475   63.807    0.220    0.224   10.661
  420.500  305.932   68.593    0.253    0.238   10.209
  420.750  309.942   71.007    0.290    0.250   10.227
  421.000  312.460   71.335    0.297    0.245   11.422
  421.250  314.986   71.377    0.300    0.235   13.233
  421.500  319.489   70.525    0.290    0.216   14.384
  421.750  324.476   67.889    0.280    0.200   14.541
  422.000  322.572   64.076    0.265    0.157   12.947
  422.250  314.761   62.630    0.249    0.257   11.741
  422.500  318.272   64.447    0.258    0.274   11.134
  422.750  324.736   67.147    0.305    0.270   12.786
  423.000  330.215   69.561    0.318    0.266   14.540
  423.250  335.694   67.523    0.325    0.289   14.699
  423.500  325.922   67.560    0.322    0.294   14.729
  423.750  325.495   67.300    0.323    0.300   14.622
  424.000  324.567   67.046    0.334    0.301   13.254
  424.250  323.155   68.264    0.340    0.275   12.348
  424.500  322.728   70.080    0.332    0.263   11.932
  424.750  321.816   72.494    0.321    0.252   12.281
  425.000  320.412   72.823    0.310    0.264   12.874
  425.250  318.008   71.674    0.298    0.279   13.142
  425.500  315.119   66.967    0.292    0.280   13.165
  425.750  311.238   64.933    0.303    0.260   13.183
  426.000  307.365   66.453    0.317    0.253   13.088
  426.250  303.492   67.671    0.317    0.242   12.759
  426.500  298.150   67.412    0.309    0.235   12.439
  426.750  293.301   68.635    0.299    0.242   11.801
  427.000  294.826   70.163    0.304    0.249   11.196
  427.250  300.814   71.683    0.322    0.229    9.611
  427.500  296.932   73.494    0.322    0.196    8.327
  427.750  291.082   77.682    0.332    0.221    7.282
  428.000  290.163   82.760    0.348    0.267    6.906
  428.250  293.189   86.656    0.358    0.276    6.493
  428.500  296.707   85.512    0.364    0.272    6.217
  428.750  302.679   82.579    0.359    0.257    6.228
  429.000  309.135   78.762    0.342    0.333    6.472
  429.250  313.638   77.025    0.350    0.277    6.723
  429.500  313.218   79.137    0.354    0.224    6.263
  429.750  319.674   81.843    0.353    0.220    6.273
  430.000  333.530   83.654    0.345    0.223    6.881
  430.250  324.726   84.877    0.335    0.260    7.831
  430.500  321.353   84.914    0.327    0.289    8.666
  430.750  328.318   84.358    0.312    0.277    9.506
  431.000  319.998   80.842    0.296    0.266   10.523
  431.250  298.897   75.537    0.282    0.258   11.759
  431.500  294.539   71.127    0.272    0.253   12.780
  431.750  292.635   69.682    0.267    0.258   13.519
  432.000  289.271   69.719    0.276    0.285   14.699
  432.250  287.842   67.384    0.286    0.237   16.127
  432.500  286.923   64.460    0.282    0.173   14.752
  432.750  286.487   64.201    0.270    0.186   12.549
  433.000  286.068   67.198    0.270    0.212   10.873
  433.250  285.648   71.683    0.307    0.228    9.506
  433.500  285.205   75.278    0.336    0.239    8.539
  433.750  286.270   79.179    0.355    0.221    7.605
  434.000  286.811   80.703    0.366    0.218    7.618
  434.250  286.884   81.027    0.368    0.229    7.842
  434.500  286.949   82.547    0.372    0.231    8.000
  434.750  287.022   81.398    0.375    0.212    8.311
  435.000  287.078   77.581    0.374    0.165    8.634
  435.250  287.143   73.763    0.362    0.111    8.573
  435.500  287.208   72.911    0.343    0.095    8.206
  435.750  286.780   77.099    0.333    0.125    7.787
  436.000  286.353   82.477    0.337    0.189    7.659
  436.250  286.434   84.896    0.345    0.230    7.605
  436.500  286.482   84.923    0.352    0.238    7.829
  436.750  286.555   84.372    0.358    0.217    8.131
  437.000  286.128   83.821    0.350    0.182    8.523
  437.250  286.185   83.853    0.357    0.193    8.695
  437.500  286.257   84.191    0.370    0.189    8.713
  437.750  286.314   84.812    0.378    0.197    8.726
  438.000  286.387   85.442    0.372    0.199    8.665
  438.250  286.944   86.665    0.361    0.198    8.604
  438.500  288.986   88.185    0.351    0.216    8.618
  438.750  292.488   88.815    0.344    0.242    8.791
  439.000  282.716   86.489    0.338    0.184    9.050
  439.250  276.866   83.849    0.333    0.163    9.840
  439.500  277.431   80.031    0.325    0.174   10.991
  439.750  283.887   75.621    0.316    0.195   11.947
  440.000  271.154   72.100    0.290    0.119   11.648
  440.250  263.835   68.282    0.250    0.151   11.355
  440.500  262.923   71.586    0.276    0.184   11.586
  440.750  262.980   74.884    0.293    0.214   12.143
  441.000  262.068   74.625    0.277    0.198   13.938
  441.250  260.656   69.320    0.238    0.147   17.056
  441.500  259.236   62.241    0.206    0.101   21.829
  441.750  256.840   57.534    0.190    0.098   26.699
  442.000  254.936   57.572    0.239    0.122   22.924
  442.250  253.524   59.388    0.266    0.135   17.649
  442.500  253.105   62.691    0.295    0.150   12.300
  442.750  252.677   65.401    0.316    0.241   10.090
  443.000  254.719   67.504    0.327    0.259    9.150
  443.250  255.760   69.033    0.335    0.264    9.002
  443.500  256.317   69.663    0.329    0.260    9.351
  443.750  257.358   69.399    0.329    0.253    9.982
