~VERSION INFORMATION
 VERS.                 2.0:   CWLS LOG ASCII STANDARD -VERSION 2.0
 WRAP.                  NO:   ONE LINE PER DEPTH STEP
~WELL INFORMATION BLOCK
#MNEM.UNIT           DATA                    DESCRIPTION OF MNEMONIC
#---------    -------------------            -------------------------------
# Generated from Intellog Unique Number	CX_WELLS/WELL/2588
NULL.         -999.25                        : NULL_VALUE
WELL.         SIEBENS PONY                   : Well_name    - WELL              
LOC .         06-08-080-09W4                 : Location     - LOCATION          
UWI .         00/06-08-080-09W400            : Uwi          - UNIQUE WELL ID    
ENTR.         T                              : Entered      - ENTERED BY        
SRVC.         SCHLUMBERGER                   : Scn          - SERVICE COMPANY   
STRT.F        800                            : top_depth    - START DEPTH       
STOP.F        1620.21                        : bot_depth    - STOP DEPTH        
STEP.F        0.82                           : increment    - STEP LENGTH       
~CURVE INFORMATION BLOCK
#MNEM UNIT       ERCB CURVE CODE    CURVE DESCRIPTION
#-----------   ------------------   ----------------------------------
DEPT.F        00 001 00 00         : DEPTH        - DEPTH                       
GR  .API      00 310 00 00         : GR           - GAMMA RAY                   
NPHI.V/V      00 330 00 00         : PHIN         - NEUTRON POROSITY (SANDSTONE)
DPHI.V/V      00 890 00 00         : PHID         - DENSITY POROSITY (SANDSTONE)
ILD .OHMM     00 120 00 00         : RESD         - DEEP RESISTIVITY (DIL)      
~PARAMETER INFORMATION       
#MNEM.UNIT           DATA             DESCRIPTION OF MNEMONIC
#---------         -----------     ------------------------------
GL  .F        2298                 : gl           - GROUND LEVEL ELEVATION      
EREF.F        2310                 : kb           - ELEVATION OF DEPTH REFERENCE
DATM.F        2310                 : datum        - DATUM ELEVATION             
TDD .F        1654                 : tdd          - TOTAL DEPTH DRILLER         
RUN .         ONE                  : Run          - RUN NUMBER                  
ENG .         BILL                 : Engineer     - RECORDING ENGINEER          
WIT .         JIM                  : Witness      - WITNESSED BY                
MUD .         GEL                  : Mud_type     - MUD TYPE                    
MATR.         SANDSTONE            : Logunit      - NEUTRON MATRIX              
TMAX.F        73                   : BHT          - MAXIMUM RECORDED TEMPERATURE
BHTD.F        1653                 : BHTDEP       - MAXIMUM RECORDED TEMPERATURE
MATR.         1                    : LOGUNIT      - NEUTRON MATRIX              
RMT .F        68                   : MDTP         - TEMPERATURE OF MUD          
NEUT.         1                    : NEUTRON      - NEUTRON TYPE                
RESI.         4.78                 : RESIST       - RESISTIVITY TYPE            
RMC .OHMM     4.8                  : RMC          - RESISTIVITY OF MUD CAKE     
RMF .OHMM     4.8                  : RMF          - RESISTIVITY OF MUD FILTRATE 
SUFT.F        37.4                 : SUFT         - SURFACE TEMPERATURE         
~A  DEPTH       GR     PHIN     PHID     RESD
# ...
 1228.150   87.184    0.486    0.213    2.782
 1228.970   89.032    0.489    0.212    2.740
 1229.790   90.893    0.494    0.210    2.702
 1230.610   90.931    0.493    0.200    2.710
 1231.430   91.597    0.490    0.195    2.675
 1232.250   92.239    0.486    0.193    2.682
 1233.070   92.277    0.484    0.193    2.695
 1233.890   92.944    0.477    0.191    2.703
 1234.710   92.969    0.467    0.189    2.711
 1235.530   93.033    0.473    0.186    2.676
 1236.350   92.468    0.478    0.189    2.633
 1237.170   91.312    0.491    0.197    2.417
 1237.990   89.552    0.498    0.204    2.177
 1238.810   88.975    0.509    0.214    2.067
 1239.630   88.435    0.522    0.223    1.705
 1240.450   89.063    0.532    0.238    1.536
 1241.270   92.734    0.547    0.253    1.407
 1242.090   96.405    0.561    0.255    1.290
 1242.910  100.666    0.574    0.259    1.143
 1243.730  101.320    0.593    0.263    1.125
 1244.550  100.781    0.615    0.268    1.109
 1245.370  100.806    0.620    0.270    1.093
 1246.190  100.857    0.612    0.269    1.097
 1247.010  100.317    0.598    0.260    1.184
 1247.830   99.739    0.583    0.252    1.230
 1248.650   98.596    0.575    0.245    1.400
 1249.480   97.427    0.559    0.232    1.510
 1250.300   96.862    0.543    0.220    1.658
 1251.120   96.297    0.535    0.216    1.820
 1251.940   94.563    0.524    0.224    2.037
 1252.760   93.998    0.506    0.234    2.277
 1253.580   93.433    0.495    0.245    2.456
 1254.400   92.867    0.482    0.248    2.597
 1255.220   91.699    0.483    0.240    2.702
 1256.040   90.556    0.492    0.235    2.815
 1256.860   89.978    0.494    0.239    2.874
 1257.680   87.615    0.490    0.262    2.935
 1258.500   85.856    0.481    0.264    2.999
 1259.320   83.493    0.473    0.270    3.066
 1260.140   82.915    0.479    0.273    3.136
 1260.960   84.789    0.488    0.263    3.199
 1261.780   85.418    0.478    0.245    3.273
 1262.600   87.894    0.467    0.225    3.345
 1263.420   89.152    0.455    0.217    3.412
 1264.240   90.384    0.443    0.216    3.488
 1265.060   92.245    0.435    0.211    3.564
 1265.880   92.912    0.422    0.202    3.391
 1266.700   93.540    0.431    0.197    3.281
 1267.520   93.591    0.455    0.202    3.014
 1268.340   93.642    0.459    0.208    2.867
 1269.160   93.089    0.463    0.210    2.819
 1269.980   92.537    0.467    0.210    2.780
 1270.800   91.959    0.468    0.210    2.695
 1271.620   90.803    0.474    0.212    2.655
 1272.440   90.251    0.480    0.212    2.660
 1273.260   90.905    0.488    0.215    2.668
 1274.080   90.930    0.491    0.216    2.681
 1274.900   90.981    0.482    0.216    2.737
 1275.720   91.044    0.460    0.216    2.845
 1276.540   91.082    0.450    0.220    3.017
 1277.360   91.146    0.440    0.230    3.254
 1278.180   91.159    0.449    0.237    3.448
 1279.000   91.825    0.462    0.236    3.580
 1279.820   90.670    0.464    0.236    3.726
 1280.640   90.092    0.461    0.237    3.744
 1281.460   86.535    0.457    0.243    3.751
 1282.280   85.957    0.450    0.246    3.706
 1283.100   84.198    0.457    0.250    3.651
 1283.920   83.633    0.465    0.251    3.658
 1284.740   83.080    0.466    0.251    3.607
 1285.560   83.131    0.466    0.247    3.497
 1286.380   84.401    0.468    0.243    3.323
 1287.200   85.633    0.472    0.236    3.270
 1288.020   87.494    0.471    0.230    3.111
 1288.850   88.148    0.470    0.224    3.065
 1289.670   88.174    0.474    0.226    2.971
 1290.490   88.250    0.475    0.227    2.924
 1291.310   87.684    0.473    0.229    2.886
 1292.130   87.710    0.466    0.231    2.843
 1292.950   87.761    0.465    0.232    2.851
 1293.770   87.824    0.463    0.234    2.862
 1294.590   87.862    0.461    0.235    2.876
 1295.410   87.913    0.461    0.235    2.882
 1296.230   87.938    0.459    0.235    2.890
 1297.050   86.783    0.455    0.235    2.957
 1297.870   85.036    0.453    0.231    2.966
 1298.690   83.855    0.450    0.224    3.031
 1299.510   82.096    0.444    0.220    3.154
 1300.330   79.117    0.438    0.215    3.341
 1301.150   74.329    0.426    0.203    3.600
 1301.970   70.156    0.322    0.089    4.029
 1302.790   65.971    0.263    0.055    4.341
 1303.610   64.224    0.299    0.034    4.682
 1304.430   66.688    0.351    0.116    4.617
 1305.250   69.140    0.396    0.195    4.310
 1306.070   72.207    0.467    0.231    3.952
 1306.890   73.439    0.466    0.260    3.623
 1307.710   76.519    0.456    0.275    3.382
 1308.530   77.777    0.450    0.282    3.160
 1309.350   77.802    0.460    0.289    3.006
 1310.170   77.250    0.467    0.289    2.967
 1310.990   77.288    0.475    0.287    2.976
 1311.810   78.571    0.484    0.283    2.932
 1312.630   79.212    0.481    0.278    2.885
 1313.450   79.854    0.476    0.268    2.603
 1314.270   81.111    0.476    0.261    2.519
 1315.090   81.752    0.481    0.259    2.314
 1315.910   83.023    0.485    0.259    2.278
 1316.730   83.651    0.500    0.259    2.244
 1317.550   84.293    0.517    0.259    2.250
 1318.370   85.550    0.514    0.259    2.259
 1319.190   86.204    0.508    0.259    2.309
 1320.010   86.242    0.485    0.260    2.357
 1320.830   86.306    0.468    0.262    2.497
 1321.650   86.331    0.460    0.263    2.696
 1322.470   86.395    0.458    0.258    2.803
 1323.290   85.842    0.459    0.254    2.914
 1324.110   85.868    0.463    0.245    3.090
 1324.930   84.108    0.465    0.244    3.158
 1325.750   81.746    0.472    0.247    3.221
 1326.570   79.371    0.470    0.254    3.234
 1327.400   77.008    0.462    0.263    3.249
 1328.220   75.852    0.467    0.267    3.198
 1329.040   75.274    0.474    0.265    3.153
 1329.860   75.325    0.480    0.258    3.166
 1330.680   75.363    0.483    0.249    3.175
 1331.500   76.633    0.486    0.237    3.248
 1332.320   77.891    0.480    0.224    3.313
 1333.140   78.520    0.472    0.183    3.638
 1333.960   74.347    0.457    0.112    4.141
 1334.780   70.162    0.329    0.012    4.718
 1335.600   61.766    0.302    0.010    4.998
 1336.420   56.977    0.306    0.062    4.836
 1337.240   55.809    0.322    0.091    4.518
 1338.060   61.893    0.348    0.112    4.290
 1338.880   69.800    0.412    0.139    3.806
 1339.700   77.681    0.441    0.161    3.679
 1340.520   84.369    0.469    0.171    3.438
 1341.340   85.023    0.491    0.177    3.323
 1342.160   84.470    0.493    0.197    3.161
 1342.980   84.534    0.497    0.214    3.171
 1343.800   85.162    0.498    0.213    3.129
 1344.620   86.420    0.498    0.210    3.083
 1345.440   87.652    0.494    0.209    3.098
 1346.260   88.909    0.492    0.208    3.107
 1347.080   88.960    0.484    0.209    3.116
 1347.900   88.998    0.478    0.210    3.181
 1348.720   90.884    0.476    0.209    3.191
 1349.540   91.513    0.465    0.206    3.206
 1350.360   93.374    0.449    0.205    3.155
 1351.180   94.631    0.438    0.205    3.168
 1352.000   94.657    0.437    0.205    3.123
 1352.820   94.104    0.443    0.205    3.136
 1353.640   94.771    0.449    0.204    3.037
 1354.460   94.796    0.458    0.204    2.782
 1355.280   94.257    0.463    0.204    2.505
 1356.100   93.679    0.471    0.210    2.179
 1356.920   91.329    0.481    0.223    1.893
 1357.740   91.354    0.507    0.234    1.767
 1358.560   92.021    0.541    0.247    1.620
 1359.380   92.059    0.559    0.259    1.461
 1360.200   90.903    0.572    0.265    1.365
 1361.020   90.351    0.573    0.264    1.299
 1361.840   90.376    0.563    0.260    1.301
 1362.660   90.427    0.562    0.256    1.380
 1363.480   89.874    0.561    0.254    1.434
 1364.300   88.706    0.558    0.250    1.491
 1365.120   86.947    0.553    0.248    1.637
 1365.940   86.407    0.550    0.244    1.799
 1366.770   86.432    0.547    0.238    2.050
 1367.590   87.074    0.543    0.223    2.168
 1368.410   87.740    0.524    0.220    2.472
 1369.230   87.766    0.482    0.213    2.616
 1370.050   87.829    0.475    0.210    2.819
