~VERSION INFORMATION
 VERS.                 2.0:   CWLS LOG ASCII STANDARD -VERSION 2.0
 WRAP.                  NO:   ONE LINE PER DEPTH STEP
~WELL INFORMATION BLOCK
#MNEM.UNIT           DATA                    DESCRIPTION OF MNEMONIC
#---------    -------------------            -------------------------------
# Generated from Intellog Unique Number	CS_71_72/WELL/822
WELL.         MAYNARD ET AL TWEEDIE          : Well_name    - WELL
LOC .         00/07-29-072-12W4/0            : Location     - LOCATION
UWI .         00/07-29-072-12W4/0            : Uwi          - UNIQUE WELL ID
ENTR.         SP                             : Entered      - ENTERED BY
SRVC.         SCHLUMBERGER                   : Scn          - SERVICE COMPANY
STRT.M        275                            : top_depth    - START DEPTH
STOP.M        510                            : bot_depth    - STOP DEPTH
STEP.M        0.25                           : increment    - STEP LENGTH
 NULL. -999.2500:NULL Value
~CURVE INFORMATION BLOCK
#MNEM UNIT       ERCB CURVE CODE    CURVE DESCRIPTION
#-----------   ------------------   ----------------------------------
DEPT.M        00 001 00 00         : DEPTH        - DEPTH
GR  .API      00 310 00 00         : GR           - GAMMA RAY
NPHI.V/V      00 330 00 00         : PHIN         - NEUTRON POROSITY (LIMESTONE)
DPHI.V/V      00 890 00 00         : PHID         - DENSITY POROSITY (LIMESTONE)
ILD .OHMM     00 120 00 00         : RESD         - DEEP RESISTIVITY (DIL)
~PARAMETER INFORMATION
#MNEM.UNIT           DATA             DESCRIPTION OF MNEMONIC
#---------         -----------     ------------------------------
GL  .M        622.95               : gl           - GROUND LEVEL ELEVATION
EREF.M        626.55               : kb           - ELEVATION OF DEPTH REFERENCE
DATM.M        622.95               : datum        - DATUM ELEVATION
TDD .M        521                  : tdd          - TOTAL DEPTH DRILLER
RUN .         ONE                  : Run          - RUN NUMBER
ENG .         BILL                 : Engineer     - RECORDING ENGINEER
WIT .         JIM                  : Witness      - WITNESSED BY
MUD .         GEL                  : Mud_type     - MUD TYPE
MATR.         LIMESTONE            : Logunit      - NEUTRON MATRIX
TMAX.C        25                   : BHT          - MAXIMUM RECORDED TEMPERATURE
BHTD.M        521                  : BHTDEP       - MAXIMUM RECORDED TEMPERATURE
MATR.         1                    : LOGUNIT      - NEUTRON MATRIX
RMT .C        25                   : MDTP         - TEMPERATURE OF MUD
NEUT.         1                    : NEUTRON      - NEUTRON TYPE
RESI.         0                    : RESIST       - RESISTIVITY TYPE
RMC .OHMM     0.25                 : RMC          - RESISTIVITY OF MUD CAKE
RMF .OHMM     0.25                 : RMF          - RESISTIVITY OF MUD FILTRATE
SUFT.C        15                   : SUFT         - SURFACE TEMPERATURE
~A  DEPTH       GR     PHIN     PHID     RESD
  275.000  108.704    0.554    0.263    2.857
  275.250  106.272    0.546    0.258    2.936
  275.500  105.663    0.541    0.231    3.014
  275.750  106.267    0.543    0.216    2.931
  276.000  106.872    0.560    0.199    2.929
  276.250  108.086    0.573    0.188    2.927
  276.500  111.121    0.589    0.195    2.925
  276.750  115.369    0.594    0.200    2.923
  277.000  118.404    0.567    0.202    3.002
  277.250  117.794    0.546    0.201    3.081
  277.500  117.185    0.535    0.191    3.161
  277.750  117.183    0.527    0.187    3.321
  278.000  117.181    0.517    0.195    3.402
  278.250  111.713    0.489    0.201    3.725
  278.500  106.852    0.472    0.212    3.887
  278.750  103.206    0.470    0.234    3.967
  279.000  103.204    0.522    0.248    4.127
  279.250  106.846    0.539    0.253    4.126
  279.500  109.273    0.551    0.232    4.041
  279.750  109.879    0.563    0.217    3.959
  280.000  112.305    0.552    0.211    3.711
  280.250  113.518    0.558    0.200    3.545
  280.500  115.945    0.572    0.199    3.381
  280.750  116.550    0.580    0.203    3.214
  281.000  113.511    0.588    0.205    3.213
  281.250  111.687    0.593    0.198    3.211
  281.500  108.649    0.585    0.195    3.208
  281.750  107.432    0.578    0.219    3.288
  282.000  107.430    0.557    0.233    3.286
  282.250  108.036    0.546    0.242    3.447
  282.500  106.212    0.529    0.246    3.526
  282.750  102.565    0.516    0.247    3.525
  283.000  101.348    0.518    0.231    3.440
  283.250  100.739    0.537    0.222    3.357
  283.500  103.774    0.543    0.235    3.354
  283.750   98.306    0.566    0.258    3.434
  284.000   83.729    0.539    0.276    3.677
  284.250   70.974    0.452    0.298    4.572
  284.500   64.292    0.412    0.313    5.386
  284.750   53.358    0.396    0.319    5.874
  285.000   46.069    0.374    0.323    6.607
  285.250   43.638    0.380    0.324    7.094
  285.500   47.887    0.402    0.330    7.419
  285.750   55.171    0.405    0.335    7.417
  286.000   58.813    0.407    0.335    7.006
  286.250   64.277    0.412    0.317    6.841
  286.500   69.133    0.418    0.302    6.511
  286.750   72.167    0.423    0.285    6.509
  287.000   74.594    0.422    0.262    6.426
  287.250   74.592    0.411    0.232    6.424
  287.500   70.339    0.383    0.192    6.504
  287.750   67.300    0.361    0.189    6.991
  288.000   70.335    0.336    0.193    7.560
  288.250   77.013    0.390    0.211    8.129
  288.500   82.477    0.416    0.237    8.209
  288.750   91.584    0.435    0.249    8.370
  289.000   98.869    0.446    0.235    8.124
  289.250  104.333    0.444    0.220    7.632
  289.500  109.796    0.441    0.214    7.303
  289.750  111.616    0.440    0.213    6.892
  290.000  110.398    0.444    0.209    6.644
  290.250  109.789    0.449    0.222    6.643
  290.500  109.180    0.463    0.230    6.641
  290.750  109.785    0.474    0.230    6.475
  291.000  109.783    0.469    0.233    6.392
  291.250  109.174    0.469    0.234    6.308
  291.500  107.349    0.486    0.240    6.143
  291.750  106.739    0.500    0.248    5.895
  292.000  107.345    0.478    0.254    5.730
  292.250  107.950    0.455    0.261    5.728
  292.500  107.949    0.424    0.270    5.807
  292.750  107.339    0.416    0.267    6.294
  293.000  107.944    0.436    0.276    6.619
  293.250  112.193    0.467    0.275    6.862
  293.500  112.191    0.469    0.278    7.268
  293.750  104.294    0.457    0.285    7.837
  294.000   95.790    0.442    0.293    7.999
  294.250   86.072    0.434    0.298    8.241
  294.500   80.604    0.430    0.304    8.320
  294.750   73.314    0.430    0.307    7.991
  295.000   66.632    0.430    0.314    7.827
  295.250   60.557    0.430    0.318    7.497
  295.500   56.911    0.430    0.324    7.333
  295.750   53.265    0.430    0.351    7.085
  296.000   49.012    0.430    0.383    7.001
  296.250   45.974    0.428    0.415    7.162
  296.500   43.542    0.430    0.432    7.568
  296.750   45.362    0.472    0.428    7.811
  297.000   55.076    0.450    0.405    8.298
  297.250   58.718    0.427    0.374    8.460
  297.500   67.217    0.414    0.358    8.539
  297.750   70.252    0.418    0.328    8.537
  298.000   72.680    0.420    0.330    8.536
  298.250   73.892    0.424    0.338    8.369
  298.500   69.639    0.424    0.337    8.286
  298.750   70.243    0.424    0.341    8.038
  299.000   72.064    0.428    0.343    7.955
  299.250   75.704    0.433    0.331    7.790
  299.500   76.310    0.425    0.327    7.707
  299.750   76.915    0.422    0.324    7.621
  300.000   75.091    0.427    0.322    7.619
  300.250   73.267    0.432    0.317    7.536
  300.500   72.051    0.435    0.330    7.534
  300.750   69.618    0.441    0.340    7.450
  301.000   69.009    0.443    0.346    7.366
  301.250   68.400    0.441    0.348    7.364
  301.500   68.398    0.433    0.342    7.281
  301.750   70.825    0.429    0.331    7.279
  302.000   72.038    0.427    0.316    7.195
  302.250   72.036    0.428    0.302    7.111
  302.500   73.249    0.445    0.300    7.109
  302.750   76.890    0.467    0.290    7.106
  303.000   80.532    0.480    0.284    7.104
  303.250   79.315    0.473    0.269    7.184
  303.500   75.062    0.467    0.263    7.263
  303.750   71.416    0.465    0.262    7.343
  304.000   70.806    0.467    0.263    7.749
  304.250   73.841    0.460    0.278    7.909
  304.500   79.911    0.451    0.280    7.907
  304.750   82.946    0.444    0.273    7.906
  305.000   89.624    0.445    0.262    7.904
  305.250   94.480    0.463    0.234    7.738
  305.500   99.944    0.479    0.220    7.410
  305.750  107.836    0.487    0.209    7.081
  306.000  112.085    0.501    0.199    6.671
  306.250  116.334    0.510    0.198    6.178
  306.500  121.797    0.523    0.189    5.686
  306.750  124.225    0.543    0.178    5.440
  307.000  127.866    0.571    0.149    4.866
  307.250  129.079    0.562    0.140    4.538
  307.500  130.898    0.534    0.140    4.291
  307.750  132.718    0.506    0.153    4.451
  308.000  132.716    0.483    0.207    4.775
  308.250  126.641    0.466    0.223    4.937
  308.500  119.958    0.450    0.235    5.669
  308.750  117.528    0.444    0.250    6.320
  309.000  115.704    0.430    0.253    6.808
  309.250  116.309    0.421    0.257    7.296
  309.500  113.270    0.421    0.263    7.702
  309.750  107.195    0.424    0.278    8.026
  310.000  104.157    0.428    0.283    8.268
  310.250   97.474    0.430    0.286    8.430
  310.500   93.829    0.434    0.273    8.510
  310.750  102.935    0.435    0.261    8.426
  311.000  107.184    0.440    0.210    7.852
  311.250  112.041    0.451    0.198    7.359
  311.500  117.504    0.456    0.191    7.195
  311.750  121.146    0.441    0.194    6.785
  312.000  112.642    0.447    0.226    6.536
  312.250  105.353    0.460    0.247    6.535
  312.500   95.026    0.461    0.263    6.695
  312.750   91.380    0.440    0.272    6.775
  313.000   91.985    0.434    0.264    7.099
  313.250   94.413    0.425    0.251    7.342
  313.500   98.055    0.421    0.245    7.504
  313.750  104.732    0.417    0.229    7.665
  314.000  107.767    0.418    0.223    7.744
  314.250  113.836    0.422    0.215    7.660
  314.500  116.264    0.436    0.203    7.577
  314.750  118.084    0.443    0.219    7.329
  315.000  116.868    0.427    0.236    7.082
  315.250  115.651    0.413    0.244    6.999
  315.500  105.325    0.410    0.258    6.914
  315.750   94.999    0.408    0.283    6.912
  316.000   87.710    0.423    0.285    6.992
  316.250   82.242    0.435    0.284    7.072
  316.500   79.811    0.425    0.293    7.478
  316.750   77.986    0.418    0.294    8.291
  317.000   76.770    0.407    0.288    8.617
  317.250   79.195    0.411    0.287    9.349
  317.500   79.194    0.421    0.288    9.755
  317.750   79.192    0.424    0.284   10.406
  318.000   78.583    0.422    0.280   10.730
  318.250   76.758    0.423    0.285   10.891
