~VERSION INFORMATION
 VERS.                 2.0:   CWLS LOG ASCII STANDARD -VERSION 2.0
 WRAP.                  NO:   ONE LINE PER DEPTH STEP
~WELL INFORMATION BLOCK
#MNEM.UNIT           DATA                    DESCRIPTION OF MNEMONIC
#---------    -------------------            -------------------------------
# Generated from Intellog Unique Number	CW_70_72/WELL/3013
NULL.         -999.25                        : NULL_VALUE
WELL.         MESA MEYER 06-33               : Well_name    - WELL              
LOC .         06-33-070-24W4                 : Location     - LOCATION          
UWI .         00/06-33-070-24W4/0            : Uwi          - UNIQUE WELL ID    
ENTR.         J                              : Entered      - ENTERED BY        
SRVC.         SCHLUMBERGER                   : Scn          - SERVICE COMPANY   
DATE.         20 FEB 76                      : Date         - LOG DATE          
STRT.M        390.144                        : top_depth    - START DEPTH       
STOP.M        606.644                        : bot_depth    - STOP DEPTH        
STEP.M        0.25                           : increment    - STEP LENGTH       
~CURVE INFORMATION BLOCK
#MNEM UNIT       ERCB CURVE CODE    CURVE DESCRIPTION
#-----------   ------------------   ----------------------------------
DEPT.M        00 001 00 00         : DEPTH        - DEPTH                       
ILD .OHMM     00 120 00 00         : RESD         - DEEP RESISTIVITY (DIL)      
CALI.MM       00 280 01 00         : CAL          - CALIPER                     
GR  .API      00 310 00 00         : GR           - GAMMA RAY                   
NPHI.V/V      00 330 00 00         : PHIN         - NEUTRON POROSITY (SANDSTONE)
DPHI.V/V      00 890 00 00         : PHID         - DENSITY POROSITY (SANDSTONE)
~PARAMETER INFORMATION       
#MNEM.UNIT           DATA             DESCRIPTION OF MNEMONIC
#---------         -----------     ------------------------------
GL  .M        601.98               : gl           - GROUND LEVEL ELEVATION      
EREF.M        605.638              : kb           - ELEVATION OF DEPTH REFERENCE
DATM.M        601.98               : datum        - DATUM ELEVATION             
TDD .M        624.84               : tdd          - TOTAL DEPTH DRILLER         
RUN .         ONE                  : Run          - RUN NUMBER                  
ENG .         SLUSARCHUK           : Engineer     - RECORDING ENGINEER          
WIT .         HOVER                : Witness      - WITNESSED BY                
BASE.         EDM                  : Branch       - HOME BASE OF LOGGING UNIT   
MUD .         GEL CHEM             : Mud_type     - MUD TYPE                    
MATR.         SANDSTONE            : Logunit      - NEUTRON MATRIX              
TMAX.C        28.3333              : BHT          - MAXIMUM RECORDED TEMPERATURE
BHTD.M        625.45               : BHTDEP       - MAXIMUM RECORDED TEMPERATURE
RMT .C        16.1111              : MDTP         - TEMPERATURE OF MUD          
MUDD.KG/M     1080                 : MWT          - MUD DENSITY                 
NEUT.         1                    : NEUTRON      - NEUTRON TYPE                
RESI.         0                    : RESIST       - RESISTIVITY TYPE            
RM  .OHMM     4.6                  : RM           - RESISTIVITY OF MUD          
RMC .OHMM     0.25                 : RMC          - RESISTIVITY OF MUD CAKE     
RMF .OHMM     4.22                 : RMF          - RESISTIVITY OF MUD FILTRATE 
SUFT.C        -17.7778             : SUFT         - SURFACE TEMPERATURE         
~A  DEPTH     RESD      CAL       GR     PHIN     PHID
  390.144    2.769  177.976  127.539    0.530    0.239
  390.394    2.809  179.255  126.743    0.519    0.188
  390.644    2.816  179.169  121.047    0.492    0.176
  390.894    2.808  178.982  121.122    0.539    0.158
  391.144    2.789  179.631  123.305    0.542    0.164
  391.394    2.734  180.283  121.952    0.510    0.179
  391.644    2.616  181.460  116.694    0.515    0.174
  391.894    2.472  178.331  113.165    0.527    0.188
  392.144    2.387  183.818  108.274    0.538    0.206
  392.394    2.297  188.251  102.083    0.549    0.247
  392.644    2.247  184.596   96.758    0.555    0.259
  392.894    2.279  191.234   91.431    0.559    0.233
  393.144    2.542  177.702   83.314    0.565    0.234
  393.394    3.061  164.060   74.079    0.464    0.278
  393.644    3.652  154.314   73.659    0.425    0.245
  393.894    4.142  151.707   80.621    0.409    0.259
  394.144    4.761  151.837   83.860    0.402    0.272
  394.394    4.992  151.848   82.445    0.392    0.285
  394.644    4.887  151.663   86.680    0.381    0.289
  394.894    4.763  151.786   87.748    0.372    0.275
  395.144    4.601  152.125   85.586    0.388    0.258
  395.394    4.519  154.250   81.565    0.413    0.244
  395.644    4.514  155.849   81.516    0.419    0.231
  395.894    4.544  155.551   80.039    0.423    0.209
  396.144    4.633  152.314   79.183    0.441    0.238
  396.394    4.681  151.919   81.989    0.439    0.257
  396.644    4.666  156.667   87.399    0.421    0.259
  396.894    4.341  158.577   90.891    0.414    0.279
  397.144    3.812  158.491   94.811    0.416    0.308
  397.394    3.195  161.353  100.779    0.436    0.332
  397.644    2.885  175.252  106.750    0.549    0.374
  397.894    2.684  187.566  112.288    0.563    0.394
  398.144    2.647  197.570  115.715    0.578    0.408
  398.394    3.140  204.000  115.973    0.570    0.416
  398.644    3.910  166.922  109.285    0.546    0.345
  398.894    5.009  154.542  100.111    0.474    0.282
  399.144    5.702  158.662   93.794    0.427    0.275
  399.394    7.076  161.106   93.620    0.405    0.300
  399.644    8.286  159.757   86.682    0.416    0.237
  399.894    9.034  156.736   80.736    0.443    0.250
  400.144   10.481  155.384   77.707    0.423    0.276
  400.394   11.889  153.310   76.046    0.389    0.273
  400.644   12.633  153.015   74.756    0.386    0.261
  400.894   12.931  153.141   74.209    0.400    0.277
  401.144   13.161  153.267   73.909    0.395    0.269
  401.394   13.341  154.968   72.930    0.391    0.284
  401.644   13.106  157.618   73.006    0.399    0.275
  401.894   12.494  159.319   72.272    0.407    0.241
  402.144   11.646  159.656   69.491    0.419    0.253
  402.394   10.978  158.835   73.661    0.429    0.248
  402.644   10.486  155.808   78.206    0.415    0.239
  402.894   10.497  153.203   79.273    0.423    0.246
  403.144   10.801  152.172   77.672    0.449    0.258
  403.394   10.395  155.662   75.821    0.465    0.266
  403.644    9.319  158.841   81.234    0.460    0.255
  403.894    8.701  159.911   81.557    0.434    0.254
  404.144    7.470  160.456   82.936    0.443    0.260
  404.394    6.307  160.474   88.905    0.434    0.251
  404.644    5.247  160.285   90.905    0.422    0.240
  404.894    4.836  159.050   92.223    0.431    0.247
  405.144    4.425  157.918   95.521    0.447    0.209
  405.394    4.125  156.154  100.374    0.448    0.220
  405.644    3.976  156.063  103.615    0.438    0.229
  405.894    3.778  160.706  104.247    0.436    0.214
  406.144    3.744  166.612  101.655    0.437    0.209
  406.394    3.671  173.677   97.198    0.452    0.216
  406.644    3.627  165.922   94.790    0.476    0.236
  406.894    3.623  154.805   98.712    0.473    0.275
  407.144    3.702  150.935  103.938    0.420    0.228
  407.394    3.760  152.746  105.564    0.408    0.211
  407.644    3.842  158.228  106.137    0.393    0.169
  407.894    3.902  159.409  106.334    0.400    0.186
  408.144    3.919  159.118  105.913    0.407    0.193
  408.394    3.822  160.077  101.518    0.392    0.215
  408.644    3.739  170.189   89.800    0.405    0.197
  408.894    3.447  162.223   67.534    0.420    0.247
  409.144    3.213  150.788   51.782    0.440    0.275
  409.394    3.047  148.710   43.168    0.398    0.274
  409.644    3.044  148.421   45.725    0.363    0.286
  409.894    3.080  148.550   51.326    0.362    0.292
  410.144    3.164  148.563   57.233    0.376    0.286
  410.394    3.120  149.114   65.064    0.374    0.270
  410.644    3.025  149.453   77.862    0.358    0.237
  410.894    2.911  149.466   80.236    0.373    0.220
  411.144    2.833  148.543   81.858    0.397    0.236
  411.394    2.819  149.512   90.436    0.388    0.251
  411.644    2.832  156.886  104.536    0.363    0.233
  411.894    2.920  159.956   97.041    0.376    0.207
  412.144    2.939  159.244   86.749    0.425    0.232
  412.394    2.913  157.588   79.128    0.436    0.251
  412.644    2.883  156.236   86.590    0.410    0.256
  412.894    2.864  155.421   92.436    0.397    0.266
  413.144    2.894  156.278  101.756    0.390    0.243
  413.394    3.018  159.670  107.974    0.381    0.226
  413.644    3.380  160.948  110.595    0.378    0.195
  413.894    3.464  162.333  113.337    0.400    0.185
  414.144    3.619  161.617  104.226    0.430    0.212
  414.394    3.576  156.807  105.421    0.423    0.282
  414.644    3.459  151.045  110.521    0.422    0.305
  414.894    3.026  155.796  116.864    0.437    0.316
  415.144    3.026  176.836  120.912    0.494    0.346
  415.394    3.026  186.106  122.163    0.568    0.384
  415.644    2.160  171.834  123.355    0.579    0.349
  415.894    2.089  185.727  125.605    0.564    0.275
  416.144    2.083  182.072  128.285    0.560    0.259
  416.394    2.255  178.732  130.529    0.581    0.240
  416.644    2.413  223.832  132.281    0.590    0.255
  416.894    2.789  218.705  133.846    0.580    0.277
  417.144    3.158  193.820  133.300    0.534    0.295
  417.394    3.464  171.985  128.655    0.455    0.248
  417.644    3.660  165.806  119.420    0.427    0.196
  417.894    3.660  172.131  109.939    0.442    0.192
  418.144    3.952  173.417  103.374    0.455    0.237
  418.394    3.947  169.023   97.676    0.477    0.251
  418.644    3.934  159.793   91.544    0.504    0.290
  418.894    3.934  156.247   90.752    0.422    0.272
  419.144    3.762  155.740   95.231    0.409    0.264
  419.394    3.701  157.649  106.227    0.415    0.252
  419.644    3.575  163.557  112.261    0.424    0.200
  419.894    3.575  167.574  107.494    0.446    0.254
  420.144    3.311  162.654   99.004    0.470    0.267
  420.394    3.288  154.478   95.293    0.440    0.242
  420.644    3.340  153.453   97.914    0.430    0.262
  420.894    3.530  154.002  100.097    0.437    0.258
  421.144    3.667  155.490  100.607    0.445    0.238
  421.394    3.896  156.348   98.260    0.451    0.220
  421.644    4.017  156.273   94.366    0.425    0.202
  421.894    4.081  156.074   90.219    0.426    0.204
  422.144    3.972  155.576   85.823    0.428    0.216
  422.394    3.767  154.857   82.611    0.429    0.269
  422.644    3.720  154.142   82.000    0.424    0.297
  422.894    3.674  152.803   84.185    0.405    0.277
  423.144    3.642  153.238   83.454    0.413    0.258
  423.394    3.815  155.260   81.603    0.422    0.253
  423.644    3.830  156.749   81.430    0.407    0.224
  423.894    3.847  158.031   86.904    0.398    0.250
  424.144    3.654  156.896   89.649    0.442    0.305
  424.394    3.381  153.137   90.594    0.448    0.334
  424.644    3.146  152.851   90.542    0.408    0.313
  424.894    2.868  153.387   89.747    0.421    0.295
  425.144    2.801  156.040   89.822    0.433    0.291
  425.394    2.736  158.684   93.247    0.444    0.285
  425.644    2.764  161.861  102.197    0.455    0.276
  425.894    2.764  162.615  107.981    0.457    0.267
  426.144    3.155  162.850  115.690    0.447    0.237
  426.394    3.396  162.763  116.200    0.431    0.219
