~VERSION INFORMATION
 VERS.                 2.0:   CWLS LOG ASCII STANDARD -VERSION 2.0
 WRAP.                  NO:   ONE LINE PER DEPTH STEP
~WELL INFORMATION BLOCK
#MNEM.UNIT           DATA                    DESCRIPTION OF MNEMONIC
#---------    -------------------            -------------------------------
# Generated from Intellog Unique Number	CS_73_76/WELL/3226
WELL.         PRECABRIAMN SHIELD RESOURC     : Well_name    - WELL
LOC .         00/08-36-076-10W4/0            : Location     - LOCATION
UWI .         00/08-36-076-10W4/0            : Uwi          - UNIQUE WELL ID
ENTR.         SP                             : Entered      - ENTERED BY
SRVC.         SCHLUMBERGER                   : Scn          - SERVICE COMPANY
STRT.M        225                            : top_depth    - START DEPTH
STOP.M        440                            : bot_depth    - STOP DEPTH
STEP.M        0.25                           : increment    - STEP LENGTH
 NULL. -999.2500:NULL Value
~CURVE INFORMATION BLOCK
#MNEM UNIT       ERCB CURVE CODE    CURVE DESCRIPTION
#-----------   ------------------   ----------------------------------
DEPT.M        00 001 00 00         : DEPTH        - DEPTH
GR  .API      00 310 00 00         : GR           - GAMMA RAY
DPHI.V/V      00 890 00 00         : PHID         - DENSITY POROSITY (LIMESTONE)
NPHI.V/V      00 330 00 00         : PHIN         - NEUTRON POROSITY (LIMESTONE)
ILD .OHMM     00 120 00 00         : RESD         - DEEP RESISTIVITY (DIL)
~PARAMETER INFORMATION
#MNEM.UNIT           DATA             DESCRIPTION OF MNEMONIC
#---------         -----------     ------------------------------
GL  .M        639.1                : gl           - GROUND LEVEL ELEVATION
EREF.M        642.6                : kb           - ELEVATION OF DEPTH REFERENCE
DATM.M        639.1                : datum        - DATUM ELEVATION
TDD .M        454                  : tdd          - TOTAL DEPTH DRILLER
RUN .         ONE                  : Run          - RUN NUMBER
ENG .         BILL                 : Engineer     - RECORDING ENGINEER
WIT .         JIM                  : Witness      - WITNESSED BY
MUD .         GEL                  : Mud_type     - MUD TYPE
MATR.         LIMESTONE            : Logunit      - NEUTRON MATRIX
TMAX.C        60                   : BHT          - MAXIMUM RECORDED TEMPERATURE
BHTD.M        2072                 : BHTDEP       - MAXIMUM RECORDED TEMPERATURE
MATR.         1                    : LOGUNIT      - NEUTRON MATRIX
RMT .C        25                   : MDTP         - TEMPERATURE OF MUD
NEUT.         1                    : NEUTRON      - NEUTRON TYPE
RESI.         0                    : RESIST       - RESISTIVITY TYPE
RMC .OHMM     0.25                 : RMC          - RESISTIVITY OF MUD CAKE
RMF .OHMM     0.25                 : RMF          - RESISTIVITY OF MUD FILTRATE
SUFT.C        15                   : SUFT         - SURFACE TEMPERATURE
~A  DEPTH       GR     PHID     PHIN     RESD
# ...
  312.000   53.960    0.351    0.411   23.541
  312.250   53.368    0.357    0.430   22.677
  312.500   52.163    0.364    0.428   22.256
  312.750   53.406    0.371    0.432   21.844
  313.000   57.720    0.377    0.423   21.843
  313.250   59.576    0.376    0.419   21.842
  313.500   56.534    0.371    0.393   21.841
  313.750   52.271    0.355    0.391   22.252
  314.000   50.464    0.355    0.398   22.250
  314.250   49.861    0.362    0.394   21.838
  314.500   51.110    0.361    0.398   21.837
  314.750   49.298    0.356    0.399   21.432
  315.000   49.313    0.351    0.396   20.646
  315.250   51.174    0.350    0.393   19.521
  315.500   53.033    0.357    0.389   18.456
  315.750   54.279    0.359    0.394   17.779
  316.000   54.909    0.356    0.395   17.450
  316.250   56.786    0.356    0.395   17.126
  316.500   57.418    0.365    0.403   16.498
  316.750   58.658    0.362    0.414   15.893
  317.000   58.668    0.358    0.428   13.945
  317.250   59.303    0.351    0.489   11.570
  317.500   58.714    0.342    0.492    9.421
  317.750   58.737    0.330    0.443    7.672
  318.000   58.759    0.319    0.441    6.018
  318.250   61.228    0.299    0.469    5.183
  318.500   66.759    0.280    0.492    4.464
  318.750   71.064    0.260    0.565    3.917
  319.000   77.205    0.247    0.572    3.502
  319.250   85.186    0.246    0.570    3.311
  319.500   89.499    0.257    0.587    3.311
  319.750   93.191    0.267    0.586    3.373
  320.000   96.885    0.270    0.488    3.501
  320.250  100.581    0.275    0.469    3.634
  320.500  100.602    0.281    0.447    3.843
  320.750   96.954    0.288    0.434    4.064
  321.000   93.907    0.288    0.456    4.141
  321.250   90.872    0.282    0.476    4.298
  321.500   93.342    0.272    0.484    4.462
  321.750   93.971    0.264    0.460    4.545
  322.000   90.318    0.253    0.433    4.631
  322.250   82.995    0.241    0.428    4.545
  322.500   85.473    0.231    0.417    4.461
  322.750   88.551    0.243    0.387    4.218
  323.000   91.630    0.249    0.452    3.988
  323.250   93.488    0.256    0.489    3.701
  323.500   87.387    0.271    0.484    3.371
  323.750   91.084    0.282    0.484    3.187
  324.000   95.388    0.282    0.496    3.128
  324.250   99.694    0.300    0.540    3.187
  324.500   97.271    0.312    0.556    3.631
  324.750   94.843    0.313    0.502    4.138
  325.000   93.643    0.311    0.457    4.805
  325.250   91.823    0.308    0.447    5.683
  325.500   87.561    0.300    0.439    6.723
  325.750   83.907    0.296    0.460    7.381
  326.000   79.031    0.285    0.469    7.805
  326.250   76.608    0.284    0.423    7.952
  326.500   77.857    0.274    0.397    8.102
  326.750   79.710    0.268    0.384    8.101
  327.000   81.571    0.268    0.376    8.101
  327.250   82.198    0.276    0.404    8.100
  327.500   81.611    0.278    0.432    8.100
  327.750   80.406    0.278    0.446    8.100
  328.000   76.751    0.282    0.444    7.950
  328.250   74.324    0.284    0.404    7.949
  328.500   73.121    0.280    0.389    7.802
  328.750   71.916    0.274    0.392    7.802
  329.000   74.388    0.273    0.394    7.948
  329.250   78.089    0.279    0.408    7.948
  329.500   78.719    0.280    0.420    8.097
  329.750   78.736    0.281    0.421    8.097
  330.000   79.983    0.283    0.443    8.097
  330.250   81.227    0.286    0.449    8.096
  330.500   83.703    0.289    0.418    8.096
  330.750   84.335    0.292    0.400    8.096
  331.000   83.133    0.287    0.396    8.248
  331.250   82.538    0.280    0.391    8.247
  331.500   81.340    0.276    0.388    8.094
  331.750   80.743    0.271    0.389    8.094
  332.000   84.451    0.273    0.395    8.094
  332.250   85.075    0.276    0.391    8.093
  332.500   86.929    0.276    0.413    8.093
  332.750   85.119    0.272    0.431    8.093
  333.000   82.080    0.256    0.406    8.093
  333.250   80.873    0.245    0.379    7.942
  333.500   75.996    0.234    0.374    7.651
  333.750   69.892    0.251    0.384    7.370
  334.000   72.362    0.268    0.404    6.968
  334.250   76.061    0.273    0.410    6.839
  334.500   79.755    0.272    0.407    6.588
  334.750   82.836    0.261    0.403    6.466
  335.000   85.309    0.251    0.402    6.588
  335.250   87.164    0.240    0.418    6.712
  335.500   89.641    0.234    0.436    6.711
  335.750   90.881    0.245    0.455    6.587
  336.000   90.902    0.247    0.482    6.465
  336.250   89.701    0.250    0.425    6.345
  336.500   90.333    0.252    0.410    6.112
  336.750   88.516    0.254    0.410    5.999
  337.000   85.476    0.254    0.420    5.672
  337.250   86.725    0.245    0.425    5.464
  337.500   87.970    0.234    0.411    4.794
  337.750   84.928    0.233    0.434    4.207
  338.000   86.174    0.247    0.482    3.761
  338.250   90.482    0.266    0.534    3.362
  338.500   93.564    0.284    0.584    2.842
  338.750   94.203    0.282    0.626    2.637
  339.000   92.384    0.295    0.574    2.402
  339.250   89.958    0.328    0.574    2.402
  339.500   87.534    0.352    0.600    2.493
  339.750   86.332    0.365    0.614    2.737
  340.000   86.961    0.329    0.553    3.119
  340.250   86.372    0.293    0.504    3.759
  340.500   83.939    0.288    0.444    4.051
  340.750   80.291    0.301    0.468    4.703
  341.000   79.088    0.311    0.476    5.668
  341.250   79.103    0.316    0.426    6.107
  341.500   82.800    0.316    0.415    6.339
  341.750   82.824    0.307    0.424    6.580
  342.000   74.278    0.289    0.414    6.704
  342.250   68.783    0.272    0.393    6.830
  342.500   65.745    0.305    0.391    6.958
  342.750   67.601    0.315    0.391    6.958
  343.000   65.786    0.325    0.393    6.958
  343.250   62.132    0.343    0.398    6.829
  343.500   56.037    0.358    0.377    6.702
  343.750   52.991    0.373    0.373    6.578
  344.000   54.242    0.365    0.379    6.578
  344.250   54.261    0.360    0.372    6.828
  344.500   51.219    0.338    0.316    7.221
  344.750   47.567    0.291    0.299    7.495
  345.000   43.307    0.235    0.284    7.780
  345.250   41.486    0.146    0.302    7.779
  345.500   47.017    0.191    0.331    7.779
  345.750   52.556    0.345    0.342    7.635
  346.000   54.409    0.341    0.353    7.634
  346.250   53.212    0.338    0.360    7.493
  346.500   52.005    0.349    0.368    7.354
  346.750   51.412    0.350    0.405    7.218
  347.000   52.043    0.351    0.413    7.217
  347.250   55.126    0.351    0.415    7.217
  347.500   53.316    0.351    0.406    7.083
  347.750   52.721    0.350    0.393    7.083
  348.000   53.354    0.346    0.389    7.082
  348.250   53.997    0.335    0.395    7.082
  348.500   53.403    0.329    0.400    6.951
  348.750   52.806    0.343    0.392    6.951
  349.000   52.839    0.361    0.386    6.822
  349.250   52.853    0.373    0.389    6.822
  349.500   53.481    0.352    0.391    6.821
  349.750   55.344    0.346    0.381    6.821
  350.000   57.200    0.358    0.383    6.821
  350.250   58.448    0.367    0.390    6.820
  350.500   58.466    0.368    0.395    6.820
  350.750   56.649    0.353    0.375    6.820
  351.000   56.066    0.346    0.369    6.820
  351.250   57.315    0.351    0.373    6.948
  351.500   57.328    0.357    0.390    6.947
  351.750   57.357    0.365    0.401    6.947
  352.000   56.755    0.368    0.398    6.947
  352.250   55.553    0.370    0.394    6.947
  352.500   54.355    0.371    0.385    6.946
  352.750   53.760    0.374    0.369    6.817
  353.000   52.558    0.375    0.361    6.691
  353.250   53.803    0.372    0.367    6.567
  353.500   56.886    0.370    0.377    5.981
  353.750   59.360    0.364    0.388    5.551
  354.000   57.546    0.359    0.400    5.248
  354.250   55.120    0.356    0.406    5.151
  354.500   54.521    0.361    0.398    5.655
  354.750   53.317    0.362    0.393    6.208
  355.000   51.507    0.361    0.398    6.565
  355.250   50.911    0.361    0.405    6.943
