~VERSION INFORMATION
 VERS.                 2.0:   CWLS LOG ASCII STANDARD -VERSION 2.0
 WRAP.                  NO:   ONE LINE PER DEPTH STEP
~WELL INFORMATION BLOCK
#MNEM.UNIT           DATA                    DESCRIPTION OF MNEMONIC
#---------    -------------------            -------------------------------
# Generated from Intellog Unique Number	CW_79_81/WELL/199
WELL.         CHEVRON ET AL HORIZON          : Well_name    - WELL
LOC .         00/04-02-079-19W4/0            : Location     - LOCATION
UWI .         00/04-02-079-19W4/0            : Uwi          - UNIQUE WELL ID
ENTR.         MAX                            : Entered      - ENTERED BY
SRVC.         SCHLUMBERGER                   : Scn          - SERVICE COMPANY
STRT.M        179.832                        : top_depth    - START DEPTH
STOP.M        382.332                        : bot_depth    - STOP DEPTH
STEP.M        0.25                           : increment    - STEP LENGTH
 NULL. -999.2500:NULL Value
~CURVE INFORMATION BLOCK
#MNEM UNIT       ERCB CURVE CODE    CURVE DESCRIPTION
#-----------   ------------------   ----------------------------------
DEPT.M        00 001 00 00         : DEPTH        - DEPTH
ILD .OHMM     00 120 00 00         : RESD         - DEEP RESISTIVITY (DIL)
NPHI.V/V      00 330 00 00         : PHIN         - NEUTRON POROSITY (SANDSTONE)
DPHI.V/V      00 890 00 00         : PHID         - DENSITY POROSITY (SANDSTONE)
CALI.MM       00 280 01 00         : CAL          - CALIPER
GR  .API      00 310 00 00         : GR           - GAMMA RAY
~PARAMETER INFORMATION
#MNEM.UNIT           DATA             DESCRIPTION OF MNEMONIC
#---------         -----------     ------------------------------
GL  .M        555.346              : gl           - GROUND LEVEL ELEVATION
EREF.M        558.698              : kb           - ELEVATION OF DEPTH REFERENCE
DATM.M        555.346              : datum        - DATUM ELEVATION
TDD .M        382.524              : tdd          - TOTAL DEPTH DRILLER
RUN .         ONE                  : Run          - RUN NUMBER
ENG .         BILL                 : Engineer     - RECORDING ENGINEER
WIT .         JIM                  : Witness      - WITNESSED BY
MUD .         GEL                  : Mud_type     - MUD TYPE
MATR.         SANDSTONE            : Logunit      - NEUTRON MATRIX
TMAX.C        25                   : BHT          - MAXIMUM RECORDED TEMPERATURE
BHTD.M        382.524              : BHTDEP       - MAXIMUM RECORDED TEMPERATURE
RMT .C        13.3333              : MDTP         - TEMPERATURE OF MUD
MUDD.KG/M     10300                : MWT          - MUD DENSITY
NEUT.         1                    : NEUTRON      - NEUTRON TYPE
RESI.         0                    : RESIST       - RESISTIVITY TYPE
RM  .OHMM     5.98                 : RM           - RESISTIVITY OF MUD
RMC .OHMM     5.98                 : RMC          - RESISTIVITY OF MUD CAKE
RMF .OHMM     6.05                 : RMF          - RESISTIVITY OF MUD FILTRATE
SUFT.C        -15                  : SUFT         - SURFACE TEMPERATURE
~A  DEPTH     RESD     PHIN     PHID      CAL       GR
# ...
  362.332   19.685    0.419    0.259  197.199   55.512
  362.582   14.809    0.446    0.276  197.199   54.402
  362.832   10.372    0.446    0.251  197.447   54.196
  363.082    8.308    0.412    0.213  197.054   68.019
  363.332    6.654    0.409    0.146  197.186   75.999
  363.582    5.237    0.415    0.170  197.391   83.393
  363.832    4.272    0.428    0.170  196.924   90.201
  364.082    4.284    0.461    0.165  197.041   94.084
  364.332    4.531    0.485    0.173  197.173   92.991
  364.582    5.013    0.486    0.168  197.173   85.735
  364.832    6.291    0.464    0.163  197.422   82.895
  365.082    7.681    0.441    0.161  197.524   82.069
  365.332    8.275    0.419    0.146  197.524   79.513
  365.582    8.600    0.404    0.101  197.802   76.079
  365.832    8.544    0.381    0.093  198.386   76.733
  366.082    8.338    0.385    0.105  198.998   89.971
  366.332    7.850    0.422    0.130  199.144   97.073
  366.582    7.259    0.469    0.139  199.291  102.720
  366.832    5.925    0.435    0.143  199.364  103.073
  367.082    5.832    0.447    0.154  199.000  103.159
  367.332    7.057    0.469    0.171  198.636  102.944
  367.582    7.468    0.494    0.176  198.739  103.013
  367.832    8.492    0.496    0.189  198.885  101.903
  368.082    9.395    0.477    0.180  199.512   97.281
  368.332   10.304    0.433    0.145  200.095   90.327
  368.582   11.001    0.378    0.126  201.233   88.347
  368.832   10.736    0.383    0.114  201.845   88.709
  369.082   10.473    0.366    0.127  202.458   89.673
  369.332   10.045    0.367    0.145  203.581   90.904
  369.582    9.980    0.381    0.147  204.179   93.031
  369.832   10.001    0.425    0.143  204.806   95.734
  370.082   10.119    0.429    0.134  204.923   99.909
  370.332   10.514    0.427    0.156  204.545  103.206
  370.582   10.833    0.449    0.160  203.670  101.820
  370.832   10.860    0.443    0.170  201.820   94.573
  371.082   10.412    0.475    0.204  199.488   90.528
  371.332    9.797    0.560    0.248  198.600   75.956
  371.582    9.141    0.556    0.414  198.221   77.204
  371.832    8.846    0.514    0.382  197.857   91.036
  372.082    9.028    0.498    0.172  197.960   95.220
  372.332    9.297    0.483    0.169  198.091   96.460
  372.582    9.923    0.519    0.165  198.704   98.595
  372.832   10.787    0.553    0.164  199.827  104.224
  373.082   11.721    0.497    0.146  201.445  105.162
  373.332   12.741    0.425    0.143  201.562   92.639
  373.582   13.616    0.405    0.160  201.694   76.896
  373.832   13.883    0.394    0.178  202.277   67.600
  374.082   14.827    0.423    0.192  203.415   63.581
  374.332   16.252    0.506    0.194  203.051   60.706
  374.582   17.514    0.512    0.188  201.652   53.459
  374.832   17.879    0.441    0.239  198.810   44.447
  375.082   18.242    0.329    0.219  196.464   41.005
  375.332   18.796    0.340    0.180  196.566   61.000
  375.582   19.177    0.373    0.187  198.680   72.491
  375.832   19.760    0.405    0.203  201.290   71.097
  376.082   20.537    0.410    0.233  202.879   65.615
  376.332   21.142    0.411    0.233  204.483   54.838
  376.582   21.778    0.389    0.243  206.611   59.900
  376.832   21.636    0.360    0.248  207.748   67.285
  377.082   20.364    0.347    0.249  208.346   65.598
  377.332   16.031    0.344    0.243  208.464   60.701
  377.582   12.956    0.356    0.232  208.581   54.926
  377.832   11.453    0.360    0.230  208.712   54.100
  378.082   10.500    0.357    0.195  209.339   53.015
  378.332    9.971    0.343    0.163  209.923   59.230
  378.582    9.060    0.336    0.151  209.559   64.868
  378.832    8.376    0.334    0.136  208.189   71.376
  379.082    6.956    0.334    0.146  206.353   73.795
  379.332    6.492    0.337    0.170  206.951   75.629
  379.582    6.110    0.338    0.136  212.519   76.868
  379.832    5.702    0.339    0.115  208.672   78.108
  380.082    5.322    0.340    0.122  202.376   79.356
  380.332    5.150    0.342    0.139  201.502   80.303
  380.582    5.069    0.343    0.147  201.138   80.381
  380.832    5.080    0.342    0.132  200.235   79.581
  381.082    5.096    0.341    0.120  199.375   78.471
  381.332    5.154    0.340    0.105  202.480   77.085
  381.582    5.213    0.333    0.016  201.621   75.683
  381.832    5.320    0.312    0.072  201.242   73.996
  382.082    5.333    0.295    0.090  200.835   72.602
  382.332    5.302    0.288    0.077  199.990   71.225
