~VERSION INFORMATION
 VERS.                 2.0:   CWLS LOG ASCII STANDARD -VERSION 2.0
 WRAP.                  NO:   ONE LINE PER DEPTH STEP
~WELL INFORMATION BLOCK
#MNEM.UNIT           DATA                    DESCRIPTION OF MNEMONIC
#---------    -------------------            -------------------------------
# Generated from Intellog Unique Number	CS_67_68/WELL/786
WELL.         DOME PETROLEUM LIMITED         : Well_name    - WELL
LOC .         00/09-05-068-03W4/0            : Location     - LOCATION
UWI .         00/09-05-068-03W4/0            : Uwi          - UNIQUE WELL ID
ENTR.         SP                             : Entered      - ENTERED BY
SRVC.         SCHLUMBERGER                   : Scn          - SERVICE COMPANY
STRT.M        345                            : top_depth    - START DEPTH
STOP.M        577                            : bot_depth    - STOP DEPTH
STEP.M        0.25                           : increment    - STEP LENGTH
 NULL. -999.2500:NULL Value
~CURVE INFORMATION BLOCK
#MNEM UNIT       ERCB CURVE CODE    CURVE DESCRIPTION
#-----------   ------------------   ----------------------------------
DEPT.M        00 001 00 00         : DEPTH        - DEPTH
ILD .OHMM     00 120 00 00         : RESD         - DEEP RESISTIVITY (DIL)
DPHI.V/V      00 890 00 00         : PHID         - DENSITY POROSITY (LIMESTONE)
NPHI.V/V      00 330 00 00         : PHIN         - NEUTRON POROSITY (LIMESTONE)
GR  .API      00 310 00 00         : GR           - GAMMA RAY
~PARAMETER INFORMATION
#MNEM.UNIT           DATA             DESCRIPTION OF MNEMONIC
#---------         -----------     ------------------------------
GL  .M        705.08               : gl           - GROUND LEVEL ELEVATION
EREF.M        709                  : kb           - ELEVATION OF DEPTH REFERENCE
DATM.M        705.08               : datum        - DATUM ELEVATION
TDD .M        583                  : tdd          - TOTAL DEPTH DRILLER
RUN .         ONE                  : Run          - RUN NUMBER
ENG .         BILL                 : Engineer     - RECORDING ENGINEER
WIT .         JIM                  : Witness      - WITNESSED BY
MUD .         GEL                  : Mud_type     - MUD TYPE
MATR.         LIMESTONE            : Logunit      - NEUTRON MATRIX
TMAX.C        23.3                 : BHT          - MAXIMUM RECORDED TEMPERATURE
BHTD.M        583                  : BHTDEP       - MAXIMUM RECORDED TEMPERATURE
MATR.         1                    : LOGUNIT      - NEUTRON MATRIX
RMT .C        25                   : MDTP         - TEMPERATURE OF MUD
NEUT.         1                    : NEUTRON      - NEUTRON TYPE
RESI.         0                    : RESIST       - RESISTIVITY TYPE
RMC .OHMM     0.25                 : RMC          - RESISTIVITY OF MUD CAKE
RMF .OHMM     0.25                 : RMF          - RESISTIVITY OF MUD FILTRATE
SUFT.C        15                   : SUFT         - SURFACE TEMPERATURE
~A  DEPTH     RESD     PHID     PHIN       GR
# ...
  475.500    9.609    0.349    0.468   53.784
  475.750    9.540    0.353    0.458   57.977
  476.000    9.665    0.354    0.456   61.683
  476.250   10.624    0.347    0.471   60.770
  476.500   11.808    0.342    0.478   60.161
  476.750   12.646    0.341    0.477   58.458
  477.000   13.495    0.349    0.484   56.937
  477.250   13.928    0.355    0.479   58.212
  477.500   13.853    0.360    0.471   61.736
  477.750   13.425    0.362    0.467   63.376
  478.000   13.279    0.362    0.471   62.585
  478.250   13.454    0.363    0.484   60.335
  478.500   12.752    0.358    0.498   58.207
  478.750   11.540    0.339    0.486   57.111
  479.000   10.639    0.311    0.464   53.160
  479.250    9.862    0.279    0.422   54.253
  479.500    9.075    0.265    0.384   59.296
  479.750    8.602    0.295    0.432   62.455
  480.000    8.414    0.318    0.457   64.581
  480.250    8.415    0.329    0.482   61.906
  480.500    8.262    0.336    0.504   64.336
  480.750    7.948    0.339    0.500   66.401
  481.000    7.273    0.329    0.484   68.831
  481.250    6.742    0.317    0.463   71.626
  481.500    6.522    0.308    0.476   73.144
  481.750    6.706    0.306    0.499   70.104
  482.000    6.883    0.314    0.506   66.821
  482.250    6.961    0.319    0.501   65.422
  482.500    6.898    0.314    0.492   64.934
  482.750    6.747    0.310    0.482   64.204
  483.000    6.491    0.308    0.502   64.142
  483.250    6.141    0.317    0.526   64.748
  483.500    5.918    0.327    0.507   65.415
  483.750    5.800    0.317    0.476   66.083
  484.000    5.715    0.316    0.499   67.054
  484.250    5.570    0.305    0.506   68.329
  484.500    5.509    0.303    0.506   70.334
  484.750    5.459    0.322    0.515   71.609
  485.000    5.399    0.326    0.514   70.514
  485.250    5.360    0.319    0.492   69.115
  485.500    5.321    0.313    0.465   70.451
  485.750    5.263    0.307    0.476   72.273
  486.000    5.215    0.291    0.495   73.366
  486.250    5.139    0.277    0.516   70.508
  486.500    5.018    0.286    0.530   70.629
  486.750    4.935    0.297    0.548   73.970
  487.000    4.827    0.288    0.534   76.765
  487.250    4.705    0.284    0.481   80.167
  487.500    4.610    0.295    0.466   81.686
  487.750    4.354    0.304    0.482   78.949
  488.000    4.134    0.308    0.502   76.699
  488.250    3.883    0.312    0.513   74.875
  488.500    3.701    0.301    0.524   73.780
  488.750    3.540    0.287    0.519   75.480
  489.000    3.495    0.287    0.499   77.181
  489.250    3.541    0.301    0.482   76.390
  489.500    3.635    0.284    0.498   76.571
  489.750    3.703    0.278    0.507   78.514
  490.000    3.766    0.279    0.513   80.884
  490.250    3.837    0.273    0.506   81.794
  490.500    3.866    0.274    0.504   79.605
  490.750    3.852    0.272    0.515   77.416
  491.000    3.817    0.264    0.513   78.448
  491.250    3.810    0.277    0.505   78.933
  491.500    3.976    0.275    0.505   78.202
  491.750    4.089    0.266    0.517   76.135
  492.000    4.143    0.266    0.524   71.575
  492.250    4.143    0.276    0.522   73.701
  492.500    4.121    0.284    0.520   78.927
  492.750    4.091    0.293    0.526   82.026
  493.000    4.046    0.297    0.516   81.781
  493.250    3.965    0.285    0.513   83.056
  493.500    3.649    0.279    0.518   83.724
  493.750    3.259    0.272    0.514   77.827
  494.000    2.901    0.285    0.502   75.030
  494.250    2.553    0.300    0.489   77.521
  494.500    2.420    0.296    0.504   80.437
  494.750    2.333    0.287    0.528   83.049
  495.000    2.329    0.280    0.534   84.264
  495.250    2.355    0.276    0.535   82.075
  495.500    2.373    0.273    0.535   84.383
  495.750    2.391    0.279    0.534   85.901
  496.000    2.400    0.286    0.535   85.839
  496.250    2.409    0.285    0.544   86.993
  496.500    2.436    0.280    0.550   87.600
  496.750    2.473    0.289    0.555   86.626
  497.000    2.567    0.296    0.549   85.166
  497.250    2.759    0.288    0.515   80.546
  497.500    3.107    0.272    0.514   78.904
  497.750    3.704    0.260    0.521   77.626
  498.000    4.336    0.266    0.478   78.293
  498.250    4.919    0.283    0.450   79.873
  498.500    5.437    0.296    0.423   83.397
  498.750    5.844    0.298    0.431   88.683
  499.000    5.900    0.289    0.446   94.273
  499.250    5.686    0.283    0.449   99.074
  499.500    5.551    0.273    0.464   90.685
  499.750    5.481    0.266    0.464   85.032
  500.000    5.512    0.274    0.454   83.997
  500.250    5.657    0.284    0.449   85.880
  500.500    5.753    0.288    0.467   82.172
  500.750    5.775    0.257    0.462   77.855
  501.000    5.797    0.228    0.428   74.329
  501.250    5.766    0.242    0.405   74.996
  501.500    5.661    0.268    0.437   78.885
  501.750    5.527    0.287    0.456   82.166
  502.000    5.406    0.288    0.459   81.070
  502.250    5.308    0.284    0.449   78.334
  502.500    5.260    0.255    0.440   83.074
  502.750    5.212    0.237    0.446   89.090
  503.000    5.126    0.258    0.462   98.327
  503.250    4.968    0.276    0.460  106.713
  503.500    4.859    0.267    0.465  111.149
  503.750    4.762    0.257    0.479  105.434
  504.000    5.110    0.258    0.493   92.791
  504.250    5.679    0.262    0.500   80.088
  504.500    6.575    0.245    0.409   72.915
  504.750    7.611    0.220    0.379   66.593
  505.000    8.779    0.175    0.339   61.243
  505.250    9.884    0.021    0.308   59.783
  505.500    9.508    0.172    0.288   63.611
  505.750    8.766    0.249    0.343   65.676
  506.000    8.036    0.278    0.366   66.465
  506.250    7.491    0.294    0.373   65.856
  506.500    6.817    0.302    0.385   61.236
  506.750    6.378    0.314    0.401   55.886
  507.000    6.034    0.328    0.398   59.167
  507.250    5.969    0.311    0.387   64.332
  507.500    6.104    0.287    0.381   63.480
  507.750    6.276    0.292    0.409   60.257
  508.000    6.502    0.320    0.426   59.345
  508.250    6.811    0.340    0.408   64.935
  508.500    6.913    0.327    0.385   68.216
  508.750    6.940    0.321    0.384   72.894
  509.000    6.801    0.318    0.386   76.905
  509.250    6.677    0.316    0.397   76.721
  509.500    6.616    0.306    0.417   72.344
  509.750    6.617    0.316    0.412   67.298
  510.000    6.754    0.330    0.402   65.656
  510.250    6.907    0.329    0.419   64.257
  510.500    7.141    0.322    0.429   65.836
  510.750    7.467    0.322    0.401   69.968
  511.000    7.664    0.322    0.395   74.707
  511.250    7.866    0.313    0.409   77.320
  511.500    8.014    0.305    0.416   79.020
  511.750    8.045    0.296    0.414   78.654
  512.000    8.031    0.291    0.416   76.344
  512.250    7.988    0.287    0.396   72.027
  512.500    7.945    0.284    0.370   68.319
  512.750    7.990    0.278    0.356   71.964
  513.000    8.095    0.266    0.353   75.671
  513.250    8.202    0.246    0.366   74.818
  513.500    8.279    0.240    0.353   72.872
  513.750    8.326    0.253    0.341   76.153
  514.000    8.312    0.261    0.354   83.445
  514.250    8.221    0.265    0.364   87.638
  514.500    7.982    0.261    0.381   85.388
  514.750    7.636    0.261    0.457   76.817
  515.000    7.401    0.257    0.436   69.522
  515.250    7.279    0.267    0.392   64.355
  515.500    7.200    0.284    0.386   55.845
  515.750    7.201    0.294    0.389   45.755
  516.000    7.242    0.301    0.360   36.151
  516.250    7.337    0.309    0.350   28.188
  516.500    7.461    0.306    0.337   22.413
  516.750    7.588    0.291    0.326   38.700
  517.000    7.788    0.269    0.337   51.158
  517.250    8.158    0.268    0.359   58.450
  517.500    8.498    0.294    0.388   65.074
  517.750    8.952    0.315    0.403   66.653
  518.000    9.342    0.286    0.409   67.624
  518.250    9.877    0.008    0.356   64.219
  518.500   10.289    0.001    0.224   66.710
  518.750   10.444    0.073    0.240   77.649
