~VERSION INFORMATION
 VERS.                 2.0:   CWLS LOG ASCII STANDARD -VERSION 2.0
 WRAP.                  NO:   ONE LINE PER DEPTH STEP
~WELL INFORMATION BLOCK
#MNEM.UNIT           DATA                    DESCRIPTION OF MNEMONIC
#---------    -------------------            -------------------------------
# Generated from Intellog Unique Number	CW_70_72/WELL/1028
NULL.         -999.25                        : NULL_VALUE
WELL.         MANNVILLE ET AL PETER 09-34    : Well_name    - WELL              
LOC .         09-34-072-01W5                 : Location     - LOCATION          
UWI .         00/09-34-072-01W5/0            : Uwi          - UNIQUE WELL ID    
ENTR.         JAYE                           : Entered      - ENTERED BY        
SRVC.         WESTERN ATLAS                  : Scn          - SERVICE COMPANY   
DATE.         7 SEPT 80                      : Date         - LOG DATE          
STRT.M        440                            : top_depth    - START DEPTH       
STOP.M        695                            : bot_depth    - STOP DEPTH        
STEP.M        0.25                           : increment    - STEP LENGTH       
~CURVE INFORMATION BLOCK
#MNEM UNIT       ERCB CURVE CODE    CURVE DESCRIPTION
#-----------   ------------------   ----------------------------------
DEPT.M        00 001 00 00         : DEPTH        - DEPTH                       
DPHI.V/V      00 890 00 00         : PHID         - DENSITY POROSITY (SANDSTONE)
NPHI.V/V      00 330 00 00         : PHIN         - NEUTRON POROSITY (SANDSTONE)
GR  .API      00 310 00 00         : GR           - GAMMA RAY                   
CALI.MM       00 280 01 00         : CAL          - CALIPER                     
ILD .OHMM     00 120 00 00         : RESD         - DEEP RESISTIVITY (DIL)      
~PARAMETER INFORMATION       
#MNEM.UNIT           DATA             DESCRIPTION OF MNEMONIC
#---------         -----------     ------------------------------
GL  .M        651.1                : gl           - GROUND LEVEL ELEVATION      
EREF.M        654                  : kb           - ELEVATION OF DEPTH REFERENCE
DATM.M        651.1                : datum        - DATUM ELEVATION             
TDD .M        696                  : tdd          - TOTAL DEPTH DRILLER         
RUN .         ONE                  : Run          - RUN NUMBER                  
ENG .         IRELAND              : Engineer     - RECORDING ENGINEER          
WIT .         KELLY                : Witness      - WITNESSED BY                
BASE.         EDM                  : Branch       - HOME BASE OF LOGGING UNIT   
MUD .         GEL-CHEM             : Mud_type     - MUD TYPE                    
MATR.         SANDSTONE            : Logunit      - NEUTRON MATRIX              
TMAX.C        27.1                 : BHT          - MAXIMUM RECORDED TEMPERATURE
BHTD.M        697                  : BHTDEP       - MAXIMUM RECORDED TEMPERATURE
RMT .C        21.6                 : MDTP         - TEMPERATURE OF MUD          
MUDD.KG/M     1210                 : MWT          - MUD DENSITY                 
NEUT.         1                    : NEUTRON      - NEUTRON TYPE                
RESI.         0                    : RESIST       - RESISTIVITY TYPE            
RM  .OHMM     1.84                 : RM           - RESISTIVITY OF MUD          
RMC .OHMM     0                    : RMC          - RESISTIVITY OF MUD CAKE     
RMF .OHMM     1.47                 : RMF          - RESISTIVITY OF MUD FILTRATE 
SUFT.C        32                   : SUFT         - SURFACE TEMPERATURE         
~A  DEPTH     PHID     PHIN       GR      CAL     RESD
  440.000    0.201    0.552  104.321  200.321    2.440
  440.250    0.196    0.538  105.539  200.376    2.447
  440.500    0.195    0.523  107.192  199.816    2.435
  440.750    0.205    0.508  108.285  198.320    2.427
  441.000    0.199    0.488  108.509  197.233    2.434
  441.250    0.203    0.489  107.985  195.845    2.454
  441.500    0.214    0.511  107.647  194.865    2.484
  441.750    0.209    0.500  107.251  194.304    2.542
  442.000    0.205    0.487  106.346  193.737    2.647
  442.250    0.225    0.503  103.396  190.897    2.746
  442.500    0.222    0.517   91.542  186.906    2.875
  442.750    0.204    0.443   77.513  182.403    2.999
  443.000    0.185    0.420   73.501  185.680    3.218
  443.250    0.183    0.443   79.202  190.198    3.415
  443.500    0.207    0.459   81.047  193.260    3.548
  443.750    0.209    0.422   79.085  193.738    3.653
  444.000    0.197    0.406   80.679  193.485    3.704
  444.250    0.197    0.437   83.327  195.826    3.644
  444.500    0.199    0.465   86.166  197.234    3.331
  444.750    0.205    0.479   88.881  195.948    3.045
  445.000    0.214    0.496   91.713  195.277    2.716
  445.250    0.229    0.513   94.426  197.102    2.400
  445.500    0.254    0.529   95.268  193.113    2.300
  445.750    0.288    0.532   91.383  184.360    2.468
  446.000    0.286    0.503   83.018  175.493    2.819
  446.250    0.286    0.444   75.209  166.013    3.129
  446.500    0.219    0.425   69.081  164.096    3.607
  446.750    0.132    0.380   63.018  164.168    4.285
  447.000    0.080    0.325   55.647  163.910    4.784
  447.250    0.106    0.359   54.312  162.622    4.690
  447.500    0.241    0.401   57.897  161.127    4.328
  447.750    0.278    0.421   55.758  160.046    3.963
  448.000    0.288    0.408   54.489  159.481    3.651
  448.250    0.302    0.414   53.773  159.134    3.440
  448.500    0.316    0.407   54.118  159.073    3.358
  448.750    0.318    0.403   55.032  158.416    3.310
  449.000    0.278    0.407   56.434  158.053    3.357
  449.250    0.248    0.415   59.953  158.009    3.495
  449.500    0.237    0.423   63.785  157.859    3.667
  449.750    0.248    0.440   65.065  157.923    3.832
  450.000    0.182    0.458   65.285  160.881    3.982
  450.250    0.136    0.435   77.022  171.630    4.076
  450.500    0.150    0.419   85.399  180.404    3.959
  450.750    0.202    0.443   93.899  191.769    3.800
  451.000    0.222    0.465  100.723  203.651    3.648
  451.250    0.220    0.487  104.430  197.493    3.644
  451.500    0.208    0.473  106.454  191.840    3.730
  451.750    0.207    0.450  105.560  186.614    3.921
  452.000    0.197    0.421  103.603  184.178    4.239
  452.250    0.208    0.421   98.348  182.899    4.583
  452.500    0.229    0.427   88.361  182.542    4.817
  452.750    0.241    0.434   80.680  181.870    4.885
  453.000    0.230    0.449   86.379  181.932    4.550
  453.250    0.210    0.455   94.940  183.750    4.231
  453.500    0.196    0.463  103.378  186.092    3.889
  453.750    0.184    0.473  111.134  188.746    3.713
  454.000    0.191    0.467  111.666  190.466    3.695
  454.250    0.186    0.456   98.569  190.628    3.733
  454.500    0.181    0.442   90.389  188.923    3.886
  454.750    0.199    0.427   91.108  185.662    4.108
  455.000    0.211    0.421   95.064  182.090    4.301
  455.250    0.214    0.420   92.862  178.526    4.378
  455.500    0.220    0.435   90.162  176.607    4.381
  455.750    0.226    0.457   89.010  174.072    4.327
  456.000    0.224    0.462   85.996  171.641    4.217
  456.250    0.233    0.445   90.888  168.798    4.157
  456.500    0.228    0.460   97.020  166.055    4.113
  456.750    0.221    0.484   85.666  163.106    4.093
  457.000    0.240    0.475   73.380  161.815    4.151
  457.250    0.256    0.423   69.244  163.439    4.257
  457.500    0.257    0.413   69.965  165.361    4.374
  457.750    0.241    0.423   75.725  165.315    4.503
  458.000    0.227    0.420   77.878  165.686    4.489
  458.250    0.220    0.408   82.024  170.930    4.343
  458.500    0.214    0.404   87.782  177.527    4.122
  458.750    0.202    0.443   98.088  183.706    3.768
  459.000    0.196    0.468  107.834  189.157    3.445
  459.250    0.182    0.489  116.583  192.955    3.073
  459.500    0.163    0.521  119.170  195.194    2.857
  459.750    0.170    0.565  115.161  191.724    2.963
  460.000    0.221    0.447  102.187  184.007    3.132
  460.250    0.216    0.394   97.182  177.424    3.406
  460.500    0.180    0.374   95.039  172.295    3.918
  460.750    0.208    0.373   87.731  168.622    4.673
  461.000    0.252    0.372   65.296  164.745    4.811
  461.250    0.271    0.372   53.133  161.690    4.283
  461.500    0.293    0.368   42.090  160.603    3.665
  461.750    0.308    0.359   35.340  160.253    3.239
  462.000    0.314    0.352   36.374  159.996    2.792
  462.250    0.312    0.375   42.384  160.063    2.646
  462.500    0.299    0.401   50.695  160.117    2.708
  462.750    0.271    0.386   61.127  159.872    2.852
  463.000    0.252    0.347   69.004  159.919    2.986
  463.250    0.234    0.369   76.013  160.291    3.098
  463.500    0.250    0.392   76.297  160.142    3.183
  463.750    0.270    0.412   70.852  159.274    3.227
  464.000    0.258    0.391   74.874  158.397    3.260
  464.250    0.240    0.402   77.645  158.141    3.306
  464.500    0.257    0.412   71.398  157.785    3.352
  464.750    0.255    0.401   66.328  158.054    3.438
  465.000    0.241    0.398   73.211  158.123    3.546
  465.250    0.234    0.392   81.466  158.794    3.644
  465.500    0.232    0.387   89.029  159.474    3.779
  465.750    0.233    0.398   96.659  159.845    3.950
  466.000    0.231    0.409   93.834  160.734    4.113
  466.250    0.222    0.406   94.865  166.396    4.274
  466.500    0.204    0.403   99.005  173.409    4.424
  466.750    0.184    0.409  107.007  179.481    4.624
  467.000    0.191    0.416  102.376  179.748    4.742
  467.250    0.190    0.411   99.546  181.053    4.675
  467.500    0.176    0.385  104.002  182.775    4.201
  467.750    0.177    0.437  111.382  184.387    3.521
  468.000    0.200    0.465  115.465  185.899    2.940
  468.250    0.203    0.543  117.560  188.039    2.545
  468.500    0.173    0.528  118.772  191.216    2.371
  468.750    0.176    0.523  121.112  194.585    2.311
  469.000    0.206    0.538  123.883  196.721    2.374
  469.250    0.220    0.547  115.831  191.695    2.514
  469.500    0.206    0.526  108.644  188.852    2.713
  469.750    0.193    0.468  107.311  185.905    2.934
  470.000    0.245    0.487  103.735  180.564    3.178
  470.250    0.278    0.503   90.886  172.842    3.397
  470.500    0.286    0.497   75.364  163.776    3.618
  470.750    0.269    0.425   67.119  164.049    3.746
  471.000    0.274    0.449   78.420  163.587    3.734
  471.250    0.282    0.478   91.901  161.669    3.660
  471.500    0.287    0.490   76.876  160.174    3.581
  471.750    0.292    0.439   70.435  159.608    3.550
  472.000    0.297    0.447   67.297  159.059    3.546
  472.250    0.300    0.457   67.712  159.105    3.589
  472.500    0.289    0.450   70.231  159.583    3.646
  472.750    0.265    0.432   75.494  160.992    3.740
  473.000    0.252    0.420   80.385  162.717    3.770
  473.250    0.254    0.451   83.844  163.806    3.745
  473.500    0.281    0.493   76.912  163.137    3.630
  473.750    0.305    0.489   68.169  161.121    3.524
  474.000    0.321    0.433   59.925  160.254    3.494
  474.250    0.303    0.411   63.516  161.246    3.583
  474.500    0.274    0.416   68.649  164.833    3.759
  474.750    0.251    0.413   73.856  170.707    4.003
  475.000    0.227    0.399   77.558  174.804    4.200
  475.250    0.199    0.410   82.823  180.988    4.340
  475.500    0.186    0.452   89.457  188.821    4.409
  475.750    0.208    0.476   94.783  196.866    4.363
  476.000    0.231    0.511   95.440  197.444    4.268
  476.250    0.217    0.536   94.480  194.393    4.113
