~VERSION INFORMATION
 VERS.                 2.0:   CWLS LOG ASCII STANDARD -VERSION 2.0
 WRAP.                  NO:   ONE LINE PER DEPTH STEP
~WELL INFORMATION BLOCK
#MNEM.UNIT           DATA                    DESCRIPTION OF MNEMONIC
#---------    -------------------            -------------------------------
# Generated from Intellog Unique Number	CS_73_76/WELL/2160
WELL.         GULF NISBET                    : Well_name    - WELL
LOC .         00/06-08-074-01W4/0            : Location     - LOCATION
UWI .         00/06-08-074-01W4/0            : Uwi          - UNIQUE WELL ID
ENTR.         SP                             : Entered      - ENTERED BY
SRVC.         SCHLUMBERGER                   : Scn          - SERVICE COMPANY
STRT.M        350                            : top_depth    - START DEPTH
STOP.M        630                            : bot_depth    - STOP DEPTH
STEP.M        0.25                           : increment    - STEP LENGTH
 NULL. -999.2500:NULL Value
~CURVE INFORMATION BLOCK
#MNEM UNIT       ERCB CURVE CODE    CURVE DESCRIPTION
#-----------   ------------------   ----------------------------------
DEPT.M        00 001 00 00         : DEPTH        - DEPTH
ILD .OHMM     00 120 00 00         : RESD         - DEEP RESISTIVITY (DIL)
NPHI.V/V      00 330 00 00         : PHIN         - NEUTRON POROSITY (LIMESTONE)
DPHI.V/V      00 890 00 00         : PHID         - DENSITY POROSITY (LIMESTONE)
GR  .API      00 310 00 00         : GR           - GAMMA RAY
~PARAMETER INFORMATION
#MNEM.UNIT           DATA             DESCRIPTION OF MNEMONIC
#---------         -----------     ------------------------------
GL  .M        705.5                : gl           - GROUND LEVEL ELEVATION
EREF.M        709.2                : kb           - ELEVATION OF DEPTH REFERENCE
DATM.M        705.5                : datum        - DATUM ELEVATION
TDD .M        640                  : tdd          - TOTAL DEPTH DRILLER
RUN .         ONE                  : Run          - RUN NUMBER
ENG .         BILL                 : Engineer     - RECORDING ENGINEER
WIT .         JIM                  : Witness      - WITNESSED BY
MUD .         GEL                  : Mud_type     - MUD TYPE
MATR.         LIMESTONE            : Logunit      - NEUTRON MATRIX
TMAX.C        19.5                 : BHT          - MAXIMUM RECORDED TEMPERATURE
BHTD.M        640                  : BHTDEP       - MAXIMUM RECORDED TEMPERATURE
MATR.         1                    : LOGUNIT      - NEUTRON MATRIX
RMT .C        25                   : MDTP         - TEMPERATURE OF MUD
NEUT.         1                    : NEUTRON      - NEUTRON TYPE
RESI.         0                    : RESIST       - RESISTIVITY TYPE
RMC .OHMM     0.25                 : RMC          - RESISTIVITY OF MUD CAKE
RMF .OHMM     0.25                 : RMF          - RESISTIVITY OF MUD FILTRATE
SUFT.C        15                   : SUFT         - SURFACE TEMPERATURE
~A  DEPTH     RESD     PHIN     PHID       GR
  350.000    2.729    0.528    0.241  103.054
  350.250    2.792    0.545    0.246  101.847
  350.500    2.952    0.572    0.241  107.963
  350.750    3.122    0.553    0.251  110.414
  351.000    3.181    0.520    0.256  114.090
  351.250    3.302    0.509    0.262  117.154
  351.500    3.427    0.504    0.275  119.608
  351.750    3.833    0.504    0.259  118.401
  352.000    3.978    0.479    0.263  112.927
  352.250    4.053    0.497    0.277  105.624
  352.500    4.367    0.514    0.285  100.763
  352.750    4.449    0.500    0.297   98.339
  353.000    4.532    0.484    0.294   97.132
  353.250    4.285    0.482    0.306   98.368
  353.500    4.128    0.486    0.303  101.434
  353.750    3.976    0.499    0.261  103.276
  354.000    3.976    0.515    0.242  106.341
  354.250    3.975    0.539    0.243  108.793
  354.500    4.126    0.515    0.247  106.370
  354.750    4.204    0.482    0.255  103.336
  355.000    4.203    0.476    0.270  102.131
  355.250    4.203    0.483    0.271  103.366
  355.500    4.203    0.488    0.277  103.989
  355.750    4.125    0.493    0.274  102.787
  356.000    3.899    0.522    0.261  102.798
  356.250    3.827    0.542    0.243  105.864
  356.500    3.756    0.494    0.225  108.317
  356.750    3.826    0.501    0.217  111.992
  357.000    4.046    0.519    0.219  115.054
  357.250    4.122    0.526    0.227  113.240
  357.500    4.200    0.500    0.234  109.597
  357.750    4.046    0.485    0.232  107.173
  358.000    3.754    0.495    0.244  105.968
  358.250    3.684    0.495    0.241  109.644
  358.500    3.483    0.533    0.240  110.265
  358.750    3.419    0.552    0.240  110.889
  359.000    3.896    0.554    0.245  107.247
  359.250    6.694    0.547    0.257  101.165
  359.500    9.543    0.531    0.246   90.204
  359.750   12.626    0.479    0.238   77.412
  360.000   13.604    0.398    0.234   64.012
  360.250   13.352    0.364    0.246   54.271
  360.500   12.161    0.365    0.248   51.851
  360.750   11.076    0.367    0.264   51.863
  361.000   10.472    0.361    0.260   54.925
  361.250   10.277    0.350    0.254   62.261
  361.500   10.086    0.344    0.246   68.373
  361.750   10.275    0.360    0.246   73.263
  362.000   10.665    0.385    0.252   79.986
  362.250   11.070    0.396    0.253   77.562
  362.500   11.069    0.388    0.246   70.872
  362.750   11.277    0.364    0.253   70.274
  363.000   11.276    0.374    0.257   75.168
  363.250   10.270    0.384    0.264   80.670
  363.500    9.710    0.390    0.263   90.441
  363.750    9.181    0.397    0.258   98.992
  364.000    8.680    0.409    0.260  104.497
  364.250    8.842    0.444    0.265  109.998
  364.500    9.178    0.465    0.266  120.380
  364.750   10.459    0.461    0.276  125.273
  365.000   11.481    0.479    0.296  117.972
  365.250   12.370    0.491    0.308  110.058
  365.500   13.580    0.425    0.318  103.365
  365.750   14.631    0.416    0.324  101.551
  366.000   15.186    0.430    0.324   99.735
  366.250   15.471    0.437    0.308  104.024
  366.500   15.761    0.434    0.301  108.305
  366.750   15.469    0.442    0.295  111.977
  367.000   15.468    0.456    0.286  111.991
  367.250   15.180    0.466    0.290  111.398
  367.500   14.898    0.445    0.294  107.145
  367.750   14.897    0.434    0.297  100.451
  368.000   14.620    0.400    0.290   96.197
  368.250   14.619    0.393    0.275   94.991
  368.500   14.348    0.399    0.255   88.298
  368.750   14.347    0.389    0.246   81.609
  369.000   14.080    0.389    0.246   80.403
  369.250   14.344    0.400    0.234   83.467
  369.500   14.888    0.411    0.221   87.141
  369.750   15.453    0.438    0.240   85.326
  370.000   15.744    0.462    0.257   81.072
  370.250   15.742    0.450    0.273   77.429
  370.500   14.608    0.441    0.271   75.003
  370.750   13.811    0.417    0.259   79.898
  371.000   13.304    0.439    0.257   83.570
  371.250   12.117    0.446    0.257   90.296
  371.500   11.672    0.454    0.263   94.576
  371.750   11.244    0.446    0.271   96.419
  372.000   10.434    0.432    0.275   97.659
  372.250   10.050    0.430    0.277   99.502
  372.500    9.864    0.430    0.280  101.348
  372.750   10.049    0.426    0.272  103.799
  373.000   10.237    0.442    0.271  108.079
  373.250   11.238    0.463    0.275  108.708
  373.500   11.665    0.470    0.284  102.624
  373.750   12.568    0.442    0.281  100.198
  374.000   13.045    0.420    0.264   95.947
  374.250   13.540    0.420    0.267   89.862
  374.500   13.539    0.414    0.249   82.558
  374.750   13.538    0.395    0.237   81.355
  375.000   13.286    0.390    0.234   86.249
  375.250   13.039    0.377    0.256   93.585
  375.500   12.797    0.362    0.260   96.035
  375.750   12.559    0.373    0.254   99.099
  376.000   12.326    0.379    0.256  103.995
  376.250   11.653    0.385    0.267  106.444
  376.500   11.437    0.394    0.273  111.948
  376.750   10.613    0.406    0.279  118.060
  377.000   10.416    0.414    0.271  117.467
  377.250    9.666    0.422    0.266  113.820
  377.500    9.139    0.422    0.247  108.958
  377.750    8.324    0.426    0.222  104.094
  378.000    7.581    0.432    0.199   99.841
  378.250    6.529    0.441    0.195  110.834
  378.500    5.728    0.456    0.218  116.334
  378.750    5.416    0.473    0.247  121.838
  379.000    5.217    0.491    0.249  123.075
  379.250    4.752    0.518    0.265  123.088
  379.500    4.493    0.532    0.273  125.543
  379.750    4.328    0.545    0.279  130.436
  380.000    4.247    0.559    0.282  132.888
  380.250    4.168    0.538    0.275  134.731
  380.500    4.750    0.532    0.273  132.307
  380.750    5.724    0.550    0.287  127.447
  381.000    6.899    0.557    0.294  124.411
  381.250    8.009    0.556    0.297  121.377
  381.500    9.834    0.565    0.293  122.610
  381.750   11.633    0.478    0.280  122.626
  382.000   12.770    0.438    0.287  115.932
  382.250   13.254    0.453    0.300   98.267
  382.500   13.503    0.476    0.321   86.084
  382.750   13.756    0.470    0.332   70.246
  383.000   13.755    0.408    0.329   62.333
  383.250   14.013    0.385    0.332   61.129
  383.500   14.012    0.398    0.329   61.754
  383.750   14.275    0.409    0.330   61.161
  384.000   14.274    0.416    0.338   60.565
  384.250   14.541    0.428    0.340   60.579
  384.500   14.814    0.441    0.342   63.643
  384.750   14.813    0.439    0.336   65.486
  385.000   14.812    0.428    0.329   66.721
  385.250   14.811    0.416    0.317   71.614
  385.500   14.809    0.409    0.310   78.950
  385.750   15.087    0.373    0.301   82.009
  386.000   15.086    0.375    0.302   82.636
  386.250   15.084    0.383    0.307   79.601
  386.500   14.804    0.388    0.305   79.616
  386.750   14.803    0.389    0.305   78.413
  387.000   14.802    0.401    0.307   80.256
  387.250   14.801    0.409    0.304   81.491
  387.500   14.800    0.386    0.312   77.237
  387.750   14.799    0.367    0.318   69.326
  388.000   14.798    0.389    0.318   64.460
  388.250   14.796    0.418    0.310   66.916
  388.500   14.521    0.409    0.307   69.977
  388.750   14.520    0.384    0.309   73.046
  389.000   14.250    0.368    0.313   74.276
  389.250   13.986    0.370    0.322   76.729
  389.500   13.726    0.384    0.326   82.234
  389.750   13.724    0.389    0.316   87.736
  390.000   13.982    0.395    0.293   93.239
  390.250   13.981    0.389    0.277   96.912
  390.500   14.243    0.382    0.269   95.707
  390.750   14.511    0.385    0.266   86.579
  391.000   14.509    0.391    0.281   77.445
  391.250   13.976    0.400    0.305   73.190
  391.500   14.239    0.395    0.311   70.773
  391.750   14.237    0.409    0.318   70.171
  392.000   14.236    0.419    0.322   68.967
  392.250   13.972    0.404    0.322   67.765
  392.500   13.970    0.401    0.327   68.386
  392.750   13.969    0.402    0.332   70.232
  393.000   14.231    0.414    0.334   72.075
  393.250   14.499    0.415    0.334   72.699
