~VERSION INFORMATION
 VERS.                 2.0:   CWLS LOG ASCII STANDARD -VERSION 2.0
 WRAP.                  NO:   ONE LINE PER DEPTH STEP
~WELL INFORMATION BLOCK
#MNEM.UNIT           DATA                    DESCRIPTION OF MNEMONIC
#---------    -------------------            -------------------------------
# Generated from Intellog Unique Number	CW_82_90/WELL/3070
WELL.         CHEVRON WABASCA 08-34          : Well_name    - WELL
LOC .         00/08-34-085-25W4/0            : Location     - LOCATION
UWI .         00/08-34-085-25W4/0            : Uwi          - UNIQUE WELL ID
ENTR.         JAYE                           : Entered      - ENTERED BY
SRVC.         SCHLUMBERGER                   : Scn          - SERVICE COMPANY
DATE.         01 FEB 1974                    : Date         - LOG DATE
STRT.M        182.88                         : top_depth    - START DEPTH
STOP.M        384.13                         : bot_depth    - STOP DEPTH
STEP.M        0.25                           : increment    - STEP LENGTH
 NULL. -999.2500:NULL Value
~CURVE INFORMATION BLOCK
#MNEM UNIT       ERCB CURVE CODE    CURVE DESCRIPTION
#-----------   ------------------   ----------------------------------
DEPT.M        00 001 00 00         : DEPTH        - DEPTH
GR  .API      00 310 00 00         : GR           - GAMMA RAY
CALI.MM       00 280 01 00         : CAL          - CALIPER
DPHI.V/V      00 890 00 00         : PHID         - DENSITY POROSITY (SANDSTONE)
NPHI.V/V      00 330 00 00         : PHIN         - NEUTRON POROSITY (SANDSTONE)
ILD .OHMM     00 120 00 00         : RESD         - DEEP RESISTIVITY (DIL)
~PARAMETER INFORMATION
#MNEM.UNIT           DATA             DESCRIPTION OF MNEMONIC
#---------         -----------     ------------------------------
GL  .M        564.185              : gl           - GROUND LEVEL ELEVATION
EREF.M        567.538              : kb           - ELEVATION OF DEPTH REFERENCE
DATM.M        564.185              : datum        - DATUM ELEVATION
TDD .M        382.524              : tdd          - TOTAL DEPTH DRILLER
RUN .         ONE                  : Run          - RUN NUMBER
ENG .         ASWAD                : Engineer     - RECORDING ENGINEER
WIT .         WONG & LILLIES       : Witness      - WITNESSED BY
BASE.         EDMONTON             : Branch       - HOME BASE OF LOGGING UNIT
MUD .         FGM                  : Mud_type     - MUD TYPE
MATR.         SANDSTONE            : Logunit      - NEUTRON MATRIX
TMAX.C        30.5556              : BHT          - MAXIMUM RECORDED TEMPERATURE
BHTD.M        382.524              : BHTDEP       - MAXIMUM RECORDED TEMPERATURE
RMT .C        18.8889              : MDTP         - TEMPERATURE OF MUD
MUDD.KG/M     9600                 : MWT          - MUD DENSITY
NEUT.         1                    : NEUTRON      - NEUTRON TYPE
RESI.         0                    : RESIST       - RESISTIVITY TYPE
RM  .OHMM     0                    : RM           - RESISTIVITY OF MUD
RMC .OHMM     5.49                 : RMC          - RESISTIVITY OF MUD CAKE
RMF .OHMM     3.22                 : RMF          - RESISTIVITY OF MUD FILTRATE
SUFT.C        4                    : SUFT         - SURFACE TEMPERATURE
~A  DEPTH       GR      CAL     PHID     PHIN     RESD
# ...
  219.380   89.886  213.602    0.260    0.547    6.255
  219.630   88.620  212.643    0.273    0.517    6.877
  219.880   84.911  212.928    0.275    0.531    8.383
  220.130   79.127  212.993    0.270    0.567    8.533
  220.380   75.602  212.758    0.260    0.583    8.256
  220.630   77.449  212.406    0.250    0.555    8.123
  220.880   80.273  211.856    0.248    0.562    8.237
  221.130   80.534  211.918    0.259    0.566    8.449
  221.380   82.439  212.314    0.252    0.556    8.567
  221.630   84.593  212.463    0.257    0.533    8.670
  221.880   83.142  212.842    0.250    0.524    8.791
  222.130   81.327  212.926    0.258    0.508    8.765
  222.380   81.404  212.773    0.263    0.503    8.306
  222.630   81.605  212.530    0.263    0.546    6.535
  222.880   80.580  212.598    0.257    0.559    4.832
  223.130   77.790  212.461    0.247    0.557    4.193
  223.380   79.208  213.354    0.250    0.551    4.324
  223.630   81.848  215.084    0.264    0.561    4.184
  223.880   81.438  216.687    0.255    0.595    3.995
  224.130   83.101  218.609    0.263    0.624    4.020
  224.380   86.596  219.205    0.262    0.665    4.581
  224.630   87.709  220.812    0.255    0.613    4.932
  224.880   85.651  218.711    0.272    0.587    4.613
  225.130   81.331  213.955    0.282    0.614    3.883
  225.380   79.152  211.845    0.266    0.623    3.382
  225.630   80.572  212.117    0.272    0.595    3.054
  225.880   82.721  213.828    0.268    0.668    3.003
  226.130   83.592  216.166    0.276    0.690    3.006
  226.380   85.014  218.296    0.285    0.691    3.310
  226.630   87.469  219.299    0.290    0.696    4.392
  226.880   89.687  220.494    0.270    0.707    4.829
  227.130   89.395  217.159    0.250    0.709    5.229
  227.380   87.456  213.412    0.231    0.687    6.186
  227.630   84.724  214.305    0.203    0.625    8.192
  227.880   85.288  213.759    0.119    0.449   10.725
  228.130   84.022  213.006    0.163    0.511   13.028
  228.380   68.165  213.072    0.244    0.590   16.335
  228.630   64.458  213.032    0.258    0.548   19.580
  228.880   66.182  212.483    0.316    0.448   21.010
  229.130   63.694  211.013    0.337    0.514   21.381
  229.380   38.987  209.539    0.346    0.539   20.531
  229.630   38.759  207.533    0.350    0.533   20.014
  229.880   38.288  207.914    0.349    0.531   20.527
  230.130   39.829  208.811    0.350    0.532   20.772
  230.380   41.125  209.596    0.352    0.552   21.344
  230.630   42.795  209.979    0.349    0.573   21.524
  230.880   44.210  209.940    0.341    0.581   21.497
  231.130   46.056  210.013    0.343    0.538   21.555
  231.380   43.203  209.888    0.340    0.531   21.694
  231.630   40.412  209.938    0.337    0.522   21.791
  231.880   41.280  209.812    0.333    0.512   21.973
  232.130   43.374  209.365    0.328    0.526   21.949
  232.380   42.472  209.424    0.323    0.539   21.966
  232.630   41.454  209.697    0.332    0.553   21.819
  232.880   41.344  209.553    0.339    0.564   21.796
  233.130   40.079  209.219    0.346    0.545   21.893
  233.380   40.093  209.388    0.346    0.553   21.991
  233.630   41.146  209.039    0.347    0.566   21.967
  233.880   40.428  209.329    0.342    0.584   21.865
  234.130   41.176  209.481    0.339    0.553   21.755
  234.380   42.844  209.144    0.343    0.527   21.728
  234.630   41.209  208.589    0.338    0.529   21.665
  234.880   40.127  208.142    0.335    0.542   21.401
  235.130   40.567  207.903    0.338    0.545   21.335
  235.380   41.135  207.776    0.346    0.543   21.191
  235.630   41.699  207.835    0.347    0.537   21.129
  235.880   42.874  208.219    0.351    0.553   21.107
  236.130   43.438  208.072    0.352    0.547   21.200
  236.380   43.393  207.939    0.352    0.520   21.340
  236.630   42.797  207.998    0.354    0.526   21.353
  236.880   42.447  207.865    0.352    0.534   21.211
  237.130   43.319  207.515    0.345    0.531   21.105
  237.380   44.432  207.606    0.339    0.526   21.127
  237.630   43.839  207.671    0.337    0.493   21.101
  237.880   43.730  207.828    0.352    0.494   20.997
  238.130   46.923  207.584    0.353    0.518   20.856
  238.380   46.515  208.191    0.347    0.497   20.638
  238.630   45.914  208.584    0.351    0.493   20.422
  238.880   43.063  208.714    0.351    0.517   20.285
  239.130   43.381  211.569    0.350    0.525   20.004
  239.380   45.169  209.473    0.357    0.528   19.898
  239.630   44.390  208.719    0.356    0.527   19.655
  239.880   46.178  208.896    0.353    0.503   18.417
  240.130   48.939  209.267    0.356    0.501   15.216
  240.380   49.383  209.648    0.358    0.511   13.400
  240.630   48.725  210.339    0.355    0.517   12.463
  240.880   48.988  211.327    0.337    0.514   12.172
  241.130   50.099  212.534    0.309    0.500    9.612
  241.380   52.133  213.627    0.228    0.471    7.148
  241.630   51.169  214.828    0.140    0.371    5.468
  241.880   51.733  214.594    0.135    0.369    4.051
  242.130   54.496  214.350    0.243    0.478    3.404
  242.380   60.006  216.480    0.254    0.684    3.374
  242.630   65.883  214.689    0.253    0.729    3.416
  242.880   80.976  215.274    0.249    0.669    3.464
  243.130   96.924  216.484    0.250    0.646    3.357
  243.380  105.670  217.161    0.243    0.666    3.890
  243.630  105.626  217.643    0.244    0.662    4.516
  243.880  102.225  215.857    0.249    0.668    4.854
  244.130  103.948  214.693    0.261    0.673    5.054
  244.380  101.643  215.371    0.260    0.656    4.917
  244.630   99.831  215.025    0.265    0.638    4.412
  244.880   98.441  214.595    0.267    0.625    4.081
  245.130   95.587  214.030    0.258    0.615    3.955
  245.380   93.525  214.724    0.247    0.618    3.981
  245.630   92.075  215.918    0.245    0.659    3.991
  245.880   93.315  217.222    0.257    0.687    4.047
  246.130   97.480  214.506    0.262    0.705    4.088
  246.380  105.064  212.829    0.273    0.680    4.069
  246.630  104.347  210.830    0.282    0.672    3.981
  246.880   96.978  211.426    0.296    0.690    3.881
  247.130   95.161  212.417    0.284    0.651    3.847
  247.380   95.180  213.018    0.222    0.687    3.932
  247.630   88.295  213.592    0.190    0.709    4.054
  247.880   85.198  213.235    0.185    0.696    5.122
  248.130   85.883  211.139    0.216    0.645    6.668
  248.380   91.334  209.660    0.291    0.622    8.284
  248.630   88.540  209.225    0.293    0.624   10.970
  248.880   83.794  209.074    0.297    0.555   12.288
  249.130   82.039  208.940    0.321    0.570   12.987
  249.380   79.002  208.902    0.331    0.563   13.071
  249.630   75.296  208.244    0.327    0.564   13.130
  249.880   73.601  207.809    0.323    0.569   13.265
  250.130   69.466  207.557    0.320    0.558   13.275
  250.380   67.343  207.629    0.343    0.587   13.162
  250.630   64.613  207.400    0.347    0.594   12.998
  250.880   64.261  207.354    0.334    0.591   13.032
  251.130   63.364  207.213    0.336    0.572   12.800
  251.380   64.175  207.486    0.338    0.546   12.455
  251.630   64.798  207.784    0.344    0.519   12.234
  251.880   65.852  208.034    0.332    0.509   12.149
  252.130   66.479  208.120    0.325    0.529   12.068
  252.380   65.026  208.177    0.326    0.573   12.032
  252.630   65.347  207.835    0.328    0.584   11.972
  252.880   67.685  207.795    0.315    0.569   12.004
  253.130   69.531  207.967    0.302    0.555   12.357
  253.380   69.244  207.836    0.292    0.555   13.869
  253.630   67.607  208.821    0.275    0.577   17.293
  253.880   67.196  211.159    0.248    0.547   24.734
  254.130   67.212  212.476    0.193    0.350   31.722
  254.380   65.152  214.182    0.094    0.281   36.145
  254.630   62.359  215.696    0.060    0.234   38.343
  254.880   59.935  215.146    0.084    0.232   38.157
  255.130   58.851  213.462    0.077    0.225   35.419
  255.380   58.867  214.670    0.069    0.209   28.397
  255.630   58.820  214.626    0.046    0.206   22.383
