~VERSION INFORMATION
 VERS.                 2.0:   CWLS LOG ASCII STANDARD -VERSION 2.0
 WRAP.                  NO:   ONE LINE PER DEPTH STEP
~WELL INFORMATION BLOCK
#MNEM.UNIT           DATA                    DESCRIPTION OF MNEMONIC
#---------    -------------------            -------------------------------
# Generated from Intellog Unique Number	CW_70_72/WELL/992
NULL.         -999.25                        : NULL_VALUE
WELL.         CNW FRANCIS SOUTH 07-34        : Well_name    - WELL              
LOC .         07-34-072-21W4                 : Location     - LOCATION          
UWI .         00/07-34-072-21W4/0            : Uwi          - UNIQUE WELL ID    
ENTR.         JAYE                           : Entered      - ENTERED BY        
SRVC.         COMPUTALOG                     : Scn          - SERVICE COMPANY   
DATE.         26 JULY 88                     : Date         - LOG DATE          
STRT.M        355                            : top_depth    - START DEPTH       
STOP.M        555                            : bot_depth    - STOP DEPTH        
STEP.M        0.25                           : increment    - STEP LENGTH       
~CURVE INFORMATION BLOCK
#MNEM UNIT       ERCB CURVE CODE    CURVE DESCRIPTION
#-----------   ------------------   ----------------------------------
DEPT.M        00 001 00 00         : DEPTH        - DEPTH                       
DPHI.V/V      00 890 00 00         : PHID         - DENSITY POROSITY (SANDSTONE)
NPHI.V/V      00 330 00 00         : PHIN         - NEUTRON POROSITY (SANDSTONE)
GR  .API      00 310 00 00         : GR           - GAMMA RAY                   
CALI.MM       00 280 01 00         : CAL          - CALIPER                     
ILD .OHMM     00 120 00 00         : RESD         - DEEP RESISTIVITY (DIL)      
~PARAMETER INFORMATION       
#MNEM.UNIT           DATA             DESCRIPTION OF MNEMONIC
#---------         -----------     ------------------------------
GL  .M        642                  : gl           - GROUND LEVEL ELEVATION      
EREF.M        645.4                : kb           - ELEVATION OF DEPTH REFERENCE
DATM.M        642                  : datum        - DATUM ELEVATION             
TDD .M        561                  : tdd          - TOTAL DEPTH DRILLER         
RUN .         ONE                  : Run          - RUN NUMBER                  
ENG .         GAIR/OSYPCHUK        : Engineer     - RECORDING ENGINEER          
WIT .         TOPIC                : Witness      - WITNESSED BY                
BASE.         R.D.                 : Branch       - HOME BASE OF LOGGING UNIT   
MUD .         GEL CHEM             : Mud_type     - MUD TYPE                    
MATR.         SANDSTONE            : Logunit      - NEUTRON MATRIX              
TMAX.C        25                   : BHT          - MAXIMUM RECORDED TEMPERATURE
BHTD.M        560.1                : BHTDEP       - MAXIMUM RECORDED TEMPERATURE
RMT .C        25                   : MDTP         - TEMPERATURE OF MUD          
MUDD.KG/M     1110                 : MWT          - MUD DENSITY                 
NEUT.         1                    : NEUTRON      - NEUTRON TYPE                
RESI.         0                    : RESIST       - RESISTIVITY TYPE            
RM  .OHMM     3.3                  : RM           - RESISTIVITY OF MUD          
RMC .OHMM     4                    : RMC          - RESISTIVITY OF MUD CAKE     
RMF .OHMM     3                    : RMF          - RESISTIVITY OF MUD FILTRATE 
SUFT.C        0                    : SUFT         - SURFACE TEMPERATURE         
~A  DEPTH     PHID     PHIN       GR      CAL     RESD
# ...
  501.000    0.197    0.443   86.899  199.696    5.278
  501.250    0.171    0.437   88.923  200.016    5.341
  501.500    0.179    0.442   92.230  199.927    5.496
  501.750    0.183    0.465   89.123  199.330    5.900
  502.000    0.184    0.482   86.871  198.629    6.264
  502.250    0.173    0.467   85.658  197.014    6.433
  502.500    0.154    0.449   88.231  195.606    6.392
  502.750    0.143    0.436   92.698  195.516    6.270
  503.000    0.168    0.444   95.638  196.241    6.195
  503.250    0.187    0.458   91.249  197.579    6.121
  503.500    0.191    0.458   87.592  198.101    6.060
  503.750    0.199    0.454   91.082  198.114    6.054
  504.000    0.195    0.449   89.381  198.130    6.071
  504.250    0.181    0.442   85.968  197.839    6.132
  504.500    0.168    0.438   85.793  197.647    6.230
  504.750    0.175    0.446   87.573  196.948    6.304
  505.000    0.163    0.443   90.085  195.843    6.403
  505.250    0.138    0.448   88.200  194.940    6.553
  505.500    0.149    0.449   87.537  192.103    6.693
  505.750    0.169    0.436   89.254  190.082    6.798
  506.000    0.185    0.417   86.636  188.774    6.843
  506.250    0.199    0.401   83.347  189.498    6.912
  506.500    0.181    0.390   80.668  191.242    6.918
  506.750    0.167    0.382   79.820  194.310    6.799
  507.000    0.158    0.396   84.775  196.768    6.656
  507.250    0.143    0.410   88.937  198.103    6.258
  507.500    0.112    0.420   90.168  198.422    5.938
  507.750    0.081    0.429   91.152  198.436    5.867
  508.000    0.139    0.441   92.443  197.738    6.060
  508.250    0.172    0.446   95.017  197.141    6.374
  508.500    0.175    0.429   99.789  195.831    6.944
  508.750    0.154    0.405   91.857  192.791    7.593
  509.000    0.107    0.390   78.734  190.058    8.061
  509.250    0.078    0.380   72.085  188.850    7.994
  509.500    0.102    0.376   77.651  188.556    8.032
  509.750    0.134    0.369   81.019  189.079    8.449
  510.000    0.076    0.341   69.788  189.501    9.393
  510.250    0.023    0.283   59.963  189.819   10.499
  510.500    0.039    0.259   60.156  190.343   11.737
  510.750    0.059    0.268   63.949  190.665   12.507
  511.000    0.085    0.289   70.860  190.778   11.999
  511.250    0.087    0.322   74.166  190.895   10.794
  511.500    0.082    0.353   74.541  190.907    9.727
  511.750    0.081    0.372   74.733  190.819    8.912
  512.000    0.102    0.364   77.674  190.424    7.929
  512.250    0.138    0.363   81.162  190.236    7.093
  512.500    0.152    0.392   85.507  190.454    6.768
  512.750    0.166    0.409   87.286  190.465    6.626
  513.000    0.169    0.418   88.639  190.377    6.768
  513.250    0.167    0.422   88.219  190.291    7.015
  513.500    0.162    0.416   85.356  190.507    7.231
  513.750    0.151    0.409   83.472  190.825    7.414
  514.000    0.145    0.410   84.885  190.944    7.600
  514.250    0.141    0.415   86.237  190.954    7.893
  514.500    0.132    0.417   82.763  191.375    7.900
  514.750    0.106    0.416   76.603  192.003    7.720
  515.000    0.109    0.412   79.848  192.522    7.600
  515.250    0.147    0.404   88.529  193.453    7.607
  515.500    0.173    0.407   90.797  194.077    7.656
  515.750    0.175    0.416   89.157  194.600    7.763
  516.000    0.169    0.415   87.210  194.820    7.842
  516.250    0.141    0.410   84.348  195.037    7.806
  516.500    0.113    0.402   82.524  195.253    7.684
  516.750    0.091    0.394   82.960  195.470    7.538
  517.000    0.120    0.390   84.800  195.687    7.338
  517.250    0.142    0.384   87.129  195.599    7.041
  517.500    0.158    0.376   89.763  195.206    6.767
  517.750    0.161    0.376   91.604  194.917    6.687
  518.000    0.161    0.388   94.300  194.521    6.743
  518.250    0.158    0.392   96.385  194.128    6.887
  518.500    0.144    0.386   87.720  193.940    7.086
  518.750    0.104    0.375   74.963  193.646    7.359
  519.000    0.112    0.367   79.186  193.354    7.572
  519.250    0.131    0.368   83.287  193.266    7.763
  519.500    0.145    0.377   83.600  193.588    7.670
  519.750    0.138    0.377   81.837  193.598    7.414
  520.000    0.114    0.370   80.562  193.310    6.547
  520.250    0.121    0.363   87.167  193.117    5.451
  520.500    0.148    0.363   88.764  193.031    4.796
  520.750    0.175    0.379   89.443  193.654    4.158
  521.000    0.199    0.419   91.039  194.584    3.598
  521.250    0.213    0.470   97.033  195.310    3.219
  521.500    0.222    0.491   97.835  195.630    2.890
  521.750    0.222    0.505   96.989  195.541    2.737
  522.000    0.217    0.512   97.363  195.453    2.720
  522.250    0.207    0.512   97.433  195.368    2.819
  522.500    0.193    0.495   96.891  195.379    3.192
  522.750    0.155    0.454   93.418  195.394    3.856
  523.000    0.124    0.410   88.051  195.303    4.530
  523.250    0.115    0.400   83.723  195.421    5.244
  523.500    0.120    0.392   81.838  195.537    6.184
  523.750    0.109    0.388   83.312  195.449    6.874
  524.000    0.115    0.390   86.619  195.460    6.780
  524.250    0.134    0.401   92.673  195.169    6.363
  524.500    0.145    0.416   97.263  195.083    6.463
  524.750    0.124    0.428   97.576  194.891    7.028
  525.000    0.080    0.400   91.599  194.091    7.741
  525.250    0.053    0.367   74.505  192.780    8.669
  525.500    0.082    0.349   66.085  190.759    9.307
  525.750    0.096    0.340   63.955  190.365    9.647
  526.000    0.119    0.354   76.729  191.703    9.205
  526.250    0.102    0.370   82.845  193.956    8.249
  526.500    0.072    0.383   82.915  195.597    7.573
  526.750    0.073    0.399   81.579  196.324    7.238
  527.000    0.102    0.405   85.558  195.728    6.983
  527.250    0.119    0.404   87.276  195.640    6.713
  527.500    0.127    0.393   87.344  195.856    6.583
  527.750    0.135    0.388   88.635  196.075    6.446
  528.000    0.133    0.406   90.049  196.290    6.333
  528.250    0.120    0.418   92.622  196.203    6.212
  528.500    0.125    0.428   96.173  196.320    6.183
  528.750    0.134    0.428   97.281  196.131    6.178
  529.000    0.141    0.424   97.228  196.142    6.229
  529.250    0.113    0.422   95.403  196.259    6.410
  529.500    0.087    0.424   91.198  196.170    6.608
  529.750    0.104    0.415   92.183  195.267    6.687
  530.000    0.116    0.402   94.330  194.264    6.595
  530.250    0.128    0.410   95.620  193.667    6.363
  530.500    0.133    0.423   96.362  193.069    6.105
  530.750    0.139    0.430   97.896  192.780    5.846
  531.000    0.144    0.436   98.454  192.997    5.619
  531.250    0.150    0.436   98.523  193.619    5.471
  531.500    0.148    0.430  101.463  194.446    5.426
  531.750    0.130    0.426   99.701  195.581    5.521
  532.000    0.103    0.421   95.983  197.632    6.105
  532.250    0.066    0.415   91.716  199.578    6.565
  532.500    0.073    0.409   88.670  200.814    7.022
  532.750    0.114    0.403   92.343  201.439    7.238
  533.000    0.127    0.399   98.948  201.757    7.074
  533.250    0.128    0.419  104.575  202.078    6.749
  533.500    0.130    0.447  109.286  202.191    6.427
  533.750    0.130    0.450  112.654  202.309    6.213
  534.000    0.120    0.444  114.739  202.017    6.275
  534.250    0.105    0.439  114.197  200.809    6.505
  534.500    0.090    0.437  110.540  198.379    6.793
  534.750    0.087    0.458  104.686  195.847    7.172
  535.000    0.108    0.465   97.548  193.826    7.871
  535.250    0.130    0.463   90.531  192.415    9.559
  535.500    0.100    0.455   79.118  191.412   11.230
  535.750    0.075    0.428   63.796  190.815   13.073
  536.000    0.056    0.371   47.252  190.728   17.344
  536.250    0.059    0.281   29.792  190.839   24.361
  536.500    0.070    0.225   18.501  191.059   33.657
  536.750    0.072    0.213   11.181  191.377   41.481
  537.000    0.074    0.209    9.174  191.796   47.759
  537.250    0.070    0.241    8.143  192.219   54.986
