~VERSION INFORMATION
 VERS.                 2.0:   CWLS LOG ASCII STANDARD -VERSION 2.0
 WRAP.                  NO:   ONE LINE PER DEPTH STEP
~WELL INFORMATION BLOCK
#MNEM.UNIT           DATA                    DESCRIPTION OF MNEMONIC
#---------    -------------------            -------------------------------
# Generated from Intellog Unique Number	CS_77_79/WELL/834
WELL.         CANOXY WINIFRED                : Well_name    - WELL
LOC .         00/01-28-078-02W4/0            : Location     - LOCATION
UWI .         00/01-28-078-02W4/0            : Uwi          - UNIQUE WELL ID
ENTR.         JHS                            : Entered      - ENTERED BY
SRVC.         SCHLUMBERGER                   : Scn          - SERVICE COMPANY
STRT.M        158.496                        : top_depth    - START DEPTH
STOP.M        426.496                        : bot_depth    - STOP DEPTH
STEP.M        0.25                           : increment    - STEP LENGTH
 NULL. -999.2500:NULL Value
~CURVE INFORMATION BLOCK
#MNEM UNIT       ERCB CURVE CODE    CURVE DESCRIPTION
#-----------   ------------------   ----------------------------------
DEPT.M        00 001 00 00         : DEPTH        - DEPTH
GR  .API      00 310 00 00         : GR           - GAMMA RAY
DPHI.V/V      00 890 00 00         : PHID         - DENSITY POROSITY (SANDSTONE)
NPHI.V/V      00 330 00 00         : PHIN         - NEUTRON POROSITY (SANDSTONE)
ILD .OHMM     00 120 00 00         : RESD         - DEEP RESISTIVITY (DIL)
~PARAMETER INFORMATION
#MNEM.UNIT           DATA             DESCRIPTION OF MNEMONIC
#---------         -----------     ------------------------------
GL  .M        570.89               : gl           - GROUND LEVEL ELEVATION
EREF.M        574.243              : kb           - ELEVATION OF DEPTH REFERENCE
DATM.M        574.243              : datum        - DATUM ELEVATION
TDD .M        434.34               : tdd          - TOTAL DEPTH DRILLER
RUN .         ONE                  : Run          - RUN NUMBER
ENG .         BILL                 : Engineer     - RECORDING ENGINEER
WIT .         JIM                  : Witness      - WITNESSED BY
MUD .         GEL                  : Mud_type     - MUD TYPE
MATR.         SANDSTONE            : Logunit      - NEUTRON MATRIX
TMAX.C        21.1111              : BHT          - MAXIMUM RECORDED TEMPERATURE
BHTD.M        434.34               : BHTDEP       - MAXIMUM RECORDED TEMPERATURE
MATR.         1                    : LOGUNIT      - NEUTRON MATRIX
RMT .C        25                   : MDTP         - TEMPERATURE OF MUD
NEUT.         1                    : NEUTRON      - NEUTRON TYPE
RESI.         0                    : RESIST       - RESISTIVITY TYPE
RMC .OHMM     0.25                 : RMC          - RESISTIVITY OF MUD CAKE
RMF .OHMM     0.25                 : RMF          - RESISTIVITY OF MUD FILTRATE
SUFT.C        15                   : SUFT         - SURFACE TEMPERATURE
~A  DEPTH       GR     PHID     PHIN     RESD
# ...
  288.996   86.597    0.268    0.478    6.519
  289.246   82.880    0.254    0.480    7.178
  289.496   77.922    0.232    0.462    7.559
  289.746   73.828    0.212    0.423    8.112
  289.996   75.405    0.206    0.436    8.797
  290.246   82.159    0.248    0.456    9.196
  290.496   81.271    0.307    0.432    9.377
  290.746   77.544    0.298    0.413    9.409
  290.996   77.329    0.292    0.428    9.220
  291.246   84.032    0.322    0.480    9.246
  291.496   85.717    0.325    0.491   10.097
  291.746   84.834    0.315    0.456   11.130
  291.996   82.988    0.281    0.418   13.101
  292.246   74.668    0.194    0.357   14.268
  292.496   70.245    0.144    0.298   14.422
  292.746   71.312    0.110    0.288   13.548
  292.996   76.992    0.105    0.371   12.317
  293.246   80.418    0.230    0.444   10.730
  293.496   85.055    0.300    0.452    9.822
  293.746   86.915    0.281    0.429    9.336
  293.996   84.105    0.256    0.418    8.684
  294.246   81.961    0.276    0.424    8.309
  294.496   84.230    0.327    0.450    7.644
  294.746   90.956    0.323    0.478    7.140
  294.996   95.693    0.309    0.489    6.666
  295.246   96.047    0.293    0.496    6.463
  295.496   95.171    0.283    0.500    6.199
  295.746   97.441    0.276    0.503    5.890
  295.996   99.497    0.274    0.506    5.859
  296.246  100.420    0.288    0.501    5.678
  296.496  103.114    0.270    0.474    5.677
  296.746  104.967    0.268    0.464    5.684
  296.996  102.948    0.277    0.475    5.545
  297.246  100.489    0.267    0.490    5.064
  297.496   97.830    0.270    0.469    4.310
  297.746  100.300    0.285    0.479    3.870
  297.996  105.685    0.289    0.519    3.617
  298.246  106.887    0.297    0.531    3.363
  298.496  105.602    0.294    0.533    3.130
  298.746  104.632    0.283    0.526    2.994
  298.996  106.136    0.283    0.524    2.864
  299.246  112.109    0.283    0.528    2.813
  299.496  115.855    0.301    0.534    2.765
  299.746  119.433    0.287    0.545    2.818
  299.996  122.617    0.302    0.568    2.913
  300.246  123.719    0.292    0.546    3.167
  300.496  120.706    0.275    0.524    3.581
  300.746  109.581    0.287    0.499    3.871
  300.996  101.780    0.302    0.484    4.575
  301.246   97.060    0.310    0.471    5.044
  301.496   99.238    0.309    0.464    5.783
  301.746  103.393    0.305    0.464    6.357
  301.996  109.825    0.299    0.480    6.798
  302.246  112.130    0.294    0.486    6.510
  302.496  113.995    0.303    0.496    5.436
  302.746  116.486    0.296    0.504    4.448
  302.996  111.803    0.288    0.507    4.113
  303.246  104.076    0.272    0.515    4.111
  303.496   92.660    0.299    0.507    4.328
  303.746   88.465    0.311    0.499    4.745
  303.996   92.361    0.307    0.491    5.554
  304.246   90.816    0.316    0.477    6.183
  304.496   88.514    0.326    0.471    6.353
  304.746   89.241    0.333    0.492    6.358
  304.996   95.097    0.337    0.482    6.350
  305.246   96.830    0.332    0.478    6.157
  305.496   97.874    0.302    0.480    6.158
  305.746   98.935    0.275    0.488    6.165
  305.996   98.953    0.250    0.471    6.176
  306.246   97.637    0.249    0.450    6.224
  306.496   93.229    0.260    0.450    6.431
  306.746   89.544    0.267    0.454    6.627
  306.996   90.748    0.269    0.462    7.047
  307.246   89.973    0.274    0.470    7.195
  307.496   85.251    0.255    0.459    7.345
  307.746   81.402    0.222    0.426    7.332
  307.996   80.049    0.156    0.402    6.854
  308.246   77.392    0.132    0.402    6.380
  308.496   83.424    0.132    0.443    6.096
  308.746   91.414    0.169    0.488    5.816
  308.996   94.999    0.306    0.489    5.758
  309.246   96.887    0.292    0.474    5.840
  309.496   96.027    0.281    0.462    5.837
  309.746   92.529    0.286    0.452    5.885
  309.996   89.033    0.299    0.439    5.954
  310.246   92.552    0.313    0.426    5.781
  310.496   99.486    0.298    0.420    5.621
  310.746  103.533    0.280    0.416    5.360
  310.996  103.930    0.270    0.419    4.498
  311.246   96.579    0.268    0.439    3.887
  311.496   95.260    0.264    0.472    3.240
  311.746   95.675    0.289    0.493    2.847
  311.996   95.224    0.311    0.515    2.566
  312.246   96.361    0.315    0.523    2.499
  312.496   97.483    0.321    0.532    2.568
  312.746   97.800    0.303    0.548    2.648
  312.996   97.735    0.284    0.566    2.777
  313.246   99.373    0.282    0.576    2.924
  313.496   99.660    0.275    0.543    3.252
  313.746   96.321    0.272    0.511    3.732
  313.996   92.489    0.276    0.482    4.127
  314.246   90.847    0.283    0.461    4.446
  314.496   89.305    0.276    0.443    4.537
  314.746   87.759    0.272    0.437    4.637
  314.996   88.375    0.271    0.443    4.715
  315.246   91.834    0.263    0.453    4.727
  315.496   95.227    0.254    0.446    4.735
  315.746   94.695    0.255    0.438    4.751
  315.996   95.376    0.261    0.450    4.664
  316.246   96.423    0.264    0.460    4.484
  316.496   97.081    0.270    0.470    4.298
  316.746   97.061    0.279    0.482    4.004
  316.996   97.683    0.283    0.469    3.828
  317.246  101.281    0.264    0.464    3.676
  317.496  106.966    0.258    0.473    3.546
  317.746  108.620    0.263    0.484    3.507
  317.996  105.611    0.270    0.470    3.439
  318.246  105.106    0.266    0.483    3.449
  318.496  106.522    0.255    0.492    3.450
  318.746  109.929    0.254    0.501    3.561
  318.996  111.783    0.245    0.511    3.594
  319.246  112.284    0.256    0.505    3.498
  319.496  111.913    0.252    0.483    3.362
  319.746  110.547    0.245    0.478    3.227
  319.996  109.204    0.257    0.496    3.209
  320.246  107.159    0.276    0.511    3.329
  320.496  106.477    0.276    0.508    3.609
  320.746  104.987    0.271    0.484    4.028
  320.996  102.587    0.260    0.458    4.514
  321.246   97.890    0.262    0.447    4.776
  321.496   96.455    0.269    0.442    4.886
  321.746   95.156    0.272    0.448    4.878
  321.996   92.139    0.254    0.445    4.722
  322.246   90.441    0.265    0.430    4.649
  322.496   90.507    0.287    0.416    4.554
  322.746   88.119    0.269    0.400    4.476
  322.996   83.968    0.278    0.392    4.491
  323.246   79.290    0.291    0.403    4.490
  323.496   78.464    0.288    0.397    5.006
  323.746   79.927    0.260    0.391    5.748
  323.996   82.879    0.236    0.394    6.843
  324.246   82.390    0.192    0.417    6.487
  324.496   79.032    0.122    0.396    5.710
  324.746   74.566    0.086    0.362    4.754
  324.996   71.603    0.054    0.364    4.100
  325.246   71.104    0.188    0.396    3.542
  325.496   68.755    0.210    0.423    3.238
  325.746   65.150    0.259    0.412    3.124
  325.996   58.457    0.298    0.390    3.095
  326.246   58.239    0.314    0.378    3.139
  326.496   69.100    0.316    0.396    3.142
  326.746   75.411    0.319    0.416    3.107
  326.996   79.426    0.307    0.424    3.075
  327.246   85.078    0.293    0.435    3.063
  327.496   84.159    0.286    0.457    3.012
  327.746   78.486    0.288    0.472    3.009
  327.996   70.212    0.307    0.441    3.000
  328.246   55.850    0.326    0.410    2.864
  328.496   52.048    0.335    0.381    2.803
  328.746   51.824    0.333    0.375    2.810
  328.996   52.692    0.340    0.384    2.808
  329.246   54.746    0.344    0.394    2.871
  329.496   56.727    0.337    0.395    2.928
  329.746   58.887    0.329    0.400    2.924
  329.996   61.446    0.326    0.404    3.006
  330.246   65.541    0.325    0.399    3.103
  330.496   68.374    0.320    0.390    3.308
  330.746   67.487    0.308    0.376    3.495
  330.996   66.837    0.292    0.357    3.671
  331.246   72.733    0.282    0.343    3.828
  331.496   74.080    0.283    0.348    3.805
  331.746   70.371    0.274    0.352    3.544
  331.996   55.538    0.270    0.348    3.187
  332.246   44.462    0.284    0.329    3.014
