~VERSION INFORMATION
 VERS.                 2.0:   CWLS LOG ASCII STANDARD -VERSION 2.0
 WRAP.                  NO:   ONE LINE PER DEPTH STEP
~WELL INFORMATION BLOCK
#MNEM.UNIT           DATA                    DESCRIPTION OF MNEMONIC
#---------    -------------------            -------------------------------
# Generated from Intellog Unique Number	CW_73_75/WELL/2732
WELL.         SUNDANCE MCMORGAN  MARTENH 07- : Well_name    - WELL
LOC .         00/07-28-073-24W4/0            : Location     - LOCATION
UWI .         00/07-28-073-24W4/0            : Uwi          - UNIQUE WELL ID
ENTR.         JAYE                           : Entered      - ENTERED BY
SRVC.         SCHLUMBERGER                   : Scn          - SERVICE COMPANY
DATE.         19 MAR 73                      : Date         - LOG DATE
STRT.M        396.24                         : top_depth    - START DEPTH
STOP.M        624.74                         : bot_depth    - STOP DEPTH
STEP.M        0.25                           : increment    - STEP LENGTH
 NULL. -999.2500:NULL Value
~CURVE INFORMATION BLOCK
#MNEM UNIT       ERCB CURVE CODE    CURVE DESCRIPTION
#-----------   ------------------   ----------------------------------
DEPT.M        00 001 00 00         : DEPTH        - DEPTH
ILD .OHMM     00 120 00 00         : RESD         - DEEP RESISTIVITY (DIL)
NPHI.V/V      00 330 00 00         : PHIN         - NEUTRON POROSITY (SANDSTONE)
DPHI.V/V      00 890 00 00         : PHID         - DENSITY POROSITY (SANDSTONE)
GR  .API      00 310 00 00         : GR           - GAMMA RAY
CALI.MM       00 280 01 00         : CAL          - CALIPER
~PARAMETER INFORMATION
#MNEM.UNIT           DATA             DESCRIPTION OF MNEMONIC
#---------         -----------     ------------------------------
GL  .M        654.558              : gl           - GROUND LEVEL ELEVATION
EREF.M        656.844              : kb           - ELEVATION OF DEPTH REFERENCE
DATM.M        654.558              : datum        - DATUM ELEVATION
TDD .M        630.936              : tdd          - TOTAL DEPTH DRILLER
RUN .         ONE                  : Run          - RUN NUMBER
ENG .         MCLEVIN              : Engineer     - RECORDING ENGINEER
WIT .         LOWTHER              : Witness      - WITNESSED BY
BASE.         RD                   : Branch       - HOME BASE OF LOGGING UNIT
MUD .         GEL                  : Mud_type     - MUD TYPE
MATR.         SANDSTONE            : Logunit      - NEUTRON MATRIX
TMAX.C        28.8889              : BHT          - MAXIMUM RECORDED TEMPERATURE
BHTD.M        631.85               : BHTDEP       - MAXIMUM RECORDED TEMPERATURE
RMT .C        21.1111              : MDTP         - TEMPERATURE OF MUD
MUDD.KG/M     1104                 : MWT          - MUD DENSITY
NEUT.         1                    : NEUTRON      - NEUTRON TYPE
RESI.         0                    : RESIST       - RESISTIVITY TYPE
RM  .OHMM     3.04                 : RM           - RESISTIVITY OF MUD
RMC .OHMM     0                    : RMC          - RESISTIVITY OF MUD CAKE
RMF .OHMM     0                    : RMF          - RESISTIVITY OF MUD FILTRATE
SUFT.C        -17.7778             : SUFT         - SURFACE TEMPERATURE
~A  DEPTH     RESD     PHIN     PHID       GR      CAL
  396.240    2.817    0.569    0.154  109.265  166.367
  396.490    2.812    0.565    0.144  103.467  166.600
  396.740    2.808    0.590    0.129  102.565  170.770
  396.990    2.794    0.602    0.117  105.517  178.360
  397.240    2.794    0.602    0.142  108.103  178.592
  397.490    2.800    0.601    0.159  108.976  177.997
  397.740    2.811    0.592    0.145  108.318  176.572
  397.990    2.828    0.572    0.137  106.070  176.081
  398.240    2.850    0.592    0.146  104.066  176.420
  398.490    2.867    0.599    0.161  103.775  178.111
  398.740    2.884    0.599    0.155  108.807  180.206
  398.990    2.885    0.595    0.126  110.964  182.197
  399.240    2.891    0.588    0.138  110.185  183.571
  399.490    2.887    0.590    0.160  108.671  183.391
  399.740    2.877    0.600    0.160  104.955  181.962
  399.990    2.809    0.595    0.140  103.319  179.298
  400.240    2.733    0.586    0.129  103.700  179.944
  400.490    2.643    0.593    0.128  101.637  182.974
  400.740    2.595    0.601    0.148   98.714  186.419
  400.990    2.635    0.598    0.154   96.100  187.588
  401.240    2.711    0.587    0.178   92.627  182.121
  401.490    2.804    0.546    0.167   88.300  172.927
  401.740    2.895    0.508    0.156   82.504  166.634
  401.990    2.984    0.499    0.167   81.541  171.221
  402.240    3.058    0.524    0.182   82.474  179.536
  402.490    3.076    0.585    0.177   84.019  188.157
  402.740    2.877    0.599    0.164   84.769  183.316
  402.990    2.647    0.600    0.155   86.190  184.794
  403.240    2.372    0.592    0.163   89.266  191.037
  403.490    2.138    0.586    0.177   92.157  194.894
  403.740    2.151    0.578    0.187   89.297  196.264
  403.990    2.379    0.571    0.198   84.479  192.461
  404.240    2.942    0.554    0.189   79.050  186.063
  404.490    3.586    0.541    0.180   71.846  178.836
  404.740    4.132    0.526    0.205   63.786  170.681
  404.990    4.824    0.498    0.181   57.316  165.111
  405.240    4.808    0.489    0.187   53.295  160.376
  405.490    4.591    0.494    0.165   52.700  159.577
  405.740    4.408    0.480    0.215   54.000  159.600
  405.990    4.336    0.472    0.236   56.341  159.934
  406.240    4.281    0.466    0.228   58.374  160.583
  406.490    4.259    0.458    0.210   60.775  161.129
  406.740    4.252    0.464    0.136   63.238  161.463
  406.990    4.238    0.482    0.153   67.230  161.594
  407.240    4.247    0.510    0.204   71.099  161.622
  407.490    4.264    0.515    0.207   69.218  161.541
  407.740    4.290    0.500    0.215   71.624  160.636
  407.990    4.267    0.491    0.189   74.327  159.421
  408.240    4.181    0.477    0.211   79.298  159.549
  408.490    3.761    0.473    0.164   87.389  162.581
  408.740    3.384    0.486    0.138   96.948  165.507
  408.990    3.249    0.499    0.148  105.712  170.195
  409.240    3.380    0.529    0.139  109.949  173.331
  409.490    3.615    0.540    0.144  110.821  173.665
  409.740    3.955    0.512    0.175  102.945  171.826
  409.990    4.286    0.468    0.194   92.928  167.813
  410.240    4.627    0.472    0.221   85.050  163.386
  410.490    4.867    0.490    0.230   76.501  160.408
  410.740    4.970    0.509    0.248   68.257  158.984
  410.990    5.018    0.451    0.236   63.440  158.284
  411.240    5.057    0.431    0.204   68.227  158.311
  411.490    5.115    0.402    0.176   74.666  158.341
  411.740    5.165    0.401    0.174   80.311  159.506
  411.990    5.195    0.409    0.181   83.570  161.190
  412.240    5.197    0.414    0.154   86.583  162.973
  412.490    5.160    0.430    0.135   89.350  167.351
  412.740    5.104    0.528    0.115   89.732  171.418
  412.990    5.002    0.549    0.154   80.696  178.280
  413.240    4.903    0.505    0.158   72.206  183.072
  413.490    4.787    0.473    0.191   62.372  168.699
  413.740    4.674    0.445    0.195   54.924  160.230
  413.990    4.572    0.438    0.208   52.126  158.185
  414.240    4.506    0.418    0.208   55.751  158.114
  414.490    4.524    0.415    0.199   58.642  158.342
  414.740    4.619    0.429    0.174   60.492  158.994
  414.990    4.913    0.393    0.099   64.973  159.225
  415.240    5.236    0.389    0.091   69.577  159.565
  415.490    5.386    0.438    0.115   75.343  159.899
  415.740    5.469    0.461    0.140   80.010  159.409
  415.990    5.330    0.455    0.155   83.083  158.603
  416.240    4.995    0.456    0.170   86.340  157.905
  416.490    4.629    0.473    0.146   90.456  157.310
  416.740    4.545    0.490    0.144   94.387  157.440
  416.990    4.624    0.519    0.135   90.059  162.025
  417.240    4.756    0.490    0.139   81.387  170.750
  417.490    4.901    0.438    0.178   74.672  169.328
  417.740    5.023    0.431    0.175   68.019  164.588
  417.990    5.129    0.427    0.181   72.746  163.683
  418.240    5.208    0.437    0.192   76.433  162.985
  418.490    5.287    0.455    0.167   80.244  161.870
  418.740    5.348    0.446    0.149   83.316  162.003
  418.990    5.410    0.430    0.134   87.857  166.275
  419.240    5.422    0.415    0.174   91.666  171.997
  419.490    5.474    0.410    0.189   84.462  170.368
  419.740    5.466    0.428    0.202   76.035  165.110
  419.990    5.478    0.421    0.212   67.854  161.514
  420.240    5.541    0.423    0.224   62.302  160.189
  420.490    5.743    0.431    0.233   64.520  158.766
  420.740    6.317    0.429    0.216   67.165  157.030
  420.990    7.416    0.423    0.198   65.714  155.297
  421.240    7.933    0.411    0.187   65.609  153.251
  421.490    7.435    0.406    0.187   67.641  150.893
  421.740    6.444    0.432    0.189   69.859  148.435
  421.990    5.690    0.453    0.199   62.657  148.357
  422.240    5.080    0.452    0.199   53.250  152.425
  422.490    4.604    0.426    0.192   44.211  157.733
  422.740    4.035    0.399    0.195   34.621  161.075
  422.990    3.637    0.383    0.232   33.781  162.757
  423.240    3.434    0.360    0.237   39.119  162.474
  423.490    3.460    0.369    0.258   45.498  161.777
  423.740    3.620    0.390    0.240   50.530  160.768
  423.990    3.843    0.399    0.224   54.887  159.859
  424.240    4.035    0.418    0.215   65.731  158.852
  424.490    4.237    0.443    0.198   77.310  158.047
  424.740    4.440    0.462    0.161   84.911  158.282
  424.990    4.662    0.472    0.164   81.378  163.383
  425.240    4.877    0.467    0.146   75.156  170.249
  425.490    5.007    0.453    0.157   72.539  167.786
  425.740    5.065    0.435    0.155   75.185  164.396
  425.990    5.038    0.446    0.186   78.443  162.351
  426.240    4.865    0.473    0.221   83.659  160.825
  426.490    4.352    0.481    0.198   88.813  160.328
  426.740    3.886    0.514    0.190   96.598  160.667
  426.990    3.450    0.547    0.175  105.117  164.526
  427.240    3.075    0.579    0.142  111.863  172.528
  427.490    2.776    0.597    0.132  114.142  190.580
  427.740    2.621    0.610    0.136  112.688  202.104
  427.990    2.564    0.598    0.103  113.378  196.745
  428.240    2.551    0.588    0.109  112.781  187.655
  428.490    2.604    0.595    0.115  112.430  180.948
  428.740    2.649    0.603    0.121  116.605  192.578
  428.990    2.640    0.607    0.097  115.091  192.812
  429.240    2.661    0.599    0.124  119.940  184.755
  429.490    2.830    0.574    0.158  119.283  191.309
  429.740    3.102    0.529    0.159  116.116  193.305
  429.990    3.374    0.497    0.155  110.749  188.460
  430.240    3.732    0.510    0.163  108.746  179.474
  430.490    4.075    0.523    0.145  109.250  174.009
  430.740    4.343    0.464    0.123  109.755  176.418
  430.990    4.509    0.493    0.150  108.302  179.865
  431.240    4.519    0.528    0.141  102.812  180.099
  431.490    4.520    0.546    0.148   94.874  177.849
  431.740    4.573    0.523    0.196   80.758  173.415
  431.990    4.617    0.479    0.203   74.166  163.705
  432.240    4.679    0.472    0.186   73.571  158.343
  432.490    4.733    0.478    0.198   71.444  155.575
