~VERSION INFORMATION
 VERS.                 2.0:   CWLS LOG ASCII STANDARD -VERSION 2.0
 WRAP.                  NO:   ONE LINE PER DEPTH STEP
~WELL INFORMATION BLOCK
#MNEM.UNIT           DATA                    DESCRIPTION OF MNEMONIC
#---------    -------------------            -------------------------------
# Generated from Intellog Unique Number	CS_67_68/WELL/799
WELL.         DOME PETROLEUM LIMITED         : Well_name    - WELL
LOC .         00/09-11-068-02W4/0            : Location     - LOCATION
UWI .         00/09-11-068-02W4/0            : Uwi          - UNIQUE WELL ID
ENTR.         SP                             : Entered      - ENTERED BY
SRVC.         SCHLUMBERGER                   : Scn          - SERVICE COMPANY
STRT.M        350                            : top_depth    - START DEPTH
STOP.M        605                            : bot_depth    - STOP DEPTH
STEP.M        0.25                           : increment    - STEP LENGTH
 NULL. -999.2500:NULL Value
~CURVE INFORMATION BLOCK
#MNEM UNIT       ERCB CURVE CODE    CURVE DESCRIPTION
#-----------   ------------------   ----------------------------------
DEPT.M        00 001 00 00         : DEPTH        - DEPTH
ILD .OHMM     00 120 00 00         : RESD         - DEEP RESISTIVITY (DIL)
DPHI.V/V      00 890 00 00         : PHID         - DENSITY POROSITY (LIMESTONE)
NPHI.V/V      00 330 00 00         : PHIN         - NEUTRON POROSITY (LIMESTONE)
GR  .API      00 310 00 00         : GR           - GAMMA RAY
~PARAMETER INFORMATION
#MNEM.UNIT           DATA             DESCRIPTION OF MNEMONIC
#---------         -----------     ------------------------------
GL  .M        681.9                : gl           - GROUND LEVEL ELEVATION
EREF.M        686                  : kb           - ELEVATION OF DEPTH REFERENCE
DATM.M        681.9                : datum        - DATUM ELEVATION
TDD .M        609                  : tdd          - TOTAL DEPTH DRILLER
RUN .         ONE                  : Run          - RUN NUMBER
ENG .         BILL                 : Engineer     - RECORDING ENGINEER
WIT .         JIM                  : Witness      - WITNESSED BY
MUD .         GEL                  : Mud_type     - MUD TYPE
MATR.         LIMESTONE            : Logunit      - NEUTRON MATRIX
TMAX.C        21.1                 : BHT          - MAXIMUM RECORDED TEMPERATURE
BHTD.M        609                  : BHTDEP       - MAXIMUM RECORDED TEMPERATURE
MATR.         1                    : LOGUNIT      - NEUTRON MATRIX
RMT .C        25                   : MDTP         - TEMPERATURE OF MUD
NEUT.         1                    : NEUTRON      - NEUTRON TYPE
RESI.         0                    : RESIST       - RESISTIVITY TYPE
RMC .OHMM     0.25                 : RMC          - RESISTIVITY OF MUD CAKE
RMF .OHMM     0.25                 : RMF          - RESISTIVITY OF MUD FILTRATE
SUFT.C        15                   : SUFT         - SURFACE TEMPERATURE
~A  DEPTH     RESD     PHID     PHIN       GR
# ...
  524.000    6.453    0.323    0.402   65.509
  524.250    6.931    0.323    0.395   68.053
  524.500    7.431    0.310    0.407   69.931
  524.750    7.894    0.300    0.402   71.504
  525.000    8.199    0.292    0.405   73.076
  525.250    8.325    0.315    0.411   73.066
  525.500    8.537    0.323    0.416   69.162
  525.750    8.575    0.318    0.403   66.718
  526.000    8.583    0.315    0.394   68.353
  526.250    8.638    0.316    0.386   70.230
  526.500    8.740    0.319    0.389   67.360
  526.750    8.861    0.309    0.390   70.574
  527.000    9.106    0.305    0.401   73.180
  527.250    9.161    0.303    0.394   74.266
  527.500    9.202    0.307    0.379   74.927
  527.750    9.278    0.300    0.375   75.162
  528.000    9.269    0.296    0.382   75.456
  528.250    9.206    0.292    0.391   75.507
  528.500    9.162    0.278    0.400   72.698
  528.750    9.017    0.257    0.390   65.751
  529.000    8.842    0.232    0.377   58.926
  529.250    8.800    0.236    0.347   55.813
  529.500    8.822    0.254    0.313   59.819
  529.750    8.928    0.266    0.348   65.773
  530.000    9.019    0.270    0.373   71.241
  530.250    9.093    0.271    0.390   75.916
  530.500    9.170    0.280    0.389   79.740
  530.750    9.158    0.282    0.381   84.051
  531.000    9.048    0.275    0.380   86.780
  531.250    8.839    0.265    0.384   80.198
  531.500    8.602    0.259    0.392   68.688
  531.750    8.373    0.303    0.423   51.944
  532.000    8.348    0.331    0.466   42.258
  532.250    8.432    0.330    0.404   36.103
  532.500    8.517    0.312    0.339   27.331
  532.750    8.619    0.310    0.320   27.562
  533.000    8.658    0.308    0.319   30.354
  533.250    8.665    0.299    0.331   34.239
  533.500    8.672    0.288    0.335   35.750
  533.750    8.535    0.284    0.326   37.931
  534.000    8.338    0.277    0.320   52.952
  534.250    8.100    0.239    0.339   75.701
  534.500    7.826    0.195    0.352   89.627
  534.750    7.659    0.173    0.364   96.979
  535.000    7.510    0.175    0.372  102.140
  535.250    7.379    0.182    0.388  105.540
  535.500    7.184    0.192    0.415  109.730
  535.750    7.042    0.193    0.420  113.798
  536.000    6.890    0.190    0.433  117.438
  536.250    6.521    0.198    0.451  119.985
  536.500    6.138    0.216    0.463  122.531
  536.750    5.832    0.219    0.494  120.878
  537.000    5.571    0.211    0.503  116.790
  537.250    5.373    0.203    0.489  114.774
  537.500    5.249    0.197    0.476  113.120
  537.750    5.223    0.194    0.464  110.859
  538.000    5.218    0.200    0.457  109.329
  538.250    5.193    0.205    0.450  108.894
  538.500    5.150    0.202    0.471  110.039
  538.750    5.086    0.218    0.502  111.187
  539.000    4.968    0.219    0.526  111.724
  539.250    4.819    0.201    0.494  112.628
  539.500    4.795    0.188    0.465  114.383
  539.750    4.790    0.183    0.452  115.895
  540.000    4.821    0.189    0.476  114.181
  540.250    4.842    0.195    0.491  114.049
  540.500    4.900    0.201    0.491  114.222
  540.750    4.941    0.204    0.479  113.968
  541.000    4.972    0.197    0.467  113.290
  541.250    5.013    0.203    0.456  111.881
  541.500    5.083    0.206    0.450  110.897
  541.750    5.192    0.194    0.448  110.584
  542.000    5.284    0.183    0.462  111.000
  542.250    5.407    0.179    0.474  112.572
  542.500    5.617    0.181    0.462  113.353
  542.750    5.779    0.182    0.473  108.416
  543.000    6.059    0.191    0.469   99.765
  543.250    6.557    0.175    0.434   97.747
  543.500    6.977    0.174    0.399   97.797
  543.750    7.246    0.191    0.398   98.397
  544.000    7.416    0.207    0.401   99.361
  544.250    7.476    0.188    0.397  102.151
  544.500    7.156    0.175    0.409  105.427
  544.750    6.686    0.173    0.432   99.697
  545.000    6.305    0.209    0.446   77.051
  545.250    5.969    0.239    0.436   70.287
  545.500    5.630    0.259    0.403   54.942
  545.750    5.508    0.291    0.375   42.336
  546.000    5.371    0.313    0.352   29.913
  546.250    5.228    0.323    0.332   29.051
  546.500    5.156    0.318    0.328   28.918
  546.750    5.130    0.312    0.326   28.483
  547.000    5.069    0.317    0.324   28.474
  547.250    5.071    0.313    0.324   29.133
  547.500    5.020    0.307    0.328   29.793
  547.750    4.979    0.300    0.329   30.332
  548.000    4.927    0.296    0.328   30.322
  548.250    4.885    0.308    0.340   28.304
  548.500    4.860    0.322    0.345   27.321
  548.750    4.801    0.330    0.339   28.467
  549.000    4.699    0.328    0.331   29.978
  549.250    4.624    0.323    0.338   30.395
  549.500    4.559    0.328    0.348   30.082
  549.750    4.504    0.335    0.352   30.375
  550.000    4.482    0.331    0.353   32.983
  550.250    4.462    0.328    0.358   36.745
  550.500    4.457    0.323    0.367   40.935
  550.750    4.443    0.316    0.372   42.203
  551.000    4.438    0.311    0.368   36.048
  551.250    4.467    0.305    0.373   30.318
  551.500    4.462    0.310    0.384   27.449
  551.750    4.449    0.317    0.371   29.446
  552.000    4.420    0.322    0.355   30.532
  552.250    4.391    0.331    0.348   30.280
  552.500    4.362    0.325    0.338   31.364
  552.750    4.309    0.323    0.328   33.303
  553.000    4.288    0.330    0.344   37.672
  553.250    4.268    0.334    0.362   39.430
  553.500    4.239    0.333    0.370   39.664
  553.750    4.211    0.324    0.366   31.622
  554.000    4.207    0.317    0.349   30.028
  554.250    4.219    0.312    0.340   33.427
  554.500    4.229    0.319    0.339   37.433
  554.750    4.256    0.317    0.349   42.411
  555.000    4.283    0.288    0.359   45.264
  555.250    4.320    0.281    0.369   48.114
  555.500    4.363    0.293    0.360   51.330
  555.750    4.422    0.305    0.348   56.129
  556.000    4.568    0.293    0.344   62.508
  556.250    4.701    0.277    0.381   56.229
  556.500    4.784    0.286    0.402   49.587
  556.750    4.905    0.300    0.388   40.998
  557.000    4.992    0.313    0.372   33.869
  557.250    5.004    0.329    0.359   30.755
  557.500    4.963    0.337    0.350   29.224
  557.750    4.776    0.333    0.355   30.067
  558.000    4.546    0.327    0.367   30.971
  558.250    4.441    0.334    0.360   28.648
  558.500    4.362    0.336    0.354   26.569
  558.750    4.318    0.331    0.351   26.193
  559.000    4.305    0.333    0.348   27.766
  559.250    4.310    0.335    0.338   28.974
  559.500    4.312    0.321    0.325   30.426
  559.750    4.380    0.305    0.318   32.056
  560.000    4.482    0.297    0.321   32.232
  560.250    4.621    0.288    0.334   31.918
  560.500    4.764    0.264    0.352   30.813
  560.750    4.948    0.241    0.331   27.699
  561.000    5.324    0.240    0.313   28.420
  561.250    5.708    0.250    0.300   35.591
  561.500    5.973    0.241    0.282   72.215
  561.750    6.285    0.224    0.269   84.375
  562.000    6.553    0.213    0.275   91.850
  562.250    6.922    0.205    0.291   96.587
  562.500    7.161    0.196    0.303  100.046
  562.750    7.580    0.192    0.314   98.514
  563.000    7.784    0.196    0.323   96.862
  563.250    7.996    0.202    0.321   95.696
  563.500    8.077    0.204    0.317   97.452
  563.750    8.083    0.194    0.316   98.477
  564.000    8.075    0.187    0.319   93.110
  564.250    8.080    0.183    0.326   89.816
  564.500    8.072    0.189    0.325   91.205
  564.750    8.069    0.195    0.328   90.284
  565.000    8.090    0.203    0.332   85.405
  565.250    8.094    0.219    0.336   85.822
  565.500    8.098    0.226    0.342   88.429
  565.750    8.059    0.221    0.349   90.609
  566.000    8.006    0.219    0.354   87.314
  566.250    7.953    0.213    0.347   85.783
  566.500    7.914    0.208    0.341   84.128
  566.750    7.818    0.201    0.344   83.330
  567.000    7.767    0.196    0.355   82.102
  567.250    7.715    0.205    0.339   80.389
