~VERSION INFORMATION
 VERS.                 2.0:   CWLS LOG ASCII STANDARD -VERSION 2.0
 WRAP.                  NO:   ONE LINE PER DEPTH STEP
~WELL INFORMATION BLOCK
#MNEM.UNIT           DATA                    DESCRIPTION OF MNEMONIC
#---------    -------------------            -------------------------------
# Generated from Intellog Unique Number	CS_77_79/WELL/881
WELL.         DOME PETROLEUM LIMITED         : Well_name    - WELL
LOC .         00/06-24-077-16W4/0            : Location     - LOCATION
UWI .         00/06-24-077-16W4/0            : Uwi          - UNIQUE WELL ID
ENTR.         SP                             : Entered      - ENTERED BY
SRVC.         SCHLUMBERGER                   : Scn          - SERVICE COMPANY
STRT.M        260                            : top_depth    - START DEPTH
STOP.M        485                            : bot_depth    - STOP DEPTH
STEP.M        0.25                           : increment    - STEP LENGTH
 NULL. -999.2500:NULL Value
~CURVE INFORMATION BLOCK
#MNEM UNIT       ERCB CURVE CODE    CURVE DESCRIPTION
#-----------   ------------------   ----------------------------------
DEPT.M        00 001 00 00         : DEPTH        - DEPTH
ILD .OHMM     00 120 00 00         : RESD         - DEEP RESISTIVITY (DIL)
DPHI.V/V      00 890 00 00         : PHID         - DENSITY POROSITY (LIMESTONE)
NPHI.V/V      00 330 00 00         : PHIN         - NEUTRON POROSITY (LIMESTONE)
GR  .API      00 310 00 00         : GR           - GAMMA RAY
~PARAMETER INFORMATION
#MNEM.UNIT           DATA             DESCRIPTION OF MNEMONIC
#---------         -----------     ------------------------------
GL  .M        653.8                : gl           - GROUND LEVEL ELEVATION
EREF.M        657.6                : kb           - ELEVATION OF DEPTH REFERENCE
DATM.M        653.8                : datum        - DATUM ELEVATION
TDD .M        499                  : tdd          - TOTAL DEPTH DRILLER
RUN .         ONE                  : Run          - RUN NUMBER
ENG .         BILL                 : Engineer     - RECORDING ENGINEER
WIT .         JIM                  : Witness      - WITNESSED BY
MUD .         GEL                  : Mud_type     - MUD TYPE
MATR.         LIMESTONE            : Logunit      - NEUTRON MATRIX
TMAX.C        21                   : BHT          - MAXIMUM RECORDED TEMPERATURE
BHTD.M        499                  : BHTDEP       - MAXIMUM RECORDED TEMPERATURE
MATR.         1                    : LOGUNIT      - NEUTRON MATRIX
RMT .C        25                   : MDTP         - TEMPERATURE OF MUD
NEUT.         1                    : NEUTRON      - NEUTRON TYPE
RESI.         0                    : RESIST       - RESISTIVITY TYPE
RMC .OHMM     0.25                 : RMC          - RESISTIVITY OF MUD CAKE
RMF .OHMM     0.25                 : RMF          - RESISTIVITY OF MUD FILTRATE
SUFT.C        15                   : SUFT         - SURFACE TEMPERATURE
~A  DEPTH     RESD     PHID     PHIN       GR
  260.000    2.550    0.284    0.476  102.418
  260.250    2.599    0.285    0.478  103.633
  260.500    2.650    0.270    0.482  105.448
  260.750    2.650    0.260    0.487  107.266
  261.000    2.602    0.260    0.490  108.482
  261.250    2.604    0.262    0.499  108.490
  261.500    2.654    0.254    0.500  106.692
  261.750    2.655    0.246    0.499  103.088
  262.000    2.758    0.253    0.500  100.688
  262.250    2.758    0.253    0.500  103.108
  262.500    2.811    0.258    0.500  103.723
  262.750    2.920    0.265    0.499  105.539
  263.000    2.977    0.261    0.490  111.571
  263.250    3.034    0.243    0.478  108.573
  263.500    3.035    0.216    0.472  106.169
  263.750    3.093    0.198    0.469  101.962
  264.000    3.153    0.182    0.477  100.165
  264.250    3.214    0.202    0.489  100.782
  264.500    3.276    0.233    0.485  101.391
  264.750    3.277    0.244    0.478  106.221
  265.000    3.341    0.249    0.469  111.653
  265.250    3.342    0.244    0.463  112.867
  265.500    3.406    0.246    0.457  110.466
  265.750    3.537    0.244    0.451  105.056
  266.000    3.744    0.238    0.450  108.080
  266.250    3.746    0.245    0.451  108.689
  266.500    3.817    0.246    0.440  106.292
  266.750    3.819    0.243    0.440  100.276
  267.000    3.749    0.233    0.453   97.276
  267.250    3.681    0.239    0.465  103.913
  267.500    3.170    0.248    0.476  106.332
  267.750    3.355    0.256    0.481  106.341
  268.000    3.420    0.266    0.493  104.542
  268.250    3.421    0.273    0.503  103.952
  268.500    3.423    0.271    0.510  104.569
  268.750    3.488    0.243    0.507  105.181
  269.000    3.490    0.232    0.459  105.190
  269.250    3.491    0.227    0.451  105.801
  269.500    3.559    0.229    0.442  105.812
  269.750    3.628    0.216    0.442  105.820
  270.000    3.629    0.224    0.446  105.827
  270.250    3.699    0.227    0.449  105.838
  270.500    3.770    0.220    0.449  105.245
  270.750    3.843    0.228    0.452  103.450
  271.000    4.066    0.224    0.450   99.843
  271.250    4.467    0.195    0.416   93.230
  271.500    5.000    0.225    0.397   89.623
  271.750    5.597    0.233    0.381   87.222
  272.000    5.922    0.248    0.383   84.824
  272.250    5.925    0.286    0.398   83.627
  272.500    5.604    0.280    0.403   86.651
  272.750    4.827    0.265    0.414   92.685
  273.000    4.480    0.260    0.422  101.130
  273.250    4.317    0.257    0.438  107.167
  273.500    4.083    0.242    0.451  109.582
  273.750    4.084    0.241    0.465  112.002
  274.000    4.163    0.237    0.462  113.218
  274.250    5.022    0.218    0.459  109.613
  274.500    5.837    0.224    0.446   98.781
  274.750    6.061    0.231    0.422   94.572
  275.000    7.043    0.237    0.397   92.173
  275.250    8.184    0.242    0.368   90.977
  275.500    9.160    0.218    0.351   89.782
  275.750    9.693    0.174    0.344   88.587
  276.000    9.168    0.172    0.351   84.380
  276.250    8.671    0.172    0.371   86.803
  276.500    8.200    0.196    0.382   94.043
  276.750    7.470    0.233    0.401  101.885
  277.000    6.934    0.226    0.411  104.903
  277.250    6.808    0.233    0.416  102.505
  277.500    7.621    0.238    0.399   99.504
  277.750    9.195    0.285    0.380   94.693
  278.000   10.101    0.316    0.366   85.665
  278.250   10.889    0.327    0.356   76.038
  278.500   11.961    0.337    0.352   71.829
  278.750   12.658    0.339    0.355   69.433
  279.000   13.395    0.339    0.366   70.645
  279.250   12.203    0.329    0.378   74.277
  279.500   11.117    0.311    0.388   76.695
  279.750   10.319    0.299    0.398   79.713
  280.000    9.759    0.296    0.408   87.555
  280.250    9.762    0.289    0.412   91.780
  280.500    9.951    0.291    0.403   92.996
  280.750   10.146    0.305    0.402   93.005
  281.000   10.341    0.319    0.402   92.414
  281.250   10.345    0.324    0.408   91.820
  281.500   10.544    0.318    0.414   91.830
  281.750   10.549    0.312    0.417   91.841
  282.000   10.553    0.307    0.410   92.455
  282.250   10.556    0.306    0.401   93.067
  282.500   10.560    0.307    0.392   93.077
  282.750   10.565    0.307    0.390   93.687
  283.000   10.568    0.302    0.398   93.097
  283.250   10.976    0.296    0.401   91.301
  283.500   10.979    0.290    0.402   91.913
  283.750   10.984    0.280    0.387   91.920
  284.000   11.198    0.265    0.370   91.330
  284.250   11.201    0.274    0.355   87.724
  284.500   11.416    0.288    0.340   75.084
  284.750   11.637    0.305    0.329   67.261
  285.000   12.085    0.321    0.337   59.439
  285.250   12.552    0.329    0.350   52.822
  285.500   12.793    0.364    0.360   48.013
  285.750   12.799    0.349    0.354   43.807
  286.000   12.806    0.341    0.339   39.602
  286.250   12.809    0.344    0.344   39.008
  286.500   12.815    0.348    0.347   37.816
  286.750   12.818    0.349    0.345   37.220
  287.000   12.353    0.353    0.353   35.426
  287.250   12.130    0.359    0.361   34.231
  287.500   11.689    0.359    0.353   34.238
  287.750   11.475    0.355    0.349   34.853
  288.000   11.059    0.348    0.360   36.668
  288.250   10.655    0.326    0.371   40.292
  288.500    9.892    0.297    0.382   51.146
  288.750    9.711    0.292    0.393   63.809
  289.000    9.015    0.290    0.401   73.458
  289.250    8.851    0.283    0.410   79.491
  289.500    8.064    0.287    0.418   83.114
  289.750    7.769    0.281    0.432   88.546
  290.000    7.078    0.264    0.445   95.788
  290.250    6.211    0.257    0.461  102.423
  290.500    5.349    0.229    0.473  106.048
  290.750    5.059    0.215    0.481  103.650
  291.000    4.609    0.173    0.483  104.866
  291.250    4.441    0.183    0.481  106.077
  291.500    4.200    0.195    0.479  110.911
  291.750    4.124    0.201    0.475  112.724
  292.000    4.049    0.196    0.474  115.747
  292.250    4.051    0.196    0.480  113.952
  292.500    4.053    0.205    0.486  112.754
  292.750    3.979    0.217    0.488  112.161
  293.000    3.834    0.232    0.490  116.391
  293.250    3.764    0.241    0.479  118.811
  293.500    3.983    0.238    0.462  118.819
  293.750    4.376    0.244    0.452  117.022
  294.000    5.182    0.247    0.438  114.623
  294.250    5.909    0.253    0.421  113.426
  294.500    6.370    0.260    0.403  111.631
  294.750    7.265    0.253    0.390  109.837
  295.000    7.982    0.242    0.393  109.240
  295.250    8.136    0.239    0.399  107.445
  295.500    7.988    0.251    0.408  105.047
  295.750    7.416    0.262    0.419  103.851
  296.000    7.280    0.274    0.429  101.449
  296.250    6.886    0.261    0.433   99.049
  296.500    6.761    0.243    0.431  105.085
  296.750    7.022    0.233    0.424  111.118
  297.000    7.157    0.228    0.414  112.332
  297.250    7.716    0.232    0.410  106.924
  297.500    8.477    0.246    0.409  103.917
  297.750    9.140    0.257    0.408   98.509
  298.000    9.315    0.265    0.409   97.914
  298.250    9.320    0.276    0.412  100.336
  298.500    8.981    0.283    0.415  100.946
  298.750    8.817    0.290    0.415  103.366
  299.000    8.497    0.296    0.411  106.991
  299.250    8.188    0.271    0.408  105.797
  299.500    8.190    0.252    0.405  104.001
  299.750    8.194    0.244    0.398  105.216
  300.000    8.198    0.240    0.394  107.637
  300.250    8.050    0.233    0.396  107.642
  300.500    8.052    0.233    0.395  105.846
  300.750    8.056    0.238    0.392  102.244
  301.000    8.058    0.236    0.390   98.637
  301.250    8.213    0.253    0.390   90.816
  301.500    8.372    0.272    0.391   86.609
  301.750    8.534    0.289    0.394   83.606
  302.000    8.538    0.305    0.399   78.196
  302.250    8.702    0.317    0.401   80.615
  302.500    8.706    0.311    0.395   84.238
  302.750    8.709    0.311    0.383   84.851
  303.000    9.216    0.295    0.372   80.645
  303.250    9.751    0.279    0.355   75.835
