~VERSION INFORMATION
 VERS.                 2.0:   CWLS LOG ASCII STANDARD -VERSION 2.0
 WRAP.                  NO:   ONE LINE PER DEPTH STEP
~WELL INFORMATION BLOCK
#MNEM.UNIT           DATA                    DESCRIPTION OF MNEMONIC
#---------    -------------------            -------------------------------
# Generated from Intellog Unique Number	CS_69_70/WELL/838
WELL.         PARAMOUNT RESOURCES LTD        : Well_name    - WELL
LOC .         00/07-18-070-17W4/0            : Location     - LOCATION
UWI .         00/07-18-070-17W4/0            : Uwi          - UNIQUE WELL ID
ENTR.         SP                             : Entered      - ENTERED BY
SRVC.         SCHLUMBERGER                   : Scn          - SERVICE COMPANY
STRT.M        275                            : top_depth    - START DEPTH
STOP.M        445                            : bot_depth    - STOP DEPTH
STEP.M        0.25                           : increment    - STEP LENGTH
 NULL. -999.2500:NULL Value
~CURVE INFORMATION BLOCK
#MNEM UNIT       ERCB CURVE CODE    CURVE DESCRIPTION
#-----------   ------------------   ----------------------------------
DEPT.M        00 001 00 00         : DEPTH        - DEPTH
ILD .OHMM     00 120 00 00         : RESD         - DEEP RESISTIVITY (DIL)
GR  .API      00 310 00 00         : GR           - GAMMA RAY
NPHI.V/V      00 330 00 00         : PHIN         - NEUTRON POROSITY (LIMESTONE)
DPHI.V/V      00 890 00 00         : PHID         - DENSITY POROSITY (LIMESTONE)
~PARAMETER INFORMATION
#MNEM.UNIT           DATA             DESCRIPTION OF MNEMONIC
#---------         -----------     ------------------------------
GL  .M        554.2                : gl           - GROUND LEVEL ELEVATION
EREF.M        557.2                : kb           - ELEVATION OF DEPTH REFERENCE
DATM.M        554.2                : datum        - DATUM ELEVATION
TDD .M        446                  : tdd          - TOTAL DEPTH DRILLER
RUN .         ONE                  : Run          - RUN NUMBER
ENG .         BILL                 : Engineer     - RECORDING ENGINEER
WIT .         JIM                  : Witness      - WITNESSED BY
MUD .         GEL                  : Mud_type     - MUD TYPE
MATR.         LIMESTONE            : Logunit      - NEUTRON MATRIX
TMAX.C        22                   : BHT          - MAXIMUM RECORDED TEMPERATURE
BHTD.M        446                  : BHTDEP       - MAXIMUM RECORDED TEMPERATURE
MATR.         1                    : LOGUNIT      - NEUTRON MATRIX
RMT .C        25                   : MDTP         - TEMPERATURE OF MUD
NEUT.         1                    : NEUTRON      - NEUTRON TYPE
RESI.         0                    : RESIST       - RESISTIVITY TYPE
RMC .OHMM     0.25                 : RMC          - RESISTIVITY OF MUD CAKE
RMF .OHMM     0.25                 : RMF          - RESISTIVITY OF MUD FILTRATE
SUFT.C        15                   : SUFT         - SURFACE TEMPERATURE
~A  DEPTH     RESD       GR     PHIN     PHID
# ...
  405.500    2.605  105.196    0.522    0.267
  405.750    2.802  107.562    0.502    0.259
  406.000    3.037  107.564    0.481    0.238
  406.250    3.267  105.443    0.454    0.218
  406.500    3.424  106.172    0.442    0.226
  406.750    3.556  106.295    0.449    0.214
  407.000    3.638  105.326    0.459    0.199
  407.250    3.652  104.903    0.466    0.188
  407.500    3.730  108.421    0.455    0.203
  407.750    3.953  109.939    0.448    0.218
  408.000    4.197  104.847    0.446    0.229
  408.250    4.448   98.664    0.444    0.218
  408.500    4.820   92.118    0.458    0.216
  408.750    5.118   84.419    0.443    0.222
  409.000    5.434   83.208    0.412    0.212
  409.250    5.653   86.544    0.400    0.226
  409.500    5.761   88.728    0.404    0.246
  409.750    5.402   88.730    0.408    0.247
  410.000    5.167  111.525    0.414    0.241
  410.250    4.835  116.264    0.420    0.244
  410.500    4.516  115.797    0.417    0.215
  410.750    4.402  115.810    0.405    0.195
  411.000    4.338  118.310    0.398    0.179
  411.250    4.317  119.777    0.392    0.200
  411.500    4.425  118.340    0.397    0.195
  411.750    4.526  113.573    0.403    0.189
  412.000    4.587  109.351    0.408    0.192
  412.250    4.640  108.398    0.412    0.174
  412.500    4.712  107.627    0.416    0.179
  412.750    4.742  105.039    0.419    0.185
  413.000    4.735  103.359    0.413    0.186
  413.250    4.720  104.707    0.402    0.179
  413.500    4.694  106.783    0.411    0.183
  413.750    4.417  104.982    0.401    0.195
  414.000    4.452  104.452    0.394    0.194
  414.250    4.487  107.919    0.391    0.189
  414.500    4.540  109.812    0.396    0.184
  414.750    4.558  109.222    0.397    0.185
  415.000    4.637  107.422    0.383    0.196
  415.250    4.726  109.378    0.384    0.191
  415.500    4.872  110.289    0.381    0.182
  415.750    5.011  113.201    0.379    0.172
  416.000    5.481  114.960    0.392    0.159
  416.250    6.131  116.053    0.410    0.148
  416.500    7.251  117.510    0.382    0.129
  416.750    8.418  107.204    0.312    0.102
  417.000    9.451  101.567    0.294    0.108
  417.250    9.979   94.596    0.349    0.147
  417.500   10.189   85.139    0.373    0.192
  417.750   10.118   85.746    0.382    0.190
  418.000    9.899   84.839    0.368    0.167
  418.250    9.758   81.930    0.357    0.173
  418.500    9.798   81.446    0.327    0.174
  418.750   10.061   79.629    0.293    0.082
  419.000   10.255   77.690    0.280    0.068
  419.250   10.183   78.298    0.274    0.058
  419.500    8.634   79.088    0.273    0.078
  419.750    7.499   85.152    0.288    0.126
  420.000    6.490   94.855    0.307    0.159
  420.250    5.839  101.829    0.334    0.188
  420.500    5.264  102.255    0.375    0.200
  420.750    4.719  100.923    0.392    0.194
  421.000    4.334  100.015    0.384    0.177
  421.250    4.018   99.834    0.399    0.170
  421.500    3.602  101.352    0.418    0.181
  421.750    3.094  102.445    0.412    0.206
  422.000    2.662  105.417    0.409    0.219
  422.250    2.356  106.389    0.430    0.236
  422.500    2.370  106.572    0.446    0.251
  422.750    2.746  103.724    0.473    0.256
  423.000    3.460   99.056    0.519    0.260
  423.250    4.138   92.752    0.517    0.275
  423.500    5.233   88.267    0.470    0.189
  423.750    6.155   86.450    0.433    0.162
  424.000    6.499   86.936    0.396    0.145
  424.250    6.418   86.817    0.357    0.133
  424.500    5.994   83.423    0.327    0.124
  424.750    5.304   80.271    0.317    0.138
  425.000    4.693   84.699    0.317    0.142
  425.250    4.342   95.553    0.341    0.129
  425.500    4.654   99.375    0.388    0.146
  425.750    5.006   97.436    0.415    0.183
  426.000    5.476   93.375    0.424    0.184
  426.250    6.012   88.162    0.417    0.175
  426.500    6.360   86.709    0.405    0.175
  426.750    6.555   87.559    0.396    0.197
  427.000    6.534   89.258    0.384    0.163
  427.250    6.333   90.776    0.370    0.137
  427.500    6.094   92.232    0.357    0.114
  427.750    5.884   93.143    0.364    0.141
  428.000    5.619   96.662    0.378    0.152
  428.250    5.142  104.424    0.362    0.152
  428.500    4.567  111.398    0.370    0.182
  428.750    4.133  115.340    0.392    0.207
  429.000    3.917  117.404    0.403    0.220
  429.250    3.818  118.557    0.402    0.171
  429.500    3.750  118.923    0.404    0.153
  429.750    3.765  118.076    0.412    0.152
  430.000    3.781  117.349    0.423    0.156
  430.250    3.797  115.775    0.432    0.159
  430.500    3.805  115.048    0.430    0.160
  430.750    3.786  114.443    0.422    0.159
  431.000    3.746  112.019    0.430    0.159
  431.250    3.726  108.989    0.443    0.159
  431.500    3.666  106.323    0.451    0.194
  431.750    3.607  106.688    0.432    0.186
  432.000    3.516  108.145    0.428    0.177
  432.250    3.460  108.753    0.437    0.178
  432.500    3.416  107.117    0.434    0.155
  432.750    3.411  110.029    0.435    0.164
  433.000    3.406  112.820    0.430    0.170
  433.250    3.433  115.065    0.427    0.184
  433.500    3.558  113.550    0.432    0.174
  433.750    3.667  111.126    0.439    0.151
  434.000    3.801  110.340    0.425    0.150
  434.250    3.859  112.039    0.414    0.151
  434.500    3.890  114.466    0.409    0.174
  434.750    3.834  115.983    0.418    0.186
  435.000    3.668  118.107    0.414    0.189
  435.250    3.388  122.959    0.413    0.179
  435.500    3.200  126.113    0.427    0.192
  435.750    3.177  127.630    0.444    0.195
  436.000    3.299  127.207    0.458    0.201
  436.250    3.458  121.510    0.455    0.164
  436.500    3.570  109.930    0.425    0.126
  436.750    3.618  111.933    0.389    0.100
  437.000    3.567  122.545    0.393    0.160
  437.250    3.312  129.640    0.414    0.202
  437.500    3.076  134.371    0.434    0.216
  437.750    2.954  136.010    0.448    0.210
  438.000    2.967  136.557    0.461    0.199
  438.250    3.098  135.891    0.452    0.199
  438.500    3.345  134.498    0.448    0.195
  438.750    3.776  132.014    0.453    0.184
  439.000    4.200  118.858    0.443    0.177
  439.250    4.594  111.827    0.422    0.185
  439.500    4.988  111.646    0.406    0.183
  439.750    5.487  112.982    0.392    0.171
  440.000    6.013  113.589    0.381    0.177
  440.250    6.589  104.436    0.359    0.169
  440.500    7.289   91.341    0.331    0.188
  440.750    8.003   86.189    0.314    0.213
  441.000    8.294   92.860    0.303    0.226
  441.250    8.437   97.409    0.294    0.146
  441.500    8.394  102.200    0.325    0.099
  441.750    8.197  104.384    0.346    0.073
  442.000    7.975  104.749    0.360    0.042
  442.250    7.789  102.508    0.373    0.077
  442.500    7.763   96.325    0.385    0.061
  442.750    7.767   95.477    0.387    0.070
  443.000    7.784   94.569    0.380    0.079
  443.250    7.817   91.600    0.367    0.072
  443.500    7.777   90.146    0.351    0.090
  443.750    7.496   89.178    0.331    0.093
  444.000    7.226   88.634    0.314    0.078
  444.250    7.096   89.848    0.313    0.072
  444.500    7.007   90.274    0.326    0.105
  444.750    6.893   90.518    0.362    0.128
  445.000    6.633   90.277    0.385    0.117
