~VERSION INFORMATION
 VERS.                 2.0:   CWLS LOG ASCII STANDARD -VERSION 2.0
 WRAP.                  NO:   ONE LINE PER DEPTH STEP
~WELL INFORMATION BLOCK
#MNEM.UNIT           DATA                    DESCRIPTION OF MNEMONIC
#---------    -------------------            -------------------------------
# Generated from Intellog Unique Number	CS_77_79/WELL/907
WELL.         HOME OIL COMPANY LIMITED       : Well_name    - WELL
LOC .         00/07-25-077-06W4/0            : Location     - LOCATION
UWI .         00/07-25-077-06W4/0            : Uwi          - UNIQUE WELL ID
ENTR.         SP                             : Entered      - ENTERED BY
SRVC.         SCHLUMBERGER                   : Scn          - SERVICE COMPANY
STRT.M        145                            : top_depth    - START DEPTH
STOP.M        420                            : bot_depth    - STOP DEPTH
STEP.M        0.25                           : increment    - STEP LENGTH
 NULL. -999.2500:NULL Value
~CURVE INFORMATION BLOCK
#MNEM UNIT       ERCB CURVE CODE    CURVE DESCRIPTION
#-----------   ------------------   ----------------------------------
DEPT.M        00 001 00 00         : DEPTH        - DEPTH
ILD .OHMM     00 120 00 00         : RESD         - DEEP RESISTIVITY (DIL)
DPHI.V/V      00 890 00 00         : PHID         - DENSITY POROSITY (LIMESTONE)
NPHI.V/V      00 330 00 00         : PHIN         - NEUTRON POROSITY (LIMESTONE)
GR  .API      00 310 00 00         : GR           - GAMMA RAY
~PARAMETER INFORMATION
#MNEM.UNIT           DATA             DESCRIPTION OF MNEMONIC
#---------         -----------     ------------------------------
GL  .M        565.83               : gl           - GROUND LEVEL ELEVATION
EREF.M        568.85               : kb           - ELEVATION OF DEPTH REFERENCE
DATM.M        565.83               : datum        - DATUM ELEVATION
TDD .M        420.8                : tdd          - TOTAL DEPTH DRILLER
RUN .         ONE                  : Run          - RUN NUMBER
ENG .         BILL                 : Engineer     - RECORDING ENGINEER
WIT .         JIM                  : Witness      - WITNESSED BY
MUD .         GEL                  : Mud_type     - MUD TYPE
MATR.         LIMESTONE            : Logunit      - NEUTRON MATRIX
TMAX.C        16                   : BHT          - MAXIMUM RECORDED TEMPERATURE
BHTD.M        420.8                : BHTDEP       - MAXIMUM RECORDED TEMPERATURE
MATR.         1                    : LOGUNIT      - NEUTRON MATRIX
RMT .C        25                   : MDTP         - TEMPERATURE OF MUD
NEUT.         1                    : NEUTRON      - NEUTRON TYPE
RESI.         0                    : RESIST       - RESISTIVITY TYPE
RMC .OHMM     0.25                 : RMC          - RESISTIVITY OF MUD CAKE
RMF .OHMM     0.25                 : RMF          - RESISTIVITY OF MUD FILTRATE
SUFT.C        15                   : SUFT         - SURFACE TEMPERATURE
~A  DEPTH     RESD     PHID     PHIN       GR
# ...
  188.500   26.445    0.293    0.410   88.265
  188.750   25.014    0.278    0.352   75.476
  189.000   23.660    0.267    0.406   66.953
  189.250   22.382    0.276    0.457   71.239
  189.500   21.572    0.281    0.460   73.089
  189.750   21.178    0.286    0.418   79.205
  190.000   20.411    0.265    0.435   86.537
  190.250   19.676    0.275    0.448   94.482
  190.500   18.963    0.278    0.462   98.765
  190.750   18.620    0.267    0.419  101.221
  191.000   18.626    0.276    0.450  104.290
  191.250   18.643    0.283    0.474  107.352
  191.500   18.648    0.251    0.432  102.496
  191.750   19.008    0.207    0.399   90.311
  192.000   20.123    0.235    0.366   76.911
  192.250   20.512    0.219    0.391   68.389
  192.500   21.302    0.244    0.416   63.527
  192.750   21.721    0.299    0.409   71.473
  193.000   21.731    0.307    0.437   70.882
  193.250   21.337    0.261    0.393   71.504
  193.500   21.351    0.251    0.381   77.624
  193.750   21.762    0.255    0.397   81.296
  194.000   22.188    0.175    0.376   84.361
  194.250   23.050    0.213    0.390   78.279
  194.500   23.493    0.267    0.411   64.879
  194.750   23.508    0.281    0.406   73.435
  195.000   23.519    0.278    0.355   67.964
  195.250   22.666    0.272    0.345   70.417
  195.500   20.270    0.286    0.390   66.779
  195.750   18.817    0.248    0.434   70.456
  196.000   16.517    0.221    0.456   79.616
  196.250   15.047    0.237    0.493  107.684
  196.500   13.968    0.251    0.432  108.313
  196.750   12.966    0.248    0.443   96.132
  197.000   12.498    0.242    0.470   93.707
  197.250   12.982    0.230    0.454   92.509
  197.500   13.740    0.230    0.399   94.964
  197.750   14.269    0.231    0.437   97.418
  198.000   14.547    0.225    0.423   98.658
  198.250   14.554    0.214    0.407  101.111
  198.500   13.512    0.193    0.396  106.004
  198.750   12.312    0.205    0.406  113.953
  199.000   11.646    0.220    0.419  112.136
  199.250   11.225    0.195    0.416  119.471
  199.500   11.661    0.239    0.453  123.149
  199.750   11.886    0.244    0.445  114.023
  200.000   12.115    0.224    0.418  107.937
  200.250   12.350    0.228    0.397  103.073
  200.500   12.832    0.222    0.372  104.308
  200.750   12.837    0.203    0.415  107.376
  201.000   12.372    0.197    0.446  116.538
  201.250   11.483    0.201    0.481  124.482
  201.500   10.663    0.208    0.505  126.328
  201.750    9.899    0.205    0.479  130.616
  202.000    9.538    0.207    0.485  130.635
  202.250    9.024    0.211    0.454  125.160
  202.500    9.026    0.207    0.452  124.564
  202.750    9.203    0.209    0.491  122.142
  203.000    9.924    0.217    0.501  114.233
  203.250   10.904    0.224    0.482  111.809
  203.500   11.539    0.236    0.496  109.387
  203.750   12.443    0.246    0.471  108.793
  204.000   13.168    0.253    0.420  105.762
  204.250   13.937    0.256    0.427  102.727
  204.500   13.947    0.250    0.441  100.303
  204.750   14.216    0.240    0.463  107.032
  205.000   13.704    0.242    0.456  111.924
  205.250   13.708    0.241    0.462  114.991
  205.500   13.720    0.192    0.365  110.742
  205.750   13.984    0.176    0.473  112.584
  206.000   14.255    0.202    0.495  123.580
  206.250   14.806    0.236    0.499  124.204
  206.500   15.376    0.255    0.451  102.266
  206.750   16.897    0.299    0.393   85.208
  207.000   17.550    0.303    0.392   65.101
  207.250   17.892    0.287    0.405   70.608
  207.500   17.569    0.275    0.430   79.159
  207.750   16.310    0.271    0.467   90.767
  208.000   14.047    0.237    0.434   93.224
  208.250   12.103    0.240    0.428   94.454
  208.500   11.234    0.231    0.483   92.641
  208.750    9.676    0.207    0.510   93.269
  209.000    8.983    0.199    0.504  102.434
  209.250    8.184    0.196    0.535  113.426
  209.500    7.599    0.208    0.557  115.882
  209.750    7.323    0.232    0.521  115.288
  210.000    7.465    0.265    0.479  108.596
  210.250    8.517    0.266    0.441  100.687
  210.500    9.183    0.261    0.402   95.827
  210.750   10.672    0.260    0.436   95.230
  211.000   12.173    0.268    0.448   87.319
  211.250   12.408    0.265    0.436   84.898
  211.500   11.520    0.258    0.429   89.182
  211.750   11.314    0.236    0.429   94.080
  212.000   11.533    0.241    0.422   99.582
  212.250   11.979    0.250    0.459  102.649
  212.500   12.675    0.244    0.567   95.348
  212.750   14.731    0.267    0.595   78.900
  213.000   17.445    0.299    0.578   70.380
  213.250   19.167    0.302    0.484   64.904
  213.500   19.538    0.300    0.460   61.261
  213.750   19.189    0.297    0.441   65.552
  214.000   19.197    0.291    0.428   69.225
  214.250   19.943    0.289    0.434   70.462
  214.500   21.107    0.298    0.439   69.867
  214.750   21.920    0.307    0.451   66.837
  215.000   22.349    0.323    0.449   63.800
  215.250   22.360    0.324    0.438   58.940
  215.500   22.375    0.322    0.456   56.516
  215.750   21.969    0.318    0.439   58.977
  216.000   21.575    0.330    0.377   60.818
  216.250   21.583    0.342    0.382   63.885
  216.500   21.193    0.341    0.461   63.907
  216.750   20.817    0.323    0.503   64.526
  217.000   20.823    0.324    0.514   66.373
  217.250   20.073    0.336    0.493   65.782
  217.500   19.707    0.342    0.465   63.356
  217.750   19.352    0.338    0.468   63.987
  218.000   19.005    0.338    0.471   65.829
  218.250   19.011    0.340    0.490   67.067
  218.500   18.672    0.342    0.531   68.302
  218.750   18.680    0.340    0.449   64.660
  219.000   18.689    0.333    0.468   68.335
  219.250   18.358    0.324    0.486   70.180
  219.500   18.368    0.327    0.496   64.709
  219.750   18.376    0.315    0.505   62.895
  220.000   18.043    0.319    0.508   62.914
  220.250   18.051    0.341    0.419   64.758
  220.500   18.401    0.333    0.453   65.999
  220.750   18.414    0.329    0.472   67.232
  221.000   18.424    0.336    0.478   66.028
  221.250   18.780    0.331    0.492   66.045
  221.500   18.789    0.333    0.511   65.456
  221.750   19.154    0.337    0.474   64.250
  222.000   19.525    0.335    0.459   64.880
  222.250   19.911    0.337    0.443   64.892
  222.500   20.294    0.337    0.414   64.915
  222.750   20.690    0.335    0.411   64.927
  223.000   21.488    0.332    0.427   64.331
  223.250   22.319    0.332    0.453   63.128
  223.500   24.991    0.345    0.465   60.096
  223.750   26.445    0.350    0.492   63.161
  224.000   28.513    0.218    0.524   63.789
  224.250   32.527    0.054    0.125   64.415
  224.500   31.939    0.003    0.109   55.283
  224.750   30.212    0.123    0.304   50.422
  225.000   27.023    0.267    0.383   53.486
  225.250   26.038    0.344    0.472   65.705
  225.500   23.724    0.339    0.433   60.232
  225.750   22.861    0.328    0.468   62.686
  226.000   21.627    0.321    0.488   64.532
  226.250   21.234    0.315    0.501   65.156
  226.500   21.248    0.318    0.509   60.296
  226.750   21.258    0.318    0.517   57.876
  227.000   22.083    0.327    0.485   56.063
  227.250   22.516    0.338    0.476   54.252
  227.500   22.949    0.335    0.445   53.045
  227.750   23.400    0.330    0.417   51.841
  228.000   22.973    0.325    0.365   50.637
  228.250   22.140    0.329    0.389   48.219
  228.500   20.170    0.319    0.411   46.402
  228.750   13.120    0.333    0.408   51.910
  229.000    9.913    0.308    0.387   63.512
  229.250    8.866    0.283    0.445   77.554
  229.500    8.545    0.267    0.532   87.936
  229.750    8.548    0.295    0.540   90.395
  230.000    8.553    0.312    0.523   86.142
  230.250    8.558    0.266    0.415   81.282
  230.500    9.056    0.250    0.438   81.904
  230.750    9.951    0.247    0.462   91.078
  231.000    9.772    0.249    0.475   93.525
  231.250    9.246    0.240    0.443   97.810
  231.500    8.909    0.233    0.444   89.902
  231.750    8.747    0.228    0.411   91.745
