~VERSION INFORMATION
 VERS.                 2.0:   CWLS LOG ASCII STANDARD -VERSION 2.0
 WRAP.                  NO:   ONE LINE PER DEPTH STEP
~WELL INFORMATION BLOCK
#MNEM.UNIT           DATA                    DESCRIPTION OF MNEMONIC
#---------    -------------------            -------------------------------
# Generated from Intellog Unique Number	CW_70_72/WELL/993
NULL.         -999.25                        : NULL_VALUE
WELL.         NORCEN ET AL VICTOR 08-01      : Well_name    - WELL              
LOC .         08-01-071-02W5                 : Location     - LOCATION          
UWI .         00/08-01-071-02W5/0            : Uwi          - UNIQUE WELL ID    
ENTR.         JAYE                           : Entered      - ENTERED BY        
SRVC.         COMPUTALOG                     : Scn          - SERVICE COMPANY   
DATE.         7 JUNE 82                      : Date         - LOG DATE          
STRT.M        375                            : top_depth    - START DEPTH       
STOP.M        625                            : bot_depth    - STOP DEPTH        
STEP.M        0.25                           : increment    - STEP LENGTH       
~CURVE INFORMATION BLOCK
#MNEM UNIT       ERCB CURVE CODE    CURVE DESCRIPTION
#-----------   ------------------   ----------------------------------
DEPT.M        00 001 00 00         : DEPTH        - DEPTH                       
DPHI.V/V      00 890 00 00         : PHID         - DENSITY POROSITY (SANDSTONE)
NPHI.V/V      00 330 00 00         : PHIN         - NEUTRON POROSITY (SANDSTONE)
GR  .API      00 310 00 00         : GR           - GAMMA RAY                   
CALI.MM       00 280 01 00         : CAL          - CALIPER                     
ILD .OHMM     00 120 00 00         : RESD         - DEEP RESISTIVITY (DIL)      
~PARAMETER INFORMATION       
#MNEM.UNIT           DATA             DESCRIPTION OF MNEMONIC
#---------         -----------     ------------------------------
GL  .M        593.49               : gl           - GROUND LEVEL ELEVATION      
EREF.M        597.61               : kb           - ELEVATION OF DEPTH REFERENCE
DATM.M        593.49               : datum        - DATUM ELEVATION             
TDD .M        655                  : tdd          - TOTAL DEPTH DRILLER         
RUN .         ONE                  : Run          - RUN NUMBER                  
ENG .         SVRCEK               : Engineer     - RECORDING ENGINEER          
WIT .         BOGNER/MOORE         : Witness      - WITNESSED BY                
BASE.         EDM                  : Branch       - HOME BASE OF LOGGING UNIT   
MUD .         GEL CHEM             : Mud_type     - MUD TYPE                    
MATR.         SANDSTONE            : Logunit      - NEUTRON MATRIX              
TMAX.C        31                   : BHT          - MAXIMUM RECORDED TEMPERATURE
BHTD.M        654.7                : BHTDEP       - MAXIMUM RECORDED TEMPERATURE
RMT .C        15.5                 : MDTP         - TEMPERATURE OF MUD          
MUDD.KG/M     1130                 : MWT          - MUD DENSITY                 
NEUT.         1                    : NEUTRON      - NEUTRON TYPE                
RESI.         0                    : RESIST       - RESISTIVITY TYPE            
RM  .OHMM     2.4                  : RM           - RESISTIVITY OF MUD          
RMC .OHMM     2.1                  : RMC          - RESISTIVITY OF MUD CAKE     
RMF .OHMM     2.05                 : RMF          - RESISTIVITY OF MUD FILTRATE 
SUFT.C        0                    : SUFT         - SURFACE TEMPERATURE         
~A  DEPTH     PHID     PHIN       GR      CAL     RESD
# ...
  557.500    0.227    0.343   61.565  209.344    5.692
  557.750    0.227    0.348   59.764  209.859    6.087
  558.000    0.227    0.354   60.955  210.281    6.447
  558.250    0.217    0.362   62.212  210.525    6.406
  558.500    0.156    0.272   63.524  210.952    5.879
  558.750    0.082    0.243   64.593  211.565    5.051
  559.000    0.071    0.248   61.051  212.429    4.498
  559.250    0.095    0.272   60.556  214.099    4.006
  559.500    0.148    0.324   66.478  219.398    3.621
  559.750    0.209    0.353   69.726  222.215    3.498
  560.000    0.249    0.379   72.722  225.337    3.448
  560.250    0.256    0.397   69.177  228.776    3.490
  560.500    0.254    0.384   71.992  232.720    3.535
  560.750    0.251    0.395   77.910  235.443    3.626
  561.000    0.245    0.413   78.043  238.248    3.727
  561.250    0.238    0.415   77.055  240.233    3.816
  561.500    0.229    0.397   75.944  242.645    3.900
  561.750    0.222    0.406   75.695  245.660    3.964
  562.000    0.218    0.417   75.833  247.746    4.006
  562.250    0.216    0.378   76.021  249.318    4.048
  562.500    0.222    0.383   75.906  250.268    4.060
  562.750    0.228    0.408   75.476  250.799    4.064
  563.000    0.218    0.415   74.926  251.022    4.068
  563.250    0.203    0.297   74.001  251.223    4.080
  563.500    0.188    0.291   74.690  251.762    4.085
  563.750    0.205    0.310   76.195  252.297    4.058
  564.000    0.224    0.343   77.508  251.894    4.055
  564.250    0.227    0.331   77.080  250.142    4.020
  564.500    0.222    0.343   73.103  247.450    4.009
  564.750    0.214    0.359   71.985  244.974    4.014
  565.000    0.211    0.356   74.420  242.706    3.995
  565.250    0.213    0.342   79.474  239.899    3.970
  565.500    0.215    0.351   80.039  237.640    3.936
  565.750    0.212    0.338   77.122  234.320    3.918
  566.000    0.209    0.331   76.943  231.752    3.893
  566.250    0.204    0.343   73.392  228.751    4.439
  566.500    0.200    0.394   73.161  225.764    5.646
  566.750    0.194    0.417   77.523  222.341    6.318
  567.000    0.177    0.326   80.397  219.231    6.937
  567.250    0.141    0.262   78.782  217.067    7.820
  567.500    0.080    0.243   72.378  215.735    8.206
  567.750    0.060    0.232   71.016  214.815    8.185
  568.000    0.064    0.248   72.143  214.416    6.952
  568.250    0.082    0.294   73.708  214.423    5.405
  568.500    0.105    0.359   74.896  214.636    4.644
  568.750    0.136    0.376   77.954  214.866    4.468
  569.000    0.170    0.398   81.702  215.687    4.523
  569.250    0.183    0.358   83.950  216.330    4.614
  569.500    0.181    0.338   84.641  216.761    4.770
  569.750    0.174    0.309   85.951  217.096    5.053
  570.000    0.165    0.308   84.532  217.396    5.262
  570.250    0.152    0.287   86.336  217.534    5.367
  570.500    0.142    0.248   90.274  217.536    5.424
  570.750    0.133    0.272   95.886  217.444    5.576
  571.000    0.133    0.371  101.437  217.034    6.042
  571.250    0.105    0.341   93.660  216.753    6.522
  571.500    0.076    0.248   83.451  216.142    7.636
  571.750    0.071    0.225   82.403  215.213    8.368
  572.000    0.086    0.256   77.305  214.404    8.715
  572.250    0.069    0.291   70.089  213.577    8.676
  572.500    0.021    0.229   66.111  213.176    7.844
  572.750    0.048    0.228   69.230  212.872    7.024
  573.000    0.072    0.270   75.526  212.886    6.771
  573.250    0.102    0.307   81.201  212.904    7.092
  573.500    0.124    0.326   86.937  212.904    7.556
  573.750    0.098    0.302   80.651  213.013    8.218
  574.000    0.070    0.260   70.135  212.836    8.180
  574.250    0.041    0.237   63.794  212.642    7.811
  574.500    0.029    0.226   59.755  212.432    7.361
  574.750    0.097    0.250   71.404  212.661    6.744
  575.000    0.130    0.344   92.025  218.816    5.793
  575.250    0.128    0.334   92.529  218.720    5.786
  575.500    0.114    0.327   89.221  218.412    5.713
  575.750    0.100    0.342   87.288  218.209    5.588
  576.000    0.091    0.364   88.228  218.214    5.508
  576.250    0.093    0.346   90.918  218.118    5.510
  576.500    0.106    0.321   92.858  218.018    5.555
  576.750    0.123    0.340   95.798  218.024    5.642
  577.000    0.129    0.359   96.238  217.925    5.730
  577.250    0.106    0.329   89.182  217.828    5.852
  577.500    0.080    0.303   91.248  217.624    5.966
  577.750    0.088    0.321   95.187  217.111    6.048
  578.000    0.101    0.331   98.189  216.699    6.166
  578.250    0.118    0.310   99.254  216.288    6.239
  578.500    0.105    0.296   94.885  216.087    6.289
  578.750    0.079    0.282   91.327  215.987    6.351
  579.000    0.083    0.314   89.644  215.888    6.451
  579.250    0.119    0.342   97.519  215.686    6.626
  579.500    0.129    0.345   99.209  215.691    6.882
  579.750    0.126    0.306   96.151  215.281    7.382
  580.000    0.112    0.268   97.217  214.871    7.725
  580.250    0.088    0.254   96.533  214.564    7.905
  580.500    0.059    0.239   86.040  214.257    8.090
  580.750    0.024    0.215   84.108  214.159    8.033
  581.000    0.058    0.229   89.921  214.374    7.741
  581.250    0.091    0.264   98.671  214.587    7.185
  581.500    0.104    0.274  102.735  214.904    6.681
  581.750    0.103    0.266   99.677  215.327    6.282
  582.000    0.104    0.260  104.866  215.749    6.020
  582.250    0.121    0.325  113.241  216.484    5.944
  582.500    0.139    0.430  120.866  217.010    5.707
  582.750    0.127    0.271  105.751  217.953    5.478
  583.000    0.109    0.227   94.009  218.688    4.806
  583.250    0.094    0.212   93.700  220.150    3.860
  583.500    0.303    0.260   97.827  222.447    2.887
  583.750    0.360    0.458  103.266  225.784    2.367
  584.000    0.323    0.499   99.521  247.760    2.124
  584.250    0.296    0.464  102.398  250.994    2.070
  584.500    0.294    0.383  104.401  251.312    2.154
  584.750    0.283    0.387  100.780  252.359    2.328
  585.000    0.268    0.422  100.347  254.447    2.563
  585.250    0.271    0.451   99.538  257.993    2.969
  585.500    0.270    0.472   97.292  267.682    3.413
  585.750    0.175    0.388   93.423  268.417    4.005
  586.000    0.104    0.301   91.052  257.177    4.544
  586.250    0.045    0.277   89.431  244.480    5.032
  586.500    0.034    0.292   89.684  224.494    5.592
  586.750    0.067    0.328   93.561  222.522    6.135
  587.000    0.095    0.343   97.313  221.903    6.080
  587.250    0.090    0.342   99.941  221.388    5.761
  587.500    0.090    0.327  100.756  220.977    5.667
  587.750    0.099    0.299  103.321  220.359    5.777
  588.000    0.108    0.293  106.510  219.739    6.116
  588.250    0.115    0.296  109.200  219.122    6.558
  588.500    0.123    0.298  104.643  218.813    7.167
  588.750    0.115    0.296  101.522  218.507    7.700
  589.000    0.063    0.280   99.777  218.513    7.999
  589.250    0.032    0.250   93.658  218.309    8.216
  589.500    0.011    0.210   87.976  218.108    8.360
  589.750    0.004    0.256   92.790  218.009    8.523
  590.000    0.056    0.317   98.978  217.807    8.337
  590.250    0.075    0.309   94.234  217.708    7.724
  590.500    0.039    0.247   88.427  217.610    7.249
  590.750    0.000    0.210   90.367  217.823    6.567
  591.000    0.026    0.236   95.681  218.869    6.026
  591.250    0.070    0.261  101.744  223.249    5.551
  591.500    0.165    0.343  109.245  233.563    5.430
  591.750    0.138    0.380  104.813  244.397    5.463
  592.000    0.118    0.359   97.006  236.490    5.633
  592.250    0.109    0.361   99.322  228.582    5.996
  592.500    0.105    0.337  101.824  226.714    6.714
  592.750    0.099    0.293   98.141  225.991    7.160
  593.000    0.089    0.272   93.147  225.892    7.453
  593.250    0.070    0.303   87.965  225.586    7.583
  593.500    0.075    0.328   89.780  224.966    7.643
  593.750    0.080    0.310   90.783  224.556    7.435
