~VERSION INFORMATION
 VERS.                 2.0:   CWLS LOG ASCII STANDARD -VERSION 2.0
 WRAP.                  NO:   ONE LINE PER DEPTH STEP
~WELL INFORMATION BLOCK
#MNEM.UNIT           DATA                    DESCRIPTION OF MNEMONIC
#---------    -------------------            -------------------------------
# Generated from Intellog Unique Number	CW_70_72/WELL/702
NULL.         -999.25                        : NULL_VALUE
WELL.         LANDBANK ET AL VICTOR 06-26    : Well_name    - WELL              
LOC .         06-26-071-01W5                 : Location     - LOCATION          
UWI .         00/06-26-071-01W5/0            : Uwi          - UNIQUE WELL ID    
ENTR.         JAYE                           : Entered      - ENTERED BY        
SRVC.         SCHLUMBERGER                   : Scn          - SERVICE COMPANY   
DATE.         20 NOV 79                      : Date         - LOG DATE          
STRT.M        410                            : top_depth    - START DEPTH       
STOP.M        665                            : bot_depth    - STOP DEPTH        
STEP.M        0.25                           : increment    - STEP LENGTH       
~CURVE INFORMATION BLOCK
#MNEM UNIT       ERCB CURVE CODE    CURVE DESCRIPTION
#-----------   ------------------   ----------------------------------
DEPT.M        00 001 00 00         : DEPTH        - DEPTH                       
DPHI.V/V      00 890 00 00         : PHID         - DENSITY POROSITY (SANDSTONE)
NPHI.V/V      00 330 00 00         : PHIN         - NEUTRON POROSITY (SANDSTONE)
GR  .API      00 310 00 00         : GR           - GAMMA RAY                   
CALI.MM       00 280 01 00         : CAL          - CALIPER                     
ILD .OHMM     00 120 00 00         : RESD         - DEEP RESISTIVITY (DIL)      
~PARAMETER INFORMATION       
#MNEM.UNIT           DATA             DESCRIPTION OF MNEMONIC
#---------         -----------     ------------------------------
GL  .M        603.9                : gl           - GROUND LEVEL ELEVATION      
EREF.M        607.7                : kb           - ELEVATION OF DEPTH REFERENCE
DATM.M        603.9                : datum        - DATUM ELEVATION             
TDD .M        679                  : tdd          - TOTAL DEPTH DRILLER         
RUN .         ONE                  : Run          - RUN NUMBER                  
ENG .         WALTERHOUSE          : Engineer     - RECORDING ENGINEER          
WIT .         LOWTHER              : Witness      - WITNESSED BY                
BASE.         EDM                  : Branch       - HOME BASE OF LOGGING UNIT   
MUD .         GEL CHEM             : Mud_type     - MUD TYPE                    
MATR.         SANDSTONE            : Logunit      - NEUTRON MATRIX              
TMAX.C        41.7                 : BHT          - MAXIMUM RECORDED TEMPERATURE
BHTD.M        680                  : BHTDEP       - MAXIMUM RECORDED TEMPERATURE
RMT .C        20                   : MDTP         - TEMPERATURE OF MUD          
MUDD.KG/M     1090                 : MWT          - MUD DENSITY                 
NEUT.         1                    : NEUTRON      - NEUTRON TYPE                
RESI.         0                    : RESIST       - RESISTIVITY TYPE            
RM  .OHMM     2.97                 : RM           - RESISTIVITY OF MUD          
RMC .OHMM     0                    : RMC          - RESISTIVITY OF MUD CAKE     
RMF .OHMM     3.58                 : RMF          - RESISTIVITY OF MUD FILTRATE 
SUFT.C        0                    : SUFT         - SURFACE TEMPERATURE         
~A  DEPTH     PHID     PHIN       GR      CAL     RESD
# ...
  446.500    0.238    0.520   82.088  170.178    2.441
  446.750    0.231    0.496   78.165  164.366    2.357
  447.000    0.263    0.472   77.978  158.762    2.288
  447.250    0.250    0.440   80.095  153.572    2.208
  447.500    0.239    0.430   78.912  153.364    2.132
  447.750    0.226    0.453   81.775  153.467    2.077
  448.000    0.233    0.480   87.005  153.571    2.005
  448.250    0.220    0.507   90.990  153.570    1.932
  448.500    0.214    0.482   91.426  154.193    1.893
  448.750    0.224    0.484   92.422  153.569    1.869
  449.000    0.245    0.509   95.597  153.361    1.877
  449.250    0.240    0.526   91.425  154.814    1.921
  449.500    0.227    0.497   86.755  163.634    1.959
  449.750    0.237    0.466   79.905  162.181    2.047
  450.000    0.243    0.450   75.858  156.784    2.179
  450.250    0.262    0.433   73.180  154.604    2.307
  450.500    0.262    0.438   71.872  153.566    2.356
  450.750    0.271    0.447   70.689  152.528    2.380
  451.000    0.268    0.428   69.318  152.112    2.394
  451.250    0.251    0.439   68.695  152.112    2.391
  451.500    0.214    0.445   68.197  152.215    2.374
  451.750    0.173    0.435   68.570  152.215    2.367
  452.000    0.153    0.428   68.508  151.799    2.363
  452.250    0.177    0.418   68.508  151.383    2.351
  452.500    0.190    0.410   68.881  151.072    2.348
  452.750    0.236    0.425   69.067  150.967    2.336
  453.000    0.272    0.439   69.441  151.071    2.315
  453.250    0.278    0.441   69.378  151.382    2.316
  453.500    0.270    0.435   70.499  151.381    2.326
  453.750    0.284    0.423   73.051  151.381    2.372
  454.000    0.268    0.425   78.842  151.588    2.445
  454.250    0.242    0.427   85.566  151.380    2.526
  454.500    0.213    0.422   92.602  151.794    2.610
  454.750    0.175    0.430   99.451  153.454    2.789
  455.000    0.144    0.441  105.117  155.841    2.986
  455.250    0.154    0.465  107.545  159.576    3.132
  455.500    0.168    0.477  106.736  161.651    3.199
  455.750    0.154    0.481  105.926  162.481    3.201
  456.000    0.133    0.490  105.427  163.103    3.251
  456.250    0.109    0.487  105.240  163.414    3.309
  456.500    0.075    0.498  105.053  163.829    3.348
  456.750    0.154    0.508  103.496  164.243    3.368
  457.000    0.182    0.478  102.749  164.347    3.338
  457.250    0.174    0.475  102.935  164.139    3.346
  457.500    0.167    0.469  103.682  164.034    3.438
  457.750    0.165    0.460  101.876  163.930    3.478
  458.000    0.178    0.465   98.825  163.515    3.560
  458.250    0.224    0.515   94.528  162.891    3.811
  458.500    0.246    0.533   91.913  161.646    4.657
  458.750    0.283    0.564   84.876  156.560    6.169
  459.000    0.381    0.585   73.170  157.494    7.609
  459.250    0.467    0.604   55.611  158.635    8.101
  459.500    0.609    0.617   45.710  153.964    7.776
  459.750    0.625    0.637   53.991  150.435    6.716
  460.000    0.447    0.514   69.184  149.501    5.380
  460.250    0.444    0.455   69.682  150.434    4.269
  460.500    0.268    0.422   72.919  154.274    3.645
  460.750    0.216    0.433   77.651  158.528    3.233
  461.000    0.248    0.470   79.332  162.575    3.011
  461.250    0.246    0.479   73.292  156.971    2.815
  461.500    0.244    0.438   60.901  163.093    2.702
  461.750    0.270    0.427   54.985  156.658    2.593
  462.000    0.277    0.421   52.183  151.158    2.494
  462.250    0.282    0.413   50.003  148.355    2.394
  462.500    0.282    0.408   47.201  146.902    2.285
  462.750    0.284    0.405   44.834  146.901    2.218
  463.000    0.290    0.402   44.274  148.042    2.161
  463.250    0.282    0.404   43.402  148.457    2.098
  463.500    0.286    0.409   43.713  148.664    2.079
  463.750    0.291    0.411   45.394  148.871    2.073
  464.000    0.292    0.390   46.203  148.975    2.066
  464.250    0.290    0.387   46.265  149.181    2.090
  464.500    0.294    0.397   46.016  149.181    2.123
  464.750    0.290    0.418   45.081  149.181    2.136
  465.000    0.281    0.410   44.894  149.284    2.158
  465.250    0.280    0.403   45.641  149.491    2.212
  465.500    0.288    0.413   49.563  149.698    2.277
  465.750    0.298    0.414   50.746  149.698    2.388
  466.000    0.284    0.411   48.878  149.593    2.490
  466.250    0.283    0.400   50.185  149.904    2.558
  466.500    0.293    0.390   51.430  149.904    2.603
  466.750    0.299    0.390   52.053  149.488    2.585
  467.000    0.292    0.406   53.049  149.280    2.472
  467.250    0.286    0.416   54.792  148.968    2.390
  467.500    0.291    0.412   56.971  147.930    2.295
  467.750    0.301    0.408   56.784  140.769    2.219
  468.000    0.297    0.408   56.099  141.391    2.166
  468.250    0.301    0.411   57.531  142.325    2.131
  468.500    0.304    0.417   57.966  143.362    2.116
  468.750    0.293    0.419   57.654  144.192    2.105
  469.000    0.293    0.413   56.782  145.437    2.094
  469.250    0.287    0.408   59.895  146.578    2.092
  469.500    0.299    0.410   61.203  147.096    2.108
  469.750    0.307    0.418   59.646  146.577    2.125
  470.000    0.291    0.420   59.583  145.746    2.139
  470.250    0.284    0.425   59.334  145.434    2.140
  470.500    0.289    0.420   58.151  145.745    2.181
  470.750    0.296    0.412   59.333  146.367    2.232
  471.000    0.294    0.419   61.139  148.131    2.302
  471.250    0.295    0.428   63.193  150.621    2.342
  471.500    0.287    0.443   60.391  151.347    2.361
  471.750    0.275    0.434   56.343  150.932    2.362
  472.000    0.257    0.423   53.105  148.337    2.285
  472.250    0.261    0.410   51.424  146.883    2.214
  472.500    0.269    0.416   55.160  148.647    2.121
  472.750    0.288    0.435   53.665  149.892    2.021
  473.000    0.295    0.428   51.174  150.618    1.958
  473.250    0.298    0.416   51.423  150.721    1.911
  473.500    0.308    0.423   50.924  151.032    1.898
  473.750    0.307    0.430   49.554  151.343    1.906
  474.000    0.295    0.434   49.367  151.550    1.918
  474.250    0.278    0.437   51.422  151.757    1.952
  474.500    0.273    0.429   50.487  152.276    2.054
  474.750    0.271    0.410   48.557  152.586    2.233
  475.000    0.256    0.368   48.806  152.793    2.382
  475.250    0.239    0.326   49.490  152.897    2.475
  475.500    0.209    0.306   50.798  152.896    2.476
  475.750    0.162    0.293   52.043  152.792    2.341
  476.000    0.185    0.325   53.786  152.792    2.209
  476.250    0.230    0.385   54.719  152.687    2.058
  476.500    0.307    0.410   55.840  152.376    1.964
  476.750    0.317    0.423   55.715  151.752    1.921
  477.000    0.316    0.422   56.462  151.544    1.911
  477.250    0.297    0.430   60.571  151.336    1.919
  477.500    0.291    0.441   61.692  151.025    1.939
  477.750    0.294    0.450   62.626  150.609    1.954
  478.000    0.298    0.456   63.186  150.505    2.000
  478.250    0.305    0.437   65.240  150.504    2.047
  478.500    0.309    0.434   68.353  150.400    2.106
  478.750    0.307    0.440   70.968  150.503    2.164
  479.000    0.303    0.440   74.517  150.607    2.227
  479.250    0.297    0.444   76.821  150.399    2.353
  479.500    0.289    0.455   77.070  150.294    2.496
  479.750    0.278    0.464   76.135  150.086    2.678
  480.000    0.271    0.458   74.454  149.878    2.878
  480.250    0.265    0.441   72.399  149.463    3.058
  480.500    0.259    0.423   70.779  148.839    2.980
  480.750    0.253    0.407   70.717  148.735    2.844
  481.000    0.238    0.398   73.145  148.735    2.694
  481.250    0.239    0.431   75.386  148.734    2.572
  481.500    0.280    0.467   76.631  149.460    2.418
  481.750    0.287    0.457   77.005  151.016    2.312
  482.000    0.283    0.454   77.689  151.742    2.244
  482.250    0.277    0.453   78.872  152.572    2.208
  482.500    0.273    0.456   79.495  152.779    2.192
  482.750    0.271    0.450   78.934  152.571    2.227
