~VERSION INFORMATION
 VERS.                 2.0:   CWLS LOG ASCII STANDARD -VERSION 2.0
 WRAP.                  NO:   ONE LINE PER DEPTH STEP
~WELL INFORMATION BLOCK
#MNEM.UNIT           DATA                    DESCRIPTION OF MNEMONIC
#---------    -------------------            -------------------------------
# Generated from Intellog Unique Number	CW_70_72/WELL/2897
NULL.         -999.25                        : NULL_VALUE
WELL.         MESA SULPETRO CROOKED          : Well_name    - WELL              
LOC .         03-06-070-22W4                 : Location     - LOCATION          
UWI .         00/03-06-070-22W4/0            : Uwi          - UNIQUE WELL ID    
ENTR.         MAX                            : Entered      - ENTERED BY        
SRVC.         SCHLUMBERGER                   : Scn          - SERVICE COMPANY   
DATE.         06 MAR 79                      : Date         - LOG DATE
STRT.M        425                            : top_depth    - START DEPTH       
STOP.M        580                            : bot_depth    - STOP DEPTH        
STEP.M        0.25                           : increment    - STEP LENGTH       
~CURVE INFORMATION BLOCK
#MNEM UNIT       ERCB CURVE CODE    CURVE DESCRIPTION
#-----------   ------------------   ----------------------------------
DEPT.M        00 001 00 00         : DEPTH        - DEPTH                       
GR  .API      00 310 00 00         : GR           - GAMMA RAY                   
ILD .OHMM     00 120 00 00         : RESD         - DEEP RESISTIVITY (DIL)      
NPHI.V/V      00 330 00 00         : PHIN         - NEUTRON POROSITY (SANDSTONE)
DPHI.V/V      00 890 00 00         : PHID         - DENSITY POROSITY (SANDSTONE)
CALI.MM       00 280 01 00         : CAL          - CALIPER                     
~PARAMETER INFORMATION       
#MNEM.UNIT           DATA             DESCRIPTION OF MNEMONIC
#---------         -----------     ------------------------------
GL  .M        633.4                : gl           - GROUND LEVEL ELEVATION      
EREF.M        637.8                : kb           - ELEVATION OF DEPTH REFERENCE
DATM.M        633.4                : datum        - DATUM ELEVATION             
TDD .M        611                  : tdd          - TOTAL DEPTH DRILLER         
RUN .         ONE                  : Run          - RUN NUMBER                  
ENG .         BILL                 : Engineer     - RECORDING ENGINEER          
WIT .         JIM                  : Witness      - WITNESSED BY                
MUD .         GEL                  : Mud_type     - MUD TYPE                    
MATR.         SANDSTONE            : Logunit      - NEUTRON MATRIX              
TMAX.C        26                   : BHT          - MAXIMUM RECORDED TEMPERATURE
BHTD.M        611                  : BHTDEP       - MAXIMUM RECORDED TEMPERATURE
RMT .C        20                   : MDTP         - TEMPERATURE OF MUD          
MUDD.KG/M     1120                 : MWT          - MUD DENSITY                 
NEUT.         1                    : NEUTRON      - NEUTRON TYPE                
RESI.         0                    : RESIST       - RESISTIVITY TYPE            
RM  .OHMM     4.32                 : RM           - RESISTIVITY OF MUD          
RMC .OHMM     0.25                 : RMC          - RESISTIVITY OF MUD CAKE     
RMF .OHMM     5.21                 : RMF          - RESISTIVITY OF MUD FILTRATE 
SUFT.C        -10                  : SUFT         - SURFACE TEMPERATURE         
~A  DEPTH       GR     RESD     PHIN     PHID      CAL
# ...
  461.500   65.526    2.566    0.471    0.310  157.123
  461.750   69.667    2.710    0.478    0.302  157.105
  462.000   68.471    2.889    0.448    0.278  156.596
  462.250   69.054    3.051    0.432    0.275  156.579
  462.500   69.043    3.282    0.446    0.267  156.068
  462.750   67.255    3.499    0.451    0.254  156.054
  463.000   62.797    3.730    0.447    0.290  155.541
  463.250   57.747    4.125    0.440    0.298  155.522
  463.500   55.659    4.479    0.440    0.305  155.016
  463.750   56.836    4.907    0.447    0.301  154.999
  464.000   57.418    5.231    0.446    0.291  155.470
  464.250   56.223    5.229    0.442    0.288  155.948
  464.500   55.622    4.947    0.441    0.301  155.933
  464.750   56.796    4.681    0.435    0.303  156.413
  465.000   54.416    4.388    0.428    0.276  156.886
  465.250   54.108    4.114    0.425    0.275  156.871
  465.500   56.469    3.718    0.416    0.281  156.857
  465.750   58.535    3.422    0.419    0.294  156.838
  466.000   60.598    3.092    0.410    0.293  156.821
  466.250   60.589    2.769    0.417    0.278  156.821
  466.500   59.986    2.572    0.424    0.275  156.786
  466.750   59.087    2.389    0.418    0.293  157.264
  467.000   58.779    2.302    0.418    0.295  157.245
  467.250   59.362    2.239    0.417    0.290  157.724
  467.500   59.058    2.198    0.413    0.297  158.204
  467.750   58.455    2.177    0.413    0.298  158.185
  468.000   57.851    2.156    0.417    0.294  158.166
  468.250   56.060    2.155    0.420    0.296  157.660
  468.500   56.052    2.135    0.424    0.296  157.147
  468.750   56.041    2.134    0.421    0.305  156.636
  469.000   56.625    2.114    0.428    0.299  156.617
  469.250   57.800    2.113    0.435    0.304  156.601
  469.500   56.899    2.093    0.438    0.303  156.584
  469.750   55.705    2.093    0.434    0.301  156.567
  470.000   55.103    2.092    0.428    0.303  156.551
  470.250   56.573    2.072    0.425    0.301  156.536
  470.500   57.157    2.053    0.419    0.300  156.517
  470.750   59.220    2.033    0.418    0.298  156.501
  471.000   59.805    2.032    0.422    0.301  156.978
  471.250   58.903    2.032    0.417    0.304  157.458
  471.500   58.303    2.031    0.416    0.307  157.933
  471.750   59.180    2.030    0.417    0.312  157.914
  472.000   59.765    2.030    0.421    0.310  157.900
  472.250   61.236    2.029    0.424    0.299  157.883
  472.500   64.192    2.028    0.425    0.302  157.862
  472.750   65.366    2.065    0.426    0.308  157.850
  473.000   64.469    2.084    0.430    0.302  157.833
  473.250   64.161    2.121    0.434    0.295  157.814
  473.500   62.371    2.140    0.433    0.296  158.294
  473.750   61.175    2.159    0.428    0.299  158.769
  474.000   62.945    2.159    0.417    0.299  158.753
  474.250   67.085    2.178    0.418    0.307  159.720
  474.500   68.262    2.177    0.423    0.314  159.704
  474.750   65.287    2.176    0.429    0.313  160.185
  475.000   62.014    2.196    0.423    0.293  160.661
  475.250   61.707    2.195    0.428    0.292  160.646
  475.500   61.699    2.235    0.427    0.289  160.629
  475.750   61.687    2.276    0.418    0.290  160.600
  476.000   61.972    2.296    0.420    0.284  160.596
  476.250   62.258    2.295    0.422    0.279  160.577
  476.500   62.844    2.315    0.418    0.285  160.561
  476.750   65.501    2.357    0.427    0.281  160.544
  477.000   67.568    2.378    0.449    0.281  160.029
  477.250   66.667    2.421    0.443    0.295  160.012
  477.500   65.174    2.421    0.446    0.294  159.504
  477.750   66.942    2.442    0.450    0.292  158.993
  478.000   66.638    2.464    0.456    0.278  158.978
  478.250   65.737    2.509    0.452    0.283  158.960
  478.500   65.725    2.578    0.458    0.295  158.945
  478.750   63.642    2.673    0.457    0.302  158.926
  479.000   62.150    2.798    0.477    0.296  158.908
  479.250   62.731    3.066    0.482    0.297  158.891
  479.500   64.204    3.268    0.477    0.299  158.874
  479.750   66.566    3.452    0.458    0.298  159.352
  480.000   68.038    3.580    0.448    0.299  159.337
  480.250   67.436    3.546    0.446    0.298  159.812
  480.500   68.315    3.417    0.450    0.297  159.798
  480.750   71.271    3.233    0.450    0.294  159.285
  481.000   69.184    3.087    0.448    0.294  159.266
  481.250   67.097    2.975    0.450    0.303  159.748
  481.500   66.792    2.893    0.450    0.285  160.225
  481.750   68.265    2.839    0.454    0.262  160.699
  482.000   70.625    2.839    0.460    0.256  160.682
  482.250   70.910    2.812    0.452    0.279  161.162
  482.500   71.198    2.734    0.449    0.277  161.141
  482.750   72.375    2.758    0.450    0.264  161.122
  483.000   74.439    2.809    0.450    0.248  161.112
  483.250   77.691    2.860    0.453    0.238  162.083
  483.500   82.129    2.938    0.470    0.220  162.559
  483.750   86.862    2.992    0.473    0.218  162.048
  484.000   84.777    3.074    0.461    0.224  161.539
  484.250   79.726    3.159    0.482    0.232  161.028
  484.500   74.083    3.246    0.486    0.267  160.513
  484.750   70.219    3.305    0.425    0.270  160.005
  485.000   68.726    3.335    0.413    0.267  158.996
  485.250   67.827    3.334    0.420    0.269  158.981
  485.500   67.817    3.212    0.430    0.280  158.962
  485.750   68.992    3.124    0.431    0.291  158.946
  486.000   68.982    3.038    0.431    0.278  159.425
  486.250   68.379    2.982    0.433    0.279  159.411
  486.500   67.479    2.954    0.438    0.282  159.394
  486.750   66.282    2.953    0.448    0.297  159.373
  487.000   65.977    2.979    0.442    0.303  159.356
  487.250   68.932    2.978    0.442    0.303  159.836
  487.500   75.148    3.032    0.466    0.298  159.819
  487.750   80.771    3.087    0.456    0.282  159.799
  488.000   84.911    3.173    0.444    0.258  159.784
  488.250   86.975    3.201    0.443    0.230  159.767
  488.500   86.669    3.200    0.453    0.236  159.753
  488.750   86.660    3.288    0.446    0.252  160.230
  489.000   86.944    3.378    0.440    0.245  161.200
  489.250   86.933    3.409    0.442    0.240  161.677
  489.500   86.925    3.439    0.448    0.238  162.153
  489.750   90.472    3.469    0.451    0.231  162.138
  490.000   89.276    3.532    0.454    0.218  162.121
  490.250   87.784    3.596    0.454    0.210  162.101
  490.500   86.291    3.729    0.432    0.192  161.096
  490.750   85.097    3.976    0.398    0.188  161.577
  491.000   86.568    4.397    0.370    0.166  165.015
  491.250   87.447    4.602    0.352    0.145  165.991
  491.500   89.810    4.475    0.379    0.172  165.970
  491.750   92.762    4.195    0.438    0.205  164.967
  492.000   92.457    3.861    0.468    0.203  164.457
  492.250   91.260    3.721    0.462    0.197  164.438
  492.500   90.361    3.652    0.470    0.207  164.419
  492.750   90.945    3.685    0.465    0.220  164.407
  493.000   94.788    3.751    0.443    0.206  163.896
  493.250   93.592    3.820    0.427    0.199  162.397
  493.500   91.508    3.819    0.434    0.209  162.376
  493.750   91.794    3.817    0.435    0.190  162.858
  494.000   98.307    3.816    0.437    0.192  162.837
  494.250  100.964    3.885    0.440    0.181  162.824
  494.500  101.548    3.956    0.441    0.196  163.300
  494.750  100.649    4.065    0.436    0.203  164.271
  495.000   99.450    4.064    0.434    0.192  165.241
  495.250   99.440    4.062    0.434    0.197  166.709
  495.500   99.132    4.061    0.436    0.208  167.680
  495.750   96.455    4.097    0.443    0.230  167.169
  496.000   90.221    4.210    0.427    0.285  164.188
  496.250   84.578    4.488    0.400    0.314  159.230
  496.500   76.857    4.569    0.373    0.301  159.211
  496.750   76.254    4.526    0.372    0.285  159.195
  497.000   78.913    4.282    0.416    0.257  158.190
  497.250   83.351    4.051    0.476    0.255  155.700
  497.500   84.230    3.833    0.476    0.263  155.190
  497.750   85.107    3.728    0.473    0.266  157.150
