~VERSION INFORMATION
 VERS.                 2.0:   CWLS LOG ASCII STANDARD -VERSION 2.0
 WRAP.                  NO:   ONE LINE PER DEPTH STEP
~WELL INFORMATION BLOCK
#MNEM.UNIT           DATA                    DESCRIPTION OF MNEMONIC
#---------    -------------------            -------------------------------
# Generated from Intellog Unique Number	CW_79_81/WELL/35
WELL.         B.A. PASTECHO RIVER 02-30      : Well_name    - WELL
LOC .         00/02-30-079-04W5/0            : Location     - LOCATION
UWI .         00/02-30-079-04W5/0            : Uwi          - UNIQUE WELL ID
ENTR.         JJ                             : Entered      - ENTERED BY
SRVC.         SCHLUMBERGER                   : Scn          - SERVICE COMPANY
DATE.         5 FEB 62                       : Date         - LOG DATE
STRT.M        490.728                        : top_depth    - START DEPTH
STOP.M        618.728                        : bot_depth    - STOP DEPTH
STEP.M        0.25                           : increment    - STEP LENGTH
 NULL. -999.2500:NULL Value
~CURVE INFORMATION BLOCK
#MNEM UNIT       ERCB CURVE CODE    CURVE DESCRIPTION
#-----------   ------------------   ----------------------------------
DEPT.M        00 001 00 00         : DEPTH        - DEPTH
ILD .OHMM     00 120 00 00         : RESD         - DEEP RESISTIVITY (DIL)
GR  .API      00 310 00 00         : GR           - GAMMA RAY
DELT.US/F     00 520 00 00         : DELT         - SONIC TRAVEL TIME
~PARAMETER INFORMATION
#MNEM.UNIT           DATA             DESCRIPTION OF MNEMONIC
#---------         -----------     ------------------------------
GL  .M        657.454              : gl           - GROUND LEVEL ELEVATION
EREF.M        657.454              : kb           - ELEVATION OF DEPTH REFERENCE
DATM.M        657.454              : datum        - DATUM ELEVATION
TDD .M        1393.55              : tdd          - TOTAL DEPTH DRILLER
RUN .         ONE                  : Run          - RUN NUMBER
ENG .         JAMES                : Engineer     - RECORDING ENGINEER
WIT .         MCDERMOTT            : Witness      - WITNESSED BY
MUD .         HIGH PH GEL          : Mud_type     - MUD TYPE
MATR.         SANDSTONE            : Logunit      - NEUTRON MATRIX
TMAX.C        47.7778              : BHT          - MAXIMUM RECORDED TEMPERATURE
BHTD.M        1391.11              : BHTDEP       - MAXIMUM RECORDED TEMPERATURE
RMT .C        15.5556              : MDTP         - TEMPERATURE OF MUD
MUDD.KG/M     1188                 : MWT          - MUD DENSITY
NEUT.         1                    : NEUTRON      - NEUTRON TYPE
RESI.         0                    : RESIST       - RESISTIVITY TYPE
RM  .OHMM     1.14                 : RM           - RESISTIVITY OF MUD
RMC .OHMM     1.23                 : RMC          - RESISTIVITY OF MUD CAKE
RMF .OHMM     0.77                 : RMF          - RESISTIVITY OF MUD FILTRATE
SUFT.C        5                    : SUFT         - SURFACE TEMPERATURE
~A  DEPTH     RESD       GR     DELT
  490.728    8.320   75.252  300.023
  490.978    9.731   66.159  255.256
  491.228   11.163   72.889  237.101
  491.478   13.588   70.445  227.006
  491.728   17.835   62.387  222.229
  491.978   20.695   59.166  225.053
  492.228   14.180   56.982  256.502
  492.478   10.398   54.638  342.724
  492.728    8.270   66.165  363.424
  492.978    6.784   75.679  361.192
  493.228    5.836   78.901  340.423
  493.478    6.151   84.962  319.241
  493.728    6.568   68.240  304.787
  493.978    6.242   66.157  315.336
  494.228    5.873   67.429  345.574
  494.478    5.277   74.618  368.688
  494.728    4.888   78.616  376.470
  494.978    4.707   76.637  376.259
  495.228    4.566   74.298  375.310
  495.478    4.405   80.150  375.112
  495.728    4.327   77.709  376.581
  495.978    4.267   84.126  377.182
  496.228    4.126   77.459  377.376
  496.478    3.986   77.338  379.057
  496.728    3.928   87.722  382.211
  496.978    3.849   88.630  387.772
  497.228    3.688   82.268  390.668
  497.478    3.629   77.041  392.070
  497.728    3.612   82.531  390.120
  497.978    3.720   83.541  384.326
  498.228    3.828   85.686  382.900
  498.478    4.060   81.076  386.134
  498.728    4.312   75.745  388.079
  498.978    4.564   76.343  388.341
  499.228    4.734   82.762  387.652
  499.478    4.779   86.352  385.899
  499.728    4.700   85.037  385.361
  499.978    4.663   83.522  387.230
  500.228    4.586   83.298  394.751
  500.478    4.568   83.327  394.013
  500.728    4.571   89.231  393.934
  500.978    4.658   93.176  390.706
  501.228    5.284   85.840  379.683
  501.478    6.136   86.590  377.522
  501.728    7.527   91.209  368.443
  501.978    9.394   83.709  357.347
  502.228   11.757   78.379  346.121
  502.478   14.286   79.546  347.389
  502.728   13.731   84.934  357.194
  502.978   12.453   85.174  313.432
  503.228   11.650   85.561  300.322
  503.478   11.198   81.828  285.193
  503.728   10.146   73.817  306.155
  503.978    9.985   66.686  319.327
  504.228    9.141   70.731  348.288
  504.478    8.296   80.711  347.475
  504.728    7.659   85.019  334.695
  504.978    7.455   79.949  322.523
  505.228    7.170   76.732  321.039
  505.478    6.471   71.037  346.241
  505.728    5.688   75.756  358.262
  505.978    5.092   87.640  369.891
  506.228    4.951   95.042  375.453
  506.478    4.997   92.910  367.585
  506.728    5.104   92.271  361.997
  506.978    5.295   88.174  365.753
  507.228    5.423   82.224  370.724
  507.478    5.386   87.410  375.361
  507.728    5.203   96.148  376.634
  507.978    4.898   97.417  374.546
  508.228    4.964   90.901  374.136
  508.478    5.175   86.394  372.097
  508.728    5.468   88.435  368.672
  508.978    5.741   90.586  364.036
  509.228    6.035   88.497  359.526
  509.478    6.039   83.935  353.471
  509.728    5.878   86.906  356.610
  509.978    5.676   81.212  360.648
  510.228    5.638   79.284  361.248
  510.478    5.580   83.954  357.273
  510.728    5.583   87.383  351.150
  510.978    5.877   83.034  345.100
  511.228    6.006   79.301  343.339
  511.478    6.216   85.107  346.365
  511.728    6.676   82.503  348.234
  511.978    7.032   81.451  342.649
  512.228    7.284   74.993  329.813
  512.478    7.371   77.956  313.339
  512.728    7.355   74.685  305.802
  512.978    6.883   67.139  317.630
  513.228    6.390   77.116  340.140
  513.478    6.104   79.882  358.615
  513.728    5.964   82.639  363.987
  513.978    5.989   89.320  359.343
  514.228    6.427   82.081  349.587
  514.478    6.783   81.494  344.545
  514.728    6.912   77.399  343.459
  514.978    6.977   82.793  342.777
  515.228    6.796   84.520  342.502
  515.478    6.365   74.089  344.908
  515.728    5.914   85.200  348.409
  515.978    5.566   89.146  355.187
  516.228    5.281   82.325  363.376
  516.478    5.057   76.217  372.177
  516.728    4.916   70.937  380.853
  516.978    4.837   80.193  377.684
  517.228    4.800   81.461  383.193
  517.478    4.701   78.400  369.407
  517.728    4.704   79.666  372.690
  517.978    4.750   83.559  380.011
  518.228    4.775   84.470  376.844
  518.478    4.696   82.280  378.185
  518.728    4.638   82.362  371.188
  518.978    4.580   86.155  376.217
  519.228    4.522   86.858  383.010
  519.478    4.402   87.451  382.131
  519.728    4.323   88.822  385.551
  519.978    5.197   81.996  364.708
  520.228    6.091   83.058  355.818
  520.478    8.061   90.921  351.189
  520.728    9.782   93.681  343.785
  520.978   11.649   79.384  341.697
  521.228   13.847   72.612  338.524
  521.478   16.665   67.897  336.574
  521.728   18.801   66.072  327.969
  521.978   20.730   65.277  297.244
  522.228   22.741   62.064  259.939
  522.478   25.395   64.305  234.460
  522.728   30.345   63.768  201.989
  522.978   27.203   51.068  218.245
  523.228   22.302   49.606  257.023
  523.478   19.554   53.809  283.023
  523.728   17.137   66.982  300.762
  523.978   15.423   73.094  320.924
  524.228   14.227   75.083  282.877
  524.478   11.934   72.946  272.716
  524.728    9.848   57.719  271.230
  524.978    8.444   62.336  304.769
  525.228    6.897   76.902  329.095
  525.478    5.928   81.982  352.268
  525.728    5.477   79.489  359.715
  525.978    5.668   76.630  361.720
  526.228    6.002   82.485  356.221
  526.478    6.296   83.957  340.958
  526.728    6.425   78.989  338.196
  526.978    6.469   73.453  348.803
  527.228    6.474   79.872  355.594
  527.478    6.374   80.110  356.582
  527.728    6.193   72.459  353.964
  527.978    6.114   75.065  345.827
  528.228    6.076   82.622  345.614
  528.478    5.935   80.490  352.870
  528.728    5.548   84.021  358.106
  528.978    5.571   86.679  362.133
  529.228    5.596   80.629  359.570
  529.478    5.704   82.361  355.135
  529.728    6.183   86.460  355.052
  529.978    6.601   85.458  356.327
  530.228    6.503   81.730  352.416
  530.478    6.216   77.377  350.538
  530.728    5.807   80.396  356.582
  530.978    5.666   82.743  367.333
  531.228    5.484   92.721  372.762
  531.478    5.530   91.517  366.503
  531.728    5.679   86.031  357.698
  531.978    5.973   81.214  346.134
  532.228    6.183   80.315  349.284
  532.478    6.208   78.801  354.244
  532.728    6.067   78.261  356.314
  532.978    5.864   83.755  358.807
  533.228    5.579   83.681  363.564
  533.478    5.479   82.837  366.386
  533.728    5.504   85.291  368.677
  533.978    5.632   87.381  370.755
  534.228    5.843   90.971  364.493
  534.478    6.013   88.526  358.711
  534.728    6.306   87.008  353.259
  534.978    6.559   91.059  345.521
  535.228    6.832   89.698  343.756
  535.478    7.064   88.849  343.552
  535.728    7.254   92.228  342.730
  535.978    7.321   87.981  341.936
  536.228    7.366   88.267  341.056
  536.478    7.370   86.133  338.282
  536.728    7.064   87.660  335.324
  536.978    6.385   86.603  335.860
  537.228    5.603   86.325  354.207
  537.478    5.151   86.199  383.162
  537.728    4.762   87.261  405.207
  537.978    4.435   92.961  414.205
  538.228    4.336   97.684  371.188
  538.478    4.920   92.866  351.959
  538.728    5.793   86.611  325.606
  538.978    6.604   84.066  313.837
  539.228    7.808   84.710  329.217
  539.478    9.695   85.820  335.805
  539.728   11.334   76.109  318.588
  539.978   12.973   67.380  309.506
  540.228   14.943   68.337  299.953
  540.478   16.934   82.950  292.960
  540.728   18.987   80.614  285.428
  540.978   21.185   66.260  288.379
  541.228   22.286   60.005  303.756
  541.478   22.953   63.434  317.877
  541.728   22.874   66.246  330.366
  541.978   22.050   64.009  310.936
  542.228   20.398   64.193  300.646
  542.478   17.960   60.718  292.381
  542.728   15.812   57.038  321.410
  542.978   13.912   68.819  333.700
  543.228   12.178   75.238  349.750
  543.478   11.292   71.359  353.040
  543.728   10.531   67.723  353.297
  543.978   10.017   68.885  351.087
  544.228    9.359   80.460  347.583
  544.478    8.515   77.863  346.434
  544.728    7.587   80.314  351.736
