~VERSION INFORMATION
 VERS.                 2.0:   CWLS LOG ASCII STANDARD -VERSION 2.0
 WRAP.                  NO:   ONE LINE PER DEPTH STEP
~WELL INFORMATION BLOCK
#MNEM.UNIT           DATA                    DESCRIPTION OF MNEMONIC
#---------    -------------------            -------------------------------
# Generated from Intellog Unique Number	CN_94_101/WELL/3190
WELL.         MCCOLL FRONTENAC OIL CO.       : Well_name    - WELL
LOC .         00/03-16-097-16W4/0            : Location     - LOCATION
UWI .         00/03-16-097-16W400            : Uwi          - UNIQUE WELL ID
ENTR.         JOETTE                         : Entered      - ENTERED BY
SRVC.         SCHLUMBERGER                   : Scn          - SERVICE COMPANY
DATE.         08/17/92                       : Date         - LOG DATE
STRT.M        304.8                          : top_depth    - START DEPTH
STOP.M        426.8                          : bot_depth    - STOP DEPTH
STEP.M        0.25                           : increment    - STEP LENGTH
 NULL. -999.2500:NULL Value
~CURVE INFORMATION BLOCK
#MNEM UNIT       ERCB CURVE CODE    CURVE DESCRIPTION
#-----------   ------------------   ----------------------------------
DEPT.M        00 001 00 00         : DEPTH        - DEPTH
NPHI.V/V      00 330 00 00         : PHIN         - NEUTRON POROSITY (SANDSTONE)
GR  .API      00 310 00 00         : GR           - GAMMA RAY
ILD .OHMM     00 120 00 00         : RESD         - DEEP RESISTIVITY (DIL)
~PARAMETER INFORMATION
#MNEM.UNIT           DATA             DESCRIPTION OF MNEMONIC
#---------         -----------     ------------------------------
GL  .M        664.464              : gl           - GROUND LEVEL ELEVATION
EREF.M        667.817              : kb           - ELEVATION OF DEPTH REFERENCE
DATM.M        667.817              : datum        - DATUM ELEVATION
TDD .M        935.736              : tdd          - TOTAL DEPTH DRILLER
RUN .         ONE                  : Run          - RUN NUMBER
ENG .         JO                   : Engineer     - RECORDING ENGINEER
WIT .         TIM                  : Witness      - WITNESSED BY
MUD .         GEL                  : Mud_type     - MUD TYPE
MATR.         SANDSTONE            : Logunit      - NEUTRON MATRIX
TMAX.C        28.8889              : BHT          - MAXIMUM RECORDED TEMPERATURE
BHTD.M        935.736              : BHTDEP       - MAXIMUM RECORDED TEMPERATURE
RMT .C        -1.11111             : MDTP         - TEMPERATURE OF MUD
MUDD.KG/M     800                  : MWT          - MUD DENSITY
NEUT.         1                    : NEUTRON      - NEUTRON TYPE
RESI.         0                    : RESIST       - RESISTIVITY TYPE
RM  .OHMM     0.08                 : RM           - RESISTIVITY OF MUD
RMC .OHMM     0.08                 : RMC          - RESISTIVITY OF MUD CAKE
RMF .OHMM     0.01                 : RMF          - RESISTIVITY OF MUD FILTRATE
SUFT.C        4                    : SUFT         - SURFACE TEMPERATURE
~A  DEPTH     PHIN       GR     RESD
  304.800    0.437   92.574    0.513
  305.050    0.443   92.576    0.518
  305.300    0.448   91.837    0.523
  305.550    0.448   92.950    0.529
  305.800    0.449   93.321    0.534
  306.050    0.462   92.582    0.538
  306.300    0.462   92.213    0.542
  306.550    0.464   92.585    0.475
  306.800    0.498   92.216    0.406
  307.050    0.506   91.107    0.338
  307.300    0.488   88.517    0.270
  307.550    0.459   85.926    0.273
  307.800    0.449   80.373    0.206
  308.050    0.429   78.153    0.211
  308.300    0.442   88.523    0.289
  308.550    0.490   94.819    0.292
  308.800    0.499   97.783    0.297
  309.050    0.503   99.637    0.302
  309.300    0.514   98.528    0.309
  309.550    0.481   96.677    0.314
  309.800    0.468   92.976    0.319
  310.050    0.450   84.461    0.322
  310.300    0.440   81.500    0.328
  310.550    0.437   78.539    0.333
  310.800    0.438   74.838    0.411
  311.050    0.436   72.247    0.853
  311.300    0.435   68.175    2.687
  311.550    0.429   76.694    2.546
  311.800    0.442   85.212    1.160
  312.050    0.478   95.212    0.360
  312.300    0.495   97.065    0.293
  312.550    0.506  100.029    0.370
  312.800    0.515  101.141    0.596
  313.050    0.489   99.661    0.747
  313.300    0.463   97.812    0.532
  313.550    0.453   96.702    0.318
  313.800    0.461   95.964    0.248
  314.050    0.481   95.595    0.400
  314.300    0.502   96.336    0.918
  314.550    0.519   98.560    0.776
  314.800    0.525  100.042    0.489
  315.050    0.513   98.193    0.420
  315.300    0.502   97.084    0.425
  315.550    0.500   96.345    0.430
  315.800    0.494   94.866    0.508
  316.050    0.478   93.755    0.511
  316.300    0.470   91.165    0.445
  316.550    0.468   90.056    0.376
  316.800    0.466   92.650    3.600
  317.050    0.468   94.132    3.604
  317.300    0.483   97.466    0.902
  317.550    0.498   99.689    0.613
  317.800    0.499  102.653    0.472
  318.050    0.500  105.247    0.476
  318.300    0.508  108.211    0.482
  318.550    0.518  109.324    0.341
  318.800    0.527  108.585    0.199
  319.050    0.516  106.735    0.131
  319.300    0.491  103.774    0.210
  319.550    0.480   94.518    0.288
  319.800    0.483   86.002    0.365
  320.050    0.501   86.745    3.369
  320.300    0.517   95.263    1.399
  320.550    0.526  101.930    0.599
  320.800    0.535  108.227    2.579
  321.050    0.524  106.377    1.340
  321.300    0.506  105.638    0.321
  321.550    0.487  107.491    0.326
  321.800    0.455  109.714    0.185
  322.050    0.441  109.345    0.189
  322.300    0.436  107.866    0.414
  322.550    0.435  107.127    0.492
  322.800    0.432  106.388    0.350
  323.050    0.417  106.019    0.428
  323.300    0.415  105.650    0.652
  323.550    0.421  105.282    0.805
  323.800    0.438  104.543    0.811
  324.050    0.434  104.173    0.813
  324.300    0.436  102.694    0.819
  324.550    0.444  101.215    0.751
  324.800    0.458  100.105    0.681
  325.050    0.467   98.996    0.541
  325.300    0.448   98.627    0.180
  325.550    0.420   98.629   -0.035
  325.800    0.422   98.260   -0.030
  326.050    0.432   97.151    0.194
  326.300    0.439   95.671    0.346
  326.550    0.447   94.561    0.495
  326.800    0.469   97.155    0.573
  327.050    0.423   99.749    0.505
  327.300    0.394   99.010    0.436
  327.550    0.406   95.679    0.514
  327.800    0.440   95.681    0.301
  328.050    0.449   97.163    0.232
  328.300    0.454  100.867    1.627
  328.550    0.454  102.350    1.120
  328.800    0.455  103.833    0.540
  329.050    0.451  103.465    0.472
  329.300    0.440  103.095    0.623
  329.550    0.434  101.616    0.700
  329.800    0.449   93.841    0.778
  330.050    0.473   93.473    0.709
  330.300    0.485   95.325    0.641
  330.550    0.487   99.030    0.575
  330.800    0.462  101.253    0.577
  331.050    0.446   99.774    0.582
  331.300    0.444   97.553    0.515
  331.550    0.433   98.295    0.594
  331.800    0.417  101.260    0.525
  332.050    0.423  102.372    0.603
  332.300    0.456   98.670    0.681
  332.550    0.475   95.340    0.832
  332.800    0.483   97.193    0.836
  333.050    0.459   99.416    0.768
  333.300    0.434  102.010    0.626
  333.550    0.425  102.752    0.559
  333.800    0.412  102.383    0.637
  334.050    0.436  104.977    0.569
  334.300    0.453  104.608    0.574
  334.550    0.474   97.944    0.798
  334.800    0.478   86.837    1.679
  335.050    0.449   85.357    3.002
  335.300    0.438   83.137    1.396
  335.550    0.427   82.768    0.817
  335.800    0.417   84.991    0.455
  336.050    0.416   87.585    0.386
  336.300    0.428   90.179    0.318
  336.550    0.476   92.772    0.396
  336.800    0.501   96.847    0.401
  337.050    0.532  102.033    0.407
  337.300    0.532  106.848    0.485
  337.550    0.506  105.368    0.563
  337.800    0.492  102.037    0.642
  338.050    0.472   99.076    0.718
  338.300    0.404   96.857    0.798
  338.550    0.367   95.007    0.729
  338.800    0.358   91.676    0.587
  339.050    0.373   89.826    0.372
  339.300    0.407   85.754    0.523
  339.550    0.481   82.052    1.918
  339.800    0.470   85.387    6.533
  340.050    0.444   92.424    6.979
  340.300    0.420   96.499    6.982
  340.550    0.413   99.833    2.229
  340.800    0.422  102.426    0.405
  341.050    0.430  103.909    0.556
  341.300    0.436  104.651    0.707
  341.550    0.424  104.653    0.785
  341.800    0.413  104.284    0.863
  342.050    0.412  103.916    0.795
  342.300    0.416  103.176    0.728
  342.550    0.428  102.438    0.662
  342.800    0.443  102.069    0.664
  343.050    0.448  102.070    0.671
  343.300    0.442  102.072    0.674
  343.550    0.429  103.184    0.679
  343.800    0.416  105.037    0.686
  344.050    0.405  105.780    0.615
  344.300    0.397  104.300    0.549
  344.550    0.387  100.599    0.551
  344.800    0.393   99.860    0.629
  345.050    0.399  101.342    0.854
  345.300    0.415  102.826    4.079
  345.550    0.428  102.826    3.864
  345.800    0.441  102.828    1.746
  346.050    0.466  102.089    0.289
  346.300    0.475  100.980    0.659
  346.550    0.452   99.871    0.810
  346.800    0.446   99.501    0.889
  347.050    0.447   99.133    0.895
  347.300    0.451   99.135    0.898
  347.550    0.456   99.507    0.904
  347.800    0.459   99.878    0.762
  348.050    0.452   99.879    0.547
  348.300    0.430  100.251    0.625
  348.550    0.427  100.624    0.995
  348.800    0.417  100.625    1.731
  349.050    0.418  100.997    2.102
  349.300    0.422  101.368    1.229
  349.550    0.428  101.740    0.357
  349.800    0.414   99.890    0.216
  350.050    0.397   92.116    0.219
  350.300    0.395   83.230    1.028
  350.550    0.393   80.269    7.986
  350.800    0.406   91.010    1.624
  351.050    0.421  100.269    1.116
  351.300    0.412  104.714    0.682
  351.550    0.212   96.939    0.686
  351.800    0.191   82.129    0.618
  352.050    0.171   73.614    0.698
  352.300    0.161   66.209    1.360
  352.550    0.141   58.434   11.244
  352.800    0.183   49.919    9.859
  353.050    0.231   50.291    8.472
  353.300    0.260   55.106   13.747
  353.550    0.301   70.660   11.702
  353.800    0.402   90.288   10.902
  354.050    0.426   98.436    6.662
  354.300    0.445  101.400    6.448
  354.550    0.467  104.734    0.380
  354.800    0.473  105.846    0.385
  355.050    0.484  105.848    0.389
  355.300    0.497  104.739    0.613
  355.550    0.501  103.629    0.547
  355.800    0.484  102.149    0.477
  356.050    0.477   99.559    0.483
  356.300    0.478   98.080    0.488
  356.550    0.479   99.562    0.491
  356.800    0.444  102.156    0.350
  357.050    0.437  104.009    0.282
  357.300    0.470  105.121    0.726
  357.550    0.486  105.123    1.535
  357.800    0.488  104.384    2.199
  358.050    0.487  102.905    1.179
  358.300    0.493  103.646    0.600
  358.550    0.512  105.870    0.385
  358.800    0.526  106.612    0.316
