~VERSION INFORMATION
 VERS.                 2.0:   CWLS LOG ASCII STANDARD -VERSION 2.0
 WRAP.                  NO:   ONE LINE PER DEPTH STEP
~WELL INFORMATION BLOCK
#MNEM.UNIT           DATA                    DESCRIPTION OF MNEMONIC
#---------    -------------------            -------------------------------
# Generated from Intellog Unique Number	CS_77_79/WELL/869
WELL.         AMOCO                          : Well_name    - WELL
LOC .         00/06-11-077-09W4/0            : Location     - LOCATION
UWI .         00/06-11-077-09W4/0            : Uwi          - UNIQUE WELL ID
ENTR.         SP                             : Entered      - ENTERED BY
SRVC.         SCHLUMBERGER                   : Scn          - SERVICE COMPANY
STRT.M        228.6                          : top_depth    - START DEPTH
STOP.M        438.6                          : bot_depth    - STOP DEPTH
STEP.M        0.25                           : increment    - STEP LENGTH
 NULL. -999.2500:NULL Value
~CURVE INFORMATION BLOCK
#MNEM UNIT       ERCB CURVE CODE    CURVE DESCRIPTION
#-----------   ------------------   ----------------------------------
DEPT.M        00 001 00 00         : DEPTH        - DEPTH
GR  .API      00 310 00 00         : GR           - GAMMA RAY
DPHI.V/V      00 890 00 00         : PHID         - DENSITY POROSITY (SANDSTONE)
NPHI.V/V      00 330 00 00         : PHIN         - NEUTRON POROSITY (SANDSTONE)
ILD .OHMM     00 120 00 00         : RESD         - DEEP RESISTIVITY (DIL)
~PARAMETER INFORMATION
#MNEM.UNIT           DATA             DESCRIPTION OF MNEMONIC
#---------         -----------     ------------------------------
GL  .M        631.7                : gl           - GROUND LEVEL ELEVATION
EREF.M        635.8                : kb           - ELEVATION OF DEPTH REFERENCE
DATM.M        631.7                : datum        - DATUM ELEVATION
TDD .M        442                  : tdd          - TOTAL DEPTH DRILLER
RUN .         ONE                  : Run          - RUN NUMBER
ENG .         BILL                 : Engineer     - RECORDING ENGINEER
WIT .         JIM                  : Witness      - WITNESSED BY
MUD .         GEL                  : Mud_type     - MUD TYPE
MATR.         SANDSTONE            : Logunit      - NEUTRON MATRIX
TMAX.C        60                   : BHT          - MAXIMUM RECORDED TEMPERATURE
BHTD.M        2072                 : BHTDEP       - MAXIMUM RECORDED TEMPERATURE
MATR.         1                    : LOGUNIT      - NEUTRON MATRIX
RMT .C        25                   : MDTP         - TEMPERATURE OF MUD
NEUT.         1                    : NEUTRON      - NEUTRON TYPE
RESI.         0                    : RESIST       - RESISTIVITY TYPE
RMC .OHMM     0.25                 : RMC          - RESISTIVITY OF MUD CAKE
RMF .OHMM     0.25                 : RMF          - RESISTIVITY OF MUD FILTRATE
SUFT.C        15                   : SUFT         - SURFACE TEMPERATURE
~A  DEPTH       GR     PHID     PHIN     RESD
  228.600   99.996    0.242    0.518    7.067
  228.850  100.528    0.242    0.519    7.112
  229.100  101.616    0.245    0.509    7.071
  229.350   98.334    0.249    0.500    7.075
  229.600   96.058    0.253    0.507    6.926
  229.850   93.080    0.257    0.511    6.916
  230.100   92.207    0.238    0.507    6.935
  230.350   92.996    0.240    0.501    6.800
  230.600   98.384    0.242    0.513    6.808
  230.850   98.660    0.255    0.529    6.705
  231.100   99.457    0.276    0.525    6.572
  231.350  101.739    0.291    0.505    6.453
  231.600  104.965    0.331    0.496    6.336
  231.850  106.331    0.281    0.504    6.311
  232.100  107.573    0.260    0.515    6.230
  232.350  108.908    0.268    0.523    6.161
  232.600  110.098    0.283    0.527    6.119
  232.850  111.081    0.273    0.537    6.220
  233.100  111.864    0.289    0.558    6.423
  233.350  110.260    0.301    0.546    6.478
  233.600  107.322    0.314    0.516    6.696
  233.850  104.961    0.293    0.485    6.709
  234.100  105.778    0.277    0.479    6.712
  234.350  105.334    0.259    0.489    6.722
  234.600  104.491    0.262    0.499    6.537
  234.850  104.527    0.272    0.495    6.474
  235.100  104.455    0.271    0.512    6.569
  235.350  105.135    0.272    0.547    6.468
  235.600  105.638    0.278    0.565    6.366
  235.850  106.601    0.280    0.566    6.363
  236.100  107.486    0.283    0.543    6.356
  236.350  107.513    0.296    0.522    6.469
  236.600  105.664    0.308    0.526    6.537
  236.850  107.568    0.301    0.517    6.599
  237.100  109.419    0.275    0.501    6.603
  237.350  110.586    0.242    0.515    6.604
  237.600  107.888    0.250    0.531    6.604
  237.850  106.365    0.264    0.513    6.618
  238.100  105.235    0.276    0.497    6.474
  238.350  106.747    0.246    0.513    6.488
  238.600  107.103    0.261    0.532    6.489
  238.850  107.313    0.248    0.535    6.490
  239.100  107.871    0.246    0.547    6.490
  239.350  108.774    0.254    0.533    6.478
  239.600  110.409    0.254    0.523    6.618
  239.850  112.117    0.263    0.535    6.718
  240.100  107.735    0.270    0.573    6.767
  240.350  103.112    0.266    0.571    7.137
  240.600  108.459    0.251    0.557    7.338
  240.850  107.869    0.240    0.530    7.813
  241.100  103.004    0.254    0.520    8.559
  241.350   94.393    0.270    0.516    9.779
  241.600   81.801    0.292    0.493   11.531
  241.850   70.293    0.317    0.468   14.156
  242.100   59.667    0.310    0.449   18.416
  242.350   55.803    0.319    0.461   21.628
  242.600   59.985    0.326    0.502   23.645
  242.850   60.435    0.332    0.517   24.990
  243.100   57.017    0.321    0.463   25.168
  243.350   55.408    0.309    0.424   24.773
  243.600   57.405    0.321    0.427   24.412
  243.850   59.700    0.326    0.439   22.899
  244.100   61.947    0.329    0.452   21.178
  244.350   64.647    0.330    0.454   20.068
  244.600   66.654    0.335    0.431   19.497
  244.850   65.254    0.342    0.428   20.318
  245.100   60.028    0.341    0.429   21.651
  245.350   56.731    0.332    0.442   23.711
  245.600   53.403    0.336    0.453   25.517
  245.850   51.648    0.350    0.469   26.228
  246.100   52.195    0.372    0.454   27.035
  246.350   54.379    0.332    0.441   28.050
  246.600   55.864    0.309    0.460   29.817
  246.850   57.345    0.283    0.458   29.872
  247.100   63.244    0.286    0.459   28.489
  247.350   67.882    0.299    0.487   22.065
  247.600   73.056    0.310    0.474   15.161
  247.850   79.366    0.307    0.484   12.015
  248.100   87.106    0.245    0.497   10.517
  248.350   99.728    0.227    0.513    9.517
  248.600  119.447    0.241    0.524    9.039
  248.850  127.932    0.254    0.531    9.211
  249.100  131.401    0.274    0.528    9.880
  249.350  129.486    0.291    0.531   11.647
  249.600  124.582    0.292    0.511   13.551
  249.850  117.964    0.287    0.496   15.081
  250.100  115.236    0.308    0.486   15.992
  250.350  116.190    0.318    0.475   15.312
  250.600  115.292    0.313    0.469   14.338
  250.850  112.867    0.281    0.461   13.336
  251.100  115.501    0.270    0.468   12.415
  251.350  115.125    0.277    0.480   11.634
  251.600  112.236    0.298    0.489   11.915
  251.850  112.285    0.287    0.480   12.167
  252.100  111.517    0.291    0.459   12.453
  252.350  110.448    0.292    0.469   12.820
  252.600  111.058    0.285    0.471   13.736
  252.850  110.887    0.275    0.463   14.424
  253.100  107.349    0.263    0.458   15.812
  253.350   96.853    0.288    0.461   17.115
  253.600   86.948    0.304    0.460   17.588
  253.850   81.172    0.326    0.453   18.533
  254.100   81.062    0.301    0.445   18.145
  254.350   84.112    0.293    0.429   16.983
  254.600   88.422    0.288    0.424   15.359
  254.850   98.592    0.276    0.438   13.486
  255.100  104.661    0.263    0.451   11.423
  255.350  108.059    0.269    0.461   10.204
  255.600  109.948    0.253    0.457    9.534
  255.850  113.469    0.239    0.462    8.531
  256.100  115.530    0.235    0.466    8.247
  256.350  118.213    0.231    0.456    8.174
  256.600  121.015    0.234    0.458    8.527
  256.850  118.745    0.246    0.481    9.344
  257.100  111.448    0.288    0.473   10.554
  257.350  105.678    0.279    0.454   11.200
  257.600  102.079    0.262    0.419   11.883
  257.850  103.493    0.253    0.430   11.627
  258.100  107.000    0.267    0.442   10.512
  258.350  111.405    0.270    0.453    9.676
  258.600  117.226    0.254    0.460    8.691
  258.850  123.398    0.249    0.473    8.419
  259.100  126.345    0.257    0.481    8.175
  259.350  125.684    0.261    0.476    8.174
  259.600  119.046    0.271    0.489    8.424
  259.850  114.732    0.259    0.512    9.330
  260.100  109.023    0.265    0.519   10.224
  260.350  105.406    0.252    0.500   10.969
  260.600  104.766    0.240    0.492   11.582
  260.850  104.377    0.254    0.462   11.816
  261.100  106.393    0.269    0.450   11.771
  261.350  115.087    0.280    0.468   11.402
  261.600  116.161    0.305    0.471   11.604
  261.850  112.309    0.315    0.459   12.091
  262.100  106.663    0.298    0.450   12.677
  262.350  105.867    0.301    0.444   13.098
  262.600  105.917    0.306    0.441   12.940
  262.850  106.956    0.308    0.456   12.623
  263.100  106.963    0.297    0.458   11.732
  263.350  108.256    0.286    0.477   10.785
  263.600  109.186    0.298    0.500   10.169
  263.850  110.016    0.327    0.520    9.328
  264.100  110.568    0.351    0.530    8.836
  264.350  110.576    0.352    0.540    8.570
  264.600  110.602    0.339    0.552    8.545
  264.850  110.049    0.322    0.547    8.673
  265.100  106.570    0.303    0.533    9.038
  265.350   95.238    0.356    0.519   10.662
  265.600   80.968    0.387    0.551   14.673
  265.850   67.480    0.391    0.549   20.308
  266.100   58.558    0.352    0.486   25.162
  266.350   55.800    0.328    0.440   28.014
  266.600   55.561    0.336    0.424   30.531
  266.850   55.138    0.341    0.433   31.768
  267.100   55.564    0.344    0.443   32.812
  267.350   56.147    0.349    0.448   33.096
  267.600   59.734    0.346    0.443   33.607
  267.850   61.741    0.342    0.444   33.867
  268.100   62.924    0.343    0.453   34.871
  268.350   63.930    0.344    0.463   35.338
  268.600   63.701    0.344    0.466   36.141
  268.850   63.354    0.344    0.467   36.858
  269.100   63.206    0.339    0.449   37.276
  269.350   63.182    0.344    0.441   38.220
  269.600   62.169    0.344    0.446   38.939
  269.850   61.197    0.329    0.454   40.210
  270.100   60.327    0.336    0.460   40.579
  270.350   60.367    0.335    0.445   41.122
  270.600   60.290    0.335    0.439   42.341
  270.850   60.970    0.335    0.437   43.485
  271.100   61.469    0.337    0.434   44.203
  271.350   61.758    0.344    0.432   44.734
  271.600   62.796    0.351    0.440   45.349
  271.850   63.320    0.357    0.447   41.403
