~VERSION INFORMATION
 VERS.                 2.0:   CWLS LOG ASCII STANDARD -VERSION 2.0
 WRAP.                  NO:   ONE LINE PER DEPTH STEP
~WELL INFORMATION BLOCK
#MNEM.UNIT           DATA                    DESCRIPTION OF MNEMONIC
#---------    -------------------            -------------------------------
# Generated from Intellog Unique Number	CW_79_81/WELL/2451
WELL.         06-15-080-22W4                 : Well_name    - WELL
LOC .         00/06-15-080-22W4/0            : Location     - LOCATION
UWI .         00/06-15-080-22W4/0            : Uwi          - UNIQUE WELL ID
ENTR.         MAX                            : Entered      - ENTERED BY
SRVC.         SCHLUMBERGER                   : Scn          - SERVICE COMPANY
STRT.M        215                            : top_depth    - START DEPTH
STOP.M        434.75                         : bot_depth    - STOP DEPTH
STEP.M        0.25                           : increment    - STEP LENGTH
 NULL. -999.2500:NULL Value
~CURVE INFORMATION BLOCK
#MNEM UNIT       ERCB CURVE CODE    CURVE DESCRIPTION
#-----------   ------------------   ----------------------------------
DEPT.M        00 001 00 00         : DEPTH        - DEPTH
ILD .OHMM     00 120 00 00         : RESD         - DEEP RESISTIVITY (DIL)
NPHI.V/V      00 330 00 00         : PHIN         - NEUTRON POROSITY (SANDSTONE)
DPHI.V/V      00 890 00 00         : PHID         - DENSITY POROSITY (SANDSTONE)
GR  .API      00 310 00 00         : GR           - GAMMA RAY
CALI.MM       00 280 01 00         : CAL          - CALIPER
~PARAMETER INFORMATION
#MNEM.UNIT           DATA             DESCRIPTION OF MNEMONIC
#---------         -----------     ------------------------------
GL  .M        586                  : gl           - GROUND LEVEL ELEVATION
EREF.M        590.5                : kb           - ELEVATION OF DEPTH REFERENCE
DATM.M        586                  : datum        - DATUM ELEVATION
TDD .M        440                  : tdd          - TOTAL DEPTH DRILLER
RUN .         ONE                  : Run          - RUN NUMBER
ENG .         BILL                 : Engineer     - RECORDING ENGINEER
WIT .         JIM                  : Witness      - WITNESSED BY
MUD .         GEL                  : Mud_type     - MUD TYPE
MATR.         SANDSTONE            : Logunit      - NEUTRON MATRIX
TMAX.C        28                   : BHT          - MAXIMUM RECORDED TEMPERATURE
BHTD.M        440                  : BHTDEP       - MAXIMUM RECORDED TEMPERATURE
MATR.         1                    : LOGUNIT      - NEUTRON MATRIX
RMT .C        17                   : MDTP         - TEMPERATURE OF MUD
NEUT.         1                    : NEUTRON      - NEUTRON TYPE
RESI.         0                    : RESIST       - RESISTIVITY TYPE
RMC .OHMM     7.25                 : RMC          - RESISTIVITY OF MUD CAKE
RMF .OHMM     6.53                 : RMF          - RESISTIVITY OF MUD FILTRATE
SUFT.C        -20.5556             : SUFT         - SURFACE TEMPERATURE
~A  DEPTH     RESD     PHIN     PHID       GR      CAL
  215.000    3.868    0.593    0.337   91.216  230.821
  215.250    4.715    0.578    0.333   92.453  231.227
  215.500    5.561    0.558    0.328   93.769  231.003
  215.750    6.219    0.542    0.324   95.194  230.796
  216.000    6.440    0.528    0.321   96.382  230.589
  216.250    6.389    0.498    0.320   96.256  229.700
  216.500    6.166    0.492    0.321   93.269  229.275
  216.750    5.957    0.514    0.324   91.117  229.269
  217.000    5.994    0.498    0.321   90.397  229.558
  217.250    6.173    0.476    0.317   91.108  229.548
  217.500    6.403    0.463    0.310   93.010  229.141
  217.750    6.516    0.459    0.301   95.677  228.652
  218.000    6.245    0.469    0.304   95.920  228.229
  218.250    5.597    0.521    0.313   94.007  228.221
  218.500    4.860    0.562    0.325   92.273  227.913
  218.750    4.376    0.571    0.333   91.194  227.507
  219.000    4.168    0.554    0.336   90.533  227.102
  219.250    4.217    0.540    0.339   88.838  226.693
  219.500    4.334    0.541    0.341   86.349  226.684
  219.750    4.599    0.546    0.335   85.866  226.676
  220.000    5.218    0.529    0.338   82.344  226.668
  220.250    6.213    0.503    0.349   73.038  227.254
  220.500    7.708    0.472    0.359   60.513  228.238
  220.750   10.650    0.438    0.353   54.227  228.626
  221.000   14.717    0.444    0.338   62.171  228.618
  221.250   16.893    0.460    0.340   61.450  228.212
  221.500   18.515    0.442    0.348   55.186  227.806
  221.750   19.733    0.422    0.356   47.430  227.797
  222.000   20.780    0.409    0.359   41.105  228.185
  222.250   21.857    0.393    0.358   37.899  228.573
  222.500   22.308    0.384    0.361   37.397  228.564
  222.750   22.296    0.382    0.364   37.630  228.157
  223.000   22.281    0.391    0.365   37.684  227.155
  223.250   21.813    0.391    0.363   37.679  226.550
  223.500   20.864    0.382    0.360   37.912  227.039
  223.750   19.393    0.386    0.351   39.605  229.264
  224.000   17.709    0.402    0.336   43.326  230.496
  224.250   17.816    0.414    0.335   44.990  230.886
  224.500   18.468    0.391    0.333   41.825  230.380
  224.750   20.089    0.372    0.328   38.243  229.377
  225.000   22.868    0.371    0.324   36.926  228.374
  225.250   26.232    0.379    0.328   39.374  228.051
  225.500   26.397    0.377    0.335   42.101  228.454
  225.750   26.738    0.355    0.331   45.434  228.844
  226.000   27.624    0.324    0.324   48.231  229.233
  226.250   29.022    0.299    0.304   49.419  230.417
  226.500   30.965    0.288    0.278   48.102  232.197
  226.750   33.935    0.293    0.257   42.720  232.965
  227.000   35.873    0.290    0.248   38.491  230.885
  227.250   36.093    0.296    0.246   36.579  230.480
  227.500   35.768    0.303    0.258   35.202  231.265
  227.750   34.061    0.320    0.275   35.913  232.051
  228.000   31.470    0.355    0.295   38.650  232.341
  228.250   29.142    0.418    0.326   41.943  232.083
  228.500   28.715    0.427    0.363   42.931  230.833
  228.750   30.072    0.416    0.362   44.357  229.234
  229.000   31.031    0.422    0.359   47.034  228.529
  229.250   30.905    0.442    0.360   49.651  228.321
  229.500   29.115    0.466    0.364   51.316  228.511
  229.750   24.144    0.471    0.368   51.101  229.213
  230.000   18.633    0.449    0.361   48.860  228.790
  230.250   14.725    0.470    0.345   47.901  227.589
  230.500   12.736    0.480    0.342   49.088  226.985
  230.750   11.359    0.483    0.347   51.587  226.976
  231.000   10.441    0.476    0.351   54.920  227.464
  231.250   10.225    0.454    0.341   59.017  228.248
  231.500   10.218    0.447    0.331   59.261  228.240
  231.750    9.873    0.459    0.335   58.779  228.231
  232.000    9.297    0.472    0.335   59.012  229.115
  232.250    8.779    0.482    0.327   61.630  230.298
  232.500    8.429    0.482    0.313   66.633  231.383
  232.750    8.255    0.467    0.290   73.195  232.499
  233.000    8.248    0.449    0.252   77.411  234.145
  233.250    8.467    0.420    0.237   72.876  235.329
  233.500    9.171    0.401    0.247   65.478  235.023
  233.750   10.358    0.405    0.265   58.199  233.226
  234.000   12.000    0.422    0.282   53.305  230.931
  234.250   14.047    0.411    0.305   51.698  230.128
  234.500   15.171    0.404    0.327   48.465  230.119
  234.750   15.469    0.425    0.360   43.452  229.712
  235.000   15.226    0.440    0.357   41.121  229.604
  235.250   14.762    0.437    0.344   43.858  229.795
  235.500   14.215    0.421    0.333   50.054  230.283
  235.750   13.418    0.411    0.328   54.598  231.150
  236.000   12.772    0.408    0.324   57.075  231.553
  236.250   12.091    0.392    0.315   59.217  231.942
  236.500   11.746    0.402    0.301   62.253  231.140
  236.750   11.386    0.430    0.290   65.348  229.940
  237.000   10.852    0.454    0.285   68.443  229.235
  237.250    9.984    0.439    0.287   72.948  230.185
  237.500    9.243    0.429    0.277   76.420  231.005
  237.750    8.930    0.422    0.281   75.222  231.392
  238.000    8.851    0.423    0.285   74.204  231.483
  238.250    8.904    0.432    0.289   73.841  231.674
  238.500    8.974    0.450    0.290   74.075  231.964
  238.750    8.831    0.475    0.282   73.661  232.035
  239.000    8.464    0.473    0.268   70.426  232.439
  239.250    7.904    0.469    0.266   69.228  232.827
  239.500    7.537    0.464    0.270   71.429  232.919
  239.750    7.209    0.459    0.271   76.432  232.911
  240.000    6.934    0.453    0.267   81.792  232.902
  240.250    6.856    0.446    0.267   83.165  232.891
  240.500    6.948    0.437    0.266   82.913  232.884
  240.750    6.990    0.424    0.252   88.155  234.065
  241.000    7.174    0.421    0.235   90.891  234.355
  241.250    7.486    0.426    0.231   90.647  234.547
  241.500    7.922    0.435    0.240   87.483  234.836
  241.750    8.597    0.440    0.251   78.266  234.908
  242.000    9.286    0.433    0.256   59.630  235.313
  242.250   10.453    0.433    0.278   57.478  236.099
  242.500   11.501    0.433    0.307   58.725  234.799
  242.750   12.144    0.433    0.321   59.555  234.393
  243.000   12.343    0.438    0.317   59.013  235.378
  243.250   12.380    0.461    0.313   59.653  235.598
  243.500   12.200    0.464    0.333   62.877  234.763
  243.750   11.868    0.425    0.325   69.310  233.562
  244.000   11.428    0.399    0.312   72.524  232.658
  244.250   10.816    0.393    0.303   74.188  231.059
  244.500    9.980    0.400    0.302   75.912  228.865
  244.750    8.563    0.415    0.296   80.338  227.347
  245.000    7.158    0.470    0.272   85.797  227.753
  245.250    5.859    0.507    0.243   95.092  228.936
  245.500    4.967    0.521    0.224  100.453  229.226
  245.750    4.537    0.518    0.217  103.548  229.615
  246.000    4.444    0.504    0.218  105.629  230.301
  246.250    4.551    0.490    0.211  107.630  230.688
  246.500    4.644    0.503    0.197  108.121  230.680
  246.750    4.366    0.501    0.178  106.923  230.669
  247.000    3.979    0.511    0.191  109.482  230.661
  247.250    3.762    0.528    0.218  112.577  230.654
  247.500    3.747    0.548    0.244  113.823  230.546
  247.750    3.904    0.560    0.263  110.926  230.054
  248.000    4.217    0.551    0.284  107.195  229.631
  248.250    4.716    0.511    0.300   93.597  229.224
  248.500    5.608    0.462    0.308   87.510  228.223
  248.750    6.618    0.432    0.298   88.101  227.619
  249.000    7.274    0.425    0.275   91.673  228.206
  249.250    7.233    0.424    0.250   92.164  230.663
  249.500    6.836    0.439    0.247   94.642  231.066
  249.750    7.065    0.461    0.258   88.914  229.071
  250.000    8.034    0.459    0.277   75.316  227.672
  250.250   10.045    0.437    0.292   62.671  227.465
  250.500   13.175    0.406    0.298   54.976  228.450
  250.750   15.005    0.389    0.292   51.641  230.194
  251.000   15.643    0.394    0.291   52.876  231.014
  251.250   16.164    0.409    0.292   54.064  231.798
