~VERSION INFORMATION
 VERS.                 2.0:   CWLS LOG ASCII STANDARD -VERSION 2.0
 WRAP.                  NO:   ONE LINE PER DEPTH STEP
~WELL INFORMATION BLOCK
#MNEM.UNIT           DATA                    DESCRIPTION OF MNEMONIC
#---------    -------------------            -------------------------------
# Generated from Intellog Unique Number	CW_70_72/WELL/2897
NULL.         -999.25                        : NULL_VALUE
WELL.         MESA SULPETRO CROOKED          : Well_name    - WELL              
LOC .         03-06-070-22W4                 : Location     - LOCATION          
UWI .         00/03-06-070-22W4/0            : Uwi          - UNIQUE WELL ID    
ENTR.         MAX                            : Entered      - ENTERED BY        
SRVC.         SCHLUMBERGER                   : Scn          - SERVICE COMPANY   
DATE.         06 MAR 79                      : Date         - LOG DATE
STRT.M        425                            : top_depth    - START DEPTH       
STOP.M        580                            : bot_depth    - STOP DEPTH        
STEP.M        0.25                           : increment    - STEP LENGTH       
~CURVE INFORMATION BLOCK
#MNEM UNIT       ERCB CURVE CODE    CURVE DESCRIPTION
#-----------   ------------------   ----------------------------------
DEPT.M        00 001 00 00         : DEPTH        - DEPTH                       
GR  .API      00 310 00 00         : GR           - GAMMA RAY                   
ILD .OHMM     00 120 00 00         : RESD         - DEEP RESISTIVITY (DIL)      
NPHI.V/V      00 330 00 00         : PHIN         - NEUTRON POROSITY (SANDSTONE)
DPHI.V/V      00 890 00 00         : PHID         - DENSITY POROSITY (SANDSTONE)
CALI.MM       00 280 01 00         : CAL          - CALIPER                     
~PARAMETER INFORMATION       
#MNEM.UNIT           DATA             DESCRIPTION OF MNEMONIC
#---------         -----------     ------------------------------
GL  .M        633.4                : gl           - GROUND LEVEL ELEVATION      
EREF.M        637.8                : kb           - ELEVATION OF DEPTH REFERENCE
DATM.M        633.4                : datum        - DATUM ELEVATION             
TDD .M        611                  : tdd          - TOTAL DEPTH DRILLER         
RUN .         ONE                  : Run          - RUN NUMBER                  
ENG .         BILL                 : Engineer     - RECORDING ENGINEER          
WIT .         JIM                  : Witness      - WITNESSED BY                
MUD .         GEL                  : Mud_type     - MUD TYPE                    
MATR.         SANDSTONE            : Logunit      - NEUTRON MATRIX              
TMAX.C        26                   : BHT          - MAXIMUM RECORDED TEMPERATURE
BHTD.M        611                  : BHTDEP       - MAXIMUM RECORDED TEMPERATURE
RMT .C        20                   : MDTP         - TEMPERATURE OF MUD          
MUDD.KG/M     1120                 : MWT          - MUD DENSITY                 
NEUT.         1                    : NEUTRON      - NEUTRON TYPE                
RESI.         0                    : RESIST       - RESISTIVITY TYPE            
RM  .OHMM     4.32                 : RM           - RESISTIVITY OF MUD          
RMC .OHMM     0.25                 : RMC          - RESISTIVITY OF MUD CAKE     
RMF .OHMM     5.21                 : RMF          - RESISTIVITY OF MUD FILTRATE 
SUFT.C        -10                  : SUFT         - SURFACE TEMPERATURE         
~A  DEPTH       GR     RESD     PHIN     PHID      CAL
  425.000   90.426    3.035    0.567    0.312  178.859
  425.250   91.600    3.147    0.511    0.301  171.429
  425.500   91.887    3.175    0.537    0.325  172.895
  425.750   92.175    3.175    0.555    0.310  180.290
  426.000   92.161    3.116    0.570    0.294  182.248
  426.250   92.745    3.115    0.578    0.303  180.256
  426.500   93.328    3.114    0.584    0.297  182.214
  426.750   90.650    3.170    0.576    0.301  176.760
  427.000   87.973    3.198    0.563    0.312  177.736
  427.250   87.072    3.227    0.554    0.321  177.719
  427.500   90.620    3.255    0.566    0.312  182.150
  427.750   95.058    3.285    0.529    0.306  181.145
  428.000  101.569    3.469    0.488    0.253  172.728
  428.250   98.299    3.732    0.455    0.227  172.709
  428.500   93.545    4.127    0.439    0.220  173.187
  428.750   81.083    4.164    0.431    0.236  171.189
  429.000   70.102    4.087    0.396    0.231  169.200
  429.250   71.278    5.282    0.395    0.201  164.243
  429.500   78.680    5.329    0.412    0.191  161.261
  429.750   87.565    5.135    0.420    0.239  160.748
  430.000   94.076    4.392    0.430    0.243  161.722
  430.250   95.254    3.897    0.464    0.201  167.635
  430.500   91.686    3.896    0.477    0.230  174.534
  430.750   89.008    4.115    0.471    0.192  171.060
  431.000   90.477    4.509    0.447    0.198  165.604
  431.250   89.281    5.078    0.436    0.218  166.084
  431.500   83.936    5.464    0.441    0.192  166.065
  431.750   82.740    5.877    0.445    0.210  165.062
  432.000   85.102    6.095    0.447    0.199  164.055
  432.250   85.387    6.321    0.451    0.196  164.041
  432.500   84.786    6.436    0.456    0.203  164.022
  432.750   82.401    6.374    0.458    0.219  164.003
  433.000   83.876    6.200    0.455    0.231  164.481
  433.250   92.463    5.975    0.454    0.240  164.958
  433.500   92.453    5.550    0.460    0.257  163.459
  433.750   81.770    5.155    0.465    0.271  161.466
  434.000   76.126    4.659    0.462    0.302  160.463
  434.250   75.523    4.171    0.439    0.311  159.456
  434.500   75.217    3.701    0.444    0.304  158.945
  434.750   86.177    3.284    0.448    0.274  159.425
  435.000   92.096    3.022    0.455    0.247  160.396
  435.250   92.383    2.886    0.470    0.230  161.860
  435.500   90.593    2.833    0.482    0.227  162.335
  435.750   89.695    2.884    0.493    0.224  161.823
  436.000   89.682    2.991    0.503    0.230  161.316
  436.250   90.859    3.159    0.494    0.255  160.805
  436.500   96.482    3.217    0.469    0.251  164.741
  436.750  101.512    3.245    0.482    0.231  168.182
  437.000  104.466    3.244    0.491    0.247  168.661
  437.250  107.717    3.364    0.474    0.237  166.668
  437.500  111.562    3.586    0.439    0.236  166.649
  437.750  117.185    3.685    0.438    0.234  167.623
  438.000  120.732    3.650    0.443    0.234  169.089
  438.250  119.535    3.550    0.452    0.236  172.033
  438.500  114.487    3.421    0.461    0.253  173.997
  438.750  104.101    3.357    0.475    0.280  175.462
  439.000   93.713    3.514    0.490    0.287  171.488
  439.250   89.253    3.578    0.487    0.279  168.015
  439.500   87.467    3.643    0.478    0.294  161.076
  439.750   85.085    3.675    0.438    0.287  160.566
  440.000   85.075    3.674    0.442    0.285  160.551
  440.250   84.769    3.673    0.455    0.287  160.530
  440.500   83.867    3.672    0.464    0.293  160.520
  440.750   84.448    3.704    0.449    0.290  160.501
  441.000   85.034    3.737    0.450    0.270  160.484
  441.250   85.320    3.947    0.458    0.242  159.480
  441.500   85.309    4.286    0.460    0.192  158.967
  441.750   84.410    4.917    0.444    0.164  158.952
  442.000   78.175    7.292    0.247    0.194  160.416
  442.250   71.939    9.085    0.194    0.249  165.837
  442.500   71.040    8.918    0.209    0.199  165.324
  442.750   79.034    8.208    0.235    0.224  163.823
  443.000   86.436    6.346    0.305    0.251  163.808
  443.250   92.947    5.232    0.408    0.270  163.789
  443.500   95.013    4.394    0.446    0.244  163.281
  443.750   97.079    3.934    0.458    0.236  163.758
  444.000  100.625    3.654    0.458    0.226  163.739
  444.250  104.766    3.522    0.441    0.225  163.723
  444.500  108.907    3.488    0.435    0.227  163.706
  444.750  107.118    3.487    0.450    0.214  163.691
  445.000  107.996    3.518    0.458    0.214  163.673
  445.250  108.876    3.549    0.460    0.218  164.152
  445.500  105.902    3.548    0.470    0.224  164.136
  445.750   99.963    3.547    0.478    0.227  164.115
  446.000   96.692    3.513    0.477    0.233  164.096
  446.250   96.385    3.448    0.454    0.229  164.081
  446.500   97.559    3.384    0.453    0.218  163.571
  446.750   97.846    3.322    0.466    0.211  163.060
  447.000   98.726    3.231    0.480    0.189  165.514
  447.250   98.123    3.142    0.492    0.227  165.497
  447.500   97.816    3.141    0.492    0.242  164.988
  447.750   98.398    3.348    0.486    0.211  163.981
  448.000   97.497    3.668    0.466    0.201  164.461
  448.250   96.007    3.946    0.466    0.176  164.938
  448.500   93.030    4.018    0.457    0.180  164.428
  448.750   93.612    4.017    0.454    0.189  163.911
  449.000   94.494    4.015    0.459    0.205  163.898
  449.250   96.558    4.014    0.470    0.197  164.868
  449.500   98.920    4.013    0.457    0.202  164.853
  449.750   98.020    4.012    0.465    0.202  164.340
  450.000  100.975    3.901    0.451    0.190  165.314
  450.250  100.669    3.725    0.458    0.197  168.262
  450.500   97.101    3.429    0.474    0.225  172.690
  450.750   92.349    3.014    0.480    0.237  171.193
  451.000   86.409    2.602    0.441    0.270  166.728
  451.250   73.946    2.601    0.440    0.289  162.760
  451.500   70.970    2.903    0.448    0.295  160.759
  451.750   72.145    3.152    0.462    0.288  160.746
  452.000   73.915    3.298    0.483    0.283  160.235
  452.250   75.981    3.389    0.477    0.286  158.736
  452.500   83.381    3.451    0.467    0.277  159.214
  452.750   91.082    3.482    0.448    0.264  159.693
  453.000   98.780    3.577    0.455    0.206  160.169
  453.250   97.584    3.643    0.473    0.197  160.154
  453.500   95.202    3.641    0.461    0.201  161.126
  453.750   93.413    3.777    0.457    0.191  162.095
  454.000   92.808    3.741    0.456    0.204  163.561
  454.250   91.909    3.705    0.452    0.216  162.556
  454.500   91.010    3.604    0.435    0.214  160.563
  454.750   90.703    3.537    0.429    0.212  160.544
  455.000   89.507    3.471    0.440    0.223  162.012
  455.250   91.870    3.376    0.443    0.243  161.007
  455.500   98.086    3.375    0.422    0.227  161.482
  455.750   99.262    3.405    0.448    0.228  163.444
  456.000   96.583    3.499    0.470    0.262  163.423
  456.250   91.830    3.695    0.500    0.293  162.423
  456.500   73.437    3.939    0.529    0.319  160.427
  456.750   70.461    4.048    0.522    0.318  159.418
  457.000   69.858    4.122    0.495    0.283  159.404
  457.250   68.960    4.045    0.431    0.283  159.387
  457.500   65.985    3.898    0.445    0.296  159.368
  457.750   62.418    3.688    0.441    0.299  159.356
  458.000   56.773    3.426    0.427    0.303  159.335
  458.250   55.281    3.182    0.430    0.306  159.321
  458.500   54.379    2.983    0.434    0.302  159.304
  458.750   53.186    2.797    0.429    0.306  158.795
  459.000   50.508    2.598    0.416    0.310  158.280
  459.250   46.938    2.481    0.409    0.313  157.772
  459.500   46.927    2.369    0.405    0.309  158.247
  459.750   48.699    2.262    0.392    0.301  158.230
  460.000   52.542    2.179    0.406    0.302  158.710
  460.250   53.124    2.159    0.403    0.313  158.691
  460.500   53.706    2.158    0.413    0.309  158.674
  460.750   55.475    2.197    0.422    0.305  158.166
  461.000   57.838    2.279    0.435    0.302  157.655
  461.250   61.089    2.407    0.443    0.305  157.144
