~VERSION INFORMATION
 VERS.                 2.0:   CWLS LOG ASCII STANDARD -VERSION 2.0
 WRAP.                  NO:   ONE LINE PER DEPTH STEP
~WELL INFORMATION BLOCK
#MNEM.UNIT           DATA                    DESCRIPTION OF MNEMONIC
#---------    -------------------            -------------------------------
# Generated from Intellog Unique Number	CW_79_81/WELL/2457
WELL.         SHELL MISTEHAE                 : Well_name    - WELL
LOC .         00/07-09-081-02W5/0            : Location     - LOCATION
UWI .         00/07-09-081-02W5/0            : Uwi          - UNIQUE WELL ID
ENTR.         MAX                            : Entered      - ENTERED BY
SRVC.         SCHLUMBERGER                   : Scn          - SERVICE COMPANY
STRT.M        243.84                         : top_depth    - START DEPTH
STOP.M        490.59                         : bot_depth    - STOP DEPTH
STEP.M        0.25                           : increment    - STEP LENGTH
 NULL. -999.2500:NULL Value
~CURVE INFORMATION BLOCK
#MNEM UNIT       ERCB CURVE CODE    CURVE DESCRIPTION
#-----------   ------------------   ----------------------------------
DEPT.M        00 001 00 00         : DEPTH        - DEPTH
ILD .OHMM     00 120 00 00         : RESD         - DEEP RESISTIVITY (DIL)
NPHI.V/V      00 330 00 00         : PHIN         - NEUTRON POROSITY (SANDSTONE)
DPHI.V/V      00 890 00 00         : PHID         - DENSITY POROSITY (SANDSTONE)
GR  .API      00 310 00 00         : GR           - GAMMA RAY
CALI.MM       00 280 01 00         : CAL          - CALIPER
~PARAMETER INFORMATION
#MNEM.UNIT           DATA             DESCRIPTION OF MNEMONIC
#---------         -----------     ------------------------------
GL  .M        607.771              : gl           - GROUND LEVEL ELEVATION
EREF.M        612.023              : kb           - ELEVATION OF DEPTH REFERENCE
DATM.M        607.771              : datum        - DATUM ELEVATION
TDD .M        492.557              : tdd          - TOTAL DEPTH DRILLER
RUN .         ONE                  : Run          - RUN NUMBER
ENG .         BILL                 : Engineer     - RECORDING ENGINEER
WIT .         JIM                  : Witness      - WITNESSED BY
MUD .         GEL                  : Mud_type     - MUD TYPE
MATR.         SANDSTONE            : Logunit      - NEUTRON MATRIX
TMAX.C        25.5556              : BHT          - MAXIMUM RECORDED TEMPERATURE
BHTD.M        492.557              : BHTDEP       - MAXIMUM RECORDED TEMPERATURE
MATR.         1                    : LOGUNIT      - NEUTRON MATRIX
RMT .C        21.1111              : MDTP         - TEMPERATURE OF MUD
NEUT.         1                    : NEUTRON      - NEUTRON TYPE
RESI.         0                    : RESIST       - RESISTIVITY TYPE
RMC .OHMM     3.28                 : RMC          - RESISTIVITY OF MUD CAKE
RMF .OHMM     4.9                  : RMF          - RESISTIVITY OF MUD FILTRATE
SUFT.C        -18.3333             : SUFT         - SURFACE TEMPERATURE
~A  DEPTH     RESD     PHIN     PHID       GR      CAL
# ...
  280.340   14.852    0.509    0.312   50.352  273.025
  280.590   13.652    0.521    0.303   52.858  279.277
  280.840   12.225    0.537    0.299   55.836  284.220
  281.090    9.744    0.505    0.257   59.720  281.018
  281.340    7.109    0.504    0.225   62.455  268.908
  281.590    5.637    0.515    0.219   64.840  252.063
  281.840    4.454    0.518    0.208   66.871  257.507
  282.090    3.692    0.530    0.220   68.547  273.200
  282.340    3.258    0.553    0.251   69.747  284.073
  282.590    3.090    0.582    0.267   69.645  269.873
  282.840    3.163    0.596    0.277   66.695  259.018
  283.090    3.502    0.585    0.300   64.099  254.223
  283.340    4.143    0.561    0.309   59.191  249.124
  283.590    5.099    0.525    0.284   52.800  245.733
  283.840    6.549    0.488    0.241   47.595  244.453
  284.090   10.026    0.461    0.231   47.592  244.167
  284.340   12.976    0.461    0.235   45.136  244.606
  284.590   17.313    0.359    0.237   42.067  241.819
  284.840   23.153    0.262    0.183   41.844  227.584
  285.090   30.151    0.202    0.090   41.504  215.555
  285.340   37.467    0.185    0.006   40.155  210.860
  285.590   45.684    0.190    0.011   39.033  210.174
  285.840   46.417    0.197    0.045   39.295  210.616
  286.090   44.110    0.215    0.086   39.546  211.442
  286.340   38.908    0.246    0.119   37.664  213.172
  286.590   34.177    0.327    0.153   34.475  217.012
  286.840   30.447    0.427    0.207   31.346  223.062
  287.090   26.771    0.434    0.313   30.031  230.826
  287.340   25.025    0.425    0.313   29.303  233.366
  287.590   24.862    0.432    0.319   28.605  239.017
  287.840   24.695    0.440    0.316   28.087  241.349
  288.090   24.438    0.448    0.314   27.863  242.376
  288.340   24.098    0.452    0.314   27.817  243.406
  288.590   23.732    0.454    0.310   27.646  245.295
  288.840   23.566    0.458    0.310   27.909  246.571
  289.090   23.581    0.464    0.315   28.398  247.402
  289.340   23.337    0.465    0.319   29.422  248.531
  289.590   23.097    0.471    0.321   30.267  250.162
  289.840   22.900    0.479    0.321   30.518  252.700
  290.090   22.585    0.475    0.319   29.913  256.998
  290.340   22.599    0.450    0.329   29.187  258.274
  290.590   22.613    0.452    0.326   28.966  261.116
  290.840   22.628    0.443    0.320   29.633  262.745
  291.090   22.561    0.433    0.320   30.713  263.771
  291.340   22.453    0.427    0.328   32.032  264.698
  291.590   22.400    0.429    0.328   34.252  266.185
  291.840   22.075    0.438    0.328   36.988  267.469
  292.090   21.609    0.451    0.320   39.848  268.701
  292.340   21.035    0.462    0.313   41.998  269.625
  292.590   20.515    0.472    0.317   42.368  270.049
  292.840   20.157    0.481    0.326   41.076  270.076
  293.090   20.026    0.482    0.317   39.483  270.023
  293.340   20.042    0.462    0.307   39.749  269.630
  293.590   20.054    0.459    0.302   40.947  269.650
  293.840   20.067    0.461    0.308   39.301  269.679
  294.090   20.079    0.464    0.308   36.945  269.906
  294.340   20.127    0.469    0.303   34.883  270.329
  294.590   20.322    0.483    0.302   32.654  270.761
  294.840   20.490    0.482    0.299   30.939  270.784
  295.090   20.653    0.464    0.294   30.004  270.809
  295.340   20.702    0.457    0.294   29.248  271.137
  295.590   20.716    0.466    0.298   28.551  271.564
  295.840   20.693    0.485    0.305   27.735  271.888
  296.090   20.555    0.497    0.313   26.665  271.915
  296.340   20.568    0.487    0.319   27.173  271.942
  296.590   20.582    0.476    0.321   27.189  271.964
  296.840   20.594    0.477    0.322   27.560  271.988
  297.090   20.608    0.482    0.321   28.286  272.015
  297.340   20.622    0.489    0.320   29.191  272.041
  297.590   20.697    0.498    0.325   29.969  271.985
  297.840   21.030    0.492    0.321   30.230  271.592
  298.090   21.353    0.490    0.320   30.009  271.213
  298.340   21.562    0.480    0.323   29.787  270.233
  298.590   21.575    0.476    0.320   29.800  268.651
  298.840   21.392    0.475    0.312   30.404  266.667
  299.090   21.131    0.457    0.311   32.478  264.436
  299.340   21.305    0.452    0.308   34.470  263.212
  299.590   21.009    0.455    0.302   34.960  262.431
  299.840   20.601    0.461    0.298   35.627  262.554
  300.090   20.241    0.471    0.300   36.711  263.782
  300.340   19.924    0.481    0.306   38.091  265.312
  300.590   19.477    0.477    0.314   39.590  265.263
  300.840   19.341    0.477    0.311   41.085  264.868
  301.090   19.354    0.474    0.300   43.710  265.292
  301.340   19.260    0.473    0.304   47.046  266.922
  301.590   18.991    0.476    0.312   49.313  269.155
  301.840   18.556    0.482    0.313   48.496  271.289
  302.090   17.692    0.489    0.303   42.741  272.193
  302.340   16.171    0.495    0.317   44.734  270.545
  302.590   14.157    0.493    0.288   51.866  272.172
  302.840   11.761    0.497    0.242   57.396  270.187
  303.090    9.941    0.501    0.214   59.902  263.785
  303.340    8.967    0.493    0.222   59.740  257.084
  303.590    9.120    0.451    0.265   59.293  259.373
  303.840    9.554    0.436    0.285   60.541  260.652
  304.090    9.844    0.462    0.289   62.929  253.045
  304.340    9.760    0.479    0.276   65.672  246.941
  304.590    8.943    0.497    0.257   67.940  244.354
  304.840    7.725    0.511    0.245   68.903  246.286
  305.090    6.651    0.503    0.246   67.436  253.247
  305.340    6.655    0.482    0.249   65.971  255.786
  305.590    6.905    0.471    0.261   63.850  258.216
  305.840    7.476    0.482    0.269   61.907  261.858
  306.090    7.628    0.497    0.280   60.972  269.114
  306.340    6.907    0.513    0.296   61.283  285.103
  306.590    5.370    0.546    0.324   63.128  321.356
  306.840    4.268    0.591    0.338   66.356  339.795
  307.090    4.117    0.563    0.313   66.848  320.941
  307.340    4.173    0.537    0.269   67.512  297.864
  307.590    4.330    0.519    0.250   66.340  279.007
  307.840    4.655    0.512    0.264   62.856  261.756
  308.090    5.621    0.519    0.290   56.744  234.969
  308.340    6.121    0.503    0.301   49.838  247.550
  308.590    7.219    0.488    0.266   42.025  255.209
  308.840    9.004    0.462    0.245   34.566  255.031
  309.090   11.312    0.405    0.244   31.022  251.038
  309.340   13.479    0.352    0.258   31.570  246.746
  309.590   14.448    0.388    0.270   33.258  245.252
  309.840   13.607    0.392    0.274   34.508  245.694
  310.090   10.545    0.412    0.281   36.896  246.527
  310.340    9.444    0.445    0.279   39.818  249.462
  310.590    8.681    0.480    0.285   40.188  255.308
  310.840    8.088    0.496    0.291   38.126  259.751
  311.090    8.154    0.455    0.269   36.957  252.098
  311.340    8.809    0.415    0.247   36.972  245.844
  311.590   10.609    0.447    0.202   33.190  259.526
  311.840   12.495    0.413    0.185   31.012  258.146
  312.090   14.627    0.352    0.181   30.908  252.949
  312.340   16.771    0.301    0.180   34.300  249.157
  312.590   16.942    0.299    0.177   44.954  245.637
  312.840   14.486    0.329    0.200   51.888  243.995
  313.090   12.681    0.438    0.249   55.936  243.613
  313.340   10.790    0.500    0.319   58.560  242.333
  313.590    9.312    0.540    0.382   59.404  243.564
  313.840    8.376    0.567    0.432   58.352  249.112
  314.090    7.974    0.574    0.485   55.278  260.521
  314.340    7.740    0.558    0.511   54.058  267.240
  314.590    7.301    0.544    0.484   51.934  260.435
  314.840    6.620    0.558    0.488   51.237  277.131
  315.090    5.959    0.592    0.525   51.607  323.359
  315.340    5.342    0.627    0.575   52.510  373.801
  315.590    4.569    0.632    0.598   53.044  371.236
  315.840    4.024    0.625    0.588   52.069  368.327
  316.090    3.939    0.623    0.585   52.319  370.765
  316.340    3.984    0.626    0.586   53.638  373.199
  316.590    4.119    0.629    0.587   55.908  373.224
