~VERSION INFORMATION
 VERS.                 2.0:   CWLS LOG ASCII STANDARD -VERSION 2.0
 WRAP.                  NO:   ONE LINE PER DEPTH STEP
~WELL INFORMATION BLOCK
#MNEM.UNIT           DATA                    DESCRIPTION OF MNEMONIC
#---------    -------------------            -------------------------------
# Generated from Intellog Unique Number	CC_80_83/WELL/1044
NULL.         -999.25                        : NULL_VALUE
LOC .         01-27-080-14W4                 : Location     - LOCATION          
UWI .         00/01-27-080-14W4/0            : Uwi          - UNIQUE WELL ID    
ENTR.         DW                             : Entered      - ENTERED BY        
SRVC.         SCHLUMBERGER                   : Scn          - SERVICE COMPANY   
STRT.M        240                            : top_depth    - START DEPTH       
STOP.M        474.75                         : bot_depth    - STOP DEPTH        
STEP.M        0.25                           : increment    - STEP LENGTH       
~CURVE INFORMATION BLOCK
#MNEM UNIT       ERCB CURVE CODE    CURVE DESCRIPTION
#-----------   ------------------   ----------------------------------
DEPT.M        00 001 00 00         : DEPTH        - DEPTH                       
GR  .API      00 310 00 00         : GR           - GAMMA RAY                   
DPHI.V/V      00 890 00 00         : PHID         - DENSITY POROSITY (SANDSTONE)
NPHI.V/V      00 330 00 00         : PHIN         - NEUTRON POROSITY (SANDSTONE)
ILD .OHMM     00 120 00 00         : RESD         - DEEP RESISTIVITY (DIL)      
~PARAMETER INFORMATION       
#MNEM.UNIT           DATA             DESCRIPTION OF MNEMONIC
#---------         -----------     ------------------------------
GL  .M        663.1                : gl           - GROUND LEVEL ELEVATION      
EREF.M        667.1                : kb           - ELEVATION OF DEPTH REFERENCE
DATM.M        667.1                : datum        - DATUM ELEVATION             
TDD .M        477                  : tdd          - TOTAL DEPTH DRILLER         
RUN .         ONE                  : Run          - RUN NUMBER                  
ENG .         BILL                 : Engineer     - RECORDING ENGINEER          
WIT .         JIM                  : Witness      - WITNESSED BY                
MUD .         GEL                  : Mud_type     - MUD TYPE                    
MATR.         SANDSTONE            : Logunit      - NEUTRON MATRIX              
TMAX.C        21.1                 : BHT          - MAXIMUM RECORDED TEMPERATURE
BHTD.M        477                  : BHTDEP       - MAXIMUM RECORDED TEMPERATURE
MATR.         1                    : LOGUNIT      - NEUTRON MATRIX              
RMT .C        25                   : MDTP         - TEMPERATURE OF MUD          
NEUT.         1                    : NEUTRON      - NEUTRON TYPE                
RESI.         0                    : RESIST       - RESISTIVITY TYPE            
RMC .OHMM     0.25                 : RMC          - RESISTIVITY OF MUD CAKE     
RMF .OHMM     0.25                 : RMF          - RESISTIVITY OF MUD FILTRATE 
SUFT.C        15                   : SUFT         - SURFACE TEMPERATURE         
~A  DEPTH       GR     PHID     PHIN     RESD
# ...
  370.500   83.720    0.234    0.471    7.359
  370.750   83.403    0.238    0.465    7.351
  371.000   86.797    0.251    0.464    7.431
  371.250   88.174    0.204    0.462    7.655
  371.500   78.882    0.159    0.444    7.836
  371.750   71.826    0.179    0.425    7.735
  372.000   82.072    0.219    0.425    7.334
  372.250   84.725    0.267    0.434    6.762
  372.500   82.125    0.266    0.482    6.331
  372.750   80.983    0.260    0.517    5.854
  373.000   83.186    0.261    0.500    5.232
  373.250   86.074    0.251    0.463    4.723
  373.500   87.542    0.243    0.464    4.532
  373.750   89.476    0.244    0.492    4.516
  374.000   86.847    0.267    0.507    4.660
  374.250   87.962    0.273    0.491    4.748
  374.500   90.072    0.265    0.472    5.137
  374.750   85.391    0.269    0.480    5.827
  375.000   78.752    0.240    0.478    6.410
  375.250   75.234    0.122    0.393    7.517
  375.500   65.126    0.107    0.340    8.804
  375.750   70.454    0.129    0.325   10.434
  376.000   81.859    0.210    0.369   11.258
  376.250   83.694    0.313    0.440   10.808
  376.500   88.276    0.272    0.451   10.298
  376.750   93.640    0.223    0.464    9.445
  377.000   96.542    0.226    0.467    7.645
  377.250   99.263    0.236    0.454    6.437
  377.500   97.509    0.233    0.464    5.874
  377.750   94.665    0.226    0.500    5.411
  378.000   98.767    0.218    0.508    5.461
  378.250   97.243    0.225    0.483    5.612
  378.500   97.367    0.238    0.477    6.068
  378.750  101.700    0.230    0.478    6.371
  379.000  100.413    0.219    0.465    6.290
  379.250   95.320    0.235    0.468    6.068
  379.500   97.543    0.254    0.497    6.120
  379.750   96.699    0.241    0.476    6.836
  380.000   94.447    0.234    0.450    7.643
  380.250   93.186    0.231    0.427    8.671
  380.500   93.487    0.224    0.410    9.695
  380.750   93.629    0.208    0.407   10.376
  381.000   91.914    0.184    0.397   10.855
  381.250   90.809    0.196    0.381   11.062
  381.500   90.596    0.229    0.379   10.825
  381.750   91.258    0.251    0.413   10.248
  382.000   94.166    0.255    0.448    9.538
  382.250   96.215    0.250    0.456    8.756
  382.500   93.140    0.235    0.457    7.947
  382.750   91.609    0.224    0.464    7.328
  383.000   95.866    0.220    0.477    6.822
  383.250   98.390    0.224    0.486    6.587
  383.500   96.493    0.222    0.478    6.547
  383.750   92.980    0.233    0.457    6.578
  384.000   88.154    0.267    0.453    6.683
  384.250   81.914    0.248    0.487    6.757
  384.500   77.085    0.198    0.486    7.262
  384.750   77.407    0.211    0.422    7.762
  385.000   79.688    0.267    0.389    8.038
  385.250   80.329    0.292    0.424    8.306
  385.500   80.206    0.287    0.441    8.563
  385.750   77.807    0.294    0.426    8.582
  386.000   73.807    0.303    0.443    8.346
  386.250   72.615    0.286    0.451    8.053
  386.500   74.095    0.260    0.435    7.834
  386.750   75.602    0.252    0.424    7.765
  387.000   78.490    0.248    0.426    7.913
  387.250   85.262    0.231    0.431    8.174
  387.500   89.746    0.239    0.436    8.327
  387.750   86.906    0.268    0.450    8.459
  388.000   84.645    0.276    0.458    8.548
  388.250   86.736    0.264    0.452    8.507
  388.500   86.465    0.259    0.451    8.355
  388.750   87.224    0.242    0.455    8.082
  389.000   90.957    0.247    0.464    7.913
  389.250   92.047    0.266    0.449    7.861
  389.500   88.060    0.289    0.439    7.925
  389.750   82.138    0.288    0.456    8.056
  390.000   77.748    0.243    0.458    8.185
  390.250   76.408    0.230    0.434    8.442
  390.500   78.393    0.283    0.444    8.749
  390.750   78.660    0.314    0.476    8.865
  391.000   72.478    0.254    0.452    8.764
  391.250   65.035    0.183    0.358    8.628
  391.500   66.148    0.217    0.313    8.652
  391.750   72.245    0.295    0.411    8.922
  392.000   72.550    0.305    0.457    9.242
  392.250   73.662    0.289    0.453    9.394
  392.500   77.350    0.284    0.450    9.192
  392.750   76.252    0.247    0.465    8.963
  393.000   69.677    0.160    0.451    9.144
  393.250   67.178    0.098    0.296    9.511
  393.500   68.757    0.093    0.251   10.906
  393.750   65.615    0.089    0.259   12.224
  394.000   59.492    0.079    0.246   13.580
  394.250   57.342    0.087    0.229   16.425
  394.500   59.984    0.125    0.230   19.695
  394.750   66.180    0.218    0.297   19.305
  395.000   72.209    0.267    0.341   16.533
  395.250   79.563    0.281    0.405   13.352
  395.500   81.730    0.293    0.448   10.025
  395.750   77.911    0.299    0.437    7.692
  396.000   78.586    0.291    0.443    7.658
  396.250   82.333    0.276    0.437    7.537
  396.500   83.346    0.283    0.427    7.485
  396.750   78.644    0.290    0.438    7.519
  397.000   72.596    0.286    0.454    7.463
  397.250   70.337    0.276    0.455    7.317
  397.500   71.776    0.265    0.448    7.212
  397.750   74.871    0.272    0.447    7.321
  398.000   77.772    0.289    0.454    7.445
  398.250   79.428    0.297    0.449    7.547
  398.500   81.581    0.296    0.443    7.312
  398.750   84.808    0.292    0.446    6.851
  399.000   88.615    0.278    0.446    6.524
  399.250   95.042    0.255    0.444    5.683
  399.500   97.547    0.218    0.446    4.655
  399.750   95.750    0.217    0.446    4.104
  400.000   94.640    0.235    0.445    4.046
  400.250   93.288    0.232    0.442    4.144
  400.500   87.758    0.213    0.434    4.456
  400.750   84.398    0.183    0.433    5.236
  401.000   84.078    0.170    0.434    5.983
  401.250   83.881    0.172    0.428    6.822
  401.500   81.893    0.189    0.423    7.583
  401.750   82.589    0.209    0.424    7.935
  402.000   87.317    0.207    0.417    8.042
  402.250   84.366    0.192    0.408    8.176
  402.500   81.703    0.191    0.404    8.184
  402.750   85.484    0.206    0.423    8.251
  403.000   89.573    0.220    0.432    8.399
  403.250   89.813    0.228    0.417    8.532
  403.500   89.107    0.231    0.417    8.662
  403.750   85.770    0.233    0.431    8.670
  404.000   86.311    0.236    0.440    8.553
  404.250   88.698    0.218    0.437    8.379
  404.500   88.857    0.206    0.425    8.339
  404.750   86.805    0.210    0.423    8.545
  405.000   84.151    0.200    0.438    8.811
  405.250   80.956    0.188    0.425    8.936
  405.500   79.766    0.170    0.402    9.311
  405.750   83.434    0.167    0.375    9.808
  406.000   88.746    0.181    0.361   10.231
  406.250   93.547    0.193    0.368   10.485
  406.500   99.248    0.198    0.378   10.444
  406.750  101.716    0.205    0.392   10.123
  407.000   99.729    0.217    0.408    9.624
  407.250   99.887    0.222    0.422    8.522
  407.500  102.726    0.221    0.436    7.081
  407.750   97.915    0.222    0.448    6.034
  408.000   86.008    0.226    0.445    5.635
  408.250   89.344    0.231    0.434    5.564
  408.500   93.282    0.280    0.438    5.133
  408.750   93.278    0.316    0.489    4.211
  409.000   89.635    0.316    0.552    3.247
  409.250   84.702    0.302    0.596    2.593
  409.500   81.711    0.283    0.619    2.189
  409.750   76.868    0.264    0.564    2.017
  410.000   75.735    0.239    0.466    2.283
  410.250   79.601    0.223    0.424    2.586
  410.500   75.639    0.223    0.431    3.265
  410.750   69.855    0.240    0.424    4.623
  411.000   79.575    0.263    0.405    5.853
  411.250   82.278    0.266    0.407    6.330
  411.500   71.520    0.247    0.430    7.102
  411.750   62.972    0.192    0.413    8.080
  412.000   68.911    0.164    0.368    8.827
  412.250   80.688    0.195    0.357    9.037
  412.500   85.696    0.228    0.398    8.529
  412.750   91.242    0.231    0.452    7.374
  413.000   90.701    0.230    0.465    5.174
  413.250   84.461    0.233    0.470    3.825
  413.500   81.949    0.235    0.479    3.627
  413.750   84.955    0.237    0.463    3.711
