~VERSION INFORMATION
 VERS.                 2.0:   CWLS LOG ASCII STANDARD -VERSION 2.0
 WRAP.                  NO:   ONE LINE PER DEPTH STEP
~WELL INFORMATION BLOCK
#MNEM.UNIT           DATA                    DESCRIPTION OF MNEMONIC
#---------    -------------------            -------------------------------
# Generated from Intellog Unique Number	CW_73_75/WELL/2736
WELL.         MANNVILLE ALGAS MARTEN S 09-30 : Well_name    - WELL
LOC .         00/09-30-073-24W4/0            : Location     - LOCATION
UWI .         00/09-30-073-24W4/0            : Uwi          - UNIQUE WELL ID
ENTR.         JAYE                           : Entered      - ENTERED BY
SRVC.         WESTERN ATLAS                  : Scn          - SERVICE COMPANY
DATE.         15 MAR 79                      : Date         - LOG DATE
STRT.M        375                            : top_depth    - START DEPTH
STOP.M        595                            : bot_depth    - STOP DEPTH
STEP.M        0.25                           : increment    - STEP LENGTH
 NULL. -999.2500:NULL Value
~CURVE INFORMATION BLOCK
#MNEM UNIT       ERCB CURVE CODE    CURVE DESCRIPTION
#-----------   ------------------   ----------------------------------
DEPT.M        00 001 00 00         : DEPTH        - DEPTH
DPHI.V/V      00 890 00 00         : PHID         - DENSITY POROSITY (SANDSTONE)
NPHI.V/V      00 330 00 00         : PHIN         - NEUTRON POROSITY (SANDSTONE)
GR  .API      00 310 00 00         : GR           - GAMMA RAY
CALI.MM       00 280 01 00         : CAL          - CALIPER
ILD .OHMM     00 120 00 00         : RESD         - DEEP RESISTIVITY (DIL)
~PARAMETER INFORMATION
#MNEM.UNIT           DATA             DESCRIPTION OF MNEMONIC
#---------         -----------     ------------------------------
GL  .M        633.3                : gl           - GROUND LEVEL ELEVATION
EREF.M        636.3                : kb           - ELEVATION OF DEPTH REFERENCE
DATM.M        633.3                : datum        - DATUM ELEVATION
TDD .M        593                  : tdd          - TOTAL DEPTH DRILLER
RUN .         ONE                  : Run          - RUN NUMBER
ENG .         GRIEVE               : Engineer     - RECORDING ENGINEER
WIT .         MURYNKA              : Witness      - WITNESSED BY
BASE.         R.D.                 : Branch       - HOME BASE OF LOGGING UNIT
MUD .         GEL-CHEM             : Mud_type     - MUD TYPE
MATR.         SANDSTONE            : Logunit      - NEUTRON MATRIX
TMAX.C        22                   : BHT          - MAXIMUM RECORDED TEMPERATURE
BHTD.M        594                  : BHTDEP       - MAXIMUM RECORDED TEMPERATURE
RMT .C        11.1                 : MDTP         - TEMPERATURE OF MUD
MUDD.KG/M     1120                 : MWT          - MUD DENSITY
NEUT.         1                    : NEUTRON      - NEUTRON TYPE
RESI.         0                    : RESIST       - RESISTIVITY TYPE
RM  .OHMM     4.4                  : RM           - RESISTIVITY OF MUD
RMC .OHMM     0                    : RMC          - RESISTIVITY OF MUD CAKE
RMF .OHMM     4                    : RMF          - RESISTIVITY OF MUD FILTRATE
SUFT.C        0                    : SUFT         - SURFACE TEMPERATURE
~A  DEPTH     PHID     PHIN       GR      CAL     RESD
# ...
  521.000    0.211    0.380   81.984  179.432    7.254
  521.250    0.222    0.394   83.317  178.544    7.143
  521.500    0.234    0.399   82.032  178.065    7.222
  521.750    0.226    0.396   79.441  177.698    7.426
  522.000    0.218    0.385   77.783  177.220    7.739
  522.250    0.206    0.369   76.996  176.742    8.140
  522.500    0.218    0.345   76.463  176.785    8.386
  522.750    0.232    0.342   76.424  179.017    8.592
  523.000    0.245    0.355   76.452  180.724    8.818
  523.250    0.254    0.371   76.605  179.210    8.983
  523.500    0.234    0.372   76.691  175.507    9.116
  523.750    0.224    0.368   76.969  174.408    9.269
  524.000    0.209    0.375   75.873  175.181    9.478
  524.250    0.183    0.369   73.465  175.957    9.729
  524.500    0.155    0.359   74.364  176.517   10.118
  524.750    0.150    0.345   73.891  177.188   10.405
  525.000    0.161    0.337   69.113  178.172   10.741
  525.250    0.178    0.336   64.335  178.627   10.983
  525.500    0.189    0.333   64.299  178.774   11.104
  525.750    0.195    0.338   65.325  179.132   11.079
  526.000    0.198    0.357   65.788  179.278   10.971
  526.250    0.200    0.362   66.190  179.532   10.885
  526.500    0.210    0.357   66.528  180.305   10.820
  526.750    0.219    0.362   67.119  179.310   10.755
  527.000    0.221    0.354   67.517  175.818   10.711
  527.250    0.204    0.341   70.851  172.537   10.768
  527.500    0.205    0.323   74.808  171.535   10.990
  527.750    0.193    0.304   72.468  171.794   11.302
  528.000    0.172    0.292   71.181  172.667   12.322
  528.250    0.010    0.283   70.769  176.038   13.742
  528.500    0.038    0.277   68.737  178.786   17.000
  528.750    0.074    0.272   67.455  177.164   18.745
  529.000    0.160    0.305   68.793  170.972   19.350
  529.250    0.171    0.333   68.381  170.600   18.210
  529.500    0.184    0.340   66.659  173.350   17.529
  529.750    0.194    0.333   66.061  176.198   17.067
  530.000    0.209    0.338   66.027  176.868   16.275
  530.250    0.230    0.335   66.115  174.728   15.520
  530.500    0.189    0.338   67.140  175.292   15.167
  530.750    0.161    0.332   69.227  176.380   15.421
  531.000    0.151    0.327   70.127  176.835   16.100
  531.250    0.143    0.326   67.282  176.882   16.999
  531.500    0.144    0.327   67.246  176.925   17.881
  531.750    0.149    0.332   69.394  174.785   18.668
  532.000    0.161    0.328   71.793  172.125   18.697
  532.250    0.199    0.320   74.130  175.082   17.824
  532.500    0.215    0.319   76.152  177.936   17.195
  532.750    0.214    0.329   79.050  178.291   15.063
  533.000    0.102    0.342   81.947  178.646   11.783
  533.250    0.079    0.341   86.407  178.802    8.910
  533.500    0.103    0.359   90.298  178.737    6.957
  533.750    0.118    0.360   94.444  178.988    5.869
  534.000    0.129    0.357   98.524  179.448    5.288
  534.250    0.124    0.373  101.423  179.804    5.015
  534.500    0.109    0.368  103.508  179.434    4.882
  534.750    0.107    0.359  105.470  177.502    4.816
  535.000    0.106    0.365  106.495  174.738    4.752
  535.250    0.108    0.356  107.457  176.969    4.804
  535.500    0.119    0.353  109.483  180.237    4.912
  535.750    0.130    0.366  111.253  181.005    5.177
  536.000    0.137    0.356  111.343  179.907    5.497
  536.250    0.111    0.329  104.130  179.846    5.926
  536.500    0.088    0.314  101.038  178.124    6.571
  536.750    0.085    0.303   97.631  177.438    7.219
  537.000    0.125    0.297   93.291  177.483    7.753
  537.250    0.149    0.316   89.323  176.282    8.078
  537.500    0.141    0.325   88.787  172.789    8.354
  537.750    0.130    0.335   90.501  170.232    8.462
  538.000    0.135    0.350   93.025  168.820    8.428
  538.250    0.144    0.360   92.050  171.050    8.330
  538.500    0.152    0.354   87.835  177.334    8.265
  538.750    0.147    0.345   84.365  179.253    8.277
  539.000    0.142    0.341   85.267  178.673    8.384
  539.250    0.142    0.350   88.350  178.300    8.493
  539.500    0.137    0.336   92.121  177.199    8.733
  539.750    0.122    0.312   93.584  175.583    8.998
  540.000    0.102    0.303   91.613  172.403    9.447
  540.250    0.007    0.291   87.147  172.029   10.146
  540.500   -0.012    0.275   81.245  173.630   11.421
  540.750   -0.014    0.256   77.153  177.110   12.452
  541.000   -0.006    0.241   78.801  178.088   13.173
  541.250    0.068    0.227   84.632  177.508   14.147
  541.500    0.110    0.271   87.531  176.413   13.645
  541.750    0.122    0.289   90.676  175.725   11.597
  542.000    0.104    0.329   94.698  174.317    9.510
  542.250    0.092    0.331   98.341  174.464    8.362
  542.500    0.087    0.325   99.053  176.797    7.312
  542.750    0.115    0.323   95.463  179.647    6.651
  543.000    0.135    0.332   93.490  180.320    6.475
  543.250    0.128    0.341   95.079  179.527    6.547
  543.500    0.111    0.329   98.038  177.908    6.435
  543.750    0.129    0.337   98.501  175.975    6.194
  544.000    0.146    0.344   94.537  174.980    5.963
  544.250    0.159    0.351   95.248  175.232    5.773
  544.500    0.152    0.349   96.337  176.533    5.588
  544.750    0.138    0.334   96.487  177.719    5.171
  545.000    0.130    0.330   96.513  178.900    4.395
  545.250    0.121    0.329   97.227  179.163    4.562
  545.500    0.106    0.330  100.186  178.991    5.021
  545.750    0.101    0.329  102.831  179.141    5.242
  546.000    0.113    0.329   97.804  179.083    5.473
  546.250    0.124    0.319   97.332  178.706    5.811
  546.500    0.134    0.320   99.856  174.696    6.348
  546.750    0.139    0.325  102.315  176.616    7.282
  547.000    0.136    0.335  103.776  177.799    6.879
  547.250    0.121    0.345  106.173  178.570    7.657
  547.500    0.107    0.342  105.327  176.744    7.727
  547.750    0.053    0.332  100.923  173.980    5.101
  548.000    0.032    0.322   96.582  175.380    4.966
  548.250    0.044    0.317   92.114  177.812    6.226
  548.500    0.056    0.309   94.076  180.669    7.062
  548.750    0.071    0.320   99.782  181.542    7.167
  549.000    0.089    0.322   99.059  181.378    6.860
  549.250    0.105    0.305   97.213  181.115    6.654
  549.500    0.115    0.313   96.868  180.842    6.652
  549.750    0.102    0.332   97.828  180.368    6.367
  550.000    0.098    0.336  100.289  179.578    5.836
  550.250    0.114    0.338  102.249  179.103    4.696
  550.500    0.121    0.346  104.085  180.498    3.851
  550.750    0.162    0.382  105.796  188.760    3.093
  551.000    0.186    0.399  111.065  199.099    2.674
  551.250    0.140    0.439  111.715  198.938    2.387
  551.500    0.175    0.454  106.566  186.188    2.060
  551.750    0.190    0.425  105.404  179.472    1.946
  552.000    0.165    0.426  103.059  182.329    1.949
  552.250    0.090    0.417  105.146  187.259    2.031
  552.500    0.045    0.389  104.985  181.377    2.277
  552.750    0.050    0.369  101.641  178.507    2.657
  553.000    0.083    0.346   96.240  178.971    2.953
  553.250    0.099    0.327   94.271  179.740    3.349
  553.500    0.098    0.343   98.601  179.994    3.828
  553.750    0.095    0.354  106.491  180.452    4.367
  554.000    0.091    0.360  105.644  180.807    4.559
  554.250    0.074    0.342  102.050  180.957    4.548
  554.500    0.062    0.315   96.462  181.004    4.686
  554.750    0.081    0.290   91.807  178.865    4.920
  555.000    0.104    0.266   89.089  174.747    5.127
  555.250    0.097    0.285   91.863  174.063    5.454
  555.500    0.099    0.307   97.005  179.306    5.401
  555.750    0.105    0.324   98.466  180.494    5.219
  556.000    0.120    0.332   91.754  179.192    5.043
  556.250    0.139    0.266   83.980  178.193    4.947
  556.500    0.160    0.239   76.955  177.614    5.116
  556.750    0.173    0.191   68.621  176.198    5.291
  557.000    0.063    0.168   57.166  174.372    5.492
  557.250    0.066    0.119   44.399  172.544    4.987
