~VERSION INFORMATION
 VERS.                 2.0:   CWLS LOG ASCII STANDARD -VERSION 2.0
 WRAP.                  NO:   ONE LINE PER DEPTH STEP
~WELL INFORMATION BLOCK
#MNEM.UNIT           DATA                    DESCRIPTION OF MNEMONIC
#---------    -------------------            -------------------------------
# Generated from Intellog Unique Number	CW_79_81/WELL/554
WELL.         07-21-079-22W4                 : Well_name    - WELL
LOC .         00/07-21-079-22W4/0            : Location     - LOCATION
UWI .         00/07-21-079-22W4/0            : Uwi          - UNIQUE WELL ID
ENTR.         MAX                            : Entered      - ENTERED BY
SRVC.         SCHLUMBERGER                   : Scn          - SERVICE COMPANY
STRT.M        210.312                        : top_depth    - START DEPTH
STOP.M        435.812                        : bot_depth    - STOP DEPTH
STEP.M        0.25                           : increment    - STEP LENGTH
 NULL. -999.2500:NULL Value
~CURVE INFORMATION BLOCK
#MNEM UNIT       ERCB CURVE CODE    CURVE DESCRIPTION
#-----------   ------------------   ----------------------------------
DEPT.M        00 001 00 00         : DEPTH        - DEPTH
ILD .OHMM     00 120 00 00         : RESD         - DEEP RESISTIVITY (DIL)
NPHI.V/V      00 330 00 00         : PHIN         - NEUTRON POROSITY (SANDSTONE)
DPHI.V/V      00 890 00 00         : PHID         - DENSITY POROSITY (SANDSTONE)
CALI.MM       00 280 01 00         : CAL          - CALIPER
GR  .API      00 310 00 00         : GR           - GAMMA RAY
~PARAMETER INFORMATION
#MNEM.UNIT           DATA             DESCRIPTION OF MNEMONIC
#---------         -----------     ------------------------------
GL  .M        560.222              : gl           - GROUND LEVEL ELEVATION
EREF.M        562.966              : kb           - ELEVATION OF DEPTH REFERENCE
DATM.M        560.222              : datum        - DATUM ELEVATION
TDD .M        439.826              : tdd          - TOTAL DEPTH DRILLER
RUN .         ONE                  : Run          - RUN NUMBER
ENG .         BILL                 : Engineer     - RECORDING ENGINEER
WIT .         JIM                  : Witness      - WITNESSED BY
MUD .         GEL                  : Mud_type     - MUD TYPE
MATR.         SANDSTONE            : Logunit      - NEUTRON MATRIX
TMAX.C        22.2222              : BHT          - MAXIMUM RECORDED TEMPERATURE
BHTD.M        492081               : BHTDEP       - MAXIMUM RECORDED TEMPERATURE
RMT .C        18.3333              : MDTP         - TEMPERATURE OF MUD
MUDD.KG/M     9300                 : MWT          - MUD DENSITY
NEUT.         1                    : NEUTRON      - NEUTRON TYPE
RESI.         0                    : RESIST       - RESISTIVITY TYPE
RM  .OHMM     6.1                  : RM           - RESISTIVITY OF MUD
RMC .OHMM     0.25                 : RMC          - RESISTIVITY OF MUD CAKE
RMF .OHMM     6.02                 : RMF          - RESISTIVITY OF MUD FILTRATE
SUFT.C        -12.2222             : SUFT         - SURFACE TEMPERATURE
~A  DEPTH     RESD     PHIN     PHID      CAL       GR
# ...
  392.812   31.511    0.431    0.248  194.189   73.587
  393.062   24.662    0.426    0.223  196.211   78.945
  393.312   19.478    0.420    0.209  197.727   82.815
  393.562   14.970    0.426    0.188  198.230   86.089
  393.812   12.599    0.410    0.165  197.721   91.745
  394.062   11.933    0.390    0.136  197.212   98.295
  394.312   10.415    0.393    0.143  196.703  108.419
  394.562    7.860    0.414    0.165  196.700  108.119
  394.812    6.676    0.453    0.180  196.191   99.181
  395.062    8.154    0.466    0.193  195.682   93.818
  395.312    9.605    0.465    0.206  195.173   87.561
  395.562   11.839    0.440    0.228  194.664   81.006
  395.812   21.177    0.408    0.245  194.156   77.429
  396.062   28.072    0.392    0.213  194.152   77.724
  396.312   28.076    0.374    0.168  194.150   78.615
  396.562   26.351    0.335    0.130  194.653   87.249
  396.812   13.095    0.314    0.075  195.663   94.694
  397.062   10.628    0.361    0.092  195.660  103.924
  397.312    9.276    0.424    0.126  195.657  112.857
  397.562    9.797    0.412    0.155  196.161   99.749
  397.812   11.231    0.388    0.162  196.158   88.131
  398.062   11.648    0.374    0.169  196.661   76.215
  398.312   18.018    0.380    0.238  197.165   69.362
  398.562   27.870    0.385    0.250  197.162   65.488
  398.812   31.945    0.398    0.250  196.147   61.315
  399.062   31.945    0.401    0.234  195.132   61.313
  399.312   37.981    0.396    0.224  193.610   62.502
  399.562   38.331    0.393    0.242  193.101   65.180
  399.812   37.647    0.393    0.245  192.592   68.156
  400.062   36.982    0.397    0.244  192.590   73.514
  400.312   35.664    0.407    0.231  192.080   75.895
  400.562   30.017    0.403    0.230  192.077   77.679
  400.812   28.431    0.403    0.228  191.568   79.165
  401.062   26.684    0.390    0.225  191.566   80.653
  401.312   25.273    0.386    0.225  192.069   80.650
  401.562   24.377    0.391    0.225  193.079   81.839
  401.812   23.299    0.404    0.225  194.089   84.219
  402.062   23.299    0.405    0.223  195.604   87.493
  402.312   22.477    0.390    0.217  196.108   90.171
  402.562   21.481    0.374    0.189  196.105   90.168
  402.812   20.531    0.351    0.167  195.596   88.677
  403.062   20.349    0.354    0.154  196.099   82.718
  403.312   20.539    0.351    0.148  196.603   80.630
  403.562   20.730    0.348    0.137  196.600   81.819
  403.812   20.924    0.339    0.139  197.610   85.093
  404.062   20.738    0.333    0.144  198.113   85.984
  404.312   19.288    0.354    0.143  198.617   87.471
  404.562   15.654    0.371    0.158  198.614   94.021
  404.812    9.329    0.387    0.172  198.105  105.634
  405.062    6.488    0.409    0.185  198.102  110.397
  405.312    3.531    0.441    0.197  197.593  113.670
  405.562    2.763    0.489    0.222  197.590  111.583
  405.812    2.739    0.545    0.252  197.588   95.795
  406.062    2.739    0.589    0.282  197.585   88.644
  406.312    2.765    0.572    0.250  197.582   86.557
  406.562    4.238    0.535    0.170  197.073   79.704
  406.812    7.311    0.441    0.185  196.564   68.384
  407.062   12.612    0.364    0.199  196.055   71.956
  407.312   22.356    0.386    0.276  195.040   74.931
  407.562   23.614    0.433    0.335  194.024   75.822
  407.812   16.876    0.456    0.374  194.022   76.713
  408.062   13.089    0.478    0.402  194.022   74.924
  408.312    9.270    0.496    0.573  194.015   72.539
  408.562    7.731    0.522    0.500  194.519   76.706
  408.812    7.731    0.606    0.321  195.529  102.913
  409.062    7.526    0.588    0.295  196.033   99.932
  409.312    6.812    0.570    0.272  196.030  105.291
  409.562    6.393    0.537    0.261  196.027  113.926
  409.812    5.892    0.495    0.244  196.531  119.582
  410.062    5.581    0.525    0.221  196.528  123.451
  410.312    5.532    0.547    0.196  196.525  121.662
  410.562    5.843    0.511    0.171  197.029  118.085
  410.812    6.820    0.510    0.162  197.026  109.743
  411.062    8.106    0.510    0.173  197.023  106.465
  411.312    8.484    0.503    0.209  197.526  105.569
  411.562   10.649    0.485    0.249  197.523  109.140
  411.812   11.559    0.496    0.254  197.521  111.223
  412.062   13.615    0.478    0.249  197.518   99.903
  412.312   14.777    0.472    0.250  197.009   93.050
  412.562   16.633    0.486    0.266  196.500   83.218
  412.812   20.877    0.487    0.297  197.003   70.707
  413.062   24.590    0.462    0.283  197.000   67.130
  413.312   32.892    0.413    0.280  196.998   82.020
  413.562   33.807    0.394    0.264  196.995   91.846
  413.812   32.312    0.423    0.266  196.486   94.226
  414.062   30.884    0.424    0.273  196.483   86.479
  414.312   31.171    0.428    0.280  196.481   84.095
  414.562   32.331    0.430    0.282  196.478   76.348
  414.812   33.534    0.417    0.269  195.969   70.984
  415.062   33.846    0.413    0.259  195.966   69.195
  415.312   32.942    0.410    0.253  196.469   66.214
  415.562   30.919    0.394    0.239  196.467   66.807
  415.812   26.260    0.387    0.241  195.957   80.208
  416.062   24.647    0.436    0.279  195.955   84.971
  416.312   23.772    0.446    0.281  195.446   82.287
  416.562   23.136    0.425    0.258  195.443   82.583
  416.812   23.565    0.409    0.265  195.440   85.261
  417.062   25.347    0.406    0.283  195.437   94.789
  417.312   27.263    0.400    0.285  195.437   97.467
  417.562   28.021    0.416    0.283  195.432   95.380
  417.812   26.299    0.421    0.284  195.935   95.675
  418.062   21.152    0.433    0.287  196.439  102.523
  418.312   17.323    0.436    0.306  196.436  109.073
  418.562   14.318    0.511    0.317  195.926  109.964
  418.812   11.206    0.550    0.335  195.924  104.600
  419.062   10.050    0.576    0.302  195.415  107.278
  419.312    9.606    0.574    0.197  195.412  131.401
  419.562    9.521    0.560    0.144  195.410  139.738
  419.812    9.786    0.562    0.129  195.407  144.501
  420.062   10.150    0.578    0.136  195.407  144.498
  420.312   10.150    0.575    0.146  195.401  142.709
  420.562   10.340    0.574    0.130  195.905  140.323
  420.812   11.325    0.571    0.095  195.901  135.257
  421.062   11.535    0.564    0.071  196.405  131.979
  421.312   11.537    0.563    0.067  196.909  125.126
  421.562   11.540    0.548    0.058  197.412  122.443
  421.812   11.437    0.539    0.055  197.410  121.547
  422.062   11.336    0.551    0.069  197.912  123.630
  422.312   11.338    0.562    0.070  197.910  126.606
  422.562   11.340    0.554    0.055  198.413  133.751
  422.812   11.138    0.537    0.048  198.411  141.492
  423.062   10.550    0.540    0.054  198.408  144.766
  423.312    9.992    0.554    0.056  198.405  147.146
  423.562    9.378    0.569    0.076  198.909  148.930
  423.812    9.045    0.578    0.091  198.906  150.417
  424.062    9.045    0.563    0.109  198.903  151.606
  424.312    8.886    0.556    0.124  198.900  149.519
  424.562    8.648    0.549    0.152  198.897  140.879
  424.812    8.648    0.537    0.139  198.895  134.026
  425.062    8.652    0.459    0.125  198.895  125.089
  425.312    8.812    0.436    0.127  198.889  122.108
  425.562    9.057    0.405    0.146  198.886  112.574
  425.812    9.309    0.404    0.163  198.884  104.233
  426.062    9.309    0.417    0.167  198.374   98.273
  426.312    9.570    0.387    0.185  198.371   92.612
  426.562   10.482    0.380    0.225  198.369   89.035
  426.812   11.071    0.411    0.241  197.860   85.757
  427.062   12.017    0.413    0.254  197.350   79.202
  427.312   13.649    0.408    0.261  196.842   72.647
  427.562   14.815    0.402    0.272  195.827   64.007
  427.812   15.366    0.406    0.282  194.812   60.728
  428.062   15.793    0.398    0.271  193.291   61.917
  428.312   15.512    0.391    0.269  192.781   68.169
  428.562   14.560    0.393    0.255  193.791   74.421
  428.812   12.707    0.387    0.238  193.282   80.673
  429.062   12.145    0.390    0.227  191.761   81.862
