~VERSION INFORMATION
 VERS.                 2.0:   CWLS LOG ASCII STANDARD -VERSION 2.0
 WRAP.                  NO:   ONE LINE PER DEPTH STEP
~WELL INFORMATION BLOCK
#MNEM.UNIT           DATA                    DESCRIPTION OF MNEMONIC
#---------    -------------------            -------------------------------
# Generated from Intellog Unique Number	CW_73_75/WELL/2730
WELL.         MANNVILLE ET AL MITSUE 07-21   : Well_name    - WELL
LOC .         00/07-21-073-02W5/0            : Location     - LOCATION
UWI .         00/07-21-073-02W5/0            : Uwi          - UNIQUE WELL ID
ENTR.         JAYE                           : Entered      - ENTERED BY
SRVC.         SCHLUMBERGER                   : Scn          - SERVICE COMPANY
DATE.         31 JULY 77                     : Date         - LOG DATE
STRT.M        381                            : top_depth    - START DEPTH
STOP.M        603.5                          : bot_depth    - STOP DEPTH
STEP.M        0.25                           : increment    - STEP LENGTH
 NULL. -999.2500:NULL Value
~CURVE INFORMATION BLOCK
#MNEM UNIT       ERCB CURVE CODE    CURVE DESCRIPTION
#-----------   ------------------   ----------------------------------
DEPT.M        00 001 00 00         : DEPTH        - DEPTH
DPHI.V/V      00 890 00 00         : PHID         - DENSITY POROSITY (SANDSTONE)
NPHI.V/V      00 330 00 00         : PHIN         - NEUTRON POROSITY (SANDSTONE)
GR  .API      00 310 00 00         : GR           - GAMMA RAY
CALI.MM       00 280 01 00         : CAL          - CALIPER
ILD .OHMM     00 120 00 00         : RESD         - DEEP RESISTIVITY (DLL)
~PARAMETER INFORMATION
#MNEM.UNIT           DATA             DESCRIPTION OF MNEMONIC
#---------         -----------     ------------------------------
GL  .M        615.086              : gl           - GROUND LEVEL ELEVATION
EREF.M        618.134              : kb           - ELEVATION OF DEPTH REFERENCE
DATM.M        615.086              : datum        - DATUM ELEVATION
TDD .M        612.648              : tdd          - TOTAL DEPTH DRILLER
RUN .         ONE                  : Run          - RUN NUMBER
ENG .         MACKAY               : Engineer     - RECORDING ENGINEER
WIT .         SPICER               : Witness      - WITNESSED BY
BASE.         EDM                  : Branch       - HOME BASE OF LOGGING UNIT
MUD .         GEL                  : Mud_type     - MUD TYPE
MATR.         SANDSTONE            : Logunit      - NEUTRON MATRIX
TMAX.C        27.2222              : BHT          - MAXIMUM RECORDED TEMPERATURE
BHTD.M        612.953              : BHTDEP       - MAXIMUM RECORDED TEMPERATURE
RMT .C        18.8889              : MDTP         - TEMPERATURE OF MUD
MUDD.KG/M     1128                 : MWT          - MUD DENSITY
NEUT.         1                    : NEUTRON      - NEUTRON TYPE
RESI.         1                    : RESIST       - RESISTIVITY TYPE
RM  .OHMM     5.1                  : RM           - RESISTIVITY OF MUD
RMC .OHMM     0                    : RMC          - RESISTIVITY OF MUD CAKE
RMF .OHMM     6.58                 : RMF          - RESISTIVITY OF MUD FILTRATE
SUFT.C        -17.7778             : SUFT         - SURFACE TEMPERATURE
~A  DEPTH     PHID     PHIN       GR      CAL     RESD
# ...
  527.000    0.189    0.400  109.402  169.130    4.122
  527.250    0.202    0.409  108.029  169.653    3.951
  527.500    0.204    0.430  106.346  170.175    3.920
  527.750    0.198    0.440  103.294  170.382    4.559
  528.000    0.192    0.445  100.304  170.167    5.342
  528.250    0.206    0.453   99.866  169.846    6.248
  528.500    0.231    0.463   97.872  169.420    6.874
  528.750    0.241    0.474   97.745  169.310    7.292
  529.000    0.243    0.469  106.767  168.990    7.751
  529.250    0.240    0.436  117.718  168.353    7.839
  529.500    0.223    0.422  139.064  168.348    7.485
  529.750    0.195    0.443  128.107  167.711    6.685
  530.000    0.178    0.437  107.316  166.970    5.790
  530.250    0.165    0.421   88.704  166.017    4.957
  530.500    0.156    0.406   80.175  165.064    4.436
  530.750    0.211    0.434   73.762  164.532    4.038
  531.000    0.257    0.471   73.199  163.896    3.704
  531.250    0.243    0.447   76.806  163.259    3.490
  531.500    0.219    0.395   78.173  162.622    3.332
  531.750    0.209    0.423   77.859  162.197    3.225
  532.000    0.304    0.466   78.043  161.876    3.121
  532.250    0.303    0.462   78.912  161.450    3.079
  532.500    0.291    0.467   79.719  161.235    3.072
  532.750    0.279    0.471   78.596  160.703    3.185
  533.000    0.277    0.461   77.037  160.383    3.283
  533.250    0.268    0.442   75.728  159.957    3.359
  533.500    0.253    0.422   76.160  159.530    3.397
  533.750    0.244    0.400   77.838  159.738    3.396
  534.000    0.256    0.391   80.201  159.944    3.344
  534.250    0.260    0.447   79.763  160.150    3.286
  534.500    0.284    0.458   78.266  160.146    3.260
  534.750    0.297    0.450   77.766  159.930    3.297
  535.000    0.288    0.435   77.701  159.926    3.392
  535.250    0.271    0.411   77.449  160.028    3.431
  535.500    0.250    0.398   77.135  160.023    3.443
  535.750    0.233    0.403   76.573  160.018    3.403
  536.000    0.240    0.421   76.073  159.803    3.344
  536.250    0.273    0.439   75.634  160.010    3.261
  536.500    0.279    0.456   75.632  161.376    3.205
  536.750    0.279    0.465   77.558  162.319    3.217
  537.000    0.272    0.459   82.037  162.526    3.278
  537.250    0.264    0.447   82.408  162.311    3.405
  537.500    0.253    0.436   80.352  162.412    3.571
  537.750    0.244    0.431   81.345  162.513    3.788
  538.000    0.232    0.441   79.662  162.930    3.988
  538.250    0.254    0.419   78.663  163.242    4.049
  538.500    0.245    0.418   83.142  163.553    4.095
  538.750    0.224    0.431   86.749  163.760    4.102
  539.000    0.266    0.445   90.045  164.178    4.077
  539.250    0.254    0.457   89.856  164.911    4.045
  539.500    0.242    0.452   88.733  165.223    4.107
  539.750    0.256    0.445   87.174  165.745    4.234
  540.000    0.274    0.458   85.927  166.689    4.356
  540.250    0.259    0.454   86.983  167.739    4.388
  540.500    0.236    0.446   89.967  168.682    4.387
  540.750    0.216    0.434   93.388  168.995    4.353
  541.000    0.196    0.420   96.062  168.990    4.286
  541.250    0.200    0.419   97.740  169.091    4.164
  541.500    0.253    0.424   99.356  169.508    3.961
  541.750    0.243    0.423  103.834  170.242    3.731
  542.000    0.219    0.420  108.375  171.502    3.625
  542.250    0.197    0.405  113.103  172.236    3.455
  542.500    0.185    0.399  118.266  172.758    3.350
  542.750    0.161    0.408  120.006  173.176    3.324
  543.000    0.177    0.413  118.198  173.170    3.374
  543.250    0.182    0.414  114.275  173.377    3.432
  543.500    0.171    0.417  107.550  173.373    3.607
  543.750    0.161    0.420  104.124  173.369    3.797
  544.000    0.148    0.422  104.682  173.152    4.020
  544.250    0.149    0.424  105.551  173.149    4.200
  544.500    0.162    0.430  104.864  173.250    4.346
  544.750    0.174    0.432  102.247  173.139    4.464
  545.000    0.174    0.422  101.249  173.030    4.663
  545.250    0.170    0.410  103.735  173.131    4.844
  545.500    0.177    0.407  107.405  173.022    4.974
  545.750    0.180    0.407  106.905  172.911    5.108
  546.000    0.177    0.412  102.981  172.486    5.246
  546.250    0.177    0.429  104.036  172.376    5.449
  546.500    0.192    0.408  105.901  172.477    5.726
  546.750    0.187    0.394  100.546  172.684    6.051
  547.000    0.183    0.402   95.315  172.890    6.456
  547.250    0.177    0.414   92.014  172.675    6.771
  547.500    0.161    0.391   92.945  172.881    6.940
  547.750    0.194    0.387   95.556  172.877    7.073
  548.000    0.220    0.402  100.222  172.978    6.884
  548.250    0.211    0.434  103.767  173.290    6.637
  548.500    0.192    0.421  110.860  173.075    6.158
  548.750    0.183    0.407  119.882  173.492    5.595
  549.000    0.188    0.399  121.560  173.592    5.182
  549.250    0.181    0.406  117.014  173.799    4.827
  549.500    0.174    0.414  114.708  174.111    4.671
  549.750    0.167    0.425  114.830  174.317    4.706
  550.000    0.174    0.431  112.027  174.630    4.823
  550.250    0.184    0.428  108.601  175.047    4.991
  550.500    0.197    0.426  109.968  175.358    5.315
  550.750    0.191    0.424  110.090  175.564    5.532
  551.000    0.180    0.423  109.091  175.560    5.520
  551.250    0.165    0.423  112.698  175.450    5.477
  551.500    0.153    0.422  114.190  175.341    5.413
  551.750    0.164    0.421  115.867  175.336    5.320
  552.000    0.185    0.419  116.985  175.542    5.218
  552.250    0.181    0.414  114.431  175.644    5.020
  552.500    0.164    0.403  116.918  175.849    4.943
  552.750    0.145    0.402  118.720  175.952    4.848
  553.000    0.162    0.424  116.290  176.158    4.783
  553.250    0.172    0.411  116.661  176.153    4.809
  553.500    0.161    0.403  120.455  175.938    4.817
  553.750    0.151    0.429  119.830  175.933    4.928
  554.000    0.146    0.429  118.147  176.035    5.168
  554.250    0.140    0.409  122.813  175.819    5.410
  554.500    0.134    0.394  123.743  175.499    5.588
  554.750    0.135    0.384  120.442  175.284    5.738
  555.000    0.147    0.385  123.738  174.963    5.781
  555.250    0.165    0.395  125.229  174.853    5.858
  555.500    0.174    0.408  121.679  174.428    5.992
  555.750    0.162    0.423  116.386  173.897    6.142
  556.000    0.144    0.396  114.081  173.470    6.429
  556.250    0.143    0.366  113.456  173.466    7.006
  556.500    0.167    0.348  110.404  173.462    7.692
  556.750    0.143    0.352  105.422  173.457    8.334
  557.000    0.139    0.363  101.685  173.453    8.875
  557.250    0.145    0.373   96.827  173.448    9.237
  557.500    0.170    0.372   93.153  173.444    9.762
  557.750    0.174    0.363   94.395  173.440   10.396
  558.000    0.154    0.377   91.716  173.540   11.393
  558.250    0.153    0.388   85.427  173.747   12.463
  558.500    0.162    0.387   84.367  173.849   13.528
  558.750    0.152    0.371   91.646  173.633   13.946
  559.000    0.128    0.358   99.672  173.418   14.023
  559.250    0.146    0.353  102.657  172.991   13.887
  559.500    0.175    0.372   98.236  172.777   13.413
  559.750    0.181    0.364   95.930  172.666   12.735
  560.000    0.186    0.360   98.791  172.663   12.022
  560.250    0.176    0.366  103.020  172.868   11.634
  560.500    0.161    0.354  107.997  173.287   11.004
  560.750    0.131    0.341  114.281  173.598   10.210
  561.000    0.120    0.337  122.992  173.593    9.206
  561.250    0.136    0.367  124.794  173.695    8.300
  561.500    0.138    0.381  114.957  173.584    7.658
  561.750    0.128    0.393  106.117  173.475    7.612
  562.000    0.100    0.351   96.529  173.470    7.938
  562.250    0.096    0.331   87.876  173.572    8.683
  562.500    0.093    0.312   94.097  173.988    9.371
  562.750    0.068    0.297  106.169  173.985    9.791
  563.000    0.033    0.292  113.386  173.980   10.016
  563.250    0.062    0.336  117.429  173.976   10.090
