~VERSION INFORMATION
 VERS.                 2.0:   CWLS LOG ASCII STANDARD -VERSION 2.0
 WRAP.                  NO:   ONE LINE PER DEPTH STEP
~WELL INFORMATION BLOCK
#MNEM.UNIT           DATA                    DESCRIPTION OF MNEMONIC
#---------    -------------------            -------------------------------
# Generated from Intellog Unique Number	CC_80_83/WELL/1166
NULL.         -999.25                        : NULL_VALUE
WELL.         SIEBENS WATCHUSK               : Well_name    - WELL
LOC .         06-34-082-03W4                 : Location     - LOCATION          
UWI .         00/06-34-082-03W400            : Uwi          - UNIQUE WELL ID    
ENTR.         DW                             : Entered      - ENTERED BY        
SRVC.         SCHLUMBERGER                   : Scn          - SERVICE COMPANY   
DATE.         12 FEB 77                      : Date         - LOG DATE
STRT.M        94.488                         : top_depth    - START DEPTH       
STOP.M        310.896                        : bot_depth    - STOP DEPTH        
STEP.M        0.3048                         : increment    - STEP LENGTH       
~CURVE INFORMATION BLOCK
#MNEM UNIT       ERCB CURVE CODE    CURVE DESCRIPTION
#-----------   ------------------   ----------------------------------
DEPT.M        00 001 00 00         : DEPTH        - DEPTH                       
DPHI.V/V      00 890 00 00         : PHID         - DENSITY POROSITY (LIMESTONE)
NPHI.V/V      00 330 00 00         : PHIN         - NEUTRON POROSITY (LIMESTONE)
GR  .API      00 310 00 00         : GR           - GAMMA RAY                   
ILD .OHMM     00 120 00 00         : RESD         - DEEP RESISTIVITY (DIL)      
~PARAMETER INFORMATION       
#MNEM.UNIT           DATA             DESCRIPTION OF MNEMONIC
#---------         -----------     ------------------------------
GL  .M        470.611              : gl           - GROUND LEVEL ELEVATION      
EREF.M        474.116              : kb           - ELEVATION OF DEPTH REFERENCE
DATM.M        474.116              : datum        - DATUM ELEVATION             
TDD .M        319.126              : tdd          - TOTAL DEPTH DRILLER         
RUN .         ONE                  : Run          - RUN NUMBER                  
ENG .         BILL                 : Engineer     - RECORDING ENGINEER          
WIT .         JIM                  : Witness      - WITNESSED BY                
MUD .         GEL                  : Mud_type     - MUD TYPE                    
MATR.         LIMESTONE            : Logunit      - NEUTRON MATRIX              
TMAX.C        19.4444              : BHT          - MAXIMUM RECORDED TEMPERATURE
BHTD.M        319.126              : BHTDEP       - MAXIMUM RECORDED TEMPERATURE
MATR.         1                    : LOGUNIT      - NEUTRON MATRIX              
RMT .C        25                   : MDTP         - TEMPERATURE OF MUD          
NEUT.         1                    : NEUTRON      - NEUTRON TYPE                
RESI.         0                    : RESIST       - RESISTIVITY TYPE            
RMC .OHMM     0.25                 : RMC          - RESISTIVITY OF MUD CAKE     
RMF .OHMM     0.25                 : RMF          - RESISTIVITY OF MUD FILTRATE 
SUFT.C        15                   : SUFT         - SURFACE TEMPERATURE         
~A  DEPTH     PHID     PHIN       GR     RESD
   94.488    0.393    0.531   58.552   20.872
   94.793    0.383    0.549   59.152   23.336
   95.098    0.367    0.538   57.331   27.084
   95.402    0.348    0.521   52.484   30.283
   95.707    0.308    0.501   54.897   27.582
   96.012    0.311    0.489   59.729   20.087
   96.317    0.366    0.521   66.378   20.460
   96.622    0.411    0.525   71.816   17.954
   96.926    0.456    0.515   77.251   14.353
   97.231    0.371    0.490   79.664   12.831
   97.536    0.324    0.475   80.262   12.358
   97.841    0.318    0.475   78.440   12.128
   98.146    0.308    0.475   76.013   11.254
   98.450    0.296    0.462   76.007   11.044
   98.755    0.278    0.465   77.814   10.639
   99.060    0.271    0.467   80.228   10.439
   99.365    0.297    0.469   77.799   10.437
   99.670    0.319    0.469   75.977   10.631
   99.974    0.313    0.474   76.577   10.629
  100.279    0.310    0.492   80.803   10.432
  100.584    0.295    0.509   83.823   10.047
  100.889    0.287    0.523   84.420   10.045
  101.194    0.267    0.459   78.968   10.232
  101.498    0.243    0.419   77.148   10.618
  101.803    0.202    0.391   80.165   10.617
  102.108    0.195    0.455   82.578   11.225
  102.413    0.238    0.472   80.756   12.091
  102.718    0.311    0.478   75.909   12.784
  103.022    0.299    0.481   72.272   13.517
  103.327    0.332    0.483   68.635   13.768
  103.632    0.332    0.471   63.789   14.024
  103.937    0.309    0.456   61.968   14.553
  104.242    0.322    0.459   60.750   14.826
  104.546    0.332    0.465   59.533   15.675
  104.851    0.336    0.464   55.896   16.267
  105.156    0.347    0.454   54.681   16.263
  105.461    0.338    0.452   54.068   15.959
  105.766    0.334    0.459   57.690   15.373
  106.070    0.344    0.466   60.104   14.265
  106.375    0.327    0.465   59.489   13.238
  106.680    0.329    0.466   60.090   12.515
  106.985    0.346    0.481   66.130   12.513
  107.290    0.349    0.494   69.149   12.745
  107.594    0.324    0.493   70.958   13.227
  107.899    0.322    0.480   67.926   13.727
  108.204    0.326    0.465   66.105   14.785
  108.509    0.335    0.448   67.303   15.062
  108.814    0.341    0.451   68.509   15.342
  109.118    0.326    0.440   69.104   16.221
  109.423    0.325    0.426   69.705   17.151
  109.728    0.337    0.423   70.909   18.132
  110.033    0.349    0.445   68.483   18.130
  110.338    0.346    0.463   67.265   18.466
  110.643    0.343    0.472   67.257   19.163
  110.947    0.339    0.481   66.040   19.889
  111.252    0.346    0.463   64.824   21.422
  111.557    0.362    0.453   62.396   21.823
  111.862    0.338    0.440   60.574   21.817
  112.167    0.363    0.428   58.752   22.223
  112.471    0.367    0.426   58.142   22.220
  112.776    0.360    0.435   57.531   18.784
  113.081    0.357    0.446   58.734   13.179
  113.386    0.350    0.460   62.961    9.247
  113.691    0.353    0.493   63.557    8.906
  113.995    0.370    0.530   61.130    9.775
  114.300    0.385    0.505   60.520   12.222
  114.605    0.350    0.435   60.513   15.001
  114.910    0.354    0.445   62.926   19.110
  115.215    0.347    0.451   63.524   20.584
  115.519    0.333    0.453   57.467   20.581
  115.824    0.333    0.436   55.040   20.196
  116.129    0.343    0.442   58.059   19.819
  116.434    0.354    0.444   53.815   18.738
  116.739    0.356    0.421   54.415   16.442
  117.043    0.359    0.417   58.641   16.440
  117.348    0.350    0.439   59.845   17.709
  117.653    0.346    0.462   61.047   19.434
  117.958    0.359    0.476   59.831   19.797
  118.263    0.364    0.469   54.981   20.164
  118.567    0.355    0.455   54.373   20.161
  118.872    0.359    0.451   54.969   19.061
  119.177    0.364    0.479   57.986   18.020
  119.482    0.342    0.461   59.190   17.036
  119.787    0.347    0.446   59.786   15.517
  120.091    0.361    0.438   60.992   14.133
  120.396    0.366    0.456   69.453   12.872
  120.701    0.346    0.491   73.681   11.945
  121.006    0.347    0.508   73.674   11.943
  121.311    0.328    0.489   73.063   11.719
  121.615    0.342    0.469   73.661   11.502
  121.920    0.345    0.469   77.887   11.498
  122.225    0.345    0.474   78.486   11.933
  122.530    0.348    0.466   77.269   12.385
  122.835    0.325    0.468   71.816   13.591
  123.139    0.329    0.456   66.970   14.640
  123.444    0.341    0.436   63.334   14.912
  123.749    0.345    0.451   64.536   14.635
  124.054    0.347    0.468   66.950   14.096
  124.359    0.345    0.450   63.918   13.578
  124.663    0.333    0.463   69.961   12.836
  124.968    0.327    0.478   68.137   12.136
  125.273    0.323    0.495   71.761   11.053
  125.578    0.325    0.471   79.014   10.847
  125.883    0.321    0.467   79.007   11.257
  126.187    0.319    0.460   74.161   11.682
  126.492    0.330    0.451   68.708   12.584
  126.797    0.323    0.439   66.887   13.810
  127.102    0.323    0.444   66.881   14.333
  127.407    0.328    0.437   71.713   15.153
  127.711    0.347    0.464   69.891   16.021
  128.016    0.364    0.505   60.809   16.626
  128.321    0.381    0.494   55.357   16.623
  128.626    0.372    0.454   57.771   16.012
  128.931    0.332    0.473   62.604   15.712
  129.235    0.316    0.469   63.201   16.307
  129.540    0.318    0.455   65.009   18.924
  129.845    0.338    0.432   67.423   20.770
  130.150    0.346    0.423   61.365   23.660
  130.455    0.346    0.413   58.938   26.452
  130.759    0.306    0.401   58.328   26.947
  131.064    0.281    0.372   58.924   25.955
  131.369    0.238    0.346   58.916   24.086
  131.674    0.254    0.458   59.515   21.939
  131.979    0.341    0.467   57.693   21.130
  132.283    0.356    0.469   54.663   21.126
  132.588    0.367    0.464   57.072   22.335
  132.893    0.377    0.438   57.672   22.752
  133.198    0.384    0.424   59.476   22.327
  133.503    0.371    0.418   60.077   20.719
  133.807    0.367    0.425   61.281   18.180
  134.112    0.365    0.462   63.694   17.512
  134.417    0.360    0.476   61.266   17.509
  134.722    0.355    0.456   57.630   18.170
  135.026    0.349    0.442   55.808   17.501
  135.331    0.345    0.437   57.618   15.357
  135.636    0.348    0.463   63.659   12.508
  135.941    0.356    0.485   67.282    9.999
  136.246    0.344    0.485   72.115    8.774
  136.550    0.334    0.468   76.947    7.417
  136.855    0.336    0.469   78.149    7.012
  137.160    0.343    0.514   76.326    7.554
  137.465    0.361    0.527   73.902    8.767
  137.770    0.387    0.567   69.659   12.033
  138.074    0.419    0.605   64.813   15.047
  138.379    0.467    0.544   58.757   18.467
  138.684    0.418    0.433   58.748   21.035
  138.989    0.354    0.417   59.951   21.831
  139.294    0.349    0.432   62.365   21.824
  139.598    0.336    0.462   65.382   21.821
  139.903    0.331    0.459   67.797   21.017
  140.208    0.341    0.445   70.814   21.410
  140.513    0.333    0.444   71.410   21.809
  140.818    0.331    0.450   70.798   21.805
  141.122    0.341    0.457   70.188   22.208
  141.427    0.347    0.466   68.970   22.203
  141.732    0.348    0.468   68.964   21.788
  142.037    0.334    0.451   69.562   21.383
  142.342    0.331    0.437   67.737   20.985
  142.646    0.321    0.426   67.734   20.212
  142.951    0.313    0.420   69.541   19.837
  143.256    0.303    0.417   74.372   18.407
  143.561    0.305    0.435   74.972   17.080
  143.866    0.325    0.456   74.358   16.149
  144.170    0.332    0.463   73.142   14.438
  144.475    0.334    0.464   73.740   13.150
  144.780    0.326    0.457   76.758   14.164
  145.085    0.317    0.442   74.935   14.700
  145.389    0.313    0.434   73.718   15.255
  145.694    0.319    0.439   73.713   16.431
  145.999    0.354    0.443   72.495   16.428
  146.304    0.354    0.450   73.093   16.427
  146.609    0.341    0.466   75.507   15.821
  146.913    0.334    0.450   73.080   15.819
  147.218    0.334    0.437   70.652   16.416
