~VERSION INFORMATION
 VERS.                 2.0:   CWLS LOG ASCII STANDARD -VERSION 2.0
 WRAP.                  NO:   ONE LINE PER DEPTH STEP
~WELL INFORMATION BLOCK
#MNEM.UNIT           DATA                    DESCRIPTION OF MNEMONIC
#---------    -------------------            -------------------------------
# Generated from Intellog Unique Number	CW_82_90/WELL/3067
WELL.         PARAMOUNT ET AL LIVOCK         : Well_name    - WELL
LOC .         00/07-29-086-21W4/0            : Location     - LOCATION
UWI .         00/07-29-086-21W4/0            : Uwi          - UNIQUE WELL ID
ENTR.         MAX                            : Entered      - ENTERED BY
SRVC.         COMPUTALOG                     : Scn          - SERVICE COMPANY
STRT.M        188.976                        : top_depth    - START DEPTH
STOP.M        368.726                        : bot_depth    - STOP DEPTH
STEP.M        0.25                           : increment    - STEP LENGTH
 NULL. -999.2500:NULL Value
~CURVE INFORMATION BLOCK
#MNEM UNIT       ERCB CURVE CODE    CURVE DESCRIPTION
#-----------   ------------------   ----------------------------------
DEPT.M        00 001 00 00         : DEPTH        - DEPTH
ILD .OHMM     00 120 00 00         : RESD         - DEEP RESISTIVITY (DIL)
NPHI.V/V      00 330 00 00         : PHIN         - NEUTRON POROSITY (SANDSTONE)
DPHI.V/V      00 890 00 00         : PHID         - DENSITY POROSITY (SANDSTONE)
CALI.MM       00 280 01 00         : CAL          - CALIPER
GR  .API      00 310 00 00         : GR           - GAMMA RAY
~PARAMETER INFORMATION
#MNEM.UNIT           DATA             DESCRIPTION OF MNEMONIC
#---------         -----------     ------------------------------
GL  .M        575.158              : gl           - GROUND LEVEL ELEVATION
EREF.M        578.206              : kb           - ELEVATION OF DEPTH REFERENCE
DATM.M        575.158              : datum        - DATUM ELEVATION
TDD .M        370.637              : tdd          - TOTAL DEPTH DRILLER
RUN .         ONE                  : Run          - RUN NUMBER
ENG .         BILL                 : Engineer     - RECORDING ENGINEER
WIT .         JIM                  : Witness      - WITNESSED BY
MUD .         GEL                  : Mud_type     - MUD TYPE
MATR.         SANDSTONE            : Logunit      - NEUTRON MATRIX
TMAX.C        16.6667              : BHT          - MAXIMUM RECORDED TEMPERATURE
BHTD.M        370.637              : BHTDEP       - MAXIMUM RECORDED TEMPERATURE
MATR.         1                    : LOGUNIT      - NEUTRON MATRIX
RMT .C        11.1111              : MDTP         - TEMPERATURE OF MUD
NEUT.         1                    : NEUTRON      - NEUTRON TYPE
RESI.         0                    : RESIST       - RESISTIVITY TYPE
RMC .OHMM     1.9                  : RMC          - RESISTIVITY OF MUD CAKE
RMF .OHMM     1.6                  : RMF          - RESISTIVITY OF MUD FILTRATE
SUFT.C        -26.1111             : SUFT         - SURFACE TEMPERATURE
~A  DEPTH     RESD     PHIN     PHID      CAL       GR
# ...
  334.976    8.642    0.251    0.205  161.703   96.463
  335.226    7.314    0.284    0.198  161.790  108.037
  335.476    5.869    0.413    0.199  161.374  128.480
  335.726    5.208    0.430    0.200  159.995  141.236
  335.976    5.333    0.401    0.205  162.085  126.513
  336.226    5.848    0.320    0.179  164.623  120.062
  336.476    6.952    0.262    0.141  163.725  113.610
  336.726    7.899    0.221    0.118  158.407   91.201
  336.976    8.768    0.166    0.090  157.017   79.426
  337.226   10.029    0.216    0.065  157.586   80.962
  337.476   10.113    0.315    0.151  159.653  104.353
  337.726    9.767    0.356    0.195  158.767  117.405
  337.976    9.891    0.387    0.202  157.869  115.987
  338.226   10.955    0.362    0.224  156.501  111.598
  338.476   12.020    0.332    0.263  156.085   99.238
  338.726   13.947    0.310    0.262  155.690   84.509
  338.976   21.464    0.308    0.239  155.285   81.313
  339.226   21.822    0.306    0.212  155.372   81.656
  339.476   21.804    0.313    0.192  154.989   75.500
  339.726   22.168    0.305    0.174  158.523   79.689
  339.976   22.141    0.289    0.166  163.030   82.395
  340.226   22.117    0.305    0.185  165.109   86.880
  340.476   22.478    0.304    0.160  164.211   84.269
  340.726   25.966    0.302    0.144  160.359   89.049
  340.976   31.016    0.310    0.255  158.477   98.556
  341.226   41.139    0.308    0.276  158.564  103.041
  341.476   52.432    0.290    0.282  157.699   98.066
  341.726   62.162    0.261    0.292  157.272   88.660
  341.976   67.602    0.260    0.292  156.396   70.386
  342.226   71.868    0.260    0.300  156.483   65.117
  342.476   73.405    0.261    0.297  157.052   59.256
  342.726   72.208    0.264    0.295  158.649   47.776
  342.976   67.888    0.257    0.295  159.207   39.257
  343.226   62.791    0.238    0.289  158.834   37.538
  343.476   51.054    0.227    0.282  158.900   33.154
  343.726   41.664    0.237    0.284  159.009   34.974
  343.976   31.878    0.274    0.279  160.081   40.647
  344.226   26.393    0.264    0.268  160.682   44.239
  344.476   22.464    0.251    0.262  160.747   53.752
  344.726   21.267    0.242    0.256  160.364   56.169
  344.976   20.853    0.247    0.249  159.455   55.915
  345.226   21.216    0.242    0.239  158.558   51.236
  345.476   21.973    0.232    0.236  158.656   56.908
  345.726   21.946    0.248    0.246  158.754   56.070
  345.976   21.526    0.259    0.240  158.349   51.385
  346.226   21.115    0.260    0.238  157.954   48.785
  346.476   20.308    0.247    0.223  157.560   53.554
  346.726   20.285    0.240    0.213  157.155   59.516
  346.976   20.258    0.229    0.199  156.749   63.415
  347.226   20.234    0.223    0.199  156.847   63.758
  347.476   19.811    0.213    0.194  156.924   62.636
  347.726   19.007    0.195    0.179  157.044   61.195
  347.976   17.032    0.085    0.143  157.109   59.476
  348.226   14.273    0.181    0.110  156.725   63.364
  348.476   12.295    0.242    0.156  156.802   77.308
  348.726   10.710    0.314    0.193  157.381   96.563
  348.976   23.958    0.326    0.206  158.967   99.275
  349.226   13.768    0.345    0.235  160.532   96.073
  349.476   12.989    0.361    0.266  160.619   87.855
  349.726   12.407    0.389    0.287  158.736   65.735
  349.976   11.669    0.427    0.311  157.850   58.699
  350.226   12.067    0.419    0.338  157.445   57.559
  350.476   12.151    0.363    0.312  157.553   78.888
  350.726   11.490    0.320    0.250  157.641   89.576
  350.976   10.594    0.403    0.225  157.739   97.015
  351.226   10.090    0.424    0.208  157.826  125.440
  351.476    9.508    0.449    0.211  157.410  146.474
  351.726    9.122    0.445    0.202  157.015  159.230
  351.976    8.933    0.429    0.191  157.595  165.488
  352.226    8.938    0.425    0.178  158.196  169.972
  352.476    9.062    0.430    0.169  158.273  173.866
  352.726    9.147    0.441    0.157  158.371  176.283
  352.976    9.153    0.457    0.181  160.931  178.097
  353.226    9.198    0.466    0.181  163.972  180.219
  353.476    9.439    0.456    0.164  175.887  180.863
  353.726    9.758    0.438    0.153  159.726  180.627
  353.976   10.195    0.425    0.137  159.813  179.186
  354.226   10.751    0.411    0.172  158.937  175.700
  354.476   11.698    0.402    0.158  158.039  170.135
  354.726   11.900    0.395    0.149  157.634  175.795
  354.976   12.690    0.373    0.173  157.218  170.224
  355.226   12.971    0.349    0.178  156.835  155.501
  355.476   14.154    0.327    0.179  156.440  133.387
  355.726   14.865    0.313    0.188  156.024  110.386
  355.976   16.008    0.292    0.189  156.122   94.771
  356.226   17.112    0.252    0.178  156.209   90.682
  356.476   18.295    0.227    0.186  156.789   99.013
  356.726   19.046    0.246    0.182  157.861   99.356
  356.976   19.679    0.234    0.176  156.974   97.336
  357.226   18.509    0.240    0.188  156.569  102.412
  357.476   17.652    0.248    0.193  156.678  105.419
  357.726   16.834    0.293    0.207  156.776  104.291
  357.976   15.664    0.397    0.236  156.863  110.542
  358.226   13.631    0.416    0.253  156.939  109.710
  358.476   12.107    0.433    0.275  157.037  122.165
  358.726   11.407    0.482    0.310  157.125  129.899
  358.976   11.374    0.527    0.329  156.719  150.939
  359.226   11.891    0.505    0.350  156.828  140.641
  359.476   12.995    0.451    0.319  156.905  118.526
  359.726   14.765    0.454    0.446  156.532   95.526
  359.976   17.712    0.485    0.491  156.608   85.234
  360.226   19.561    0.400    0.441  155.218   65.778
  360.476   20.939    0.274    0.355  154.321   47.504
  360.726   21.456    0.233    0.271  154.911   32.480
  360.976   21.853    0.238    0.278  154.528   40.214
  361.226   22.017    0.266    0.268  155.096   49.130
  361.476   21.081    0.295    0.274  155.676   66.631
  361.726   20.068    0.307    0.277  156.255   74.353
  361.976   18.897    0.342    0.288  157.338   91.245
  362.226   17.374    0.448    0.301  157.929  107.848
  362.476   15.576    0.414    0.313  158.530  127.405
  362.726   15.856    0.411    0.286  158.595  134.253
  362.976   16.962    0.434    0.294  158.693  142.873
  363.226   17.280    0.425    0.270  158.288  155.925
  363.476   17.364    0.358    0.248  158.386  159.228
  363.726   17.136    0.271    0.197  158.484  136.523
  363.976   16.749    0.231    0.144  158.571  132.730
  364.226   15.500    0.228    0.139  158.659  138.692
  364.476   14.290    0.207    0.137  157.290  139.336
  364.726   12.846    0.207    0.136  156.863  133.771
  364.976   12.578    0.174    0.134  156.961  132.637
  365.226   12.191    0.155    0.134  157.060  130.026
  365.476   11.413    0.151    0.133  157.147  124.756
  365.726   10.947    0.186    0.128  157.726  125.394
  365.976   10.208    0.193    0.119  157.835  146.723
  366.226    9.706    0.217    0.119  156.434  171.007
  366.476    9.516    0.255    0.140  155.055  191.154
  366.726    9.561    0.286    0.146  154.158  210.711
  366.976    9.685    0.307    0.142  153.752  216.673
  367.226    9.965    0.323    0.123  153.861  208.449
  367.476   10.128    0.324    0.102  153.948  187.516
  367.726   10.016    0.327    0.120  154.046  168.356
  367.976    9.551    0.341    0.140  154.134  153.627
  368.226    9.361    0.342    0.153  154.232  148.363
  368.476    9.053    0.328    0.142  154.308  152.546
  368.726    9.098    0.325    0.134  154.395  157.923
