~VERSION INFORMATION
 VERS.                 2.0:   CWLS LOG ASCII STANDARD -VERSION 2.0
 WRAP.                  NO:   ONE LINE PER DEPTH STEP
~WELL INFORMATION BLOCK
#MNEM.UNIT           DATA                    DESCRIPTION OF MNEMONIC
#---------    -------------------            -------------------------------
# Generated from Intellog Unique Number	CW_82_90/WELL/3062
WELL.         CHEVRON WABASCA NORTH          : Well_name    - WELL
LOC .         00/07-04-087-25W4/0            : Location     - LOCATION
UWI .         00/07-04-087-25W4/0            : Uwi          - UNIQUE WELL ID
ENTR.         MAX                            : Entered      - ENTERED BY
SRVC.         SCHLUMBERGER                   : Scn          - SERVICE COMPANY
STRT.M        228.6                          : top_depth    - START DEPTH
STOP.M        441.85                         : bot_depth    - STOP DEPTH
STEP.M        0.25                           : increment    - STEP LENGTH
 NULL. -999.2500:NULL Value
~CURVE INFORMATION BLOCK
#MNEM UNIT       ERCB CURVE CODE    CURVE DESCRIPTION
#-----------   ------------------   ----------------------------------
DEPT.M        00 001 00 00         : DEPTH        - DEPTH
ILD .OHMM     00 120 00 00         : RESD         - DEEP RESISTIVITY (DIL)
NPHI.V/V      00 330 00 00         : PHIN         - NEUTRON POROSITY (SANDSTONE)
DPHI.V/V      00 890 00 00         : PHID         - DENSITY POROSITY (SANDSTONE)
CALI.MM       00 280 01 00         : CAL          - CALIPER
GR  .API      00 310 00 00         : GR           - GAMMA RAY
~PARAMETER INFORMATION
#MNEM.UNIT           DATA             DESCRIPTION OF MNEMONIC
#---------         -----------     ------------------------------
GL  .M        629.412              : gl           - GROUND LEVEL ELEVATION
EREF.M        632.46               : kb           - ELEVATION OF DEPTH REFERENCE
DATM.M        629.412              : datum        - DATUM ELEVATION
TDD .M        445.313              : tdd          - TOTAL DEPTH DRILLER
RUN .         ONE                  : Run          - RUN NUMBER
ENG .         BILL                 : Engineer     - RECORDING ENGINEER
WIT .         JIM                  : Witness      - WITNESSED BY
MUD .         GEL                  : Mud_type     - MUD TYPE
MATR.         SANDSTONE            : Logunit      - NEUTRON MATRIX
TMAX.C        26.1111              : BHT          - MAXIMUM RECORDED TEMPERATURE
BHTD.M        445.313              : BHTDEP       - MAXIMUM RECORDED TEMPERATURE
MATR.         1                    : LOGUNIT      - NEUTRON MATRIX
RMT .C        10                   : MDTP         - TEMPERATURE OF MUD
NEUT.         1                    : NEUTRON      - NEUTRON TYPE
RESI.         0                    : RESIST       - RESISTIVITY TYPE
RMC .OHMM     5.34                 : RMC          - RESISTIVITY OF MUD CAKE
RMF .OHMM     7.18                 : RMF          - RESISTIVITY OF MUD FILTRATE
SUFT.C        -20.5556             : SUFT         - SURFACE TEMPERATURE
~A  DEPTH     RESD     PHIN     PHID      CAL       GR
# ...
  411.100   18.631    0.316    0.037  117.315   96.693
  411.350   21.548    0.277    0.003  111.380   94.940
  411.600   22.551    0.312    0.110  111.378   97.274
  411.850   21.749    0.345    0.137  111.375  101.069
  412.100   18.304    0.380    0.136  113.597  106.031
  412.350   13.566    0.400    0.130  115.078  110.409
  412.600   11.211    0.417    0.154  115.817  111.284
  412.850   10.147    0.412    0.149  114.331  109.531
  413.100    9.965    0.413    0.148  113.588  108.362
  413.350    9.966    0.415    0.148  113.586  108.361
  413.600   10.150    0.413    0.149  112.841  109.528
  413.850   10.337    0.410    0.147  112.839  110.695
  414.100   10.918    0.409    0.138  117.286  110.110
  414.350   10.919    0.392    0.111  119.508  105.146
  414.600   10.723    0.364    0.057  115.797  102.226
  414.850    9.973    0.406    0.133  118.761  106.604
  415.100    8.944    0.429    0.123  124.691  116.529
  415.350    8.243    0.441    0.123  130.621  117.404
  415.600    7.326    0.452    0.138  127.653  117.695
  415.850    6.752    0.456    0.132  127.650  118.862
  416.100    6.571    0.451    0.130  128.389  120.613
  416.350    6.572    0.448    0.128  130.611  121.487
  416.600    6.754    0.447    0.131  126.901  118.859
  416.850    7.005    0.443    0.142  123.933  116.522
  417.100    7.465    0.428    0.150  123.930  114.478
  417.350    7.813    0.419    0.136  120.962  110.682
  417.600    8.480    0.407    0.136  118.735  109.221
  417.850    9.037    0.410    0.138  118.732  109.804
  418.100    9.544    0.421    0.131  118.730  108.051
  418.350    9.809    0.430    0.117  117.986  106.591
  418.600    9.990    0.427    0.090  117.983  105.130
  418.850   10.175    0.413    0.071  117.981  102.502
  419.100   10.457    0.401    0.040  118.720  102.209
  419.350   10.553    0.404    0.067  122.426  103.668
  419.600   10.651    0.436    0.108  124.648  104.834
  419.850   10.947    0.423    0.086  123.162  103.082
  420.100   11.149    0.410    0.049  118.710   99.870
  420.350   11.251    0.394    0.105  117.966   96.657
  420.600   11.459    0.400    0.129  120.189   98.992
  420.850   11.565    0.407    0.138  120.186   99.575
  421.100   11.461    0.414    0.114  120.925  100.449
  421.350   10.954    0.423    0.123  121.664  101.616
  421.600   10.095    0.435    0.125  121.662  103.367
  421.850    9.648    0.445    0.119  121.660  103.658
  422.100    9.305    0.441    0.097  121.657  102.489
  422.350    8.654    0.434    0.094  120.913  101.029
  422.600    8.422    0.421    0.110  120.911  101.028
  422.850    8.423    0.427    0.126  121.650  102.194
  423.100    8.424    0.445    0.146  121.647  103.653
  423.350    8.658    0.452    0.126  118.679  105.988
  423.600    8.817    0.439    0.105  116.451  108.030
  423.850    9.062    0.422    0.072  115.708  111.533
  424.100    9.063    0.425    0.123  115.706  114.451
  424.350    8.821    0.437    0.154  118.669  120.289
  424.600    8.354    0.431    0.153  122.374  127.878
  424.850    7.699    0.421    0.137  124.596  131.381
  425.100    7.160    0.423    0.128  124.594  137.219
  425.350    7.032    0.427    0.096  120.142  144.224
  425.600    7.162    0.422    0.074  117.174  148.894
  425.850    7.495    0.402    0.051  116.430  147.726
  426.100    7.844    0.388    0.067  118.652  144.805
  426.350    8.514    0.370    0.073  119.391  140.133
  426.600    9.240    0.358    0.066  121.613  133.710
  426.850    9.937    0.378    0.089  123.836  130.497
  427.100   10.495    0.377    0.090  124.575  125.533
  427.350   10.030    0.362    0.087  122.348  117.358
  427.600    9.762    0.375    0.123  123.828  110.351
  427.850    9.852    0.390    0.134  121.601  110.350
  428.100   10.405    0.375    0.119  119.374  108.013
  428.350   11.089    0.353    0.077  120.113  103.341
  428.600   11.819    0.335    0.049  117.886   97.501
  428.850   12.369    0.292    0.002  117.142   92.246
  429.100   12.712    0.257    0.002  117.140   91.369
  429.350   12.484    0.323    0.046  117.137   97.791
  429.600   11.932    0.361    0.114  120.101  103.920
  429.850   10.996    0.346    0.089  120.840  102.460
  430.100   10.043    0.322    0.065  119.355   96.328
  430.350    9.863    0.328    0.027  117.869   93.116
  430.600    9.512    0.373    0.114  119.350   97.494
  430.850    9.258    0.386    0.111  120.831  100.120
  431.100    9.092    0.394    0.116  120.086   96.908
  431.350    8.849    0.392    0.126  119.343   93.696
  431.600    9.177    0.370    0.094  118.599   89.900
  431.850    9.692    0.345    0.055  115.630   86.103
  432.100   10.615    0.294    0.024  114.145   79.388
  432.350   11.947    0.282    0.005  114.883   79.971
  432.600   13.445    0.323    0.008  115.623   87.268
  432.850   13.325    0.362    0.074  115.621   97.485
  433.100   11.951    0.390    0.123  115.618  103.031
  433.350    9.611    0.419    0.126  115.616  102.738
  433.600    7.871    0.422    0.093  116.355  100.694
  433.850    7.124    0.429    0.094  117.094   99.817
  434.100    6.808    0.438    0.106  117.833   98.356
  434.350    6.566    0.442    0.111  119.313   97.479
  434.600    6.508    0.450    0.121  120.053   96.603
  434.850    6.334    0.454    0.109  120.792   95.142
  435.100    6.053    0.458    0.095  120.789   93.098
  435.350    5.478    0.459    0.080  121.528   88.133
  435.600    4.610    0.453    0.051  120.785   79.666
  435.850    4.211    0.457    0.003  117.816   72.367
  436.100    3.811    0.459    0.002  116.330   65.651
  436.350    3.743    0.454    0.054  120.035   56.308
  436.600    3.846    0.446    0.104  120.033   53.096
  436.850    4.251    0.429    0.094  119.289   69.736
  437.100    4.614    0.424    0.118  117.062   89.295
  437.350    4.741    0.426    0.094  117.060   91.045
  437.600    4.829    0.431    0.089  117.799   91.628
  437.850    4.830    0.436    0.106  120.762   92.211
  438.100    4.786    0.449    0.122  122.985   92.794
  438.350    4.744    0.446    0.124  124.466   93.085
  438.600    4.701    0.447    0.121  124.463   93.084
  438.850    4.745    0.467    0.102  123.719   93.375
  439.100    4.832    0.495    0.135  122.234   93.082
  439.350    5.292    0.548    0.164  120.748   88.410
  439.600    5.692    0.535    0.202  117.779   63.886
  439.850    5.797    0.513    0.213  111.845   41.114
  440.100    5.745    0.504    0.199  110.359   40.821
  440.350    5.642    0.505    0.179  111.099   63.300
  440.600    5.643    0.509    0.156  114.062   83.150
  440.850    5.695    0.537    0.126  116.284  109.424
  441.100    5.696    0.539    0.110  117.023   99.205
  441.350    5.748    0.538    0.105  115.538   95.993
  441.600    5.749    0.534    0.105  113.311   90.153
  441.850    5.750    0.528    0.081  108.859   84.313
