~VERSION INFORMATION
 VERS.                 2.0:   CWLS LOG ASCII STANDARD -VERSION 2.0
 WRAP.                  NO:   ONE LINE PER DEPTH STEP
~WELL INFORMATION BLOCK
#MNEM.UNIT           DATA                    DESCRIPTION OF MNEMONIC
#---------    -------------------            -------------------------------
# Generated from Intellog Unique Number	CN_91_93/WELL/1065
WELL.         PETRO-CANADA                   : Well_name    - WELL
LOC .         00/02-22-091-19W4/0            : Location     - LOCATION
UWI .         00/02-22-091-19W400            : Uwi          - UNIQUE WELL ID
ENTR.         JOETTE                         : Entered      - ENTERED BY
SRVC.         SCHLUMBERGER                   : Scn          - SERVICE COMPANY
DATE.         01/30/92                       : Date         - LOG DATE
STRT.F        360.892                        : top_depth    - START DEPTH
STOP.F        770.997                        : bot_depth    - STOP DEPTH
STEP.F        0.821                          : increment    - STEP LENGTH
 NULL. -999.2500:NULL Value
~CURVE INFORMATION BLOCK
#MNEM UNIT       ERCB CURVE CODE    CURVE DESCRIPTION
#-----------   ------------------   ----------------------------------
DEPT.F        00 001 00 00         : DEPTH        - DEPTH
GR  .API      00 310 00 00         : GR           - GAMMA RAY
CALI.IN       00 280 01 00         : CAL          - CALIPER
PHIN.V/V      00 330 00 00         : PHIN         - NEUTRON POROSITY (SANDSTONE)
PHID.V/V      00 890 00 00         : PHID         - DENSITY POROSITY (SANDSTONE)
ILD .OHMM     00 120 00 00         : RESD         - DEEP RESISTIVITY (DIL)
~PARAMETER INFORMATION
#MNEM.UNIT           DATA             DESCRIPTION OF MNEMONIC
#---------         -----------     ------------------------------
GL  .F        1715.98              : gl           - GROUND LEVEL ELEVATION
EREF.F        1728.28              : kb           - ELEVATION OF DEPTH REFERENCE
DATM.F        1728.28              : datum        - DATUM ELEVATION
TDD .F        1021.98              : tdd          - TOTAL DEPTH DRILLER
RUN .         ONE                  : Run          - RUN NUMBER
ENG .         JO                   : Engineer     - RECORDING ENGINEER
WIT .         TIM                  : Witness      - WITNESSED BY
MUD .         GEL                  : Mud_type     - MUD TYPE
MATR.         SANDSTONE            : Logunit      - NEUTRON MATRIX
TMAX.F        50                   : BHT          - MAXIMUM RECORDED TEMPERATURE
BHTD.F        524.934              : BHTDEP       - MAXIMUM RECORDED TEMPERATURE
RMT .F        64.4                 : MDTP         - TEMPERATURE OF MUD
MUDD.LB/G     0.541666             : MWT          - MUD DENSITY
NEUT.         1                    : NEUTRON      - NEUTRON TYPE
RESI.         0                    : RESIST       - RESISTIVITY TYPE
RM  .OHMM     1.5                  : RM           - RESISTIVITY OF MUD
RMC .OHMM     1.8                  : RMC          - RESISTIVITY OF MUD CAKE
RMF .OHMM     1.1                  : RMF          - RESISTIVITY OF MUD FILTRATE
SUFT.F        39.2                 : SUFT         - SURFACE TEMPERATURE
~A   DEPT       GR     CALI     PHIN     PHID      ILD
# ...
  480.643   92.092    8.810    0.373    0.239    9.368
  481.463   84.113    8.810    0.381    0.250    9.532
  482.283   79.089    8.830    0.377    0.255   10.149
  483.104   72.884    8.830    0.384    0.279   11.309
  483.924   67.861    8.830    0.388    0.280   12.044
  484.744   67.274    8.831    0.400    0.286   12.141
  485.564   65.209    8.831    0.381    0.308   11.693
  486.385   64.919    8.832    0.360    0.296   11.787
  487.205   64.036    8.813    0.367    0.268   13.751
  488.025   69.364    8.813    0.377    0.245   13.987
  488.845   68.481    8.813    0.377    0.236   13.105
  489.665   67.599    8.813    0.364    0.222   12.975
  490.486   68.491    8.814    0.365    0.228   13.941
  491.306   68.201    8.834    0.379    0.268   13.547
  492.126   70.571    8.834    0.385    0.284   12.463
  492.946   81.222    8.854    0.390    0.281   11.786
  493.766   89.212    8.854    0.392    0.211   11.458
  494.587   88.922    8.874    0.380    0.169   10.348
  495.407   88.039    8.874    0.384    0.186   10.348
  496.227   92.776    8.874    0.378    0.199    9.773
  497.047   98.103    8.855    0.384    0.210    8.283
  497.867   97.222    8.855    0.386    0.203    8.125
  498.688   91.607    8.837    0.375    0.187    8.190
  499.508   85.106    8.837    0.375    0.179    8.564
  500.328   87.477    8.799    0.378    0.192    9.036
  501.148   88.073    8.799    0.381    0.194    9.364
  501.969   89.852    8.799    0.397    0.195    9.266
  502.789   94.589    8.780    0.427    0.201    8.683
  503.609   93.411    8.761    0.419    0.216    8.137
  504.429   92.233    8.761    0.399    0.229    8.128
  505.249   89.576    8.761    0.387    0.242    8.654
  506.070   89.877    8.801    0.373    0.244    9.472
  506.890   77.756    8.801    0.375    0.132   10.654
  507.710   79.240    8.801    0.339    0.151   13.127
  508.530   76.584    8.821    0.353    0.187   14.498
  509.350   76.292    8.821    0.359    0.216   15.436
  510.171   81.620    8.821    0.358    0.212   14.073
  510.991   78.373    8.822    0.351    0.198   13.190
  511.811   73.941    8.842    0.336    0.202   13.416
  512.631   68.918    8.842    0.339    0.219   14.419
  513.451   67.444    8.842    0.341    0.231   15.634
  514.272   83.714    8.862    0.333    0.218   15.330
  515.092   79.284    8.862    0.356    0.194   14.239
  515.912   82.541    8.863    0.357    0.209   12.861
  516.732   80.772    8.863    0.362    0.226   12.275
  517.552   67.468    8.863    0.328    0.211   11.398
  518.373   68.360    8.864    0.317    0.176   10.297
  519.193   75.758    8.864    0.319    0.143   11.269
  520.013   81.087    8.884    0.325    0.160   13.510
  520.833   86.120    8.884    0.339    0.184   12.431
  521.654   90.856    8.884    0.367    0.213   10.828
  522.474   98.550    8.904    0.381    0.224    9.606
  523.294   88.500    8.904    0.394    0.211    8.518
  524.114   70.465    8.905    0.392    0.228    8.280
  524.934   69.287    8.924    0.371    0.242    8.346
  525.755   62.786    8.944    0.348    0.250    8.887
  526.575   63.381    8.925    0.359    0.260   11.152
  527.395   70.188    8.925    0.369    0.249   12.433
  528.215   68.715    8.926    0.341    0.202   14.371
  529.035   73.451    8.887    0.359    0.202   13.970
  529.856   82.624    8.868    0.377    0.210   12.506
  530.676   87.064    8.849    0.382    0.187   11.193
  531.496   81.746    8.830    0.383    0.198   10.393
  532.316   76.133    8.830    0.382    0.211    9.920
  533.136   77.321    8.830    0.390    0.221    9.639
  533.957   79.099    8.811    0.392    0.220    9.628
  534.777   84.132    8.851    0.385    0.207    9.707
  535.597   91.234    8.851    0.381    0.179    9.608
  536.417   93.309    8.871    0.381    0.161    9.169
  537.238   87.400    8.910    0.391    0.184    8.590
  538.058   89.178    8.910    0.399    0.196    8.198
  538.878   87.113    8.930    0.399    0.207    9.054
  539.698   80.020    8.988    0.386    0.157   12.449
  540.518   79.434    8.989    0.366    0.135   15.628
  541.339   67.905    9.047    0.349    0.121   19.793
  542.159   64.066    9.106    0.267    0.107   26.722
  542.979   62.000    9.106    0.259    0.094   30.891
  543.799   63.779    9.165    0.251    0.065   31.418
  544.619   59.939    9.242    0.257    0.133   29.987
  545.440   65.859    9.282    0.278    0.158   31.353
  546.260   64.977    9.282    0.304    0.212   30.752
  547.080   81.247    9.302    0.314    0.093   24.674
  547.900   87.759    9.302    0.329    0.166   18.911
  548.720   89.243    9.361    0.343    0.203   12.870
  549.541   88.360    9.400    0.350    0.213   11.626
  550.361   85.112    9.419    0.356    0.221   10.897
  551.181   89.256    9.419    0.359    0.226    9.663
  552.001   99.316    9.420    0.371    0.218    9.309
  552.822   93.998    9.420    0.377    0.193    8.881
  553.642   90.750    9.382    0.388    0.200    8.713
  554.462   89.867    9.363    0.382    0.206    8.235
  555.282   99.631    9.305    0.379    0.208    8.080
  556.102  101.115    9.266    0.381    0.126    7.996
  556.923   90.769    9.189    0.368    0.084    7.990
  557.743   89.592    9.034    0.365    0.121    8.054
  558.563   93.736    8.899    0.383    0.164    8.266
  559.383   82.207    8.879    0.363    0.190    8.721
  560.203   62.693    8.880    0.326    0.202    9.723
  561.024   61.220    8.899    0.271    0.078   11.983
  561.844   63.886    8.919    0.275    0.070   14.500
  562.664   80.749    8.939    0.288    0.091   16.305
  563.484   80.162    8.959    0.315    0.128   15.140
  564.304   84.010    8.978    0.322    0.166   13.556
  565.125   90.817    9.017    0.326    0.195   13.173
  565.945   95.850    9.017    0.331    0.240   13.650
  566.765   86.391    9.057    0.313    0.259   14.938
  567.585   85.509    9.116    0.309    0.240   16.346
  568.406   85.809    9.116    0.315    0.239   16.779
  569.226   83.744    9.116    0.325    0.246   15.582
  570.046   84.933    9.116    0.342    0.229   14.732
  570.866   84.050    9.078    0.357    0.209   14.854
  571.686   82.871    9.214    0.362    0.205   15.105
  572.507   87.312    9.273    0.350    0.206   14.685
  573.327   86.134    9.273    0.346    0.211   12.333
  574.147   87.322    9.254    0.352    0.213   12.096
  574.967   89.398    9.215    0.367    0.213   12.529
  575.787   88.515    9.216    0.374    0.214   12.748
  576.608   89.702    9.274    0.377    0.215   12.055
  577.428   89.116    9.294    0.365    0.208   11.192
  578.248   79.953    9.275    0.363    0.196   11.080
  579.068   82.620    9.217    0.363    0.143   12.014
  579.888   86.173    9.140    0.369    0.158   12.676
  580.709   96.233    9.062    0.375    0.198   12.207
  581.529   98.308    8.985    0.375    0.205   11.545
  582.349   94.764    8.966    0.361    0.213   11.217
  583.169   84.418    8.927    0.341    0.225   11.945
  583.990   89.155    8.908    0.337    0.231   12.834
  584.810   89.456    8.889    0.332    0.207   13.669
  585.630   86.207    8.890    0.325    0.156   14.824
  586.450   80.001    8.871    0.319    0.202   16.372
  587.270   87.991    8.871    0.334    0.220   18.752
  588.091   90.067    8.852    0.336    0.245   16.944
  588.911   87.114    8.833    0.331    0.250   15.166
  589.731   85.344    8.814    0.335    0.253   14.741
  590.551   90.082    8.794    0.339    0.257   14.456
  591.371   89.790    8.795    0.344    0.254   14.442
  592.192   88.021    8.795    0.347    0.234   14.553
  593.012   90.687    8.737    0.348    0.220   14.408
  593.832   95.127    8.679    0.345    0.217   13.622
  594.652   93.653    8.466    0.347    0.214   13.001
  595.472   91.294    8.020    0.354    0.218   12.869
  596.293   91.298    7.652    0.365    0.225   12.975
  597.113   88.937    7.652    0.351    0.214   13.940
  597.933   93.673    7.885    0.343    0.195   14.982
  598.753   91.903    8.371    0.346    0.180   15.804
  599.573   88.065    8.604    0.361    0.193   15.643
