~VERSION INFORMATION
 VERS.                 2.0:   CWLS LOG ASCII STANDARD -VERSION 2.0
 WRAP.                  NO:   ONE LINE PER DEPTH STEP
~WELL INFORMATION BLOCK
#MNEM.UNIT           DATA                    DESCRIPTION OF MNEMONIC
#---------    -------------------            -------------------------------
# Generated from Intellog Unique Number	CW_70_72/WELL/3290
NULL.         -999.25                        : NULL_VALUE
WELL.         SULPETRO ET AL MITSUE 05-18    : Well_name    - WELL              
LOC .         05-18-071-05W5                 : Location     - LOCATION          
UWI .         00/05-18-071-05W5/0            : Uwi          - UNIQUE WELL ID    
ENTR.         JAYE                           : Entered      - ENTERED BY        
SRVC.         SCHLUMBERGER                   : Scn          - SERVICE COMPANY   
DATE.         1 MAR 81                       : Date         - LOG DATE          
STRT.M        650                            : top_depth    - START DEPTH       
STOP.M        895                            : bot_depth    - STOP DEPTH        
STEP.M        0.25                           : increment    - STEP LENGTH       
~CURVE INFORMATION BLOCK
#MNEM UNIT       ERCB CURVE CODE    CURVE DESCRIPTION
#-----------   ------------------   ----------------------------------
DEPT.M        00 001 00 00         : DEPTH        - DEPTH                       
DPHI.V/V      00 890 00 00         : PHID         - DENSITY POROSITY (SANDSTONE)
ILD .OHMM     00 120 00 00         : RESD         - DEEP RESISTIVITY (DIL)      
CALI.MM       00 280 01 00         : CAL          - CALIPER                     
GR  .API      00 310 00 00         : GR           - GAMMA RAY                   
NPHI.V/V      00 330 00 00         : PHIN         - NEUTRON POROSITY (SANDSTONE)
~PARAMETER INFORMATION       
#MNEM.UNIT           DATA             DESCRIPTION OF MNEMONIC
#---------         -----------     ------------------------------
GL  .M        795.4                : gl           - GROUND LEVEL ELEVATION      
EREF.M        798.4                : kb           - ELEVATION OF DEPTH REFERENCE
DATM.M        795.4                : datum        - DATUM ELEVATION             
TDD .M        895                  : tdd          - TOTAL DEPTH DRILLER         
RUN .         ONE                  : Run          - RUN NUMBER                  
ENG .         VALLANCOURT          : Engineer     - RECORDING ENGINEER          
WIT .         THACKER              : Witness      - WITNESSED BY                
BASE.         EDM                  : Branch       - HOME BASE OF LOGGING UNIT   
MUD .         GEL CHEM             : Mud_type     - MUD TYPE                    
MATR.         SANDSTONE            : Logunit      - NEUTRON MATRIX              
TMAX.C        32.8                 : BHT          - MAXIMUM RECORDED TEMPERATURE
BHTD.M        895                  : BHTDEP       - MAXIMUM RECORDED TEMPERATURE
RMT .C        20                   : MDTP         - TEMPERATURE OF MUD          
MUDD.KG/M     1130                 : MWT          - MUD DENSITY                 
NEUT.         1                    : NEUTRON      - NEUTRON TYPE                
RESI.         0                    : RESIST       - RESISTIVITY TYPE            
RM  .OHMM     4.57                 : RM           - RESISTIVITY OF MUD          
RMC .OHMM     0.25                 : RMC          - RESISTIVITY OF MUD CAKE     
RMF .OHMM     3.86                 : RMF          - RESISTIVITY OF MUD FILTRATE 
SUFT.C        5                    : SUFT         - SURFACE TEMPERATURE         
~A  DEPTH     PHID     RESD      CAL       GR     PHIN
# ...
  832.500    0.270    2.065  156.166   61.520    0.385
  832.750    0.134    2.139  157.913   58.163    0.322
  833.000    0.134    2.089  158.627   58.219    0.262
  833.250    0.166    1.981  158.719   64.729    0.352
  833.500    0.271    1.885  157.260   68.818    0.379
  833.750    0.290    1.781  156.008   70.921    0.410
  834.000    0.290    1.711  155.067   68.805    0.415
  834.250    0.292    1.650  154.331   67.433    0.426
  834.500    0.300    1.621  153.697   66.496    0.423
  834.750    0.307    1.638  153.689   67.544    0.425
  835.000    0.305    1.668  153.160   70.392    0.447
  835.250    0.300    1.711  152.943   71.069    0.471
  835.500    0.295    1.749  153.137   70.813    0.428
  835.750    0.301    1.764  153.129   71.180    0.437
  836.000    0.309    1.783  153.942   71.732    0.471
  836.250    0.305    1.789  154.243   71.725    0.475
  836.500    0.297    1.781  154.748   70.850    0.466
  836.750    0.301    1.750  155.050   67.864    0.452
  837.000    0.309    1.687  155.142   66.803    0.434
  837.250    0.304    1.639  155.132   69.465    0.436
  837.500    0.296    1.598  155.327   72.561    0.451
  837.750    0.299    1.588  155.521   72.865    0.451
  838.000    0.300    1.590  155.719   72.238    0.439
  838.250    0.296    1.586  155.502   71.114    0.425
  838.500    0.298    1.588  155.490   71.232    0.426
  838.750    0.298    1.587  155.272   71.598    0.436
  839.000    0.291    1.577  155.056   70.722    0.432
  839.250    0.288    1.578  154.422   68.172    0.421
  839.500    0.298    1.568  153.585   66.986    0.412
  839.750    0.303    1.570  152.953   67.599    0.410
  840.000    0.298    1.584  152.942   68.586    0.413
  840.250    0.287    1.595  153.034   69.634    0.421
  840.500    0.279    1.609  153.129   70.249    0.431
  840.750    0.274    1.650  152.908   71.049    0.439
  841.000    0.270    1.709  153.105   71.477    0.431
  841.250    0.265    1.776  152.993   74.697    0.419
  841.500    0.262    1.839  153.394   76.677    0.419
  841.750    0.270    1.887  153.592   75.988    0.424
  842.000    0.275    1.907  153.372   75.981    0.421
  842.250    0.272    1.935  152.947   77.898    0.418
  842.500    0.269    1.974  153.042   76.464    0.414
  842.750    0.264    2.006  152.823   74.037    0.405
  843.000    0.259    2.042  152.915   72.604    0.425
  843.250    0.253    2.087  153.420   73.777    0.418
  843.500    0.246    2.206  154.239   76.811    0.391
  843.750    0.239    2.372  155.572   81.955    0.400
  844.000    0.232    2.546  157.630   85.796    0.399
  844.250    0.212    2.676  158.964   88.086    0.393
  844.500    0.194    2.724  159.574   88.141    0.381
  844.750    0.197    2.713  160.287   88.135    0.384
  845.000    0.221    2.660  160.586   85.336    0.402
  845.250    0.226    2.648  160.989   85.019    0.399
  845.500    0.206    2.651  162.426   86.316    0.387
  845.750    0.179    2.690  163.966   88.978    0.361
  846.000    0.161    2.754  165.817   92.633    0.368
  846.250    0.144    2.841  167.462   96.101    0.384
  846.500    0.151    2.981  167.865   93.799    0.391
  846.750    0.161    3.110  167.440   93.482    0.390
  847.000    0.154    3.263  166.912   96.951    0.388
  847.250    0.141    3.437  166.797   98.309    0.380
  847.500    0.128    3.606  166.580   97.993    0.357
  847.750    0.127    3.617  166.465   97.924    0.325
  848.000    0.141    3.601  166.454   98.662    0.349
  848.250    0.154    3.626  166.235  104.056    0.371
  848.500    0.135    3.747  165.605  108.702    0.392
  848.750    0.117    4.067  163.526   97.650    0.356
  849.000    0.104    4.506  164.343   92.617    0.328
  849.250    0.092    4.945  165.573   87.087    0.314
  849.500    0.088    5.459  162.770   82.239    0.304
  849.750    0.099    5.684  162.758   89.432    0.292
  850.000    0.098    5.390  164.713   97.493    0.312
  850.250    0.105    5.119  165.426  101.893    0.331
  850.500    0.125    4.900  164.071  103.252    0.330
  850.750    0.139    4.699  161.060  105.480    0.322
  851.000    0.151    4.557  161.049  106.342    0.330
  851.250    0.166    4.410  163.210  104.349    0.346
  851.500    0.155    4.269  165.475  102.853    0.350
  851.750    0.162    4.125  165.463   99.930    0.357
  852.000    0.176    4.007  162.661   97.131    0.364
  852.250    0.167    3.900  161.098  101.096    0.360
  852.500    0.159    4.023  161.398  104.751    0.361
  852.750    0.154    4.006  161.695  104.993    0.370
  853.000    0.161    3.966  161.893  101.449    0.377
  853.250    0.173    3.940  162.503  101.256    0.382
  853.500    0.182    3.894  162.492   98.457    0.387
  853.750    0.170    3.876  162.481   94.230    0.379
  854.000    0.162    3.852  162.160   91.245    0.373
  854.250    0.170    3.835  161.734   91.300    0.372
  854.500    0.176    3.810  161.207   92.225    0.375
  854.750    0.180    3.773  159.850   90.357    0.386
  855.000    0.180    3.755  158.391   87.557    0.407
  855.250    0.174    3.746  157.967   90.219    0.395
  855.500    0.168    3.792  158.474   94.185    0.363
  855.750    0.162    3.883  159.085   99.453    0.360
  856.000    0.157    3.991  159.487  102.550    0.358
  856.250    0.162    4.026  162.371  103.164    0.349
  856.500    0.158    4.000  161.741  106.012    0.346
  856.750    0.148    3.887  162.661  109.109    0.356
  857.000    0.145    3.685  166.477  110.095    0.380
  857.250    0.158    3.507  169.052  108.909    0.395
  857.500    0.158    3.179  169.972  107.103    0.404
  857.750    0.152    2.589  170.787  104.180    0.414
  858.000    0.182    1.745  170.468   99.767    0.423
  858.250    0.228    1.326  165.181   93.430    0.454
  858.500    0.245    1.123  162.998   89.638    0.526
  858.750    0.245    1.045  167.022   88.266    0.548
  859.000    0.246    1.060  169.907   91.052    0.556
  859.250    0.233    1.117  171.136   94.211    0.567
  859.500    0.217    1.176  172.057   97.742    0.503
  859.750    0.208    1.241  174.839  100.528    0.487
  860.000    0.206    1.319  175.138  101.328    0.492
  860.250    0.205    1.440  174.196   98.963    0.506
  860.500    0.196    1.684  172.945   93.247    0.528
  860.750    0.178    1.967  171.589   93.861    0.502
  861.000    0.159    2.318  170.026   89.820    0.434
  861.250    0.148    2.662  168.877   87.332    0.434
  861.500    0.155    2.927  167.315   89.746    0.432
  861.750    0.162    3.077  165.650   91.042    0.418
  862.000    0.163    3.144  164.809   89.112    0.397
  862.250    0.162    3.142  164.696   88.733    0.376
  862.500    0.160    3.152  164.893   90.092    0.373
  862.750    0.158    3.108  165.089   93.933    0.386
  863.000    0.155    3.054  164.975   93.244    0.390
  863.250    0.147    3.001  165.585   92.989    0.389
  863.500    0.141    2.960  168.573   94.968    0.387
  863.750    0.156    3.019  169.182   96.700    0.394
  864.000    0.160    3.162  168.965   97.376    0.415
  864.250    0.153    3.293  168.333   96.190    0.411
  864.500    0.141    3.442  168.218   95.377    0.388
  864.750    0.132    3.564  167.898   95.370    0.365
  865.000    0.138    3.650  168.507   99.211    0.369
  865.250    0.150    3.723  168.703  101.501    0.379
  865.500    0.127    3.784  168.899  101.122    0.387
  865.750    0.088    3.774  168.889   97.764    0.381
  866.000    0.097    3.626  168.258   98.441    0.338
  866.250    0.130    3.330  167.315   99.613    0.349
  866.500    0.148    2.945  167.821   99.668    0.379
  866.750    0.166    2.650  169.570  100.220    0.398
  867.000    0.163    2.452  171.834   99.097    0.414
  867.250    0.153    2.334  172.237   96.794    0.422
  867.500    0.146    2.358  172.639   99.395    0.422
  867.750    0.152    2.410  171.905  102.801    0.414
  868.000    0.158    2.543  170.756  102.795    0.416
  868.250    0.155    2.729  168.987  100.802    0.421
  868.500    0.131    2.934  168.355   99.244    0.413
  868.750    0.078    3.154  168.240   96.631    0.399
