~VERSION INFORMATION
 VERS.                 2.0:   CWLS LOG ASCII STANDARD -VERSION 2.0
 WRAP.                  NO:   ONE LINE PER DEPTH STEP
~WELL INFORMATION BLOCK
#MNEM.UNIT           DATA                    DESCRIPTION OF MNEMONIC
#---------    -------------------            -------------------------------
# Generated from Intellog Unique Number	CX_WELLS/WELL/2872
WELL.         07-08-081-18W4                 : Well_name    - WELL
LOC .         00/07-08-081-18W4/0            : Location     - LOCATION
UWI .         00/07-08-081-18W4/0            : Uwi          - UNIQUE WELL ID
ENTR.         T                              : Entered      - ENTERED BY
SRVC.         SCHLUMBERGER                   : Scn          - SERVICE COMPANY
STRT.F        550                            : top_depth    - START DEPTH
STOP.F        1220.11                        : bot_depth    - STOP DEPTH
STEP.F        0.82                           : increment    - STEP LENGTH
 NULL. -999.2500:NULL Value
~CURVE INFORMATION BLOCK
#MNEM UNIT       ERCB CURVE CODE    CURVE DESCRIPTION
#-----------   ------------------   ----------------------------------
DEPT.F        00 001 00 00         : DEPTH        - DEPTH
GR  .API      00 310 00 00         : GR           - GAMMA RAY
NPHI.V/V      00 330 00 00         : PHIN         - NEUTRON POROSITY (SANDSTONE)
ILD .OHMM     00 120 00 00         : RESD         - DEEP RESISTIVITY (OTHER)
~PARAMETER INFORMATION
#MNEM.UNIT           DATA             DESCRIPTION OF MNEMONIC
#---------         -----------     ------------------------------
GL  .F        1854                 : gl           - GROUND LEVEL ELEVATION
EREF.F        1865                 : kb           - ELEVATION OF DEPTH REFERENCE
DATM.F        1865                 : datum        - DATUM ELEVATION
TDD .F        1227                 : tdd          - TOTAL DEPTH DRILLER
RUN .         ONE                  : Run          - RUN NUMBER
ENG .         BILL                 : Engineer     - RECORDING ENGINEER
WIT .         JIM                  : Witness      - WITNESSED BY
MUD .         GEL                  : Mud_type     - MUD TYPE
MATR.         SANDSTONE            : Logunit      - NEUTRON MATRIX
TMAX.F        73                   : BHT          - MAXIMUM RECORDED TEMPERATURE
BHTD.F        1227                 : BHTDEP       - MAXIMUM RECORDED TEMPERATURE
MATR.         1                    : LOGUNIT      - NEUTRON MATRIX
RMT .F        65                   : MDTP         - TEMPERATURE OF MUD
NEUT.         1                    : NEUTRON      - NEUTRON TYPE
RESI.         7.1                  : RESIST       - RESISTIVITY TYPE
RMC .OHMM     6.5                  : RMC          - RESISTIVITY OF MUD CAKE
RMF .OHMM     5                    : RMF          - RESISTIVITY OF MUD FILTRATE
SUFT.F        35                   : SUFT         - SURFACE TEMPERATURE
~A  DEPTH       GR     PHIN     RESD
  550.000   67.704    0.495    3.937
  550.820   66.487    0.492    4.191
  551.640   65.270    0.482    4.529
  552.461   64.675    0.469    4.950
  553.281   63.464    0.456    5.456
  554.101   62.247    0.439    6.298
  554.921   61.645    0.409    6.803
  555.741   59.819    0.391    7.560
  556.562   58.590    0.371    8.065
  557.382   56.137    0.356    8.822
  558.202   53.057    0.344    9.328
  559.022   50.592    0.339    9.750
  559.843   46.276    0.330   10.004
  560.663   43.190    0.325   10.343
  561.483   40.737    0.326   10.681
  562.303   40.135    0.330   10.935
  563.123   38.930    0.335   11.440
  563.944   38.322    0.341   12.531
  564.764   35.869    0.347   13.790
  565.584   32.789    0.348   14.882
  566.404   30.330    0.349   16.644
  567.224   29.740    0.353   17.485
  568.045   29.753    0.355   18.075
  568.865   31.647    0.353   18.329
  569.685   32.287    0.344   18.415
  570.505   34.809    0.339   18.418
  571.325   36.076    0.334   18.505
  572.146   36.716    0.333   18.006
  572.966   36.754    0.333   16.753
  573.786   35.531    0.365   14.579
  574.606   34.320    0.387   13.745
  575.427   33.090    0.397   11.990
  576.247   33.122    0.387   11.742
  577.067   33.147    0.377   12.247
  577.887   32.557    0.367   13.338
  578.707   31.334    0.357   14.598
  579.528   30.732    0.350   15.941
  580.348   29.515    0.351   16.782
  581.168   27.696    0.355   16.702
  581.988   27.708    0.360   16.537
  582.808   27.112    0.363   16.289
  583.629   26.523    0.369   15.203
  584.449   25.920    0.381   14.201
  585.269   25.945    0.393   13.787
  586.089   27.219    0.388   13.957
  586.909   29.734    0.382   14.128
  587.730   31.002    0.370   14.299
  588.550   31.635    0.354   14.301
  589.370   32.281    0.342   14.221
  590.190   32.313    0.341   13.972
  591.010   32.331    0.351   13.473
  591.831   32.984    0.369   12.974
  592.651   34.257    0.387   12.475
  593.471   34.891    0.390   11.724
  594.291   36.164    0.387   11.141
  595.112   37.431    0.386   10.390
  595.932   39.320    0.389    9.557
  596.752   39.972    0.395    9.140
  597.572   39.370    0.400    8.725
  598.392   37.532    0.397    8.980
  599.213   37.557    0.396    9.737
  600.033   38.830    0.399   10.912
  600.853   40.097    0.406   11.418
  601.673   41.992    0.409   11.338
  602.493   43.246    0.410   11.173
  603.314   45.141    0.408   11.008
  604.134   47.029    0.405   10.760
  604.954   48.296    0.403   10.430
  605.774   48.321    0.400   10.348
  606.594   49.589    0.397   10.267
  607.415   50.228    0.393   10.188
  608.235   53.992    0.387   10.107
  609.055   54.632    0.385    9.942
  609.875   57.148    0.389    9.610
  610.696   58.408    0.399    9.027
  611.516   60.303    0.410    8.444
  612.336   60.949    0.419    7.777
  613.156   62.216    0.426    7.194
  613.976   62.862    0.436    7.114
  614.797   59.782    0.446    7.619
  615.617   56.081    0.469    8.711
  616.437   56.100    0.474    9.635
  617.257   55.510    0.483   10.308
  618.077   57.399    0.491   10.897
  618.898   59.287    0.501   11.237
  619.718   59.312    0.508   11.155
  620.538   58.101    0.516   11.076
  621.358   58.126    0.523   10.911
  622.178   59.393    0.529   10.579
  622.999   60.661    0.542   10.164
  623.819   61.928    0.554    9.915
  624.639   61.953    0.560    9.499
  625.459   61.984    0.566    8.834
  626.280   61.997    0.573    8.668
  627.100   62.643    0.577    8.337
  627.920   62.668    0.572    8.172
  628.740   61.457    0.513    8.344
  629.560   60.861    0.518    8.513
  630.381   60.880    0.519    8.768
  631.201   62.768    0.518    8.855
  632.021   64.663    0.508    8.607
  632.841   68.420    0.505    8.108
  633.661   70.923    0.503    7.524
  634.482   73.433    0.496    6.691
  635.302   75.948    0.490    6.023
  636.122   77.836    0.479    5.105
  636.942   79.097    0.468    4.187
  637.762   79.743    0.459    3.941
  638.583   80.389    0.455    3.942
  639.403   80.414    0.450    3.947
  640.223   79.819    0.449    3.950
  641.043   80.465    0.447    4.037
  641.864   81.111    0.445    4.040
  642.684   80.527    0.444    4.126
  643.504   79.317    0.445    4.214
  644.324   78.708    0.446    4.300
  645.144   77.491    0.448    4.722
  645.965   75.032    0.445    5.060
  646.785   72.573    0.440    5.314
  647.605   67.630    0.435    5.652
  648.425   68.276    0.429    6.159
  649.245   70.785    0.424    6.580
  650.066   72.674    0.418    7.253
  650.886   71.463    0.416    7.340
  651.706   70.861    0.413    7.344
  652.526   69.029    0.408    7.263
  653.346   67.191    0.399    7.351
  654.167   65.353    0.393    7.520
  654.987   64.130    0.386    7.858
  655.807   62.919    0.381    8.531
  656.627   62.317    0.379    9.623
  657.448   60.479    0.379   10.129
  658.268   58.020    0.376   10.383
  659.088   56.182    0.375   10.386
  659.908   53.729    0.371   10.222
  660.728   50.028    0.370   10.057
  661.549   47.563    0.371    9.977
  662.369   40.763    0.375   10.064
  663.189   35.820    0.375   10.151
  664.009   32.119    0.375   10.405
  664.829   31.523    0.375   10.742
  665.650   30.921    0.377   12.086
  666.470   30.946    0.378   13.261
  667.290   30.350    0.380   14.269
  668.110   31.009    0.380   15.780
  668.930   31.655    0.381   16.536
  669.751   31.680    0.383   17.629
  670.571   31.084    0.387   17.884
  671.391   30.488    0.387   17.886
  672.211   29.898    0.384   17.806
  673.031   29.917    0.383   17.725
  673.852   29.948    0.384   17.896
  674.672   29.961    0.388   18.151
  675.492   29.371    0.388   18.321
  676.312   28.148    0.383   18.324
  677.133   26.316    0.379   17.992
  677.953   25.099    0.383   17.409
  678.773   25.125    0.388   16.575
  679.593   25.150    0.392   15.908
  680.413   25.802    0.391   15.325
  681.234   26.442    0.394   14.742
  682.054   28.336    0.403   14.326
  682.874   28.976    0.411   13.827
  683.694   29.629    0.412   13.412
  684.514   29.660    0.403   13.164
  685.335   29.058    0.379   12.831
  686.155   29.077    0.377   12.667
  686.975   28.481    0.375   12.419
  687.795   28.506    0.371   12.255
  688.615   29.158    0.370   12.175
  689.436   28.569    0.371   12.095
  690.256   28.581    0.372   12.097
  691.076   27.364    0.373   12.102
  691.896   26.774    0.374   12.104
  692.717   28.042    0.377   12.107
  693.537   29.930    0.374   12.026
  694.357   31.191    0.377   11.695
  695.177   33.712    0.380   11.530
  695.997   34.352    0.382   11.282
  696.818   34.998    0.380   11.118
  697.638   35.657    0.377   11.037
  698.458   35.676    0.372   11.040
  699.278   36.316    0.372   11.044
  700.098   37.589    0.379   11.130
  700.919   38.856    0.389   11.303
  701.739   39.496    0.400   11.472
  702.559   40.776    0.402   11.727
  703.379   40.795    0.396   11.813
  704.199   41.435    0.390   12.068
  705.020   40.845    0.382   12.406
  705.840   40.255    0.375   12.995
  706.660   39.659    0.369   13.669
  707.480   38.436    0.364   13.922
  708.301   37.232    0.364   14.260
  709.121   36.630    0.369   14.850
  709.941   36.648    0.381   15.439
  710.761   36.065    0.391   15.944
  711.581   36.078    0.401   16.617
  712.402   34.873    0.414   17.290
  713.222   33.644    0.409   18.131
  714.042   32.433    0.400   18.720
  714.862   31.216    0.387   19.060
  715.682   31.241    0.373   18.727
  716.503   32.514    0.372   17.977
  717.323   33.148    0.377   16.807
  718.143   35.043    0.380   15.721
  718.963   35.068    0.387   14.468
  719.783   35.093    0.388   13.634
  720.604   35.118    0.388   12.632
  721.424   37.006    0.394   11.798
  722.244   38.894    0.400   11.131
  723.064   40.161    0.405   10.549
  723.885   41.428    0.404    9.966
  724.705   42.081    0.400    9.550
  725.525   42.733    0.397    9.218
  726.345   42.752    0.396    8.970
  727.165   42.156    0.398    8.722
