~VERSION INFORMATION
 VERS.                 2.0:   CWLS LOG ASCII STANDARD -VERSION 2.0
 WRAP.                  NO:   ONE LINE PER DEPTH STEP
~WELL INFORMATION BLOCK
#MNEM.UNIT           DATA                    DESCRIPTION OF MNEMONIC
#---------    -------------------            -------------------------------
# Generated from Intellog Unique Number	CN_94_101/WELL/2610
WELL.         PARAMOUNT RESOURCES LTD.       : Well_name    - WELL
LOC .         00/08-16-094-18W4/0            : Location     - LOCATION
UWI .         00/08-16-094-18W400            : Uwi          - UNIQUE WELL ID
ENTR.         JOETTE                         : Entered      - ENTERED BY
SRVC.         COMPUTALOG                     : Scn          - SERVICE COMPANY
DATE.         06/18/92                       : Date         - LOG DATE
STRT.M        90                             : top_depth    - START DEPTH
STOP.M        268                            : bot_depth    - STOP DEPTH
STEP.M        0.25                           : increment    - STEP LENGTH
 NULL. -999.2500:NULL Value
~CURVE INFORMATION BLOCK
#MNEM UNIT       ERCB CURVE CODE    CURVE DESCRIPTION
#-----------   ------------------   ----------------------------------
DEPT.M        00 001 00 00         : DEPTH        - DEPTH
CALI.MM       00 280 01 00         : CAL          - CALIPER
GR  .API      00 310 00 00         : GR           - GAMMA RAY
NPHI.V/V      00 330 00 00         : PHIN         - NEUTRON POROSITY (SANDSTONE)
DPHI.V/V      00 890 00 00         : PHID         - DENSITY POROSITY (SANDSTONE)
ILD .OHMM     00 120 00 00         : RESD         - DEEP RESISTIVITY (DIL)
~PARAMETER INFORMATION
#MNEM.UNIT           DATA             DESCRIPTION OF MNEMONIC
#---------         -----------     ------------------------------
GL  .M        537.5                : gl           - GROUND LEVEL ELEVATION
EREF.M        541.3                : kb           - ELEVATION OF DEPTH REFERENCE
DATM.M        541.3                : datum        - DATUM ELEVATION
TDD .M        269                  : tdd          - TOTAL DEPTH DRILLER
RUN .         ONE                  : Run          - RUN NUMBER
ENG .         JO                   : Engineer     - RECORDING ENGINEER
WIT .         TIM                  : Witness      - WITNESSED BY
MUD .         GEL                  : Mud_type     - MUD TYPE
MATR.         SANDSTONE            : Logunit      - NEUTRON MATRIX
TMAX.C        26                   : BHT          - MAXIMUM RECORDED TEMPERATURE
BHTD.M        269                  : BHTDEP       - MAXIMUM RECORDED TEMPERATURE
RMT .C        14.4                 : MDTP         - TEMPERATURE OF MUD
MUDD.KG/M     1080                 : MWT          - MUD DENSITY
NEUT.         1                    : NEUTRON      - NEUTRON TYPE
RESI.         0                    : RESIST       - RESISTIVITY TYPE
RM  .OHMM     3                    : RM           - RESISTIVITY OF MUD
RMC .OHMM     3                    : RMC          - RESISTIVITY OF MUD CAKE
RMF .OHMM     3                    : RMF          - RESISTIVITY OF MUD FILTRATE
SUFT.C        4                    : SUFT         - SURFACE TEMPERATURE
~A  DEPTH      CAL       GR     PHIN     PHID     RESD
# ...
  236.000  167.542  111.938    0.468    0.178    8.331
  236.250  167.672  111.985    0.462    0.168    7.885
  236.500  167.724  112.647    0.447    0.155    7.328
  236.750  168.854  113.924    0.436    0.163    6.941
  237.000  169.931  112.772    0.438    0.171    6.822
  237.250  171.061  105.038    0.449    0.177    6.829
  237.500  171.165  105.101    0.445    0.182    6.972
  237.750  170.269  106.962    0.440    0.174    6.980
  238.000  170.347   98.030    0.443    0.152    6.987
  238.250  169.452   92.080    0.430    0.036    6.867
  238.500  162.560   93.342    0.400    0.040    6.150
  238.750  160.691  104.213    0.425    0.066    5.821
  239.000  163.793  109.688    0.447    0.099    5.310
  239.250  165.896  111.550    0.448    0.161    5.221
  239.500  166.000  109.213    0.448    0.172    5.425
  239.750  166.130  106.278    0.449    0.175    5.856
  240.000  166.260  104.541    0.449    0.177    6.316
  240.250  166.312  105.803    0.442    0.177    7.074
  240.500  166.416  109.463    0.429    0.172    7.780
  240.750  167.597  112.524    0.419    0.161    7.935
  241.000  167.649  108.988    0.403    0.147    7.518
  241.250  167.727  101.239    0.397    0.160    7.116
  241.500  167.831   97.704    0.407    0.175    6.613
  241.750  167.961  100.765    0.425    0.167    6.032
  242.000  168.065  103.841    0.493    0.165    5.822
  242.250  168.195  105.103    0.490    0.155    5.826
  242.500  169.272  104.565    0.459    0.140    5.944
  242.750  169.376  102.229    0.448    0.149    6.536
  243.000  169.454  100.508    0.450    0.153    7.186
  243.250  167.586  102.953    0.459    0.145    7.899
  243.500  166.716  103.615    0.439    0.147    8.848
  243.750  165.795   96.466    0.365    0.243   12.402
  244.000  164.925   77.940    0.299    0.285   13.891
  244.250  163.978   62.995    0.253    0.299   15.266
  244.500  164.108   52.264    0.226    0.318   18.784
  244.750  164.238   45.714    0.210    0.345   22.243
  245.000  163.316   43.378    0.183    0.374   37.577
  245.250  163.420   44.655    0.176    0.401   46.205
  245.500  162.551   47.116    0.180    0.396   56.815
  245.750  161.681   48.993    0.185    0.392   64.857
  246.000  160.734   50.855    0.192    0.385   64.924
  246.250  160.864   50.901    0.197    0.392   61.495
  246.500  159.995   50.964    0.202    0.397   56.112
  246.750  160.073   48.628    0.207    0.388   53.112
  247.000  160.202   48.690    0.213    0.377   48.446
  247.250  160.255   50.567    0.217    0.368   45.023
  247.500  160.358   52.428    0.223    0.364   44.252
  247.750  160.488   53.090    0.226    0.363   44.313
  248.000  160.618   51.338    0.237    0.359   44.359
  248.250  160.670   51.401    0.249    0.353   45.273
  248.500  160.826   52.662    0.246    0.343   49.771
  248.750  160.904   53.940    0.186    0.333   54.715
  249.000  160.904   49.205    0.174    0.351   60.130
  249.250  162.164   43.270    0.170    0.368   71.252
  249.500  157.245   44.517    0.166    0.387   74.091
  249.750  156.323   45.794    0.164    0.395   72.796
  250.000  156.401   46.472    0.170    0.405   71.574
  250.250  155.532   45.319    0.185    0.401   67.770
  250.500  155.636   45.981    0.202    0.396   61.817
  250.750  155.766   48.442    0.222    0.378   56.387
  251.000  156.843   50.303    0.224    0.376   53.371
  251.250  159.024   53.380    0.238    0.360   46.016
  251.500  160.101   59.423    0.278    0.332   36.152
  251.750  161.179   65.513    0.311    0.328   27.371
  252.000  162.282   63.161    0.324    0.332   24.496
  252.250  163.360   65.638    0.331    0.331   23.194
  252.500  163.490   68.683    0.347    0.330   25.044
  252.750  163.594   68.745    0.325    0.332   26.514
  253.000  162.672   54.416    0.300    0.335   28.599
  253.250  161.777   53.879    0.281    0.331   32.636
  253.500  161.881   50.927    0.191    0.330   50.240
  253.750  161.985   44.394    0.147    0.334   55.211
  254.000  161.115   38.475    0.106    0.342   80.307
  254.250  160.220   35.523    0.110    0.372  112.569
  254.500  161.323   30.189    0.121    0.388  163.736
  254.750  163.426   29.052    0.134    0.391  176.735
  255.000  162.531   29.114    0.144    0.386  161.266
  255.250  160.636   29.192    0.156    0.380  144.280
  255.500  158.741   29.855    0.167    0.384  126.828
  255.750  158.819   31.116    0.176    0.389  120.087
  256.000  157.975   32.978    0.176    0.390  127.179
  256.250  158.131   35.454    0.166    0.389  137.228
  256.500  158.157   36.085    0.161    0.387  142.595
  256.750  159.287   33.764    0.156    0.386  151.069
  257.000  159.391   33.227    0.167    0.384  151.226
  257.250  160.494   35.104    0.177    0.385  151.488
  257.500  160.572   35.751    0.173    0.393  151.698
  257.750  160.728   36.413    0.178    0.395  146.393
  258.000  160.806   34.676    0.185    0.390  138.660
  258.250  160.936   32.939    0.199    0.386  133.672
  258.500  160.015   32.418    0.227    0.374  117.462
  258.750  160.093   32.496    0.263    0.364   99.401
  259.000  160.197   32.527    0.301    0.349   76.649
  259.250  160.327   32.005    0.330    0.338   58.011
  259.500  160.430   32.068    0.349    0.333   45.576
  259.750  160.508   32.130    0.371    0.334   47.424
  260.000  161.612   31.577    0.378    0.334   50.173
  260.250  161.742   29.257    0.388    0.324   56.216
  260.500  164.844   26.905    0.373    0.319   77.288
  260.750  168.972   26.967    0.364    0.326   86.597
  261.000  167.051   28.828    0.379    0.333  100.683
  261.250  163.157   30.090    0.389    0.331  108.638
  261.500  161.262   29.553    0.394    0.327   90.296
  261.750  161.366   30.215    0.398    0.323   83.858
  262.000  162.470   36.873    0.403    0.318   69.676
  262.250  163.625   41.165    0.411    0.309   64.753
  262.500  164.677   40.627    0.411    0.307   62.467
  262.750  164.781   40.690    0.407    0.310   61.418
  263.000  164.885   41.336    0.402    0.313   59.270
  263.250  166.987   42.598    0.396    0.312   58.214
  263.500  168.091   40.262    0.393    0.314   57.237
  263.750  166.196   38.556    0.397    0.315   54.214
  264.000  163.354   38.587    0.398    0.317   52.263
  264.250  162.406   38.666    0.405    0.318   48.570
  264.500  162.536   39.328    0.406    0.319   45.989
  264.750  162.640   41.189    0.401    0.323   43.560
  265.000  162.744   42.451    0.396    0.326   43.620
  265.250  163.873   41.314    0.391    0.329   42.858
  265.500  164.977   39.577    0.387    0.329   40.594
  265.750  165.107   41.438    0.393    0.327   33.094
  266.000  165.159   45.698    0.399    0.326   26.009
  266.250  165.263   51.173    0.397    0.332   26.535
  266.500  165.393   53.619    0.395    0.357   25.599
  266.750  164.523   54.896    0.394    0.373   23.782
  267.000  164.627   54.958    0.398    0.388   16.395
  267.250  165.679   54.421    0.406    0.340   10.292
  267.500  165.783   54.483    0.407    0.271    9.568
  267.750  166.886   53.946    0.394    0.185    9.227
  268.000  166.990   53.993    0.376    0.098    9.776
