~VERSION INFORMATION
 VERS.                 2.0:   CWLS LOG ASCII STANDARD -VERSION 2.0
 WRAP.                  NO:   ONE LINE PER DEPTH STEP
~WELL INFORMATION BLOCK
#MNEM.UNIT           DATA                    DESCRIPTION OF MNEMONIC
#---------    -------------------            -------------------------------
# Generated from Intellog Unique Number	CS_73_76/WELL/644
WELL.         BOW VALLEY INDUSTRIES LTD      : Well_name    - WELL
LOC .         00/06-25-073-17W4/0            : Location     - LOCATION
UWI .         00/06-25-073-17W4/0            : Uwi          - UNIQUE WELL ID
ENTR.         SP                             : Entered      - ENTERED BY
SRVC.         SCHLUMBERGER                   : Scn          - SERVICE COMPANY
STRT.M        237.744                        : top_depth    - START DEPTH
STOP.M        444.744                        : bot_depth    - STOP DEPTH
STEP.M        0.25                           : increment    - STEP LENGTH
 NULL. -999.2500:NULL Value
~CURVE INFORMATION BLOCK
#MNEM UNIT       ERCB CURVE CODE    CURVE DESCRIPTION
#-----------   ------------------   ----------------------------------
DEPT.M        00 001 00 00         : DEPTH        - DEPTH
GR  .API      00 310 00 00         : GR           - GAMMA RAY
DPHI.V/V      00 890 00 00         : PHID         - DENSITY POROSITY (LIMESTONE)
NPHI.V/V      00 330 00 00         : PHIN         - NEUTRON POROSITY (LIMESTONE)
ILD .OHMM     00 120 00 00         : RESD         - DEEP RESISTIVITY (DIL)
~PARAMETER INFORMATION
#MNEM.UNIT           DATA             DESCRIPTION OF MNEMONIC
#---------         -----------     ------------------------------
GL  .M        574.853              : gl           - GROUND LEVEL ELEVATION
EREF.M        577.901              : kb           - ELEVATION OF DEPTH REFERENCE
DATM.M        574.853              : datum        - DATUM ELEVATION
TDD .M        448.361              : tdd          - TOTAL DEPTH DRILLER
RUN .         ONE                  : Run          - RUN NUMBER
ENG .         BILL                 : Engineer     - RECORDING ENGINEER
WIT .         JIM                  : Witness      - WITNESSED BY
MUD .         GEL                  : Mud_type     - MUD TYPE
MATR.         LIMESTONE            : Logunit      - NEUTRON MATRIX
TMAX.C        12.2222              : BHT          - MAXIMUM RECORDED TEMPERATURE
BHTD.M        448.361              : BHTDEP       - MAXIMUM RECORDED TEMPERATURE
MATR.         1                    : LOGUNIT      - NEUTRON MATRIX
RMT .C        25                   : MDTP         - TEMPERATURE OF MUD
NEUT.         1                    : NEUTRON      - NEUTRON TYPE
RESI.         0                    : RESIST       - RESISTIVITY TYPE
RMC .OHMM     0.25                 : RMC          - RESISTIVITY OF MUD CAKE
RMF .OHMM     0.25                 : RMF          - RESISTIVITY OF MUD FILTRATE
SUFT.C        15                   : SUFT         - SURFACE TEMPERATURE
~A  DEPTH       GR     PHID     PHIN     RESD
# ...
  411.744  106.542    0.089    0.402    6.868
  411.994  108.699    0.101    0.405    6.659
  412.244  110.809    0.127    0.415    6.589
  412.494  113.284    0.150    0.426    6.458
  412.744  114.273    0.155    0.438    6.468
  412.994  108.688    0.141    0.430    6.463
  413.244  106.388    0.119    0.422    6.655
  413.494  105.709    0.086    0.410    6.856
  413.744  107.231    0.093    0.418    7.051
  413.994  108.455    0.113    0.412    7.422
  414.244  107.326    0.103    0.419    7.627
  414.494  105.228    0.126    0.413    7.730
  414.744  106.066    0.136    0.405    7.763
  414.994  108.668    0.123    0.398    7.616
  415.244  113.890    0.121    0.413    7.039
  415.494  117.842    0.140    0.424    6.442
  415.744  122.756    0.144    0.439    5.813
  415.994  124.487    0.154    0.455    5.353
  416.244  124.758    0.159    0.468    5.164
  416.494  118.296    0.142    0.462    5.244
  416.744  102.848    0.120    0.420    5.909
  416.994   92.107    0.129    0.398    7.719
  417.244   84.923    0.181    0.377   10.273
  417.494   78.695    0.211    0.370   13.004
  417.744   81.319    0.241    0.380   16.865
  417.994   85.121    0.219    0.390   20.290
  418.244   82.436    0.201    0.399   21.071
  418.494   78.159    0.195    0.400   20.819
  418.744   76.795    0.195    0.391   20.817
  418.994   78.383    0.191    0.380   20.819
  419.244   79.345    0.180    0.376   20.820
  419.494   78.155    0.172    0.374   20.848
  419.744   76.215    0.170    0.375   20.352
  419.994   77.289    0.180    0.376   19.852
  420.244   80.549    0.194    0.379   18.101
  420.494   84.704    0.199    0.388   16.901
  420.744   92.481    0.197    0.398   15.724
  420.994   98.897    0.196    0.399   14.170
  421.244  106.832    0.195    0.390   11.981
  421.494  117.265    0.195    0.379   10.452
  421.744  130.391    0.186    0.371    9.256
  421.994  143.545    0.168    0.383    8.516
  422.244  157.955    0.149    0.392    7.828
  422.494  167.274    0.134    0.393    7.706
  422.744  172.104    0.139    0.393    7.574
  422.994  171.579    0.144    0.405    8.211
  423.244  163.434    0.145    0.416    8.941
  423.494  139.390    0.164    0.390   10.736
  423.744  102.012    0.053    0.367   13.370
  423.994   87.304    0.015    0.349   15.627
  424.244   81.829   -0.002    0.345   17.481
  424.494   85.982    0.058    0.358   14.890
  424.744   89.124    0.124    0.338   12.710
  424.994   93.939    0.060    0.344   11.622
  425.244  101.377    0.114    0.362   10.641
  425.494  105.052    0.189    0.362   10.227
  425.744  105.167    0.179    0.356    9.828
  425.994  103.475    0.189    0.346    9.669
  426.244  102.340    0.184    0.337    9.847
  426.494  107.333    0.170    0.330    9.924
  426.744  110.765    0.153    0.345   10.017
  426.994  111.248    0.155    0.354    9.888
  427.244  112.284    0.170    0.346    9.609
  427.494  116.585    0.165    0.369    8.952
  427.744  121.817    0.156    0.386    8.387
  427.994  126.475    0.152    0.415    7.938
  428.244  127.203    0.154    0.409    7.617
  428.494  124.579    0.168    0.394    7.686
  428.744  117.858    0.182    0.379    7.900
  428.994  112.892    0.186    0.371    8.029
  429.244  116.343    0.186    0.382    8.037
  429.494  120.613    0.173    0.388    8.037
  429.744  124.101    0.161    0.393    8.165
  429.994  125.797    0.151    0.387    8.169
  430.244  122.247    0.143    0.376    8.342
  430.494  115.881    0.150    0.362    8.576
  430.744  114.239    0.152    0.351    8.685
  430.994  116.084    0.160    0.363    8.973
  431.244  113.903    0.158    0.377    9.368
  431.494  106.579    0.165    0.376    9.761
  431.744   98.008    0.165    0.386    9.713
  431.994  101.800    0.179    0.402    8.417
  432.244  110.073    0.172    0.420    7.979
  432.494  118.503    0.159    0.433    7.489
  432.744  121.564    0.150    0.403    7.610
  432.994  121.329    0.150    0.364    7.939
  433.244  121.174    0.156    0.368    8.294
  433.494  123.201    0.174    0.374    8.726
  433.744  125.165    0.170    0.377    8.973
  433.994  126.632    0.149    0.383    9.091
  434.244  122.578    0.139    0.376    9.171
  434.494  114.119    0.144    0.355    9.471
  434.744  102.320    0.146    0.332    9.868
  434.994   94.630    0.161    0.323   10.195
  435.244   92.265    0.189    0.336   10.356
  435.494   88.806    0.223    0.343   10.655
  435.744   79.965    0.239    0.327   11.221
  435.994   71.949    0.243    0.330   11.519
  436.244   72.527    0.227    0.341   12.072
  436.494   72.719    0.220    0.353   13.222
  436.744   72.735    0.217    0.360   13.547
  436.994   72.758    0.233    0.369   14.246
  437.244   72.769    0.254    0.394   15.245
  437.494   71.784    0.270    0.414   17.289
  437.744   68.053    0.279    0.427   19.663
  437.994   65.794    0.294    0.442   21.124
  438.244   65.793    0.304    0.448   22.666
  438.494   67.257    0.305    0.451   24.215
  438.744   69.255    0.308    0.437   25.580
  438.994   70.085    0.313    0.436   21.596
  439.244   73.279    0.313    0.441   18.526
  439.494   79.058    0.306    0.432   14.446
  439.744  100.987    0.213    0.423   11.358
  439.994  119.059    0.201    0.410    8.280
  440.244  141.038    0.185    0.422    7.118
  440.494  143.965    0.163    0.435    6.415
  440.744  137.464    0.127    0.426    5.891
  440.994  135.086    0.120    0.419    5.786
  441.244   82.856    0.154    0.423    6.075
  441.494   72.989    0.189    0.364    7.006
  441.744   58.700    0.227    0.347    8.578
  441.994   53.922    0.243    0.341    9.374
  442.244   50.120    0.231    0.346    9.817
  442.494   47.814    0.223    0.350    9.572
  442.744   47.698    0.238    0.361    9.104
  442.994   48.048    0.246    0.389    8.736
  443.244   49.491    0.248    0.411    8.261
  443.494   51.337    0.261    0.441    8.027
  443.744   52.832    0.241    0.379    7.875
  443.994   54.517    0.226    0.339    7.855
  444.244   55.428    0.216    0.329    7.608
  444.494   56.050    0.206    0.322    7.689
  444.744   56.726    0.192    0.328    7.736
