~VERSION INFORMATION
 VERS.                 2.0:   CWLS LOG ASCII STANDARD -VERSION 2.0
 WRAP.                  NO:   ONE LINE PER DEPTH STEP
~WELL INFORMATION BLOCK
#MNEM.UNIT           DATA                    DESCRIPTION OF MNEMONIC
#---------    -------------------            -------------------------------
# Generated from Intellog Unique Number	CX_WELLS/WELL/3308
WELL.         PETROREP ET AL HOUSE           : Well_name    - WELL
LOC .         00/04-26-084-15W4/0            : Location     - LOCATION
UWI .         00/04-26-084-15W400            : Uwi          - UNIQUE WELL ID
ENTR.         T                              : Entered      - ENTERED BY
SRVC.         SCHLUMBERGER                   : Scn          - SERVICE COMPANY
DATE.         03/06/92                       : Date         - LOG DATE
STRT.M        95                             : top_depth    - START DEPTH
STOP.M        240                            : bot_depth    - STOP DEPTH
STEP.M        0.25                           : increment    - STEP LENGTH
 NULL. -999.2500:NULL Value
~CURVE INFORMATION BLOCK
#MNEM UNIT       ERCB CURVE CODE    CURVE DESCRIPTION
#-----------   ------------------   ----------------------------------
DEPT.M        00 001 00 00         : DEPTH        - DEPTH
GR  .API      00 310 00 00         : GR           - GAMMA RAY
NPHI.V/V      00 330 00 00         : PHIN         - NEUTRON POROSITY (SANDSTONE)
DPHI.V/V      00 890 00 00         : PHID         - DENSITY POROSITY (SANDSTONE)
ILD .OHMM     00 120 00 00         : RESD         - DEEP RESISTIVITY (DIL)
~PARAMETER INFORMATION
#MNEM.UNIT           DATA             DESCRIPTION OF MNEMONIC
#---------         -----------     ------------------------------
GL  .M        527.7                : gl           - GROUND LEVEL ELEVATION
EREF.M        531.2                : kb           - ELEVATION OF DEPTH REFERENCE
DATM.M        531.2                : datum        - DATUM ELEVATION
TDD .M        242                  : tdd          - TOTAL DEPTH DRILLER
RUN .         ONE                  : Run          - RUN NUMBER
ENG .         JO                   : Engineer     - RECORDING ENGINEER
WIT .         TIM                  : Witness      - WITNESSED BY
MUD .         GEL                  : Mud_type     - MUD TYPE
MATR.         SANDSTONE            : Logunit      - NEUTRON MATRIX
TMAX.C        19                   : BHT          - MAXIMUM RECORDED TEMPERATURE
BHTD.M        242                  : BHTDEP       - MAXIMUM RECORDED TEMPERATURE
RMT .C        20                   : MDTP         - TEMPERATURE OF MUD
MUDD.KG/M     1                    : MWT          - MUD DENSITY
NEUT.         1                    : NEUTRON      - NEUTRON TYPE
RESI.         0                    : RESIST       - RESISTIVITY TYPE
RM  .OHMM     3.12                 : RM           - RESISTIVITY OF MUD
RMC .OHMM     4.5                  : RMC          - RESISTIVITY OF MUD CAKE
RMF .OHMM     4.5                  : RMF          - RESISTIVITY OF MUD FILTRATE
SUFT.C        4                    : SUFT         - SURFACE TEMPERATURE
~A  DEPTH       GR     PHIN     PHID     RESD
# ...
  138.500   79.525    0.417    0.333    9.691
  138.750   79.525    0.423    0.327    9.353
  139.000   81.470    0.431    0.314    8.862
  139.250   83.390    0.435    0.299    8.553
  139.500   85.309    0.441    0.292    8.254
  139.750   85.980    0.435    0.296    7.971
  140.000   85.386    0.420    0.302    7.830
  140.250   82.915    0.410    0.308    7.557
  140.500   81.674    0.402    0.310    7.433
  140.750   77.946    0.421    0.311    7.314
  141.000   77.980    0.422    0.313    7.331
  141.250   78.643    0.420    0.314    7.483
  141.500   78.040    0.416    0.315    7.789
  141.750   76.817    0.419    0.315    7.956
  142.000   75.594    0.424    0.314    8.126
  142.250   76.894    0.424    0.312    8.459
  142.500   78.184    0.438    0.312    8.645
  142.750   78.210    0.447    0.310    8.835
  143.000   78.872    0.448    0.307    9.014
  143.250   79.543    0.446    0.303    9.212
  143.500   79.569    0.445    0.298    9.228
  143.750   80.248    0.446    0.297    9.249
  144.000   80.265    0.445    0.296    9.096
  144.250   80.945    0.439    0.298    8.951
  144.500   81.599    0.430    0.303    8.804
  144.750   81.624    0.424    0.300    8.653
  145.000   82.295    0.419    0.292    8.673
  145.250   82.321    0.425    0.283    8.693
  145.500   83.000    0.430    0.287    8.713
  145.750   82.406    0.437    0.294    8.738
  146.000   81.803    0.438    0.296    8.757
  146.250   79.315    0.423    0.299    8.777
  146.500   79.357    0.418    0.274    8.633
  146.750   82.542    0.423    0.268    8.331
  147.000   85.081    0.437    0.260    8.041
  147.250   85.744    0.447    0.259    7.615
  147.500   85.149    0.442    0.260    7.345
  147.750   85.812    0.438    0.260    6.956
  148.000   87.103    0.436    0.261    6.713
  148.250   87.137    0.439    0.263    6.606
  148.500   84.674    0.446    0.273    6.497
  148.750   83.434    0.441    0.281    6.508
  149.000   80.963    0.437    0.292    6.782
  149.250   79.731    0.436    0.303    7.190
  149.500   77.269    0.436    0.310    7.622
  149.750   76.037    0.436    0.318    8.402
  150.000   75.443    0.436    0.320    9.617
  150.250   74.211    0.436    0.323   11.003
  150.500   72.997    0.435    0.321   12.353
  150.750   71.774    0.420    0.320   14.677
  151.000   70.551    0.376    0.317   16.477
  151.250   69.948    0.326    0.190   18.497
  151.500   68.725    0.270    0.133   18.893
  151.750   68.131    0.281    0.106   18.947
  152.000   70.059    0.326    0.138   18.624
  152.250   72.606    0.386    0.167   17.638
  152.500   75.154    0.415    0.217   16.713
  152.750   74.560    0.443    0.251   15.249
  153.000   73.966    0.438    0.303   14.425
  153.250   74.619    0.434    0.308   13.412
  153.500   77.167    0.439    0.301   12.464
  153.750   79.715    0.442    0.286   11.790
  154.000   83.537    0.431    0.266   10.963
  154.250   86.076    0.424    0.263   10.580
  154.500   89.881    0.426    0.259   10.211
  154.750   94.323    0.418    0.258    9.670
  155.000   94.985    0.410    0.257    9.332
  155.250   95.648    0.400    0.255    8.843
  155.500   95.673    0.425    0.254    8.692
  155.750   95.724    0.429    0.254    8.384
  156.000   95.741    0.436    0.253    8.091
  156.250   94.519    0.437    0.250    7.524
  156.500   92.684    0.437    0.249    7.125
  156.750   92.081    0.437    0.246    6.876
  157.000   91.487    0.435    0.244    6.512
  157.250   92.778    0.432    0.242    6.401
  157.500   93.440    0.428    0.240    6.069
  157.750   93.474    0.423    0.237    5.965
  158.000   92.888    0.418    0.237    5.975
  158.250   92.905    0.414    0.245    6.716
  158.500   90.434    0.410    0.269    7.252
  158.750   88.574    0.401    0.281    7.989
  159.000   86.094    0.386    0.288    9.314
  159.250   82.357    0.375    0.247   11.290
  159.500   78.621    0.381    0.227   11.525
  159.750   83.691    0.396    0.233    9.931
  160.000   88.116    0.420    0.263    8.391
  160.250   94.443    0.431    0.280    7.230
  160.500   93.228    0.429    0.294    5.999
  160.750   92.634    0.423    0.305    5.903
  161.000   90.783    0.414    0.307    6.141
  161.250   88.303    0.409    0.295    6.518
  161.500   85.823    0.418    0.271    6.918
  161.750   83.343    0.427    0.252    7.058
  162.000   82.732    0.438    0.275    7.486
  162.250   83.403    0.444    0.278    7.941
  162.500   84.074    0.444    0.299    7.959
  162.750   84.108    0.441    0.304    7.122
  163.000   82.885    0.439    0.311    6.257
  163.250   82.282    0.430    0.312    6.039
  163.500   81.687    0.425    0.312    6.406
  163.750   81.730    0.422    0.310    6.664
  164.000   81.755    0.422    0.307    7.208
  164.250   81.178    0.421    0.304    7.650
  164.500   81.203    0.421    0.298    7.963
  164.750   81.246    0.431    0.290    7.985
  165.000   81.263    0.441    0.280    7.845
  165.250   81.297    0.441    0.263    7.720
  165.500   81.331    0.439    0.248    7.450
  165.750   81.993    0.440    0.243    7.186
  166.000   84.550    0.445    0.252    6.809
  166.250   85.841    0.445    0.260    6.693
  166.500   87.132    0.445    0.264    6.460
  166.750   87.786    0.446    0.263    6.357
  167.000   88.457    0.451    0.265    6.371
  167.250   89.119    0.455    0.270    6.382
  167.500   89.145    0.456    0.273    6.393
  167.750   90.436    0.451    0.274    6.537
  168.000   90.470    0.446    0.277    6.549
  168.250   89.875    0.434    0.278    6.950
  168.500   88.661    0.412    0.279    7.518
  168.750   88.695    0.370    0.282    8.122
  169.000   89.349    0.329    0.288    8.775
  169.250   91.922    0.288    0.314   10.045
  169.500   93.196    0.289    0.345   11.270
  169.750   95.761    0.293    0.344   13.147
  170.000   97.035    0.329    0.300   14.483
  170.250   96.440    0.337    0.307   15.665
  170.500   81.400    0.304    0.330   15.398
  170.750   79.540    0.290    0.351   15.144
  171.000   77.052    0.290    0.348   15.469
  171.250   70.173    0.296    0.212   16.408
  171.500   63.294    0.373    0.226   14.971
  171.750   63.328    0.387    0.296   13.389
  172.000   66.504    0.392    0.306   11.980
  172.250   69.052    0.393    0.307   10.520
  172.500   69.714    0.390    0.307    9.962
  172.750   71.651    0.385    0.299   10.574
  173.000   69.799    0.374    0.272   11.424
  173.250   66.054    0.279    0.070   12.832
  173.500   62.946    0.191    0.044   13.863
  173.750   60.457    0.184    0.062   15.870
  174.000   56.092    0.197    0.137   18.156
  174.250   62.419    0.224    0.194   21.168
  174.500   66.224    0.329    0.281   23.764
  174.750   70.037    0.395    0.294   20.104
  175.000   70.071    0.418    0.304   17.979
  175.250   68.228    0.419    0.244   16.079
  175.500   66.377    0.413    0.167   13.602
  175.750   65.137    0.322    0.104   13.641
  176.000   62.029    0.282    0.074   13.925
  176.250   60.806    0.281    0.104   14.486
  176.500   65.868    0.288    0.207   16.272
  176.750   69.672    0.297    0.266   17.600
  177.000   69.707    0.349    0.282   15.156
  177.250   69.121    0.389    0.271   13.554
  177.500   69.155    0.399    0.249   10.828
  177.750   69.817    0.407    0.287   10.649
  178.000   71.745    0.414    0.304   10.877
  178.250   72.391    0.421    0.304   11.538
  178.500   74.327    0.425    0.303   11.792
  178.750   75.609    0.427    0.301   11.597
  179.000   77.529    0.429    0.299   11.406
  179.250   79.465    0.434    0.294   11.008
  179.500   80.111    0.443    0.290   10.624
  179.750   80.773    0.442    0.286   10.443
  180.000   80.807    0.434    0.286   10.084
  180.250   80.841    0.432    0.286    9.726
  180.500   81.512    0.424    0.282    9.571
  180.750   82.166    0.422    0.280    9.237
  181.000   82.200    0.419    0.275    9.080
  181.250   82.243    0.414    0.272    8.935
  181.500   82.277    0.404    0.277    8.788
  181.750   81.674    0.395    0.281    8.803
