~VERSION INFORMATION
 VERS.                 2.0:   CWLS LOG ASCII STANDARD -VERSION 2.0
 WRAP.                  NO:   ONE LINE PER DEPTH STEP
~WELL INFORMATION BLOCK
#MNEM.UNIT           DATA                    DESCRIPTION OF MNEMONIC
#---------    -------------------            -------------------------------
# Generated from Intellog Unique Number	CS_73_76/WELL/2104
WELL.         CAVALIER ENERTY LIMITED        : Well_name    - WELL
LOC .         00/07-08-076-15W4/0            : Location     - LOCATION
UWI .         00/07-08-076-15W4/0            : Uwi          - UNIQUE WELL ID
ENTR.         SP                             : Entered      - ENTERED BY
SRVC.         SCHLUMBERGER                   : Scn          - SERVICE COMPANY
STRT.M        360                            : top_depth    - START DEPTH
STOP.M        585                            : bot_depth    - STOP DEPTH
STEP.M        0.25                           : increment    - STEP LENGTH
 NULL. -999.2500:NULL Value
~CURVE INFORMATION BLOCK
#MNEM UNIT       ERCB CURVE CODE    CURVE DESCRIPTION
#-----------   ------------------   ----------------------------------
DEPT.M        00 001 00 00         : DEPTH        - DEPTH
DPHI.V/V      00 890 00 00         : PHID         - DENSITY POROSITY (LIMESTONE)
NPHI.V/V      00 330 00 00         : PHIN         - NEUTRON POROSITY (LIMESTONE)
GR  .API      00 310 00 00         : GR           - GAMMA RAY
ILD .OHMM     00 120 00 00         : RESD         - DEEP RESISTIVITY (DIL)
~PARAMETER INFORMATION
#MNEM.UNIT           DATA             DESCRIPTION OF MNEMONIC
#---------         -----------     ------------------------------
GL  .M        735.6                : gl           - GROUND LEVEL ELEVATION
EREF.M        739.7                : kb           - ELEVATION OF DEPTH REFERENCE
DATM.M        735.6                : datum        - DATUM ELEVATION
TDD .M        595                  : tdd          - TOTAL DEPTH DRILLER
RUN .         ONE                  : Run          - RUN NUMBER
ENG .         BILL                 : Engineer     - RECORDING ENGINEER
WIT .         JIM                  : Witness      - WITNESSED BY
MUD .         GEL                  : Mud_type     - MUD TYPE
MATR.         LIMESTONE            : Logunit      - NEUTRON MATRIX
TMAX.C        20                   : BHT          - MAXIMUM RECORDED TEMPERATURE
BHTD.M        595                  : BHTDEP       - MAXIMUM RECORDED TEMPERATURE
MATR.         1                    : LOGUNIT      - NEUTRON MATRIX
RMT .C        25                   : MDTP         - TEMPERATURE OF MUD
NEUT.         1                    : NEUTRON      - NEUTRON TYPE
RESI.         0                    : RESIST       - RESISTIVITY TYPE
RMC .OHMM     0.25                 : RMC          - RESISTIVITY OF MUD CAKE
RMF .OHMM     0.25                 : RMF          - RESISTIVITY OF MUD FILTRATE
SUFT.C        15                   : SUFT         - SURFACE TEMPERATURE
~A  DEPTH     PHID     PHIN       GR     RESD
# ...
  447.000    0.063    0.215   63.519   23.163
  447.250    0.089    0.204   61.686   23.608
  447.500    0.160    0.246   62.293   23.185
  447.750    0.249    0.304   64.119   20.755
  448.000    0.304    0.365   67.164   17.906
  448.250    0.337    0.465   70.820   14.345
  448.500    0.339    0.469   72.035   11.924
  448.750    0.348    0.451   72.642    9.914
  449.000    0.353    0.446   73.859    9.557
  449.250    0.347    0.459   75.685    9.387
  449.500    0.340    0.462   78.120    9.390
  449.750    0.332    0.480   78.117    9.395
  450.000    0.323    0.496   75.065    9.227
  450.250    0.316    0.505   76.891    9.062
  450.500    0.306    0.507   79.937    7.673
  450.750    0.324    0.492   79.934    6.034
  451.000    0.339    0.473   81.150    5.206
  451.250    0.350    0.455   85.415    5.506
  451.500    0.331    0.467   87.240    7.008
  451.750    0.267    0.481   87.237    6.882
  452.000    0.253    0.506   89.674    6.394
  452.250    0.237    0.517   90.280    5.940
  452.500    0.199    0.479   87.228    5.727
  452.750    0.235    0.391   78.689    5.625
  453.000    0.243    0.364   81.124    5.628
  453.250    0.263    0.392   84.779    5.629
  453.500    0.270    0.430   89.044    5.428
  453.750    0.268    0.452   92.090    5.233
  454.000    0.275    0.475   92.697    5.045
  454.250    0.270    0.486   93.913    4.955
  454.500    0.256    0.489   91.470    4.866
  454.750    0.247    0.490   92.077    4.778
  455.000    0.268    0.472   95.123    4.607
  455.250    0.282    0.466   92.681    4.442
  455.500    0.289    0.470   87.799    4.443
  455.750    0.303    0.472   84.138    4.700
  456.000    0.318    0.460   76.208    4.971
  456.250    0.326    0.437   71.937    5.455
  456.500    0.324    0.424   66.446    6.570
  456.750    0.314    0.430   62.784    6.947
  457.000    0.305    0.428   59.122    7.347
  457.250    0.308    0.427   56.680    8.215
  457.500    0.307    0.434   57.287    8.688
  457.750    0.306    0.435   60.942    9.190
  458.000    0.313    0.435   62.768    9.192
  458.250    0.314    0.437   67.033    9.369
  458.500    0.313    0.434   74.346    9.549
  458.750    0.308    0.437   80.441    9.731
  459.000    0.305    0.445   85.926    9.920
  459.250    0.306    0.457   87.141   10.108
  459.500    0.307    0.469   86.528    9.926
  459.750    0.309    0.479   85.306    9.570
  460.000    0.311    0.468   79.205    7.525
  460.250    0.309    0.448   88.958    7.255
  460.500    0.305    0.434   99.930    6.259
  460.750    0.297    0.473  106.633    4.743
  461.000    0.299    0.505  109.680    2.623
  461.250    0.308    0.539  110.896    2.305
  461.500    0.304    0.523  109.064    1.881
  461.750    0.302    0.533  107.231    1.748
  462.000    0.280    0.544  107.228    1.883
  462.250    0.268    0.558  101.127    2.029
  462.500    0.262    0.545   99.295    2.227
  462.750    0.276    0.539  100.511    2.490
  463.000    0.296    0.518   92.581    2.889
  463.250    0.315    0.507   87.091    3.290
  463.500    0.330    0.509   81.600    3.678
  463.750    0.342    0.504   78.548    4.682
  464.000    0.348    0.464   76.715    5.332
  464.250    0.343    0.438   76.712    5.745
  464.500    0.346    0.417   77.319    5.964
  464.750    0.348    0.422   75.486    5.752
  465.000    0.344    0.446   71.825    5.755
  465.250    0.343    0.451   68.773    5.756
  465.500    0.348    0.461   71.208    5.759
  465.750    0.353    0.470   68.157    5.761
  466.000    0.356    0.485   69.983    5.765
  466.250    0.362    0.485   71.809    5.766
  466.500    0.357    0.475   71.805    5.879
  466.750    0.351    0.466   71.192    5.772
  467.000    0.348    0.460   71.799    5.668
  467.250    0.347    0.449   74.235    5.671
  467.500    0.347    0.442   76.061    5.779
  467.750    0.349    0.453   77.886    5.890
  468.000    0.350    0.454   80.322    6.003
  468.250    0.353    0.472   81.539    6.233
  468.500    0.326    0.479   84.585    6.352
  468.750    0.258    0.458   86.411    6.355
  469.000    0.228    0.420   85.798    6.477
  469.250    0.223    0.390   89.453    6.481
  469.500    0.224    0.390   88.840    6.604
  469.750    0.184    0.386   84.568    7.249
  470.000    0.119    0.396   77.858    7.955
  470.250    0.060    0.385   74.197    9.230
  470.500    0.000    0.282   68.706   11.113
  470.750    0.016    0.187   63.215   13.631
  471.000    0.023    0.203   58.944   16.411
  471.250    0.018    0.204   55.891   27.073
  471.500    0.055    0.200   54.059   31.997
  471.750    0.105    0.194   53.446   25.161
  472.000    0.156    0.226   58.930   14.712
  472.250    0.240    0.261   74.171    9.094
  472.500    0.266    0.311   90.631    7.285
  472.750    0.259    0.397   90.017    6.522
  473.000    0.261    0.445   87.576    5.732
  473.250    0.276    0.427   86.963    5.526
  473.500    0.282    0.429   86.960    5.528
  473.750    0.288    0.454   79.639    5.634
  474.000    0.295    0.445   75.368    5.742
  474.250    0.307    0.435   73.535    5.961
  474.500    0.312    0.417   67.435    5.965
  474.750    0.324    0.400   61.944    5.968
  475.000    0.341    0.388   58.282    5.860
  475.250    0.358    0.397   57.060    5.650
  475.500    0.361    0.403   56.447    5.653
  475.750    0.360    0.412   57.053    5.552
  476.000    0.360    0.415   57.050    5.452
  476.250    0.360    0.418   57.657    5.455
  476.500    0.356    0.424   58.264    5.458
  476.750    0.361    0.427   60.089    5.562
  477.000    0.357    0.427   61.306    5.564
  477.250    0.354    0.427   63.741    5.568
  477.500    0.350    0.425   66.177    5.674
  477.750    0.349    0.419   64.345    5.782
  478.000    0.350    0.411   60.683    5.785
  478.250    0.347    0.406   61.900    5.896
  478.500    0.347    0.422   61.286    6.009
  478.750    0.348    0.448   61.282    6.011
  479.000    0.353    0.458   63.108    6.014
  479.250    0.356    0.457   64.935    5.906
  479.500    0.358    0.464   67.371    6.020
  479.750    0.353    0.464   65.539    6.135
  480.000    0.349    0.456   65.535    6.252
  480.250    0.357    0.416   68.579    6.373
  480.500    0.360    0.410   70.407    6.496
  480.750    0.355    0.416   72.843    6.498
  481.000    0.351    0.429   71.010    6.622
  481.250    0.352    0.438   68.568    6.384
  481.500    0.353    0.441   70.394    6.506
  481.750    0.350    0.425   74.049    6.881
  482.000    0.340    0.423   77.095    6.393
  482.250    0.327    0.440   70.384    5.939
  482.500    0.290    0.445   64.284    6.399
  482.750    0.098    0.436   55.135    7.023
  483.000    0.136    0.419   53.912    7.567
  483.250    0.154    0.251   60.616    8.003
  483.500    0.226    0.301   69.759    7.859
  483.750    0.293    0.432   78.291    7.439
  484.000    0.318    0.466   80.117    6.536
  484.250    0.316    0.467   83.772    5.852
  484.500    0.296    0.443   87.428    5.239
  484.750    0.282    0.454   89.254    4.690
  485.000    0.275    0.484   86.203    4.122
  485.250    0.268    0.495   89.247    3.974
  485.500    0.263    0.472   91.683    3.976
  485.750    0.262    0.458   95.948    4.051
  486.000    0.258    0.455   98.383    4.207
  486.250    0.252    0.472   99.601    4.368
  486.500    0.240    0.465  100.817    4.369
  486.750    0.250    0.452   97.156    4.453
  487.000    0.263    0.447   92.884    4.624
  487.250    0.275    0.463   90.442    4.625
  487.500    0.273    0.468   92.268    4.628
  487.750    0.267    0.468   91.045    4.545
  488.000    0.273    0.449   87.993    4.464
  488.250    0.285    0.455   90.429    4.466
  488.500    0.297    0.475   88.596    4.386
  488.750    0.290    0.476   90.422    4.388
  489.000    0.282    0.461   92.249    4.471
  489.250    0.279    0.449   92.245    4.642
  489.500    0.271    0.433   91.022    4.731
  489.750    0.279    0.437   94.067    4.822
  490.000    0.276    0.438   96.504    4.824
  490.250    0.269    0.460   99.550    4.827
