~VERSION INFORMATION
 VERS.                 2.0:   CWLS LOG ASCII STANDARD -VERSION 2.0
 WRAP.                  NO:   ONE LINE PER DEPTH STEP
~WELL INFORMATION BLOCK
#MNEM.UNIT           DATA                    DESCRIPTION OF MNEMONIC
#---------    -------------------            -------------------------------
# Generated from Intellog Unique Number	CW_76_78/WELL/2795
NULL.         -999.25                        : NULL_VALUE
WELL.         PAN AM A1 SANDY LAKE           : Well_name    - WELL              
LOC .         07-06-078-22W4                 : Location     - LOCATION          
UWI .         00/07-06-078-22W4/0            : Uwi          - UNIQUE WELL ID    
ENTR.         JJ                             : Entered      - ENTERED BY        
SRVC.         SCHLUMBERGER                   : Scn          - SERVICE COMPANY   
DATE.         13 MAR 66                      : Date         - LOG DATE          
STRT.M        381                            : top_depth    - START DEPTH       
STOP.M        509                            : bot_depth    - STOP DEPTH        
STEP.M        0.25                           : increment    - STEP LENGTH       
~CURVE INFORMATION BLOCK
#MNEM UNIT       ERCB CURVE CODE    CURVE DESCRIPTION
#-----------   ------------------   ----------------------------------
DEPT.M        00 001 00 00         : DEPTH        - DEPTH                       
CALI.MM       00 280 01 00         : CAL          - CALIPER                     
DELT.US/F     00 520 00 00         : DELT         - SONIC TRAVEL TIME           
GR  .API      00 310 00 00         : GR           - GAMMA RAY                   
ILD .OHMM     00 120 00 00         : RESD         - DEEP RESISTIVITY (DIL)      
~PARAMETER INFORMATION       
#MNEM.UNIT           DATA             DESCRIPTION OF MNEMONIC
#---------         -----------     ------------------------------
GL  .M        598.902              : gl           - GROUND LEVEL ELEVATION      
EREF.M        602.346              : kb           - ELEVATION OF DEPTH REFERENCE
DATM.M        598.902              : datum        - DATUM ELEVATION             
TDD .M        509.016              : tdd          - TOTAL DEPTH DRILLER         
RUN .         ONE                  : Run          - RUN NUMBER                  
ENG .         PICKFORD             : Engineer     - RECORDING ENGINEER          
WIT .         SANDERSON            : Witness      - WITNESSED BY                
BASE.         SL                   : Branch       - HOME BASE OF LOGGING UNIT   
MUD .         GEL                  : Mud_type     - MUD TYPE                    
MATR.         SANDSTONE            : Logunit      - NEUTRON MATRIX              
TMAX.C        23.3333              : BHT          - MAXIMUM RECORDED TEMPERATURE
BHTD.M        508.711              : BHTDEP       - MAXIMUM RECORDED TEMPERATURE
RMT .C        18.3333              : MDTP         - TEMPERATURE OF MUD          
MUDD.KG/M     1092                 : MWT          - MUD DENSITY                 
NEUT.         1                    : NEUTRON      - NEUTRON TYPE                
RESI.         0                    : RESIST       - RESISTIVITY TYPE            
RM  .OHMM     2.68                 : RM           - RESISTIVITY OF MUD          
RMC .OHMM     3.44                 : RMC          - RESISTIVITY OF MUD CAKE     
RMF .OHMM     2.74                 : RMF          - RESISTIVITY OF MUD FILTRATE 
SUFT.C        5                    : SUFT         - SURFACE TEMPERATURE         
~A  DEPTH      CAL     DELT       GR     RESD
# ...
  424.500  225.293  375.888   85.845    9.582
  424.750  225.043  378.185   85.984    9.779
  425.000  224.955  376.694   84.660    9.962
  425.250  222.278  373.575   83.114   10.114
  425.500  219.665  369.188   85.261   10.220
  425.750  223.721  364.611   86.985   10.397
  426.000  222.108  365.204   84.434   10.439
  426.250  219.693  365.695   80.357   10.326
  426.500  221.810  362.497   78.153   10.285
  426.750  229.128  364.163   79.080   10.203
  427.000  224.771  361.490   80.432   10.061
  427.250  220.415  363.834   79.326    9.985
  427.500  220.940  362.041   80.796    9.886
  427.750  221.355  363.867   84.748    9.725
  428.000  222.490  366.688   87.658    9.427
  428.250  223.877  364.912   86.891    9.233
  428.500  223.211  364.603   86.857    9.120
  428.750  222.154  364.980   87.239    9.182
  429.000  222.013  366.440   82.237    9.278
  429.250  224.157  370.739   75.617    9.240
  429.500  226.446  373.359   72.214    9.313
  429.750  227.967  369.886   72.539    9.472
  430.000  228.420  368.178   70.204    9.695
  430.250  223.720  364.383   71.745    9.722
  430.500  218.915  364.830   81.925    9.540
  430.750  224.594  355.926   90.186    9.302
  431.000  226.826  363.226   98.912    9.491
  431.250  226.505  361.839   99.113    9.455
  431.500  226.411  363.552   91.308    9.406
  431.750  223.659  372.905   84.715    9.103
  432.000  220.230  372.704   82.811    8.877
  432.250  223.856  376.392   91.428    8.757
  432.500  228.425  378.757   96.479    8.691
  432.750  227.991  374.902   98.534    8.647
  433.000  230.303  368.100  102.901    8.798
  433.250  227.581  362.252  101.422    9.063
  433.500  221.758  354.647   98.540    9.527
  433.750  219.272  352.804  100.781   10.068
  434.000  222.958  348.481  100.682   10.739
  434.250  222.468  351.193   97.705   11.384
  434.500  220.373  353.269   99.058   11.838
  434.750  217.965  354.549  106.767   12.128
  435.000  217.190  351.543  109.296   12.119
  435.250  217.304  350.060   94.524   11.970
  435.500  218.343  344.754   90.536   11.480
  435.750  220.939  346.873   97.162   10.950
  436.000  226.158  358.877  113.657   10.392
  436.250  230.480  368.367  124.693    9.682
  436.500  230.231  374.360  132.914    9.207
  436.750  231.171  371.795  140.107    9.809
  437.000  227.203  368.982  107.065   11.981
  437.250  220.326  321.818   85.566   15.466
  437.500  221.808  275.294   73.795   18.715
  437.750  223.656  272.007   68.240   22.154
  438.000  225.211  275.444   77.554   23.115
  438.250  226.223  307.893  100.824   21.226
  438.500  226.835  329.686  117.500   17.862
  438.750  228.282  334.259  113.013   14.785
  439.000  228.764  338.546  107.220   12.767
  439.250  228.369  346.234  105.348   11.850
  439.500  227.310  353.969  101.579   11.517
  439.750  225.998  359.804  101.133   11.544
  440.000  225.273  359.387  100.570   11.994
  440.250  224.634  356.141   93.804   13.051
  440.500  224.873  354.194   87.551   14.696
  440.750  225.245  327.092   82.161   17.048
  441.000  225.309  293.266   77.035   18.561
  441.250  225.349  288.007   68.046   19.406
  441.500  226.103  302.778   66.539   19.790
  441.750  226.866  335.184   72.385   19.538
  442.000  225.687  346.431   79.120   18.408
  442.250  224.776  343.829   85.406   16.824
  442.500  225.765  343.916   85.623   15.561
  442.750  226.977  346.030   81.392   14.719
  443.000  228.219  343.813   84.233   14.476
  443.250  229.302  341.491   87.187   13.951
  443.500  229.513  343.742   86.090   13.468
  443.750  228.234  338.467   80.608   14.011
  444.000  225.469  320.786   81.608   14.598
  444.250  223.726  302.415   78.400   14.424
  444.500  224.557  304.662   73.552   13.440
  444.750  224.398  334.159   76.566   12.296
  445.000  224.256  358.158   85.392   11.273
  445.250  224.675  370.286   90.935   10.377
  445.500  225.023  369.999   88.565    9.785
  445.750  225.476  362.052   88.134    9.526
  446.000  225.540  362.601   89.158    9.386
  446.250  225.906  365.977   90.171    9.484
  446.500  226.257  373.805   88.574    9.310
  446.750  226.344  376.259   87.570    8.825
  447.000  225.050  384.111   93.738    8.354
  447.250  220.237  384.424   99.382    7.881
  447.500  214.088  366.269   97.203    7.512
  447.750  215.451  373.641   88.835    7.281
  448.000  221.232  372.971   91.090    7.293
  448.250  224.222  363.424   96.825    7.816
  448.500  221.449  381.874   78.868    9.617
  448.750  221.463  374.470   56.910   11.998
  449.000  219.347  382.490   51.211   16.472
  449.250  220.753  379.139   43.817   20.247
  449.500  220.669  377.599   44.031   24.943
  449.750  218.969  378.024   42.648   26.267
  450.000  218.767  368.051   42.335   26.207
  450.250  220.203  361.874   47.324   25.758
  450.500  220.315  352.121   51.208   25.167
  450.750  219.751  347.270   52.005   24.986
  451.000  219.590  348.623   52.939   24.986
  451.250  219.919  349.217   52.578   25.615
  451.500  220.392  346.382   51.381   26.339
  451.750  220.896  350.964   50.148   26.373
  452.000  221.469  357.885   54.127   25.102
  452.250  222.264  364.078   61.686   21.819
  452.500  223.781  370.176   63.204   18.753
  452.750  224.861  373.927   64.281   16.037
  453.000  225.431  370.971   72.011   13.838
  453.250  225.057  357.618   80.722   11.761
  453.500  224.401  347.213   87.427   10.017
  453.750  223.036  354.931   83.944    8.669
  454.000  221.212  369.036   87.500    8.079
  454.250  219.200  376.004   84.939    8.564
  454.500  219.396  364.822   78.532    9.554
  454.750  221.640  353.928   68.400   11.198
  455.000  221.791  353.533   61.293   14.715
  455.250  220.903  348.368   60.538   17.973
  455.500  219.743  345.399   62.223   20.540
  455.750  219.574  340.608   58.368   23.015
  456.000  219.982  336.850   56.006   25.652
  456.250  219.966  334.061   52.947   29.793
  456.500  219.904  337.349   47.892   35.049
  456.750  220.225  342.218   42.767   39.694
  457.000  220.177  346.349   39.040   48.011
  457.250  219.176  348.344   38.518   49.952
  457.500  218.561  344.948   41.659   49.611
  457.750  218.667  342.156   40.094   48.658
  458.000  218.879  342.253   38.613   47.106
  458.250  219.223  345.548   42.164   44.977
  458.500  219.221  347.751   43.043   42.275
  458.750  218.823  348.560   39.860   40.130
  459.000  218.145  349.123   37.713   38.066
  459.250  218.019  349.341   38.906   36.452
  459.500  218.111  348.672   42.061   35.046
  459.750  217.567  347.709   42.456   33.471
  460.000  218.084  347.171   43.536   31.941
  460.250  219.171  344.519   48.146   30.347
  460.500  219.625  344.473   50.680   28.990
  460.750  219.864  345.612   50.221   27.742
  461.000  220.092  342.456   51.055   26.381
  461.250  220.586  343.003   50.911   25.118
  461.500  220.948  343.046   51.835   24.796
  461.750  221.368  338.676   53.110   24.345
  462.000  221.082  335.613   49.092   23.527
  462.250  221.469  333.349   50.730   22.802
  462.500  221.362  333.387   55.970   22.143
  462.750  220.723  334.624   57.038   21.488
  463.000  219.857  332.375   57.203   20.848
  463.250  218.611  328.295   60.135   20.366
  463.500  217.523  326.717   63.081   20.191
  463.750  220.017  315.658   61.394   20.868
  464.000  223.212  302.433   54.506   22.585
  464.250  223.949  287.738   48.123   23.819
  464.500  222.737  270.057   44.309   23.036
  464.750  221.753  282.951   43.744   21.883
  465.000  221.300  303.664   45.273   20.321
  465.250  220.843  325.929   48.399   18.671
  465.500  220.883  332.156   52.730   17.010
  465.750  220.833  331.579   56.569   15.545
  466.000  221.292  328.833   57.606   14.965
  466.250  221.851  325.925   56.627   14.659
  466.500  222.113  322.949   54.573   13.940
  466.750  222.495  326.287   51.214   12.925
  467.000  222.546  331.215   53.641   11.936
  467.250  223.775  335.913   59.704   11.136
  467.500  225.841  339.079   67.019   10.614
  467.750  223.753  341.814   70.267   10.436
