~VERSION INFORMATION
 VERS.                 2.0:   CWLS LOG ASCII STANDARD -VERSION 2.0
 WRAP.                  NO:   ONE LINE PER DEPTH STEP
~WELL INFORMATION BLOCK
#MNEM.UNIT           DATA                    DESCRIPTION OF MNEMONIC
#---------    -------------------            -------------------------------
# Generated from Intellog Unique Number	CS_73_76/WELL/1043
WELL.         BOW VALLEY EXPLORATION         : Well_name    - WELL
LOC .         00/06-18-076-13W4/0            : Location     - LOCATION
UWI .         00/06-18-076-13W4/0            : Uwi          - UNIQUE WELL ID
ENTR.         SP                             : Entered      - ENTERED BY
SRVC.         SCHLUMBERGER                   : Scn          - SERVICE COMPANY
STRT.M        300                            : top_depth    - START DEPTH
STOP.M        540                            : bot_depth    - STOP DEPTH
STEP.M        0.25                           : increment    - STEP LENGTH
 NULL. -999.2500:NULL Value
~CURVE INFORMATION BLOCK
#MNEM UNIT       ERCB CURVE CODE    CURVE DESCRIPTION
#-----------   ------------------   ----------------------------------
DEPT.M        00 001 00 00         : DEPTH        - DEPTH
ILD .OHMM     00 120 00 00         : RESD         - DEEP RESISTIVITY (DIL)
DPHI.V/V      00 890 00 00         : PHID         - DENSITY POROSITY (LIMESTONE)
NPHI.V/V      00 330 00 00         : PHIN         - NEUTRON POROSITY (LIMESTONE)
GR  .API      00 310 00 00         : GR           - GAMMA RAY
~PARAMETER INFORMATION
#MNEM.UNIT           DATA             DESCRIPTION OF MNEMONIC
#---------         -----------     ------------------------------
GL  .M        674.43               : gl           - GROUND LEVEL ELEVATION
EREF.M        677.88               : kb           - ELEVATION OF DEPTH REFERENCE
DATM.M        674.43               : datum        - DATUM ELEVATION
TDD .M        547                  : tdd          - TOTAL DEPTH DRILLER
RUN .         ONE                  : Run          - RUN NUMBER
ENG .         BILL                 : Engineer     - RECORDING ENGINEER
WIT .         JIM                  : Witness      - WITNESSED BY
MUD .         GEL                  : Mud_type     - MUD TYPE
MATR.         LIMESTONE            : Logunit      - NEUTRON MATRIX
TMAX.C        23                   : BHT          - MAXIMUM RECORDED TEMPERATURE
BHTD.M        547                  : BHTDEP       - MAXIMUM RECORDED TEMPERATURE
MATR.         1                    : LOGUNIT      - NEUTRON MATRIX
RMT .C        25                   : MDTP         - TEMPERATURE OF MUD
NEUT.         1                    : NEUTRON      - NEUTRON TYPE
RESI.         0                    : RESIST       - RESISTIVITY TYPE
RMC .OHMM     0.25                 : RMC          - RESISTIVITY OF MUD CAKE
RMF .OHMM     0.25                 : RMF          - RESISTIVITY OF MUD FILTRATE
SUFT.C        15                   : SUFT         - SURFACE TEMPERATURE
~A  DEPTH     RESD     PHID     PHIN       GR
# ...
  517.500    7.514    0.261    0.378   79.003
  517.750    7.514    0.282    0.378   72.290
  518.000    7.658    0.258    0.358   75.946
  518.250    8.256    0.214    0.357   82.650
  518.500    8.735    0.214    0.331   88.743
  518.750    9.070    0.134    0.319   97.275
  519.000    9.597    0.126    0.330  100.321
  519.250    9.965    0.125    0.345   98.488
  519.500   10.155    0.135    0.345   97.874
  519.750    9.782    0.158    0.337   99.090
  520.000    9.601    0.178    0.335   96.038
  520.250    9.249    0.192    0.330   96.643
  520.500    8.909    0.159    0.334  102.737
  520.750    8.744    0.128    0.346  108.831
  521.000    8.423    0.134    0.353  110.045
  521.250    8.424    0.138    0.364  110.042
  521.500    8.585    0.140    0.370  108.818
  521.750    8.748    0.127    0.361  108.816
  522.000    8.750    0.129    0.357  108.203
  522.250    8.750    0.117    0.352  108.198
  522.500    8.918    0.134    0.350  108.804
  522.750    8.752    0.144    0.359  109.411
  523.000    8.919    0.130    0.366  110.627
  523.250    8.920    0.124    0.369  110.012
  523.500    8.755    0.122    0.362  110.009
  523.750    8.756    0.140    0.368  112.444
  524.000    9.093    0.135    0.378  116.099
  524.250    9.266    0.135    0.385  114.876
  524.500    9.804    0.160    0.388  111.823
  524.750   10.181    0.185    0.367   94.137
  525.000   10.181    0.207    0.356   84.987
  525.250    9.993    0.179    0.339   88.032
  525.500    9.994    0.177    0.351   92.296
  525.750    9.627    0.183    0.351   92.902
  526.000    9.274    0.190    0.351   94.727
  526.250    9.102    0.195    0.351   87.407
  526.500    8.768    0.184    0.351   90.452
  526.750    8.769    0.185    0.349   94.715
  527.000    8.607    0.210    0.355   96.542
  527.250    8.608    0.221    0.358   96.538
  527.500    8.609    0.212    0.360   92.266
  527.750    8.610    0.209    0.347   89.213
  528.000    8.774    0.215    0.357   86.161
  528.250    8.941    0.205    0.346   87.986
  528.500    9.112    0.195    0.344   93.470
  528.750    9.113    0.203    0.356   89.808
  529.000    8.778    0.209    0.346   83.097
  529.250    8.298    0.229    0.347   76.995
  529.500    7.142    0.253    0.365   72.113
  529.750    6.382    0.275    0.387   66.012
  530.000    5.597    0.299    0.395   57.473
  530.250    5.193    0.322    0.404   49.542
  530.500    4.640    0.319    0.410   48.929
  530.750    4.554    0.319    0.412   51.973
  531.000    4.729    0.316    0.407   56.238
  531.250    4.911    0.313    0.392   61.112
  531.500    5.099    0.306    0.387   67.206
  531.750    5.100    0.294    0.396   68.421
  532.000    5.197    0.283    0.399   67.807
  532.250    5.101    0.282    0.405   65.364
  532.500    5.007    0.300    0.425   63.531
  532.750    4.823    0.305    0.404   62.919
  533.000    4.734    0.294    0.366   64.134
  533.250    4.734    0.282    0.368   69.618
  533.500    4.825    0.276    0.371   73.883
  533.750    4.916    0.263    0.377   81.196
  534.000    5.202    0.278    0.383   90.339
  534.250    5.608    0.263    0.375  111.066
  534.500    6.161    0.254    0.366  122.648
  534.750    6.768    0.239    0.360  125.083
  535.000    8.166    0.190    0.338  118.982
  535.250   10.230    0.085    0.300  112.881
  535.500   14.344    0.010    0.273   81.780
  535.750   17.970    0.002    0.237   71.409
  536.000   26.656    0.000    0.195   62.260
  536.250   34.026    0.000    0.163   51.891
  536.500   43.436    0.001    0.150   42.131
  536.750   48.619    0.004    0.136   36.639
  537.000   52.416    0.004    0.127   34.197
  537.250   52.426    0.007    0.121   31.754
  537.500   52.430    0.024    0.140   32.967
  537.750   50.503    0.033    0.168   32.356
  538.000   47.743    0.027    0.159   29.303
  538.250   47.750    0.023    0.135   24.422
  538.500   47.756    0.028    0.132   21.369
  538.750   48.665    0.035    0.137   20.146
  539.000   50.532    0.044    0.154   22.581
  539.250   53.465    0.044    0.147   90.869
  539.500   56.570    0.039    0.143   90.255
  539.750   60.989    0.051    0.144   90.251
  540.000   63.331    0.059    0.153   90.247
