~VERSION INFORMATION
 VERS.                 2.0:   CWLS LOG ASCII STANDARD -VERSION 2.0
 WRAP.                  NO:   ONE LINE PER DEPTH STEP
~WELL INFORMATION BLOCK
#MNEM.UNIT           DATA                    DESCRIPTION OF MNEMONIC
#---------    -------------------            -------------------------------
# Generated from Intellog Unique Number	CS_77_79/WELL/2918
WELL.         CAN WORLDWIDE ENR              : Well_name    - WELL
LOC .         00/07-06-079-03W4/0            : Location     - LOCATION
UWI .         00/07-06-079-03W4/0            : Uwi          - UNIQUE WELL ID
ENTR.         TIM                            : Entered      - ENTERED BY
SRVC.         SCHLUMBERGER                   : Scn          - SERVICE COMPANY
STRT.M        135                            : top_depth    - START DEPTH
STOP.M        405                            : bot_depth    - STOP DEPTH
STEP.M        0.25                           : increment    - STEP LENGTH
 NULL. -999.2500:NULL Value
~CURVE INFORMATION BLOCK
#MNEM UNIT       ERCB CURVE CODE    CURVE DESCRIPTION
#-----------   ------------------   ----------------------------------
DEPT.M        00 001 00 00         : DEPTH        - DEPTH
GR  .API      00 310 00 00         : GR           - GAMMA RAY
NPHI.V/V      00 330 00 00         : PHIN         - NEUTRON POROSITY (SANDSTONE)
DPHI.V/V      00 890 00 00         : PHID         - DENSITY POROSITY (SANDSTONE)
ILD .OHMM     00 120 00 00         : RESD         - DEEP RESISTIVITY (DIL)
~PARAMETER INFORMATION
#MNEM.UNIT           DATA             DESCRIPTION OF MNEMONIC
#---------         -----------     ------------------------------
GL  .M        552.02               : gl           - GROUND LEVEL ELEVATION
EREF.M        556.38               : kb           - ELEVATION OF DEPTH REFERENCE
DATM.M        556.38               : datum        - DATUM ELEVATION
TDD .M        410                  : tdd          - TOTAL DEPTH DRILLER
RUN .         ONE                  : Run          - RUN NUMBER
ENG .         BILL                 : Engineer     - RECORDING ENGINEER
WIT .         JIM                  : Witness      - WITNESSED BY
MUD .         GEL                  : Mud_type     - MUD TYPE
MATR.         SANDSTONE            : Logunit      - NEUTRON MATRIX
TMAX.C        20                   : BHT          - MAXIMUM RECORDED TEMPERATURE
BHTD.M        410                  : BHTDEP       - MAXIMUM RECORDED TEMPERATURE
MATR.         1                    : LOGUNIT      - NEUTRON MATRIX
RMT .C        15                   : MDTP         - TEMPERATURE OF MUD
NEUT.         1                    : NEUTRON      - NEUTRON TYPE
RESI.         4.4                  : RESIST       - RESISTIVITY TYPE
RMC .OHMM     4.5                  : RMC          - RESISTIVITY OF MUD CAKE
RMF .OHMM     4                    : RMF          - RESISTIVITY OF MUD FILTRATE
SUFT.C        15                   : SUFT         - SURFACE TEMPERATURE
~A  DEPTH       GR     PHIN     PHID     RESD
# ...
  265.500   92.106    0.460    0.251    6.592
  265.750   93.930    0.465    0.252    6.233
  266.000   95.145    0.469    0.255    6.004
  266.250   95.140    0.474    0.251    5.784
  266.500   94.530    0.475    0.241    5.469
  266.750   93.308    0.481    0.233    5.171
  267.000   93.306    0.492    0.232    4.709
  267.250   93.911    0.498    0.234    4.370
  267.500   93.908    0.503    0.239    4.131
  267.750   95.122    0.522    0.244    3.980
  268.000   97.555    0.545    0.254    3.693
  268.250   99.379    0.551    0.258    3.427
  268.500   99.375    0.526    0.268    3.180
  268.750  101.198    0.518    0.265    3.063
  269.000  103.632    0.517    0.265    3.181
  269.250  107.282    0.540    0.267    3.560
  269.500  103.016    0.529    0.273    4.138
  269.750   95.097    0.503    0.271    5.183
  270.000   90.223    0.489    0.248    6.371
  270.250   85.957    0.468    0.233    7.404
  270.500   85.954    0.468    0.226    7.000
  270.750  104.828    0.464    0.236    6.496
  271.000  113.349    0.452    0.249    6.258
  271.250  109.084    0.434    0.260    6.498
  271.500   96.292    0.434    0.272    7.139
  271.750   88.982    0.441    0.295    7.696
  272.000   84.106    0.449    0.309    8.454
  272.250   83.496    0.460    0.305    9.463
  272.500   81.665    0.458    0.290   10.013
  272.750   79.226    0.445    0.287   10.204
  273.000   75.570    0.415    0.339   10.206
  273.250   73.131    0.384    0.348    9.471
  273.500   74.345    0.382    0.344    9.296
  273.750   74.950    0.375    0.343    8.790
  274.000   75.558    0.376    0.340    8.467
  274.250   77.380    0.404    0.334    8.006
  274.500   77.987    0.429    0.326    7.713
  274.750   81.027    0.454    0.311    7.431
  275.000   83.460    0.470    0.289    7.432
  275.250   85.283    0.483    0.250    7.433
  275.500   87.716    0.470    0.238    7.719
  275.750   87.105    0.465    0.241    7.866
  276.000   85.884    0.473    0.249    8.168
  276.250   85.272    0.484    0.259    8.324
  276.500   84.050    0.486    0.270    8.326
  276.750   85.874    0.476    0.282    8.022
  277.000   88.307    0.464    0.266    7.728
  277.250   90.130    0.460    0.249    7.306
  277.500   87.691    0.454    0.279    6.530
  277.750   85.252    0.447    0.296    5.836
  278.000   83.422    0.443    0.287    5.216
  278.250   81.591    0.448    0.264    4.575
  278.500   80.370    0.452    0.259    4.166
  278.750   81.585    0.445    0.245    3.587
  279.000   82.800    0.442    0.227    3.328
  279.250   84.015    0.443    0.234    3.031
  279.500   85.230    0.494    0.257    2.659
  279.750   87.053    0.502    0.260    2.561
  280.000   87.050    0.519    0.267    2.467
  280.250   87.046    0.530    0.269    2.422
  280.500   86.435    0.578    0.271    2.468
  280.750   86.432    0.592    0.276    2.563
  281.000   85.819    0.576    0.282    2.712
  281.250   86.425    0.555    0.275    3.036
  281.500   87.031    0.533    0.268    3.335
  281.750   87.636    0.527    0.261    3.803
  282.000   88.243    0.519    0.261    4.503
  282.250   86.413    0.508    0.263    5.233
  282.500   85.191    0.491    0.258    5.858
  282.750   85.188    0.458    0.251    6.083
  283.000   85.185    0.436    0.244    6.199
  283.250   84.573    0.441    0.235    6.201
  283.500   83.352    0.438    0.231    6.086
  283.750   82.740    0.425    0.235    5.974
  284.000   82.127    0.410    0.244    5.544
  284.250   82.733    0.401    0.247    5.341
  284.500   83.948    0.409    0.253    5.049
  284.750   85.772    0.432    0.255    4.686
  285.000   89.421    0.440    0.249    4.514
  285.250   91.855    0.448    0.242    4.349
  285.500   96.723    0.457    0.236    4.268
  285.750  101.591    0.460    0.230    4.112
  286.000  102.196    0.462    0.223    4.037
  286.250  100.974    0.463    0.225    3.962
  286.500  100.364    0.467    0.230    3.889
  286.750   99.142    0.476    0.230    3.747
  287.000   98.529    0.490    0.229    3.678
  287.250   99.136    0.493    0.233    3.679
  287.500   99.132    0.486    0.237    3.679
  287.750   99.129    0.486    0.240    3.967
  288.000   99.126    0.490    0.239    4.119
  288.250   98.514    0.485    0.239    4.698
  288.500   98.511    0.473    0.239    5.161
  288.750   97.290    0.463    0.240    5.564
  289.000   92.416    0.451    0.246    5.887
  289.250   88.758    0.440    0.251    6.114
  289.500   88.756    0.431    0.244    6.230
  289.750   89.969    0.427    0.227    6.469
  290.000   89.968    0.433    0.210    7.107
  290.250   91.181    0.446    0.177    7.519
  290.500   90.568    0.462    0.162    8.576
  290.750   89.349    0.456    0.138    9.781
  291.000   83.256    0.433    0.115   11.155
  291.250   75.337    0.408    0.187   12.964
  291.500   74.114    0.402    0.220   12.966
  291.750   75.330    0.391    0.237   12.727
  292.000   75.936    0.379    0.266   11.592
  292.250   77.151    0.359    0.304   11.166
  292.500   75.321    0.321    0.323   10.168
  292.750   72.882    0.309    0.317    8.754
  293.000   71.661    0.288    0.273    5.905
  293.250   68.612    0.276    0.258    5.480
  293.500   68.610    0.301    0.225    4.806
  293.750   71.651    0.331    0.244    4.296
  294.000   76.520    0.361    0.260    4.062
  294.250   81.388    0.404    0.287    4.379
  294.500   85.037    0.429    0.292    5.088
  294.750   86.861    0.437    0.282    7.406
  295.000   88.686    0.450    0.277    8.606
  295.250   91.726    0.446    0.265   12.292
  295.500   88.070    0.388    0.253   25.547
  295.750   76.497    0.350    0.260   32.606
  296.000   66.752    0.303    0.277   43.207
  296.250   63.704    0.182    0.332   60.567
  296.500   58.828    0.146    0.370   81.776
  296.750   56.390    0.101    0.394   91.532
  297.000   52.123    0.081    0.399   86.550
  297.250   49.076    0.080    0.416   86.562
  297.500   46.638    0.079    0.442   88.213
  297.750   46.635    0.078    0.458   91.606
  298.000   45.413    0.068    0.472   89.922
  298.250   41.147    0.051    0.477   81.893
  298.500   37.490    0.053    0.477   77.428
  298.750   34.443    0.056    0.466   71.849
  299.000   30.787    0.055    0.463   70.524
  299.250   26.520    0.052    0.458   65.440
  299.500   28.953    0.050    0.449   58.490
  299.750   40.519    0.048    0.431   54.268
  300.000   43.561    0.057    0.425   46.719
  300.250   47.211    0.064    0.407   44.172
  300.500   49.035    0.077    0.380   41.763
  300.750   53.903    0.085    0.354   38.034
  301.000   50.855    0.095    0.368   36.638
  301.250   45.980    0.097    0.362   35.966
  301.500   45.368    0.102    0.340   38.052
  301.750   47.801    0.127    0.315   44.220
  302.000   49.015    0.136    0.336   55.391
  302.250   47.185    0.125    0.359   70.696
  302.500   44.137    0.101    0.381   80.632
  302.750   40.480    0.094    0.392   82.182
  303.000   38.651    0.083    0.425  113.056
  303.250   35.603    0.074    0.426  126.550
  303.500   32.555    0.077    0.401  139.010
  303.750   32.552    0.088    0.392  144.343
  304.000   35.594    0.094    0.399   95.575
  304.250   38.635    0.089    0.429   68.204
  304.500   37.414    0.076    0.445   62.111
  304.750   35.584    0.060    0.443   57.631
  305.000   33.755    0.054    0.413   58.733
  305.250   31.924    0.055    0.401   60.992
  305.500   33.746    0.061    0.389   64.537
  305.750   34.962    0.063    0.379   65.765
  306.000   37.394    0.068    0.376   70.902
  306.250   36.782    0.068    0.381   75.019
  306.500   36.171    0.068    0.387   65.803
  306.750   34.949    0.070    0.395   53.547
  307.000   32.511    0.068    0.419   36.809
  307.250   30.681    0.064    0.447   34.157
  307.500   30.678    0.057    0.447   32.904
  307.750   41.636    0.057    0.417   28.863
  308.000   45.285    0.068    0.412   27.806
  308.250   49.545    0.083    0.409   27.294
  308.500   52.587    0.104    0.402   27.299
  308.750   54.410    0.123    0.378   27.304
