~VERSION INFORMATION
 VERS.                 2.0:   CWLS LOG ASCII STANDARD -VERSION 2.0
 WRAP.                  NO:   ONE LINE PER DEPTH STEP
~WELL INFORMATION BLOCK
#MNEM.UNIT           DATA                    DESCRIPTION OF MNEMONIC
#---------    -------------------            -------------------------------
# Generated from Intellog Unique Number	CS_67_68/WELL/2179
WELL.         GLOBEL ARTIC ISLANDS           : Well_name    - WELL
LOC .         00/07-32-067-17W4/0            : Location     - LOCATION
UWI .         00/07-32-067-17W4/0            : Uwi          - UNIQUE WELL ID
ENTR.         SP                             : Entered      - ENTERED BY
SRVC.         SCHLUMBERGER                   : Scn          - SERVICE COMPANY
STRT.M        345                            : top_depth    - START DEPTH
STOP.M        550                            : bot_depth    - STOP DEPTH
STEP.M        0.25                           : increment    - STEP LENGTH
 NULL. -999.2500:NULL Value
~CURVE INFORMATION BLOCK
#MNEM UNIT       ERCB CURVE CODE    CURVE DESCRIPTION
#-----------   ------------------   ----------------------------------
DEPT.M        00 001 00 00         : DEPTH        - DEPTH
ILD .OHMM     00 120 00 00         : RESD         - DEEP RESISTIVITY (DIL)
DPHI.V/V      00 890 00 00         : PHID         - DENSITY POROSITY (LIMESTONE)
NPHI.V/V      00 330 00 00         : PHIN         - NEUTRON POROSITY (LIMESTONE)
GR  .API      00 310 00 00         : GR           - GAMMA RAY
CALI.MM       00 280 01 00         : CAL          - CALIPER
~PARAMETER INFORMATION
#MNEM.UNIT           DATA             DESCRIPTION OF MNEMONIC
#---------         -----------     ------------------------------
GL  .M        589.2                : gl           - GROUND LEVEL ELEVATION
EREF.M        593                  : kb           - ELEVATION OF DEPTH REFERENCE
DATM.M        593                  : datum        - DATUM ELEVATION
TDD .M        555                  : tdd          - TOTAL DEPTH DRILLER
RUN .         ONE                  : Run          - RUN NUMBER
ENG .         BILL                 : Engineer     - RECORDING ENGINEER
WIT .         JIM                  : Witness      - WITNESSED BY
MUD .         GEL                  : Mud_type     - MUD TYPE
MATR.         LIMESTONE            : Logunit      - NEUTRON MATRIX
TMAX.C        19                   : BHT          - MAXIMUM RECORDED TEMPERATURE
BHTD.M        553.5                : BHTDEP       - MAXIMUM RECORDED TEMPERATURE
MATR.         1                    : LOGUNIT      - NEUTRON MATRIX
RMT .C        25                   : MDTP         - TEMPERATURE OF MUD
NEUT.         1                    : NEUTRON      - NEUTRON TYPE
RESI.         0                    : RESIST       - RESISTIVITY TYPE
RMC .OHMM     0.25                 : RMC          - RESISTIVITY OF MUD CAKE
RMF .OHMM     0.25                 : RMF          - RESISTIVITY OF MUD FILTRATE
SUFT.C        15                   : SUFT         - SURFACE TEMPERATURE
~A  DEPTH     RESD     PHID     PHIN       GR      CAL
# ...
  454.500    1.764    0.311    0.440   69.578  159.376
  454.750    1.836    0.301    0.461   72.030  161.435
  455.000    1.895    0.291    0.473   73.874  162.481
  455.250    2.012    0.289    0.469   74.743  162.818
  455.500    2.344    0.299    0.450   74.824  161.837
  455.750    3.028    0.308    0.446   75.758  160.754
  456.000    3.979    0.295    0.459   77.055  160.077
  456.250    4.712    0.276    0.458   77.922  159.502
  456.500    5.162    0.144    0.393   78.125  159.332
  456.750    5.471    0.110    0.296   77.596  159.973
  457.000    5.566    0.154    0.287   75.547  160.105
  457.250    5.096    0.206    0.333   78.364  159.225
  457.500    5.033    0.247    0.385   80.451  158.447
  457.750    5.453    0.284    0.430   80.289  158.481
  458.000    5.631    0.237    0.428   79.396  159.022
  458.250    5.655    0.183    0.402   77.896  157.836
  458.500    5.669    0.183    0.382   79.496  156.250
  458.750    5.456    0.181    0.377   83.165  156.278
  459.000    5.339    0.165    0.384   84.278  158.237
  459.250    5.254    0.148    0.389   84.115  160.806
  459.500    5.085    0.129    0.371   84.560  162.965
  459.750    4.786    0.110    0.341   87.380  164.112
  460.000    4.414    0.118    0.348   90.011  164.150
  460.250    4.033    0.135    0.340   93.010  163.975
  460.500    3.817    0.153    0.371   95.281  163.603
  460.750    3.674    0.186    0.387   96.149  162.923
  461.000    3.543    0.223    0.393   95.743  162.048
  461.250    3.479    0.206    0.399   95.217  161.471
  461.500    3.398    0.200    0.403   95.722  160.689
  461.750    3.381    0.205    0.409   96.592  159.709
  462.000    3.421    0.209    0.423   96.249  158.525
  462.250    3.449    0.219    0.433   97.300  157.646
  462.500    3.509    0.231    0.440   99.692  157.881
  462.750    3.603    0.221    0.444  101.901  159.130
  463.000    3.679    0.208    0.432  102.771  160.175
  463.250    3.792    0.212    0.427  102.365  161.322
  463.500    3.946    0.202    0.436  102.994  162.672
  463.750    4.029    0.189    0.437  103.377  164.630
  464.000    4.114    0.176    0.427  101.147  166.080
  464.250    4.140    0.191    0.418   99.949  165.911
  464.500    4.119    0.192    0.407  100.092  164.321
  464.750    4.075    0.173    0.399  100.537  164.863
  465.000    4.040    0.181    0.402  100.862  166.313
  465.250    4.020    0.192    0.411  102.036  166.652
  465.500    3.978    0.202    0.415  103.573  166.687
  465.750    3.944    0.204    0.421  105.904  166.410
  466.000    3.888    0.186    0.433  108.356  166.242
  466.250    3.833    0.177    0.441  110.442  166.175
  466.500    3.772    0.174    0.446  111.619  166.202
  466.750    3.698    0.170    0.434  112.368  166.843
  467.000    3.612    0.181    0.429  112.507  167.382
  467.250    3.548    0.191    0.444  109.671  167.524
  467.500    3.472    0.204    0.457  108.411  167.854
  467.750    3.220    0.217    0.467  107.580  167.278
  468.000    2.942    0.228    0.456  108.390  165.689
  468.250    2.669    0.221    0.442  112.425  164.607
  468.500    2.488    0.199    0.455  115.726  166.057
  468.750    2.347    0.207    0.482  118.542  169.636
  469.000    2.254    0.217    0.499  121.176  172.405
  469.250    2.194    0.206    0.504  115.847  174.566
  469.500    2.203    0.204    0.523  110.453  175.617
  469.750    2.237    0.200    0.545  108.770  177.470
  470.000    2.315    0.199    0.538  110.735  178.210
  470.250    2.351    0.217    0.540  113.429  178.143
  470.500    2.414    0.229    0.551  114.303  177.059
  470.750    2.506    0.186    0.559  110.793  175.672
  471.000    2.602    0.193    0.518  106.373  173.982
  471.250    2.758    0.196    0.449  103.658  171.886
  471.500    2.950    0.176    0.427  102.642  170.398
  471.750    3.012    0.157    0.416  103.392  168.513
  472.000    2.991    0.131    0.414  106.758  168.236
  472.250    2.933    0.153    0.424  110.243  171.613
  472.500    2.881    0.181    0.432  112.449  174.685
  472.750    2.829    0.181    0.434  114.050  177.150
  473.000    2.805    0.180    0.441  110.848  178.502
  473.250    2.807    0.195    0.453  109.833  177.924
  473.500    2.866    0.193    0.450  108.088  175.522
  473.750    2.965    0.189    0.434  104.278  172.617
  474.000    3.119    0.196    0.427   98.825  170.622
  474.250    3.367    0.207    0.421   92.945  168.529
  474.500    3.588    0.218    0.410   88.464  166.937
  474.750    3.859    0.235    0.404   83.922  164.236
  475.000    4.158    0.203    0.405   78.957  162.846
  475.250    4.366    0.116    0.342   75.935  163.183
  475.500    4.202    0.097    0.327   74.009  164.635
  475.750    3.985    0.122    0.345   75.366  164.767
  476.000    3.835    0.164    0.368   83.960  163.381
  476.250    3.718    0.201    0.392   89.330  161.387
  476.500    3.839    0.207    0.411   92.632  161.824
  476.750    3.884    0.185    0.413   96.240  164.089
  477.000    3.879    0.168    0.406  100.396  163.308
  477.250    3.874    0.156    0.403  102.907  161.415
  477.500    3.891    0.166    0.406  103.960  162.460
  477.750    3.945    0.169    0.410  103.372  164.925
  478.000    3.998    0.172    0.418  102.236  167.999
  478.250    4.045    0.168    0.422  101.041  168.642
  478.500    4.077    0.176    0.417  100.147  166.139
  478.750    4.118    0.179    0.413   99.013  166.577
  479.000    4.113    0.172    0.407   98.362  166.309
  479.250    4.123    0.174    0.402   97.956  165.529
  479.500    4.125    0.171    0.411   97.792  165.255
  479.750    4.127    0.175    0.416   99.028  164.580
  480.000    4.130    0.173    0.410  100.689  163.089
  480.250    4.117    0.190    0.408  103.570  161.402
  480.500    4.105    0.213    0.411  105.353  159.202
  480.750    4.084    0.212    0.410  106.586  160.857
  481.000    4.063    0.193    0.403  106.908  162.915
  481.250    4.073    0.178    0.396  106.746  164.167
  481.500    4.091    0.182    0.400  105.306  164.707
  481.750    4.139    0.180    0.409  102.652  164.431
  482.000    4.180    0.189    0.419  101.331  162.438
  482.250    4.237    0.182    0.424  101.168  164.598
  482.500    4.295    0.174    0.416  104.350  168.587
  482.750    4.321    0.168    0.411  107.352  170.340
  483.000    4.348    0.161    0.419  108.646  170.372
  483.250    4.350    0.162    0.424  108.970  170.402
  483.500    4.418    0.158    0.427  108.077  169.224
  483.750    4.453    0.148    0.421  110.775  168.440
  484.000    4.473    0.174    0.427  111.582  166.650
  484.250    4.500    0.179    0.432  109.959  165.160
  484.500    4.553    0.181    0.418  108.153  164.586
  484.750    4.581    0.188    0.409  109.694  165.531
  485.000    4.558    0.174    0.404  113.971  167.893
  485.250    4.561    0.158    0.404  116.299  168.537
  485.500    4.538    0.156    0.391  113.461  168.572
  485.750    3.683    0.162    0.378  106.732  169.005
  486.000    3.113    0.151    0.380   98.786  169.244
  486.250    2.672    0.145    0.399   92.844  168.665
  486.500    2.436    0.157    0.413   88.061  166.774
  486.750    2.243    0.166    0.392   91.910  165.995
  487.000    2.111    0.167    0.396   96.857  166.737
  487.250    1.954    0.217    0.457  100.524  168.083
  487.500    1.895    0.188    0.503  103.401  172.170
  487.750    1.968    0.201    0.519  105.733  176.358
  488.000    2.140    0.208    0.513  106.908  180.444
  488.250    2.415    0.225    0.505  108.446  178.150
  488.500    2.802    0.225    0.514  110.837  173.112
  488.750    3.169    0.213    0.522  110.250  170.001
  489.000    3.623    0.207    0.513  107.349  167.500
  489.250    4.006    0.196    0.471  102.265  165.710
  489.500    4.349    0.182    0.441   99.179  164.829
  489.750    4.626    0.195    0.429   96.097  164.861
  490.000    4.611    0.145    0.434   94.174  164.185
  490.250    4.414    0.125    0.437   93.399  163.304
  490.500    4.185    0.110    0.430   92.567  161.213
  490.750    3.903    0.103    0.423   96.904  160.026
