~VERSION INFORMATION
 VERS.                 2.0:   CWLS LOG ASCII STANDARD -VERSION 2.0
 WRAP.                  NO:   ONE LINE PER DEPTH STEP
~WELL INFORMATION BLOCK
#MNEM.UNIT           DATA                    DESCRIPTION OF MNEMONIC
#---------    -------------------            -------------------------------
# Generated from Intellog Unique Number	CS_67_68/WELL/2401
WELL.         BVI ET AL TOUCHWOOD            : Well_name    - WELL
LOC .         00/09-31-067-10W4/0            : Location     - LOCATION
UWI .         00/09-31-067-10W4/0            : Uwi          - UNIQUE WELL ID
ENTR.         C                              : Entered      - ENTERED BY
SRVC.         SCHLUMBERGER                   : Scn          - SERVICE COMPANY
STRT.M        350                            : top_depth    - START DEPTH
STOP.M        575                            : bot_depth    - STOP DEPTH
STEP.M        0.25                           : increment    - STEP LENGTH
 NULL. -999.2500:NULL Value
~CURVE INFORMATION BLOCK
#MNEM UNIT       ERCB CURVE CODE    CURVE DESCRIPTION
#-----------   ------------------   ----------------------------------
DEPT.M        00 001 00 00         : DEPTH        - DEPTH
ILD .OHMM     00 120 00 00         : RESD         - DEEP RESISTIVITY (DIL)
DPHI.V/V      00 890 00 00         : PHID         - DENSITY POROSITY (SANDSTONE)
NPHI.V/V      00 330 00 00         : PHIN         - NEUTRON POROSITY (SANDSTONE)
CALI.MM       00 280 01 00         : CAL          - CALIPER
GR  .API      00 310 00 00         : GR           - GAMMA RAY
~PARAMETER INFORMATION
#MNEM.UNIT           DATA             DESCRIPTION OF MNEMONIC
#---------         -----------     ------------------------------
GL  .M        653                  : gl           - GROUND LEVEL ELEVATION
EREF.M        657.15               : kb           - ELEVATION OF DEPTH REFERENCE
DATM.M        657.15               : datum        - DATUM ELEVATION
TDD .M        686                  : tdd          - TOTAL DEPTH DRILLER
RUN .         ONE                  : Run          - RUN NUMBER
ENG .         BILL                 : Engineer     - RECORDING ENGINEER
WIT .         JIM                  : Witness      - WITNESSED BY
MUD .         GEL                  : Mud_type     - MUD TYPE
MATR.         SANDSTONE            : Logunit      - NEUTRON MATRIX
TMAX.C        28                   : BHT          - MAXIMUM RECORDED TEMPERATURE
BHTD.M        586                  : BHTDEP       - MAXIMUM RECORDED TEMPERATURE
RMT .C        22                   : MDTP         - TEMPERATURE OF MUD
MUDD.KG/M     1130                 : MWT          - MUD DENSITY
NEUT.         1                    : NEUTRON      - NEUTRON TYPE
RESI.         0                    : RESIST       - RESISTIVITY TYPE
RM  .OHMM     4.3                  : RM           - RESISTIVITY OF MUD
RMC .OHMM     2.7                  : RMC          - RESISTIVITY OF MUD CAKE
RMF .OHMM     3.7                  : RMF          - RESISTIVITY OF MUD FILTRATE
SUFT.C        4                    : SUFT         - SURFACE TEMPERATURE
~A  DEPTH     RESD     PHID     PHIN      CAL       GR
# ...
  532.500    4.149    0.184    0.310  154.191   79.944
  532.750    4.228    0.169    0.301  154.162   85.394
  533.000    4.308    0.158    0.306  154.133   88.421
  533.250    4.557    0.145    0.338  154.112   95.092
  533.500    4.732    0.126    0.389  154.083  100.546
  533.750    4.821    0.101    0.391  154.054  105.996
  534.000    5.101    0.077    0.389  154.025  109.023
  534.250    5.198    0.051    0.384  153.990  109.002
  534.500    5.499    0.061    0.379  153.961  111.421
  534.750    5.603    0.082    0.369  153.939  101.068
  535.000    5.709    0.132    0.359  153.896   72.472
  535.250    5.817    0.216    0.336  153.875   77.323
  535.500    5.927    0.202    0.300  153.839   79.125
  535.750    5.927    0.200    0.289  153.824   79.108
  536.000    6.154    0.197    0.294  153.803   78.487
  536.250    6.270    0.194    0.299  153.767   72.390
  536.500    6.270    0.186    0.308  153.745   66.289
  536.750    6.389    0.178    0.302  153.717   68.708
  537.000    6.510    0.177    0.298  153.674   74.770
  537.250    6.510    0.175    0.303  153.652   83.873
  537.500    6.509    0.169    0.303  153.630   90.539
  537.750    6.509    0.165    0.299  153.602   92.953
  538.000    6.509    0.165    0.291  152.553   92.945
  538.250    6.508    0.168    0.295  152.524   92.927
  538.500    6.508    0.168    0.307  152.502   95.338
  538.750    6.508    0.166    0.314  152.474   97.752
  539.000    6.507    0.166    0.318  152.445   99.559
  539.250    6.507    0.168    0.318  152.416   97.114
  539.500    6.507    0.178    0.318  152.387   92.233
  539.750    6.507    0.183    0.318  152.359   86.744
  540.000    6.630    0.221    0.318  152.330   75.784
  540.250    6.630    0.241    0.318  152.301   58.131
  540.500    6.755    0.251    0.305  153.279   53.246
  540.750    6.883    0.256    0.310  153.257   54.445
  541.000    7.013    0.261    0.314  154.234   55.044
  541.250    7.146    0.247    0.298  154.213   57.459
  541.500    7.281    0.220    0.288  155.183   61.085
  541.750    7.419    0.204    0.293  155.169   64.720
  542.000    7.419    0.189    0.293  156.153   72.606
  542.250    7.419    0.168    0.302  157.123   82.924
  542.500    7.280    0.142    0.313  157.102   88.987
  542.750    7.280    0.097    0.324  158.094   97.481
  543.000    7.011    0.103    0.334  158.065  103.543
  543.250    6.752    0.134    0.330  158.043   84.675
  543.500    6.626    0.150    0.323  159.021   84.658
  543.750    6.381    0.152    0.319  158.992   83.424
  544.000    6.262    0.160    0.315  158.970   80.980
  544.250    6.262    0.171    0.317  158.942   77.315
  544.500    6.380    0.181    0.318  158.899   68.786
  544.750    6.380    0.193    0.317  158.884   63.297
  545.000    6.501    0.201    0.314  159.854   59.020
  545.250    6.500    0.210    0.312  159.833   60.218
  545.500    6.500    0.211    0.309  159.811   60.809
  545.750    6.623    0.210    0.301  159.775   60.184
  546.000    6.623    0.201    0.297  159.747   63.211
  546.250    6.748    0.187    0.289  159.725   68.665
  546.500    6.748    0.141    0.283  159.696   75.340
  546.750    6.748    0.117    0.287  159.660   85.658
  547.000    6.747    0.116    0.296  159.639   90.504
  547.250    6.747    0.121    0.304  159.603   92.919
  547.500    6.747    0.131    0.310  159.574   89.858
  547.750    6.746    0.141    0.316  159.553   89.233
  548.000    6.746    0.136    0.321  159.524   89.215
  548.250    6.746    0.131    0.321  159.481   90.414
  548.500    6.620    0.131    0.319  159.467   89.181
  548.750    6.620    0.140    0.313  159.423   86.128
  549.000    6.619    0.136    0.310  159.402   87.327
  549.250    6.496    0.129    0.313  159.373   92.169
  549.500    6.495    0.128    0.313  159.352   93.372
  549.750    6.374    0.130    0.315  159.330   86.059
  550.000    6.255    0.136    0.314  159.330   79.354
  550.250    6.255    0.140    0.315  158.238   81.769
  550.500    6.138    0.141    0.318  160.250   87.223
  550.750    6.138    0.141    0.313  160.214   88.418
  551.000    6.023    0.140    0.309  160.193   82.325
  551.250    6.023    0.139    0.309  160.164   77.444
  551.500    6.023    0.138    0.313  160.135   82.899
  551.750    6.022    0.134    0.317  160.106   85.313
  552.000    6.022    0.140    0.316  160.078   79.212
  552.250    6.022    0.166    0.311  160.049   74.943
  552.500    6.022    0.193    0.302  160.020   67.023
  552.750    6.021    0.200    0.305  159.991   60.926
  553.000    5.909    0.184    0.311  159.963   65.772
  553.250    5.799    0.186    0.313  159.941   72.443
  553.500    5.690    0.195    0.302  159.905   75.469
  553.750    5.480    0.205    0.294  159.877   73.020
  554.000    5.278    0.190    0.301  159.848   67.531
  554.250    4.988    0.185    0.306  159.826   60.822
  554.500    4.804    0.212    0.309  158.777   60.197
  554.750    4.456    0.212    0.304  158.741   63.224
  555.000    4.211    0.205    0.306  158.727   67.458
  555.250    3.833    0.220    0.312  158.691   63.797
  555.500    3.555    0.279    0.316  158.662   51.013
  555.750    3.298    0.293    0.320  158.633   38.832
  556.000    3.001    0.295    0.322  158.605   43.075
  556.250    2.891    0.283    0.319  157.563   49.137
  556.500    2.784    0.272    0.316  157.541   47.904
  556.750    2.681    0.273    0.327  156.506   40.591
  557.000    2.582    0.304    0.328  156.478   36.926
  557.250    2.534    0.305    0.325  156.449   43.597
  557.500    2.440    0.299    0.323  156.413   49.047
  557.750    2.395    0.287    0.326  156.384   44.778
  558.000    2.394    0.282    0.333  155.349   38.681
  558.250    2.350    0.299    0.331  155.321   31.369
  558.500    2.350    0.311    0.331  155.278   26.488
  558.750    2.350    0.320    0.334  155.263   22.823
  559.000    2.349    0.327    0.335  155.220   19.765
  559.250    2.349    0.323    0.334  154.178   17.920
  559.500    2.349    0.316    0.329  154.157   19.114
  559.750    2.349    0.296    0.319  154.128   19.714
  560.000    2.349    0.276    0.310  153.086   20.305
  560.250    2.393    0.271    0.316  153.057   19.071
  560.500    2.439    0.311    0.323  153.036   18.446
  560.750    2.439    0.318    0.332  153.000   19.645
  561.000    2.439    0.322    0.333  152.971   20.843
  561.250    2.438    0.326    0.333  153.963   22.042
  561.500    2.438    0.342    0.334  153.934   22.633
  561.750    2.393    0.336    0.341  153.898   21.400
  562.000    2.348    0.338    0.337  153.877   20.167
  562.250    2.304    0.337    0.333  153.833   20.753
  562.500    2.261    0.322    0.327  153.812   21.952
  562.750    2.219    0.311    0.325  154.796   23.754
  563.000    2.178    0.309    0.322  154.775   26.173
  563.250    2.178    0.308    0.322  155.759   24.940
  563.500    2.137    0.309    0.331  155.731   24.315
  563.750    2.137    0.324    0.337  156.715   24.302
  564.000    2.137    0.326    0.342  156.694   24.280
  564.250    2.097    0.326    0.345  157.678   24.263
  564.500    2.097    0.329    0.345  157.642   24.254
  564.750    2.097    0.331    0.345  157.621   24.237
  565.000    2.097    0.330    0.342  157.592   23.603
  565.250    2.097    0.329    0.341  157.563   23.590
  565.500    2.096    0.327    0.341  157.535   23.573
  565.750    2.096    0.323    0.340  157.499   23.552
  566.000    2.096    0.319    0.336  157.470   23.543
  566.250    2.096    0.319    0.334  156.421   22.310
  566.500    2.096    0.323    0.337  155.386   21.077
  566.750    2.096    0.324    0.338  154.351   20.451
  567.000    2.096    0.326    0.342  153.302   20.430
  567.250    2.096    0.326    0.347  153.280   21.629
  567.500    2.096    0.324    0.347  152.238   22.219
  567.750    2.176    0.324    0.345  152.203   22.202
  568.000    2.217    0.324    0.342  151.168   22.185
  568.250    2.346    0.323    0.339  151.139   22.776
  568.500    2.435    0.317    0.334  151.103   25.802
  568.750    2.626    0.300    0.327  151.074   48.280
