~VERSION INFORMATION
 VERS.                 2.0:   CWLS LOG ASCII STANDARD -VERSION 2.0
 WRAP.                  NO:   ONE LINE PER DEPTH STEP
~WELL INFORMATION BLOCK
#MNEM.UNIT           DATA                    DESCRIPTION OF MNEMONIC
#---------    -------------------            -------------------------------
# Generated from Intellog Unique Number	CS_73_76/WELL/619
WELL.         MATNARD EXPLORATION            : Well_name    - WELL
LOC .         00/06-07-073-11W4/0            : Location     - LOCATION
UWI .         00/06-07-073-11W4/0            : Uwi          - UNIQUE WELL ID
ENTR.         SP                             : Entered      - ENTERED BY
SRVC.         SCHLUMBERGER                   : Scn          - SERVICE COMPANY
STRT.M        295                            : top_depth    - START DEPTH
STOP.M        544                            : bot_depth    - STOP DEPTH
STEP.M        0.25                           : increment    - STEP LENGTH
 NULL. -999.2500:NULL Value
~CURVE INFORMATION BLOCK
#MNEM UNIT       ERCB CURVE CODE    CURVE DESCRIPTION
#-----------   ------------------   ----------------------------------
DEPT.M        00 001 00 00         : DEPTH        - DEPTH
ILD .OHMM     00 120 00 00         : RESD         - DEEP RESISTIVITY (DIL)
DPHI.V/V      00 890 00 00         : PHID         - DENSITY POROSITY (LIMESTONE)
NPHI.V/V      00 330 00 00         : PHIN         - NEUTRON POROSITY (LIMESTONE)
GR  .API      00 310 00 00         : GR           - GAMMA RAY
~PARAMETER INFORMATION
#MNEM.UNIT           DATA             DESCRIPTION OF MNEMONIC
#---------         -----------     ------------------------------
GL  .M        656.4                : gl           - GROUND LEVEL ELEVATION
EREF.M        659.2                : kb           - ELEVATION OF DEPTH REFERENCE
DATM.M        656.4                : datum        - DATUM ELEVATION
TDD .M        552.67               : tdd          - TOTAL DEPTH DRILLER
RUN .         ONE                  : Run          - RUN NUMBER
ENG .         BILL                 : Engineer     - RECORDING ENGINEER
WIT .         JIM                  : Witness      - WITNESSED BY
MUD .         GEL                  : Mud_type     - MUD TYPE
MATR.         LIMESTONE            : Logunit      - NEUTRON MATRIX
TMAX.C        19                   : BHT          - MAXIMUM RECORDED TEMPERATURE
BHTD.M        552.67               : BHTDEP       - MAXIMUM RECORDED TEMPERATURE
MATR.         1                    : LOGUNIT      - NEUTRON MATRIX
RMT .C        25                   : MDTP         - TEMPERATURE OF MUD
NEUT.         1                    : NEUTRON      - NEUTRON TYPE
RESI.         0                    : RESIST       - RESISTIVITY TYPE
RMC .OHMM     0.25                 : RMC          - RESISTIVITY OF MUD CAKE
RMF .OHMM     0.25                 : RMF          - RESISTIVITY OF MUD FILTRATE
SUFT.C        15                   : SUFT         - SURFACE TEMPERATURE
~A  DEPTH     RESD     PHID     PHIN       GR
# ...
  512.500    8.606    0.154    0.390   87.312
  512.750    8.843    0.156    0.383   89.689
  513.000    8.763    0.157    0.376   92.649
  513.250    8.524    0.161    0.381   99.158
  513.500    8.205    0.155    0.395  101.525
  513.750    7.887    0.151    0.403  103.308
  514.000    7.569    0.145    0.409  101.548
  514.250    7.568    0.141    0.404  100.968
  514.500    7.725    0.145    0.398   99.204
  514.750    7.883    0.144    0.396   94.489
  515.000    8.041    0.147    0.392   91.546
  515.250    8.120    0.157    0.397   93.331
  515.500    8.357    0.164    0.404   95.110
  515.750    8.356    0.161    0.407   97.483
  516.000    8.276    0.167    0.411   99.263
  516.250    8.116    0.160    0.414  100.454
  516.500    7.957    0.165    0.415   95.152
  516.750    7.955    0.168    0.401   91.619
  517.000    7.955    0.179    0.400   92.216
  517.250    8.033    0.179    0.408   93.409
  517.500    8.191    0.175    0.412   92.239
  517.750    8.349    0.174    0.406   92.837
  518.000    8.665    0.169    0.402   95.215
  518.250    8.982    0.162    0.407   96.993
  518.500    9.061    0.163    0.398   98.776
  518.750    9.297    0.180    0.394   98.783
  519.000    9.376    0.178    0.391   96.431
  519.250    9.375    0.177    0.392   91.128
  519.500    9.295    0.175    0.399   89.364
  519.750    9.056    0.186    0.393   91.148
  520.000    8.737    0.195    0.400   94.112
  520.250    8.578    0.204    0.407   94.713
  520.500    8.259    0.211    0.402   94.723
  520.750    8.100    0.212    0.395   94.139
  521.000    7.861    0.210    0.392   94.150
  521.250    7.702    0.206    0.393   94.161
  521.500    7.462    0.214    0.395   93.580
  521.750    7.144    0.220    0.393   87.094
  522.000    6.667    0.226    0.390   81.197
  522.250    6.190    0.238    0.388   75.301
  522.500    5.951    0.249    0.383   68.227
  522.750    5.553    0.243    0.378   65.284
  523.000    5.314    0.244    0.376   59.980
  523.250    5.075    0.239    0.375   58.805
  523.500    4.836    0.234    0.383   61.181
  523.750    4.756    0.232    0.387   63.555
  524.000    4.676    0.238    0.388   65.333
  524.250    4.596    0.240    0.385   65.341
  524.500    4.594    0.241    0.383   64.762
  524.750    4.514    0.245    0.386   66.547
  525.000    4.513    0.250    0.393   66.555
  525.250    4.513    0.270    0.397   63.023
  525.500    4.432    0.270    0.399   57.128
  525.750    4.352    0.272    0.401   53.595
  526.000    4.272    0.273    0.389   52.420
  526.250    4.033    0.274    0.380   50.073
  526.500    3.953    0.276    0.378   49.489
  526.750    3.714    0.277    0.383   50.683
  527.000    3.474    0.284    0.392   50.689
  527.250    3.394    0.281    0.393   46.565
  527.500    3.314    0.285    0.397   40.078
  527.750    3.234    0.287    0.398   44.822
  528.000    3.154    0.282    0.403   46.600
  528.250    2.994    0.281    0.395   46.606
  528.500    2.914    0.280    0.385   44.843
  528.750    2.913    0.283    0.381   47.216
  529.000    2.912    0.287    0.374   50.181
  529.250    2.990    0.282    0.369   51.369
  529.500    2.989    0.284    0.381   48.428
  529.750    2.909    0.299    0.386   47.845
  530.000    2.908    0.307    0.394   50.808
  530.250    2.828    0.319    0.381   46.686
  530.500    2.748    0.321    0.374   38.429
  530.750    2.668    0.315    0.376   35.485
  531.000    2.587    0.308    0.387   34.910
  531.250    2.507    0.305    0.388   35.506
  531.500    2.506    0.301    0.383   39.058
  531.750    2.505    0.293    0.387   44.388
  532.000    2.584    0.282    0.393   46.756
  532.250    2.583    0.272    0.398   53.857
  532.500    2.661    0.266    0.398   56.224
  532.750    2.740    0.261    0.397   60.368
  533.000    2.739    0.258    0.391   59.197
  533.250    2.738    0.255    0.394   60.391
  533.500    2.737    0.263    0.397   62.762
  533.750    2.736    0.269    0.391   58.046
  534.000    2.656    0.270    0.393   57.464
  534.250    2.655    0.281    0.414   63.381
  534.500    2.575    0.286    0.418   66.933
  534.750    2.494    0.288    0.408   49.819
  535.000    2.335    0.282    0.396   43.332
  535.250    2.334    0.283    0.403   45.706
  535.500    2.333    0.293    0.409   47.486
  535.750    2.253    0.290    0.412   47.495
  536.000    2.331    0.276    0.409   49.870
  536.250    2.331    0.264    0.401   51.652
  536.500    2.409    0.264    0.391   51.659
  536.750    2.487    0.264    0.381   42.222
  537.000    2.486    0.256    0.388   45.776
  537.250    2.565    0.249    0.404   57.007
  537.500    2.564    0.246    0.418   64.694
  537.750    2.563    0.250    0.405   65.294
  538.000    2.642    0.250    0.394   59.987
  538.250    2.720    0.253    0.386   53.502
  538.500    2.719    0.247    0.393   56.465
  538.750    2.797    0.237    0.399   63.562
  539.000    2.796    0.228    0.401   70.656
  539.250    2.875    0.236    0.394   72.441
  539.500    2.874    0.243    0.387   60.048
  539.750    2.873    0.243    0.399   51.200
  540.000    2.873    0.237    0.403   55.346
  540.250    2.951    0.216    0.404   63.031
  540.500    3.109    0.198    0.395   71.308
  540.750    3.425    0.178    0.389   77.814
  541.000    3.900    0.151    0.389   82.548
  541.250    4.138    0.110    0.415   93.781
  541.500    4.613    0.078    0.434  102.058
  541.750    4.771    0.076    0.451  106.202
  542.000    5.167    0.069    0.459  106.212
  542.250    5.484    0.067    0.454  105.631
  542.500    5.720    0.068    0.464  105.049
  542.750    5.799    0.066    0.466   99.745
  543.000    5.877    0.075    0.458   85.581
  543.250    5.797    0.088    0.444   63.740
  543.500    5.876    0.086    0.438   20.050
  543.750    5.875    0.082    0.435   18.879
  544.000    5.953    0.078    0.430   18.890
