~VERSION INFORMATION
 VERS.                 2.0:   CWLS LOG ASCII STANDARD -VERSION 2.0
 WRAP.                  NO:   ONE LINE PER DEPTH STEP
~WELL INFORMATION BLOCK
#MNEM.UNIT           DATA                    DESCRIPTION OF MNEMONIC
#---------    -------------------            -------------------------------
# Generated from Intellog Unique Number	CW_76_78/WELL/2573
WELL.         SCURRY ET AL MCMULLEN          : Well_name    - WELL
LOC .         00/07-11-078-02W5/0            : Location     - LOCATION
UWI .         00/07-11-078-02W5/0            : Uwi          - UNIQUE WELL ID
ENTR.         MAX                            : Entered      - ENTERED BY
SRVC.         SCHLUMBERGER                   : Scn          - SERVICE COMPANY
STRT.M        332.232                        : top_depth    - START DEPTH
STOP.M        582.232                        : bot_depth    - STOP DEPTH
STEP.M        0.25                           : increment    - STEP LENGTH
 NULL. -999.2500:NULL Value
~CURVE INFORMATION BLOCK
#MNEM UNIT       ERCB CURVE CODE    CURVE DESCRIPTION
#-----------   ------------------   ----------------------------------
DEPT.M        00 001 00 00         : DEPTH        - DEPTH
ILD .OHMM     00 120 00 00         : RESD         - DEEP RESISTIVITY (DIL)
NPHI.V/V      00 330 00 00         : PHIN         - NEUTRON POROSITY (SANDSTONE)
DPHI.V/V      00 890 00 00         : PHID         - DENSITY POROSITY (SANDSTONE)
CALI.MM       00 280 01 00         : CAL          - CALIPER
GR  .API      00 310 00 00         : GR           - GAMMA RAY
~PARAMETER INFORMATION
#MNEM.UNIT           DATA             DESCRIPTION OF MNEMONIC
#---------         -----------     ------------------------------
GL  .M        630.601              : gl           - GROUND LEVEL ELEVATION
EREF.M        634.289              : kb           - ELEVATION OF DEPTH REFERENCE
DATM.M        630.601              : datum        - DATUM ELEVATION
TDD .M        556.26               : tdd          - TOTAL DEPTH DRILLER
RUN .         ONE                  : Run          - RUN NUMBER
ENG .         BILL                 : Engineer     - RECORDING ENGINEER
WIT .         JIM                  : Witness      - WITNESSED BY
MUD .         GEL                  : Mud_type     - MUD TYPE
MATR.         SANDSTONE            : Logunit      - NEUTRON MATRIX
TMAX.C        31.1111              : BHT          - MAXIMUM RECORDED TEMPERATURE
BHTD.M        556.26               : BHTDEP       - MAXIMUM RECORDED TEMPERATURE
RMT .C        15.5556              : MDTP         - TEMPERATURE OF MUD
MUDD.KG/M     9700                 : MWT          - MUD DENSITY
NEUT.         1                    : NEUTRON      - NEUTRON TYPE
RESI.         0                    : RESIST       - RESISTIVITY TYPE
RM  .OHMM     3.75                 : RM           - RESISTIVITY OF MUD
RMC .OHMM     5.24                 : RMC          - RESISTIVITY OF MUD CAKE
RMF .OHMM     5.21                 : RMF          - RESISTIVITY OF MUD FILTRATE
SUFT.C        -12.2222             : SUFT         - SURFACE TEMPERATURE
~A  DEPTH     RESD     PHIN     PHID      CAL       GR
# ...
  405.232    2.741    0.484    0.216  230.299   88.087
  405.482    2.662    0.480    0.220  230.316   85.773
  405.732    2.623    0.504    0.219  230.340   85.493
  405.982    2.584    0.508    0.223  230.365   86.671
  406.232    2.546    0.508    0.227  230.365   87.561
  406.482    2.625    0.508    0.229  230.411   86.990
  406.732    2.863    0.494    0.231  229.940   85.548
  406.982    3.258    0.460    0.233  229.959   78.278
  407.232    3.851    0.468    0.254  228.998   61.690
  407.482    5.115    0.484    0.284  228.030   58.209
  407.732    5.708    0.520    0.294  226.085   57.350
  407.982    6.656    0.495    0.280  224.627   57.652
  408.232    6.538    0.459    0.274  224.156   57.958
  408.482    6.223    0.463    0.278  223.687   56.516
  408.732    5.829    0.470    0.281  224.200   56.240
  408.982    5.434    0.456    0.285  225.211   55.958
  409.232    5.159    0.439    0.285  225.729   55.981
  409.482    4.922    0.429    0.271  226.244   55.696
  409.732    4.883    0.433    0.259  226.266   55.709
  409.982    4.923    0.418    0.244  226.285   56.306
  410.232    4.727    0.395    0.203  226.309   58.066
  410.482    4.372    0.370    0.175  226.827   59.825
  410.732    3.978    0.321    0.160  227.339   63.624
  410.982    3.741    0.428    0.203  227.361   72.085
  411.232    3.663    0.453    0.237  228.372   75.885
  411.482    3.545    0.469    0.245  229.383   78.521
  411.732    3.309    0.480    0.243  230.389   80.281
  411.982    3.388    0.483    0.227  230.419   80.004
  412.232    3.468    0.470    0.222  230.438   80.308
  412.482    3.271    0.455    0.218  230.460   81.778
  412.732    2.995    0.477    0.196  230.482   84.121
  412.982    2.680    0.513    0.186  230.997   87.338
  413.232    2.523    0.514    0.196  231.515   87.357
  413.482    2.444    0.507    0.209  231.537   87.367
  413.732    2.366    0.533    0.209  231.559   88.544
  413.982    2.366    0.537    0.203  231.586   88.850
  414.232    2.367    0.517    0.199  232.096   86.823
  414.482    2.368    0.511    0.214  232.123   84.797
  414.732    2.408    0.494    0.223  232.145   83.936
  414.982    2.487    0.495    0.220  232.167   84.826
  415.232    2.567    0.513    0.220  232.167   84.255
  415.482    2.567    0.530    0.224  232.222   83.977
  415.732    2.529    0.546    0.226  232.235   83.991
  415.982    2.490    0.594    0.225  232.257   84.297
  416.232    2.490    0.585    0.219  231.786   84.599
  416.482    2.491    0.590    0.209  231.808   86.069
  416.732    2.492    0.596    0.210  232.323   86.960
  416.982    2.492    0.569    0.208  233.337   86.099
  417.232    2.453    0.534    0.207  233.356   86.403
  417.482    2.414    0.525    0.214  233.378   85.831
  417.732    2.375    0.522    0.195  233.402   84.972
  417.982    2.297    0.538    0.204  233.402   84.402
  418.232    2.298    0.539    0.201  233.457   85.289
  418.482    2.338    0.522    0.200  233.964   86.468
  418.732    2.417    0.509    0.205  233.964   86.192
  418.982    2.497    0.505    0.212  234.512   85.620
  419.232    2.537    0.509    0.227  234.525   84.761
  419.482    2.538    0.515    0.230  234.545   83.319
  419.732    2.538    0.491    0.227  234.569   84.497
  419.982    2.578    0.482    0.225  234.594   82.182
  420.232    2.618    0.495    0.220  234.613   78.114
  420.482    2.619    0.511    0.226  235.128   76.965
  420.732    2.620    0.536    0.227  235.153   80.764
  420.982    2.620    0.523    0.223  235.177   82.814
  421.232    2.739    0.511    0.220  234.706   81.374
  421.482    2.977    0.572    0.230  233.744   78.183
  421.732    3.490    0.589    0.245  231.796   76.738
  421.982    4.399    0.562    0.266  230.336   76.753
  422.232    5.624    0.539    0.279  228.385   75.311
  422.482    6.888    0.528    0.279  227.426   72.412
  422.732    7.639    0.523    0.286  227.445   71.259
  422.982    7.837    0.520    0.285  227.957   70.980
  423.232    8.193    0.511    0.275  228.475   68.957
  423.482    8.272    0.527    0.283  228.993   68.968
  423.732    8.154    0.550    0.281  229.508   72.769
  423.982    5.904    0.551    0.267  230.026   74.240
  424.232    4.720    0.528    0.246  230.026   75.418
  424.482    4.405    0.503    0.214  230.075   76.012
  424.732    4.287    0.488    0.194  230.582   75.152
  424.982    4.367    0.435    0.156  231.105   67.301
  425.232    4.565    0.326    0.137  232.111   62.364
  425.482    4.723    0.291    0.072  232.626   59.755
  425.732    4.606    0.313    0.055  233.146   72.877
  425.982    3.856    0.366    0.094  233.168   77.840
  426.232    3.225    0.469    0.179  233.185   81.932
  426.482    3.028    0.492    0.211  233.207   84.568
  426.732    3.028    0.496    0.214  233.730   85.455
  426.982    2.832    0.483    0.202  234.240   84.885
  427.232    2.714    0.482    0.197  234.757   85.481
  427.482    2.636    0.486    0.209  234.757   85.205
  427.732    2.636    0.483    0.218  234.812   83.760
  427.982    2.637    0.477    0.219  234.826   80.568
  428.232    2.637    0.494    0.216  234.848   77.087
  428.482    2.638    0.522    0.205  234.379   79.725
  428.732    2.639    0.533    0.210  233.417   80.026
  428.982    2.600    0.520    0.218  232.450   79.458
  429.232    2.600    0.505    0.229  231.982   75.684
  429.482    2.601    0.487    0.232  231.020   76.866
  429.732    2.602    0.474    0.231  231.036   78.044
  429.982    2.642    0.464    0.229  231.058   77.472
  430.232    2.642    0.473    0.230  231.576   74.574
  430.482    2.643    0.480    0.227  232.091   74.880
  430.732    2.643    0.489    0.222  232.116   76.349
  430.982    2.644    0.497    0.219  232.636   79.568
  431.232    2.645    0.494    0.220  232.653   81.035
  431.482    2.645    0.490    0.220  232.677   83.380
  431.732    2.646    0.506    0.220  232.696   85.723
  431.982    2.646    0.514    0.226  232.721   85.734
  432.232    2.765    0.516    0.229  232.721   82.543
  432.482    2.884    0.501    0.224  232.274   77.608
  432.732    2.924    0.529    0.227  231.313   74.419
  432.982    2.925    0.528    0.240  231.332   74.137
  433.232    2.926    0.513    0.244  231.356   75.315
  433.482    2.926    0.524    0.240  231.378   79.699
  433.732    2.887    0.512    0.250  231.403   80.589
  433.982    2.928    0.490    0.248  231.422   79.435
  434.232    2.968    0.469    0.241  231.449   77.411
  434.482    2.889    0.463    0.235  231.962   76.258
  434.732    2.811    0.428    0.227  231.984   76.852
  434.982    2.732    0.423    0.219  232.499   79.488
  435.232    2.654    0.469    0.229  233.016   80.375
  435.482    2.655    0.485    0.232  233.041   80.391
  435.732    2.695    0.504    0.215  232.570   80.402
  435.982    2.853    0.504    0.217  232.099   79.254
  436.232    3.328    0.490    0.222  231.627   77.516
  436.482    3.960    0.477    0.222  231.156   74.618
  436.732    4.553    0.463    0.207  230.687   71.134
  436.982    5.304    0.426    0.190  230.712   65.615
  437.232    5.975    0.360    0.177  231.230   63.885
  437.482    5.858    0.341    0.163  231.739   64.184
  437.732    5.463    0.388    0.131  232.255   65.655
  437.982    5.267    0.425    0.155  232.772   69.163
  438.232    5.109    0.486    0.173  232.304   70.632
  438.482    4.952    0.471    0.224  232.323   70.938
  438.732    4.834    0.436    0.196  232.348   72.410
  438.982    4.835    0.482    0.232  232.375   72.713
  439.232    4.914    0.474    0.260  232.397   70.394
  439.482    4.994    0.471    0.280  232.419   66.622
  439.732    4.955    0.482    0.283  232.457   65.763
  439.982    4.876    0.492    0.287  232.465   66.357
  440.232    4.601    0.476    0.288  232.482   70.740
  440.482    4.128    0.459    0.267  232.010   72.504
  440.732    3.852    0.451    0.256  232.035   73.970
  440.982    3.694    0.451    0.233  232.060   77.478
  441.232    3.734    0.458    0.226  231.588   80.408
  441.482    3.853    0.483    0.243  231.610   81.586
