~VERSION INFORMATION
 VERS.                 2.0:   CWLS LOG ASCII STANDARD -VERSION 2.0
 WRAP.                  NO:   ONE LINE PER DEPTH STEP
~WELL INFORMATION BLOCK
#MNEM.UNIT           DATA                    DESCRIPTION OF MNEMONIC
#---------    -------------------            -------------------------------
# Generated from Intellog Unique Number	CS_77_79/WELL/899
WELL.         BRALORNE RESOURCES LIMITED     : Well_name    - WELL
LOC .         00/07-16-077-14W4/0            : Location     - LOCATION
UWI .         00/07-16-077-14W4/0            : Uwi          - UNIQUE WELL ID
ENTR.         SP                             : Entered      - ENTERED BY
SRVC.         SCHLUMBERGER                   : Scn          - SERVICE COMPANY
STRT.M        280                            : top_depth    - START DEPTH
STOP.M        530                            : bot_depth    - STOP DEPTH
STEP.M        0.25                           : increment    - STEP LENGTH
 NULL. -999.2500:NULL Value
~CURVE INFORMATION BLOCK
#MNEM UNIT       ERCB CURVE CODE    CURVE DESCRIPTION
#-----------   ------------------   ----------------------------------
DEPT.M        00 001 00 00         : DEPTH        - DEPTH
ILD .OHMM     00 120 00 00         : RESD         - DEEP RESISTIVITY (DIL)
DPHI.V/V      00 890 00 00         : PHID         - DENSITY POROSITY (LIMESTONE)
NPHI.V/V      00 330 00 00         : PHIN         - NEUTRON POROSITY (LIMESTONE)
GR  .API      00 310 00 00         : GR           - GAMMA RAY
~PARAMETER INFORMATION
#MNEM.UNIT           DATA             DESCRIPTION OF MNEMONIC
#---------         -----------     ------------------------------
GL  .M        683.2                : gl           - GROUND LEVEL ELEVATION
EREF.M        686.9                : kb           - ELEVATION OF DEPTH REFERENCE
DATM.M        683.2                : datum        - DATUM ELEVATION
TDD .M        530                  : tdd          - TOTAL DEPTH DRILLER
RUN .         ONE                  : Run          - RUN NUMBER
ENG .         BILL                 : Engineer     - RECORDING ENGINEER
WIT .         JIM                  : Witness      - WITNESSED BY
MUD .         GEL                  : Mud_type     - MUD TYPE
MATR.         LIMESTONE            : Logunit      - NEUTRON MATRIX
TMAX.C        30                   : BHT          - MAXIMUM RECORDED TEMPERATURE
BHTD.M        530                  : BHTDEP       - MAXIMUM RECORDED TEMPERATURE
MATR.         1                    : LOGUNIT      - NEUTRON MATRIX
RMT .C        25                   : MDTP         - TEMPERATURE OF MUD
NEUT.         1                    : NEUTRON      - NEUTRON TYPE
RESI.         0                    : RESIST       - RESISTIVITY TYPE
RMC .OHMM     0.25                 : RMC          - RESISTIVITY OF MUD CAKE
RMF .OHMM     0.25                 : RMF          - RESISTIVITY OF MUD FILTRATE
SUFT.C        15                   : SUFT         - SURFACE TEMPERATURE
~A  DEPTH     RESD     PHID     PHIN       GR
# ...
  497.500   12.826    0.203    0.319  107.633
  497.750   12.353    0.206    0.321  113.769
  498.000   11.676    0.200    0.322  110.720
  498.250   11.246    0.194    0.325  109.505
  498.500   11.249    0.194    0.351  109.516
  498.750   11.252    0.229    0.347  112.588
  499.000   11.045    0.248    0.322  115.658
  499.250   12.614    0.259    0.321  115.669
  499.500   14.681    0.267    0.326  105.274
  499.750   15.841    0.279    0.334   93.040
  500.000   17.616    0.246    0.340   84.224
  500.250   18.642    0.233    0.338   91.002
  500.500   17.616    0.223    0.339   98.403
  500.750   16.646    0.215    0.333  109.474
  501.000   16.335    0.212    0.330  124.861
  501.250   16.029    0.213    0.325  121.185
  501.500   15.730    0.220    0.326  114.443
  501.750   15.436    0.237    0.339  110.768
  502.000   15.147    0.263    0.352  103.403
  502.250   14.864    0.317    0.359   79.442
  502.500   14.864    0.341    0.363   57.326
  502.750   14.864    0.343    0.363   41.972
  503.000   15.147    0.343    0.357   23.546
  503.250   14.864    0.334    0.345   18.642
  503.500   14.864    0.323    0.339   19.271
  503.750   15.147    0.321    0.329   23.590
  504.000   16.963    0.319    0.316   32.213
  504.250   20.104    0.314    0.305   58.664
  504.500   22.514    0.311    0.337   69.128
  504.750   27.191    0.308    0.355   74.676
  505.000   34.103    0.308    0.367   71.618
  505.250   41.186    0.316    0.351   70.406
  505.500   41.971    0.311    0.354   74.727
  505.750   35.414    0.290    0.346   76.584
  506.000   32.225    0.282    0.343   75.984
  506.250   26.683    0.275    0.333   72.313
  506.500   24.742    0.259    0.324   72.328
  506.750   22.093    0.253    0.320   73.577
  507.000   20.487    0.241    0.318   73.586
  507.250   19.728    0.238    0.320   74.216
  507.500   18.642    0.233    0.312   78.535
  507.750   18.293    0.228    0.308   84.085
  508.000   17.951    0.303    0.314   87.171
  508.250   18.293    0.328    0.335   84.727
  508.500   18.642    0.336    0.347   78.594
  508.750   19.359    0.334    0.361   63.858
  509.000   20.104    0.333    0.367   51.574
  509.250   20.487    0.325    0.368   41.754
  509.500   20.487    0.319    0.362   36.855
  509.750   20.487    0.312    0.355   39.327
  510.000   19.728    0.294    0.354   40.569
  510.250   18.997    0.288    0.349   43.051
  510.500   18.293    0.281    0.341   46.138
  510.750   16.963    0.274    0.330   50.455
  511.000   16.646    0.266    0.319   56.006
  511.250   16.029    0.268    0.316   59.088
  511.500   15.147    0.269    0.318   65.865
  511.750   14.586    0.273    0.314   65.882
  512.000   13.783    0.271    0.313   62.827
  512.250   13.525    0.250    0.316   64.686
  512.500   13.024    0.237    0.314   67.163
  512.750   12.542    0.245    0.309   67.786
  513.000   12.307    0.256    0.306   64.732
  513.250   12.077    0.261    0.308   63.515
  513.500   11.851    0.254    0.305   64.758
  513.750   11.851    0.246    0.299   72.770
  514.000   11.630    0.243    0.290   80.160
  514.250   11.412    0.256    0.299   86.320
  514.500   10.784    0.282    0.306   90.641
  514.750    9.630    0.298    0.319   83.896
  515.000    8.438    0.289    0.328   56.243
  515.250    7.824    0.274    0.336   56.876
  515.500    7.394    0.253    0.335   61.196
  515.750    6.856    0.244    0.327   67.969
  516.000    6.602    0.243    0.331   70.443
  516.250    6.602    0.262    0.337   68.001
  516.500    6.728    0.301    0.334   64.326
  516.750    6.987    0.291    0.328   68.032
  517.000    7.255    0.275    0.311   71.735
  517.250    7.255    0.257    0.307   76.668
  517.500    7.824    0.249    0.315   80.370
  517.750    8.762    0.234    0.321   87.765
  518.000    9.099    0.221    0.327   93.929
  518.250    9.630    0.216    0.328   99.476
  518.500    9.813    0.211    0.329  116.703
  518.750    9.813    0.202    0.328  129.015
  519.000    9.813    0.179    0.324  129.650
  519.250    9.630    0.144    0.322  127.200
  519.500    9.630    0.095    0.322  105.700
  519.750    9.630    0.111    0.321   97.726
  520.000    9.630    0.150    0.321   99.581
  520.250    9.813    0.185    0.322  106.976
  520.500    9.813    0.200    0.323  114.367
  520.750   10.385    0.232    0.325  124.832
  521.000   10.990    0.254    0.335  127.306
  521.250   11.630    0.264    0.343  121.790
  521.500   12.307    0.264    0.351  108.278
  521.750   13.272    0.265    0.354   95.385
  522.000   14.313    0.267    0.346  109.539
  522.250   14.313    0.309    0.366  137.218
  522.500   14.586    0.314    0.366  140.923
  522.750   14.313    0.312    0.369  132.331
  523.000   13.783    0.285    0.370  112.060
  523.250   13.783    0.223    0.338  107.155
  523.500   13.024    0.212    0.329  106.560
  523.750   12.781    0.198    0.318  108.417
  524.000   12.781    0.181    0.325  111.510
  524.250   13.024    0.162    0.324  113.980
  524.500   13.024    0.147    0.323  115.842
  524.750   12.781    0.137    0.328  117.084
  525.000   12.542    0.129    0.334  118.330
  525.250   12.077    0.178    0.360  117.731
  525.500   11.412    0.194    0.347  116.514
  525.750   10.990    0.197    0.328  114.070
  526.000   10.784    0.194    0.323  112.859
  526.250   10.784    0.193    0.335  112.256
  526.500   10.582    0.194    0.332  122.722
  526.750   10.582    0.198    0.325  132.574
  527.000   10.582    0.199    0.308  140.586
  527.250   10.582    0.200    0.309  140.606
  527.500   10.582    0.226    0.329  140.616
  527.750   10.582    0.258    0.346  140.014
  528.000   10.582    0.335    0.346  140.648
  528.250   10.582    0.358    0.343  140.663
  528.500   10.582    0.368    0.343  141.291
  528.750   10.784    0.372    0.341  141.309
  529.000   10.784    0.372    0.340  140.706
  529.250   10.784    0.374    0.340  140.719
  529.500   10.784    0.377    0.340  141.355
  529.750   10.784    0.379    0.338  141.365
  530.000   10.582    0.380    0.338  141.382
