~VERSION INFORMATION
 VERS.                 2.0:   CWLS LOG ASCII STANDARD -VERSION 2.0
 WRAP.                  NO:   ONE LINE PER DEPTH STEP
~WELL INFORMATION BLOCK
#MNEM.UNIT           DATA                    DESCRIPTION OF MNEMONIC
#---------    -------------------            -------------------------------
# Generated from Intellog Unique Number	CS_77_79/WELL/910
WELL.         BOW VALLEY EXPLORATION         : Well_name    - WELL
LOC .         00/07-28-077-14W4/0            : Location     - LOCATION
UWI .         00/07-28-077-14W4/0            : Uwi          - UNIQUE WELL ID
ENTR.         SP                             : Entered      - ENTERED BY
SRVC.         SCHLUMBERGER                   : Scn          - SERVICE COMPANY
STRT.M        275                            : top_depth    - START DEPTH
STOP.M        535                            : bot_depth    - STOP DEPTH
STEP.M        0.25                           : increment    - STEP LENGTH
 NULL. -999.2500:NULL Value
~CURVE INFORMATION BLOCK
#MNEM UNIT       ERCB CURVE CODE    CURVE DESCRIPTION
#-----------   ------------------   ----------------------------------
DEPT.M        00 001 00 00         : DEPTH        - DEPTH
ILD .OHMM     00 120 00 00         : RESD         - DEEP RESISTIVITY (DIL)
DPHI.V/V      00 890 00 00         : PHID         - DENSITY POROSITY (LIMESTONE)
NPHI.V/V      00 330 00 00         : PHIN         - NEUTRON POROSITY (LIMESTONE)
GR  .API      00 310 00 00         : GR           - GAMMA RAY
~PARAMETER INFORMATION
#MNEM.UNIT           DATA             DESCRIPTION OF MNEMONIC
#---------         -----------     ------------------------------
GL  .M        674.43               : gl           - GROUND LEVEL ELEVATION
EREF.M        677.88               : kb           - ELEVATION OF DEPTH REFERENCE
DATM.M        674.43               : datum        - DATUM ELEVATION
TDD .M        544                  : tdd          - TOTAL DEPTH DRILLER
RUN .         ONE                  : Run          - RUN NUMBER
ENG .         BILL                 : Engineer     - RECORDING ENGINEER
WIT .         JIM                  : Witness      - WITNESSED BY
MUD .         GEL                  : Mud_type     - MUD TYPE
MATR.         LIMESTONE            : Logunit      - NEUTRON MATRIX
TMAX.C        25                   : BHT          - MAXIMUM RECORDED TEMPERATURE
BHTD.M        544                  : BHTDEP       - MAXIMUM RECORDED TEMPERATURE
MATR.         1                    : LOGUNIT      - NEUTRON MATRIX
RMT .C        25                   : MDTP         - TEMPERATURE OF MUD
NEUT.         1                    : NEUTRON      - NEUTRON TYPE
RESI.         0                    : RESIST       - RESISTIVITY TYPE
RMC .OHMM     0.25                 : RMC          - RESISTIVITY OF MUD CAKE
RMF .OHMM     0.25                 : RMF          - RESISTIVITY OF MUD FILTRATE
SUFT.C        15                   : SUFT         - SURFACE TEMPERATURE
~A  DEPTH     RESD     PHID     PHIN       GR
# ...
  318.500   12.423    0.326    0.406   63.276
  318.750   12.197    0.287    0.412   63.907
  319.000   11.979    0.257    0.418   66.371
  319.250   11.328    0.240    0.429   69.449
  319.500   10.320    0.245    0.441   71.295
  319.750    9.759    0.265    0.413   72.537
  320.000    8.891    0.286    0.401   78.065
  320.250    8.409    0.278    0.414   84.201
  320.500    8.102    0.260    0.429   88.502
  320.750    7.520    0.245    0.427   86.682
  321.000    6.981    0.241    0.428   89.759
  321.250    6.480    0.251    0.435   94.056
  321.500    6.245    0.255    0.445   93.462
  321.750    6.131    0.253    0.460   90.417
  322.000    5.908    0.246    0.467   94.714
  322.250    5.912    0.244    0.474  101.464
  322.500    6.030    0.251    0.477  105.153
  322.750    6.147    0.259    0.484  104.561
  323.000    6.386    0.266    0.490  103.347
  323.250    6.633    0.263    0.493   99.691
  323.500    7.289    0.259    0.493   99.707
  323.750    8.010    0.270    0.490  102.171
  324.000    8.167    0.278    0.481  102.799
  324.250    7.870    0.278    0.453  102.201
  324.500    7.728    0.268    0.429  102.827
  324.750    8.336    0.243    0.416   98.564
  325.000    9.514    0.235    0.435   96.123
  325.250   10.068    0.247    0.448   90.628
  325.500   11.065    0.273    0.447   83.907
  325.750   11.713    0.293    0.438   77.191
  326.000   11.502    0.311    0.458   74.754
  326.250   10.478    0.328    0.446   78.445
  326.500    9.367    0.331    0.409   84.581
  326.750    8.217    0.298    0.409   88.883
  327.000    6.944    0.281    0.427   92.573
  327.250    6.325    0.279    0.448   98.102
  327.500    6.211    0.290    0.464  102.403
  327.750    7.222    0.285    0.470   94.456
  328.000    8.396    0.312    0.493   79.774
  328.250    9.762    0.328    0.485   62.648
  328.500   13.955    0.335    0.445   54.701
  328.750   18.158    0.329    0.413   54.716
  329.000   25.471    0.323    0.389   57.795
  329.250   29.619    0.330    0.386   63.323
  329.500   30.774    0.332    0.391   67.010
  329.750   31.371    0.337    0.410   62.739
  330.000   31.385    0.342    0.423   50.509
  330.250   30.247    0.354    0.402   48.073
  330.500   28.613    0.358    0.401   50.541
  330.750   28.627    0.363    0.411   51.781
  331.000   28.109    0.363    0.414   48.736
  331.250   27.599    0.362    0.418   46.912
  331.500   27.617    0.365    0.428   46.928
  331.750   26.616    0.360    0.433   46.331
  332.000   24.707    0.355    0.436   46.345
  332.250   23.804    0.354    0.430   45.747
  332.500   22.100    0.356    0.412   42.706
  332.750   21.295    0.348    0.398   42.109
  333.000   20.520    0.340    0.394   40.903
  333.250   20.148    0.334    0.386   39.691
  333.500   19.790    0.328    0.370   39.088
  333.750   19.431    0.326    0.356   38.495
  334.000   19.078    0.323    0.365   39.119
  334.250   19.095    0.329    0.372   40.359
  334.500   18.747    0.335    0.384   42.825
  334.750   18.755    0.340    0.376   41.616
  335.000   18.771    0.343    0.372   41.019
  335.250   19.133    0.341    0.371   39.807
  335.500   19.503    0.338    0.370   39.212
  335.750   20.651    0.332    0.361   38.613
  336.000   21.448    0.328    0.343   36.796
  336.250   22.284    0.319    0.334   36.195
  336.500   22.714    0.301    0.328   34.381
  336.750   23.157    0.285    0.319   36.842
  337.000   22.742    0.284    0.306   39.919
  337.250   21.917    0.312    0.349   44.836
  337.500   20.728    0.331    0.382   46.680
  337.750   19.237    0.341    0.391   49.757
  338.000   18.195    0.351    0.395   52.223
  338.250   17.869    0.356    0.407   54.686
  338.500   17.544    0.357    0.417   54.089
  338.750   17.555    0.357    0.427   47.983
  339.000   17.565    0.355    0.413   44.937
  339.250   17.574    0.354    0.406   45.565
  339.500   17.584    0.353    0.399   46.803
  339.750   17.933    0.351    0.397   46.820
  340.000   17.940    0.345    0.388   44.389
  340.250   18.288    0.341    0.378   46.239
  340.500   18.650    0.336    0.386   48.701
  340.750   18.659    0.340    0.410   50.553
  341.000   18.667    0.347    0.397   49.344
  341.250   18.334    0.354    0.384   48.134
  341.500   18.340    0.357    0.384   45.700
  341.750   18.010    0.362    0.391   44.493
  342.000   17.686    0.366    0.400   43.295
  342.250   17.365    0.363    0.408   42.695
  342.500   17.374    0.359    0.413   42.094
  342.750   17.059    0.360    0.409   40.881
  343.000   17.401    0.363    0.414   39.061
  343.250   17.409    0.365    0.424   37.242
  343.500   17.418    0.363    0.417   36.638
  343.750   17.104    0.359    0.412   36.044
  344.000   17.113    0.356    0.407   36.676
  344.250   17.120    0.358    0.410   36.687
  344.500   17.129    0.360    0.414   36.089
  344.750   16.818    0.361    0.411   33.653
  345.000   16.831    0.360    0.405   34.281
  345.250   16.838    0.357    0.400   34.908
  345.500   16.539    0.355    0.398   34.316
  345.750   16.863    0.350    0.409   33.102
  346.000   16.558    0.346    0.414   35.567
  346.250   16.567    0.350    0.411   38.642
  346.500   16.577    0.357    0.410   37.436
  346.750   16.586    0.361    0.414   36.841
  347.000   16.595    0.355    0.421   38.085
  347.250   16.297    0.354    0.425   38.710
  347.500   16.307    0.354    0.430   39.332
  347.750   16.316    0.352    0.428   40.571
  348.000   15.717    0.353    0.427   41.810
  348.250   15.730    0.355    0.423   41.217
  348.500   15.737    0.357    0.411   40.625
  348.750   15.742    0.357    0.411   40.023
  349.000   15.752    0.356    0.417   39.428
  349.250   16.061    0.358    0.420   38.827
  349.500   16.072    0.358    0.420   37.617
  349.750   16.077    0.352    0.421   36.407
  350.000   16.088    0.342    0.427   35.200
  350.250   16.098    0.341    0.430   34.607
  350.500   16.104    0.351    0.432   34.623
  350.750   16.120    0.351    0.433   35.859
  351.000   16.126    0.348    0.434   35.879
  351.250   16.133    0.344    0.428   35.888
  351.500   15.845    0.342    0.428   34.682
  351.750   15.850    0.344    0.423   34.700
  352.000   15.861    0.351    0.418   34.711
  352.250   15.867    0.353    0.411   34.724
  352.500   15.881    0.350    0.406   34.751
  352.750   15.887    0.357    0.413   34.760
  353.000   15.899    0.364    0.418   34.160
  353.250   15.904    0.361    0.426   33.564
  353.500   15.914    0.359    0.428   34.187
  353.750   15.925    0.354    0.425   34.820
  354.000   15.930    0.353    0.423   34.830
  354.250   15.646    0.361    0.415   33.621
  354.500   15.651    0.359    0.415   34.864
  354.750   15.663    0.355    0.414   36.716
  355.000   15.669    0.361    0.409   38.566
  355.250   15.683    0.365    0.397   38.583
  355.500   15.397    0.362    0.400   39.825
  355.750   15.405    0.361    0.411   41.061
  356.000   15.412    0.360    0.419   41.690
  356.250   15.420    0.359    0.406   41.705
  356.500   16.021    0.354    0.398   42.951
  356.750   15.735    0.350    0.403   44.187
  357.000   16.037    0.352    0.413   45.423
  357.250   16.048    0.359    0.405   44.831
  357.500   16.671    0.360    0.403   43.009
  357.750   17.318    0.360    0.422   40.573
  358.000   18.331    0.347    0.438   39.973
  358.250   20.529    0.288    0.439   40.605
  358.500   21.729    0.124    0.258   36.942
  358.750   21.741    0.103    0.215   35.123
  359.000   20.957    0.150    0.323   37.588
  359.250   20.194    0.239    0.367   41.891
  359.500   19.097    0.355    0.432   46.802
  359.750   17.396    0.356    0.431   48.043
  360.000   16.765    0.358    0.424   46.837
  360.250   16.461    0.356    0.422   46.238
  360.500   16.472    0.351    0.413   46.258
  360.750   16.175    0.348    0.412   46.266
  361.000   16.184    0.346    0.427   46.899
  361.250   16.197    0.341    0.439   47.525
  361.500   16.204    0.340    0.441   48.150
  361.750   16.212    0.341    0.432   48.163
