~VERSION INFORMATION
 VERS.                 2.0:   CWLS LOG ASCII STANDARD -VERSION 2.0
 WRAP.                  NO:   ONE LINE PER DEPTH STEP
~WELL INFORMATION BLOCK
#MNEM.UNIT           DATA                    DESCRIPTION OF MNEMONIC
#---------    -------------------            -------------------------------
# Generated from Intellog Unique Number	CW_70_72/WELL/3018
NULL.         -999.25                        : NULL_VALUE
WELL.         DOME SULPETRO BOUVIER 07-31    : Well_name    - WELL              
LOC .         07-31-070-24W4                 : Location     - LOCATION          
UWI .         00/07-31-070-24W4/0            : Uwi          - UNIQUE WELL ID    
ENTR.         J                              : Entered      - ENTERED BY        
SRVC.         WESTERN ATLAS                  : Scn          - SERVICE COMPANY   
DATE.         22 FEB 80                      : Date         - LOG DATE          
STRT.M        450                            : top_depth    - START DEPTH       
STOP.M        635                            : bot_depth    - STOP DEPTH        
STEP.M        0.25                           : increment    - STEP LENGTH       
~CURVE INFORMATION BLOCK
#MNEM UNIT       ERCB CURVE CODE    CURVE DESCRIPTION
#-----------   ------------------   ----------------------------------
DEPT.M        00 001 00 00         : DEPTH        - DEPTH                       
ILD .OHMM     00 120 00 00         : RESD         - DEEP RESISTIVITY (DIL)      
CALI.MM       00 280 01 00         : CAL          - CALIPER                     
GR  .API      00 310 00 00         : GR           - GAMMA RAY                   
NPHI.V/V      00 330 00 00         : PHIN         - NEUTRON POROSITY (SANDSTONE)
DPHI.V/V      00 890 00 00         : PHID         - DENSITY POROSITY (SANDSTONE)
~PARAMETER INFORMATION       
#MNEM.UNIT           DATA             DESCRIPTION OF MNEMONIC
#---------         -----------     ------------------------------
GL  .M        655.9                : gl           - GROUND LEVEL ELEVATION      
EREF.M        659.5                : kb           - ELEVATION OF DEPTH REFERENCE
DATM.M        655.9                : datum        - DATUM ELEVATION             
TDD .M        645                  : tdd          - TOTAL DEPTH DRILLER         
RUN .         ONE                  : Run          - RUN NUMBER                  
ENG .         WEIERS/PETERSON      : Engineer     - RECORDING ENGINEER          
WIT .         TRAHAM               : Witness      - WITNESSED BY                
MUD .         GEL CHEM             : Mud_type     - MUD TYPE                    
MATR.         SANDSTONE            : Logunit      - NEUTRON MATRIX              
TMAX.C        23                   : BHT          - MAXIMUM RECORDED TEMPERATURE
BHTD.M        646.6                : BHTDEP       - MAXIMUM RECORDED TEMPERATURE
RMT .C        15                   : MDTP         - TEMPERATURE OF MUD          
MUDD.KG/M     9.5                  : MWT          - MUD DENSITY                 
NEUT.         1                    : NEUTRON      - NEUTRON TYPE                
RESI.         0                    : RESIST       - RESISTIVITY TYPE            
RM  .OHMM     3.4                  : RM           - RESISTIVITY OF MUD          
RMC .OHMM     3.7                  : RMC          - RESISTIVITY OF MUD CAKE     
RMF .OHMM     3.1                  : RMF          - RESISTIVITY OF MUD FILTRATE 
SUFT.C        0                    : SUFT         - SURFACE TEMPERATURE         
~A  DEPTH     RESD      CAL       GR     PHIN     PHID
# ...
  559.500   13.734  170.137   71.731    0.183    0.148
  559.750   10.537  169.617   80.458    0.249    0.186
  560.000    7.980  167.968   87.156    0.285    0.206
  560.250    5.823  166.624   94.162    0.343    0.218
  560.500    4.929  166.309  100.121    0.364    0.217
  560.750    4.551  165.684  101.222    0.364    0.216
  561.000    4.394  165.676  102.077    0.362    0.207
  561.250    4.501  165.871  103.670    0.360    0.200
  561.500    4.883  166.270  105.264    0.371    0.191
  561.750    5.258  166.671  106.304    0.371    0.182
  562.000    5.662  166.663  106.729    0.362    0.182
  562.250    5.909  166.961  105.309    0.353    0.174
  562.500    5.843  166.951  101.491    0.348    0.176
  562.750    5.694  167.046   96.381    0.343    0.176
  563.000    5.366  167.135   91.579    0.342    0.192
  563.250    5.001  167.128   89.973    0.346    0.198
  563.500    4.652  167.120   90.584    0.360    0.210
  563.750    4.344  167.110   94.330    0.367    0.214
  564.000    4.048  166.897  101.335    0.372    0.223
  564.250    3.843  167.092  107.171    0.370    0.224
  564.500    3.759  167.390  102.738    0.366    0.224
  564.750    3.717  167.792   98.735    0.360    0.224
  565.000    3.724  167.782  102.481    0.363    0.212
  565.250    3.758  167.258  107.025    0.372    0.209
  565.500    3.751  167.149  110.157    0.381    0.209
  565.750    3.758  166.932  108.491    0.390    0.212
  566.000    3.814  166.924  107.748    0.402    0.212
  566.250    3.842  166.915  110.755    0.416    0.217
  566.500    3.878  167.005  113.825    0.424    0.216
  566.750    3.885  167.101  117.016    0.432    0.211
  567.000    3.892  166.888  119.164    0.422    0.211
  567.250    3.899  166.981  121.126    0.409    0.194
  567.500    3.950  167.073  121.982    0.396    0.192
  567.750    4.024  167.063  121.239    0.391    0.190
  568.000    4.076  167.057  120.186    0.398    0.195
  568.250    4.168  166.022  118.029    0.421    0.185
  568.500    4.381  163.962  112.734    0.425    0.183
  568.750    4.640  163.338  106.826    0.417    0.166
  569.000    4.701  164.867  107.680    0.402    0.171
  569.250    4.631  166.292  110.935    0.391    0.171
  569.500    4.479  168.127  117.263    0.400    0.200
  569.750    4.284  168.938  121.378    0.414    0.201
  570.000    4.269  169.237  124.571    0.408    0.203
  570.250    4.421  169.433  124.073    0.398    0.203
  570.500    4.605  170.345  121.423    0.384    0.174
  570.750    4.752  171.771  116.744    0.372    0.146
  571.000    4.850  174.120  108.374    0.362    0.143
  571.250    4.922  175.751  105.356    0.355    0.138
  571.500    4.950  175.739  108.669    0.353    0.140
  571.750    4.949  175.014  113.032    0.366    0.152
  572.000    4.931  173.878  120.037    0.386    0.175
  572.250    4.922  173.254  119.047    0.407    0.181
  572.500    4.922  172.732  114.553    0.401    0.188
  572.750    4.921  172.107  116.945    0.391    0.190
  573.000    4.921  171.586  119.338    0.390    0.199
  573.250    4.930  170.243  122.406    0.398    0.194
  573.500    4.948  170.541  123.755    0.398    0.180
  573.750    4.930  171.353  124.856    0.393    0.179
  574.000    4.921  172.677  121.652    0.391    0.184
  574.250    4.884  174.407  120.723    0.386    0.195
  574.500    4.875  174.910  120.965    0.385    0.194
  574.750    4.884  174.595  121.759    0.393    0.178
  575.000    4.884  174.177  123.291    0.396    0.166
  575.250    4.966  173.757  121.255    0.392    0.168
  575.500    5.030  173.646  120.204    0.390    0.166
  575.750    5.002  173.020  120.875    0.389    0.154
  576.000    4.938  173.215  122.591    0.388    0.156
  576.250    4.847  172.694  127.075    0.388    0.159
  576.500    4.758  170.122  129.531    0.388    0.159
  576.750    4.653  169.089  126.204    0.388    0.167
  577.000    4.568  168.772  122.630    0.390    0.169
  577.250    4.576  168.555  121.765    0.391    0.176
  577.500    4.601  168.445  121.451    0.398    0.178
  577.750    4.627  168.229  121.447    0.400    0.178
  578.000    4.722  168.941  121.010    0.395    0.180
  578.250    4.819  171.699  121.002    0.388    0.180
  578.500    4.918  173.942  121.182    0.384    0.178
  578.750    5.209  174.448  120.993    0.377    0.164
  579.000    5.486  175.053  119.880    0.364    0.172
  579.250    5.799  175.249  115.386    0.349    0.171
  579.500    6.153  175.135  100.436    0.315    0.140
  579.750    6.397  174.820   88.685    0.298    0.109
  580.000    6.541  173.785   97.042    0.293    0.057
  580.250    6.468  172.546  104.232    0.299    0.076
  580.500    6.198  171.512  112.837    0.315    0.113
  580.750    5.809  172.117  121.318    0.331    0.121
  581.000    5.444  173.236  126.909    0.344    0.132
  581.250    5.217  173.431  128.440    0.349    0.118
  581.500    5.130  172.706  129.419    0.358    0.130
  581.750    5.207  173.106  131.934    0.368    0.156
  582.000    5.494  174.222  126.210    0.358    0.152
  582.250    5.917  174.725  113.905    0.352    0.129
  582.500    6.038  174.818  103.814    0.352    0.118
  582.750    6.117  175.014  108.851    0.358    0.131
  583.000    6.117  175.210  113.519    0.364    0.143
  583.250    5.949  175.203  115.481    0.371    0.171
  583.500    5.796  175.603  116.891    0.371    0.163
  583.750    5.753  175.798  117.500    0.373    0.142
  584.000    6.004  175.174  119.646    0.375    0.127
  584.250    6.196  173.526  120.932    0.381    0.127
  584.500    6.335  171.568  118.713    0.387    0.142
  584.750    5.981  170.432  118.707    0.392    0.149
  585.000    5.605  169.807  120.422    0.402    0.165
  585.250    5.332  169.807  122.138    0.415    0.157
  585.500    5.176  169.889  123.794    0.421    0.148
  585.750    5.006  169.576  124.896    0.419    0.148
  586.000    4.941  169.359  126.798    0.408    0.138
  586.250    4.978  170.062  123.287    0.392    0.136
  586.500    5.052  170.469  125.248    0.383    0.137
  586.750    5.137  171.485  122.107    0.374    0.142
  587.000    5.213  172.296  117.550    0.371    0.160
  587.250    5.340  172.901  113.055    0.374    0.147
  587.500    5.562  173.099  109.852    0.387    0.125
  587.750    5.761  173.087  116.427    0.401    0.124
  588.000    5.880  173.489  119.681    0.410    0.140
  588.250    5.847  174.093  122.134    0.412    0.165
  588.500    5.718  175.316  122.991    0.407    0.171
  588.750    5.520  176.331  123.845    0.413    0.159
  589.000    5.379  177.756  124.270    0.411    0.152
  589.250    5.389  178.772  125.187    0.403    0.147
  589.500    5.520  179.684  126.841    0.402    0.141
  589.750    5.686  180.187  128.990    0.403    0.136
  590.000    5.824  180.486  129.353    0.402    0.127
  590.250    5.955  180.374  126.887    0.400    0.117
  590.500    5.999  179.547  127.743    0.399    0.119
  590.750    5.988  178.204  129.521    0.399    0.120
  591.000    5.889  177.068  127.547    0.399    0.120
  591.250    5.685  175.418  126.004    0.395    0.129
  591.500    5.508  174.996  124.276    0.390    0.128
  591.750    5.387  174.989  124.763    0.385    0.115
  592.000    5.317  175.698  128.694    0.382    0.109
  592.250    5.249  176.407  134.100    0.392    0.114
  592.500    5.278  177.523  134.832    0.387    0.134
  592.750    5.337  178.234  127.016    0.373    0.159
  593.000    5.436  179.042  121.967    0.356    0.164
  593.250    5.600  179.751  117.596    0.351    0.145
  593.500    5.854  180.051  115.131    0.355    0.161
  593.750    6.075  180.246  112.540    0.354    0.157
  594.000    6.258  179.928  110.999    0.345    0.151
  594.250    6.363  179.304  109.025    0.331    0.150
  594.500    6.374  178.475  107.913    0.325    0.162
  594.750    6.350  177.338  108.338    0.320    0.149
  595.000    6.315  175.998  110.116    0.324    0.149
  595.250    6.385  174.553  113.739    0.335    0.152
  595.500    6.385  173.825  115.824    0.339    0.128
  595.750    6.303  173.407  116.126    0.343    0.126
