~VERSION INFORMATION
 VERS.                 2.0:   CWLS LOG ASCII STANDARD -VERSION 2.0
 WRAP.                  NO:   ONE LINE PER DEPTH STEP
~WELL INFORMATION BLOCK
#MNEM.UNIT           DATA                    DESCRIPTION OF MNEMONIC
#---------    -------------------            -------------------------------
# Generated from Intellog Unique Number	CW_70_72/WELL/3005
NULL.         -999.25                        : NULL_VALUE
WELL.         GULF POC CALLS 06-03           : Well_name    - WELL              
LOC .         06-03-070-23W4                 : Location     - LOCATION          
UWI .         00/06-03-070-23W4/0            : Uwi          - UNIQUE WELL ID    
ENTR.         J                              : Entered      - ENTERED BY        
SRVC.         SCHLUMBERGER                   : Scn          - SERVICE COMPANY   
DATE.         9 JAN 75                       : Date         - LOG DATE          
STRT.M        396.24                         : top_depth    - START DEPTH       
STOP.M        579.24                         : bot_depth    - STOP DEPTH        
STEP.M        0.25                           : increment    - STEP LENGTH       
~CURVE INFORMATION BLOCK
#MNEM UNIT       ERCB CURVE CODE    CURVE DESCRIPTION
#-----------   ------------------   ----------------------------------
DEPT.M        00 001 00 00         : DEPTH        - DEPTH                       
ILD .OHMM     00 120 00 00         : RESD         - DEEP RESISTIVITY (DIL)      
CALI.MM       00 280 01 00         : CAL          - CALIPER                     
GR  .API      00 310 00 00         : GR           - GAMMA RAY                   
NPHI.V/V      00 330 00 00         : PHIN         - NEUTRON POROSITY (SANDSTONE)
DPHI.V/V      00 890 00 00         : PHID         - DENSITY POROSITY (SANDSTONE)
~PARAMETER INFORMATION       
#MNEM.UNIT           DATA             DESCRIPTION OF MNEMONIC
#---------         -----------     ------------------------------
GL  .M        626.577              : gl           - GROUND LEVEL ELEVATION      
EREF.M        629.839              : kb           - ELEVATION OF DEPTH REFERENCE
DATM.M        626.577              : datum        - DATUM ELEVATION             
TDD .M        606.552              : tdd          - TOTAL DEPTH DRILLER         
RUN .         ONE                  : Run          - RUN NUMBER                  
ENG .         STRUKY               : Engineer     - RECORDING ENGINEER          
WIT .         CURBA                : Witness      - WITNESSED BY                
BASE.         EDMONTON             : Branch       - HOME BASE OF LOGGING UNIT   
MUD .         RCL & DX 301         : Mud_type     - MUD TYPE                    
MATR.         SANDSTONE            : Logunit      - NEUTRON MATRIX              
TMAX.C        26.1111              : BHT          - MAXIMUM RECORDED TEMPERATURE
BHTD.M        595.579              : BHTDEP       - MAXIMUM RECORDED TEMPERATURE
RMT .C        21.1111              : MDTP         - TEMPERATURE OF MUD          
MUDD.KG/M     1020                 : MWT          - MUD DENSITY                 
NEUT.         1                    : NEUTRON      - NEUTRON TYPE                
RESI.         0                    : RESIST       - RESISTIVITY TYPE            
RM  .OHMM     2.5                  : RM           - RESISTIVITY OF MUD          
RMC .OHMM     2.5                  : RMC          - RESISTIVITY OF MUD CAKE     
RMF .OHMM     1.7                  : RMF          - RESISTIVITY OF MUD FILTRATE 
SUFT.C        -17.7778             : SUFT         - SURFACE TEMPERATURE         
~A  DEPTH     RESD      CAL       GR     PHIN     PHID
# ...
  542.240    5.416  163.397  116.620    0.432    0.200
  542.490    5.559  162.633  121.248    0.403    0.181
  542.740    5.664  165.009  124.451    0.407    0.161
  542.990    5.900  166.343  124.058    0.426    0.188
  543.240    6.317  167.051  121.441    0.425    0.216
  543.490    7.135  167.223  115.231    0.410    0.222
  543.740    8.329  166.250  108.584    0.397    0.228
  543.990    9.546  163.180  101.508    0.390    0.236
  544.240   10.605  159.477   95.729    0.378    0.250
  544.490   10.905  158.508   92.738    0.368    0.247
  544.740   10.574  162.777   90.304    0.359    0.227
  544.990    9.719  163.788   93.692    0.364    0.201
  545.240    8.533  163.967   98.260    0.372    0.199
  545.490    7.208  164.257  107.717    0.373    0.231
  545.740    6.699  164.333  112.404    0.387    0.260
  545.990    6.090  164.408  116.227    0.407    0.242
  546.240    6.391  164.265  109.460    0.422    0.205
  546.490    7.392  163.504   97.674    0.431    0.173
  546.740    8.726  161.691   79.943    0.349    0.143
  546.990    9.106  160.298   69.706    0.281    0.107
  547.240    8.448  161.210   80.589    0.245    0.065
  547.490    7.444  163.377   95.682    0.362    0.114
  547.740    6.428  164.926  104.456    0.410    0.173
  547.990    5.952  165.100  104.007    0.436    0.185
  548.240    6.042  165.072  100.458    0.444    0.178
  548.490    6.225  164.833   99.140    0.419    0.175
  548.740    6.274  163.653  101.166    0.378    0.177
  548.990    6.184  161.832  101.272    0.359    0.178
  549.240    6.029  160.969  101.686    0.362    0.175
  549.490    5.899  161.981  103.154    0.392    0.183
  549.740    5.978  163.425  104.995    0.412    0.213
  549.990    6.170  164.339  108.691    0.410    0.201
  550.240    6.380  165.252  105.889    0.414    0.210
  550.490    6.572  164.383   95.651    0.409    0.174
  550.740    6.771  162.359   98.417    0.377    0.158
  550.990    6.798  160.859  101.561    0.373    0.156
  551.240    6.616  160.406  106.436    0.394    0.164
  551.490    6.546  161.010  110.007    0.412    0.180
  551.740    6.657  162.968  111.415    0.407    0.202
  551.990    7.076  165.035  111.827    0.399    0.190
  552.240    8.066  166.366  110.882    0.388    0.171
  552.490    8.589  166.236  107.026    0.377    0.158
  552.740    8.703  165.052  100.568    0.362    0.147
  552.990    8.346  163.971  104.452    0.321    0.129
  553.240    7.786  162.893  107.900    0.337    0.116
  553.490    7.424  162.544  109.303    0.348    0.142
  553.740    6.914  164.610  110.525    0.361    0.176
  553.990    6.581  165.737  111.998    0.370    0.180
  554.240    6.173  165.708  114.704    0.362    0.179
  554.490    5.844  165.676  118.524    0.362    0.177
  554.740    5.729  164.913  128.228    0.374    0.208
  554.990    5.968  159.632  133.044    0.397    0.225
  555.240    6.273  160.546  124.291    0.407    0.204
  555.490    7.007  165.241  117.339    0.400    0.189
  555.740    7.642  166.461  108.277    0.388    0.167
  555.990    7.772  166.541  105.781    0.371    0.136
  556.240    7.467  166.932  111.771    0.357    0.112
  556.490    6.902  166.898  114.167    0.353    0.156
  556.740    6.344  166.341  113.902    0.356    0.193
  556.990    5.757  165.683  111.654    0.367    0.202
  557.240    5.158  164.913  108.357    0.375    0.189
  557.490    4.146  164.155  101.277    0.382    0.195
  557.740    3.508  163.602  104.416    0.395    0.210
  557.990    2.947  164.411  112.636    0.523    0.269
  558.240    2.905  173.817  117.883    0.552    0.272
  558.490    3.348  189.096  120.404    0.588    0.308
  558.740    4.372  191.587  110.910    0.453    0.282
  558.990    5.752  167.121   98.382    0.397    0.258
  559.240    7.018  159.741   90.312    0.320    0.201
  559.490    7.571  159.920   94.693    0.323    0.124
  559.740    7.313  160.419  100.432    0.345    0.113
  559.990    6.760  161.225  103.264    0.368    0.163
  560.240    6.214  161.822  104.979    0.394    0.177
  560.490    5.733  162.320  107.808    0.409    0.170
  560.740    5.517  162.914  109.836    0.393    0.156
  560.990    5.195  163.201  112.236    0.393    0.164
  561.240    4.972  163.272  115.930    0.404    0.193
  561.490    4.777  163.249  115.977    0.415    0.191
  561.740    4.623  163.422  121.533    0.433    0.175
  561.990    4.566  163.711  121.450    0.457    0.169
  562.240    4.592  164.619  123.103    0.470    0.164
  562.490    4.757  165.015  122.470    0.440    0.189
  562.740    5.141  165.613  118.487    0.436    0.205
  562.990    5.220  165.268  113.578    0.431    0.203
  563.240    6.070  164.607  106.748    0.422    0.196
  563.490    7.898  163.735  100.348    0.410    0.185
  563.740    8.806  162.241   93.084    0.376    0.170
  563.990    8.761  159.582   86.068    0.330    0.158
  564.240    8.668  158.509   82.397    0.310    0.132
  564.490    8.221  158.052   81.883    0.301    0.120
  564.740    7.112  158.338   92.146    0.328    0.096
  564.990    5.205  159.571  107.488    0.383    0.141
  565.240    4.612  162.791  115.582    0.396    0.174
  565.490    4.447  164.334  122.191    0.418    0.190
  565.740    4.359  162.730  123.658    0.443    0.201
  565.990    4.305  159.448  123.828    0.447    0.188
  566.240    4.259  157.636  123.250    0.439    0.156
  566.490    4.237  158.864  124.163    0.427    0.149
  566.740    4.247  162.602  134.487    0.419    0.128
  566.990    4.225  164.150  140.353    0.444    0.208
  567.240    4.149  164.540  142.194    0.454    0.211
  567.490    4.090  162.517  136.229    0.463    0.189
  567.740    3.988  160.386  132.124    0.453    0.183
  567.990    3.768  159.309  131.673    0.433    0.174
  568.240    3.600  159.593  134.317    0.443    0.180
  568.490    3.668  161.343  140.556    0.464    0.222
  568.740    3.835  163.931  142.581    0.480    0.241
  568.990    4.054  165.059  136.989    0.485    0.238
  569.240    4.333  165.554  128.052    0.451    0.232
  569.490    4.648  161.224  119.486    0.410    0.228
  569.740    4.859  162.555  115.753    0.384    0.192
  569.990    4.550  161.473  114.807    0.386    0.193
  570.240    4.114  156.936  115.776    0.397    0.205
  570.490    3.685  152.708  120.279    0.409    0.194
  570.740    3.350  157.712  128.872    0.428    0.178
  570.990    3.321  165.654  139.756    0.472    0.177
  571.240    3.409  165.830  140.295    0.493    0.171
  571.490    3.531  163.807  135.695    0.468    0.154
  571.740    3.631  162.312  129.915    0.450    0.147
  571.990    3.586  160.918  125.997    0.428    0.215
  572.240    3.382  162.666  125.854    0.411    0.210
  572.490    3.402  164.208  131.163    0.430    0.200
  572.740    3.505  164.494  131.887    0.466    0.190
  572.990    3.664  164.466  129.577    0.482    0.190
  573.240    3.859  162.340  124.848    0.452    0.196
  573.490    4.263  160.840  121.613    0.438    0.205
  573.740    4.851  159.650  116.890    0.442    0.220
  573.990    5.509  159.520   96.373    0.462    0.221
  574.240    6.165  158.124   78.331    0.478    0.209
  574.490    7.210  156.417   63.636    0.488    0.185
  574.740    8.448  155.654   53.215    0.471    0.164
  574.990    7.006  156.041   61.495    0.447    0.156
  575.240    6.669  157.686   73.306    0.444    0.187
  575.490    7.672  161.330   67.529    0.483    0.220
  575.740    9.275  161.509   47.382    0.533    0.233
  575.990   11.358  161.373   36.465    0.501    0.247
  576.240   14.509  160.504   28.145    0.484    0.278
  576.490   17.158  159.843   23.545    0.471    0.227
  576.740   18.271  166.316   26.251    0.465    0.229
  576.990   16.040  171.950   27.287    0.464    0.184
  577.240   11.504  159.230   24.729    0.455    0.205
  577.490    6.979  155.529   22.234    0.415    0.176
  577.740    4.923  154.555   24.013    0.387    0.180
  577.990    3.864  154.103   26.843    0.414    0.215
  578.240    3.288  154.073   28.623    0.463    0.268
  578.490    2.913  153.725   29.965    0.480    0.215
