~VERSION INFORMATION
 VERS.                 2.0:   CWLS LOG ASCII STANDARD -VERSION 2.0
 WRAP.                  NO:   ONE LINE PER DEPTH STEP
~WELL INFORMATION BLOCK
#MNEM.UNIT           DATA                    DESCRIPTION OF MNEMONIC
#---------    -------------------            -------------------------------
# Generated from Intellog Unique Number	CS_69_70/WELL/829
NULL.         -999.25                        : NULL_VALUE
WELL.         HB CCS PITLOCHRIE              : Well_name    - WELL              
LOC .         00/07-16-070-12W4/0            : Location     - LOCATION          
UWI .         00/07-16-070-12W4/0            : Uwi          - UNIQUE WELL ID    
ENTR.         SP                             : Entered      - ENTERED BY        
SRVC.         SCHLUMBERGER                   : Scn          - SERVICE COMPANY   
STRT.M        286.512                        : top_depth    - START DEPTH       
STOP.M        496.012                        : bot_depth    - STOP DEPTH        
STEP.M        0.25                           : increment    - STEP LENGTH       
~CURVE INFORMATION BLOCK
#MNEM UNIT       ERCB CURVE CODE    CURVE DESCRIPTION
#-----------   ------------------   ----------------------------------
DEPT.M        00 001 00 00         : DEPTH        - DEPTH                       
GR  .API      00 310 00 00         : GR           - GAMMA RAY                   
DPHI.V/V      00 890 00 00         : PHID         - DENSITY POROSITY (SANDSTONE)
NPHI.V/V      00 330 00 00         : PHIN         - NEUTRON POROSITY (SANDSTONE)
ILD .OHMM     00 120 00 00         : RESD         - DEEP RESISTIVITY (DIL)      
~PARAMETER INFORMATION       
#MNEM.UNIT           DATA             DESCRIPTION OF MNEMONIC
#---------         -----------     ------------------------------
GL  .M        604.388              : gl           - GROUND LEVEL ELEVATION      
EREF.M        607.436              : kb           - ELEVATION OF DEPTH REFERENCE
DATM.M        604.388              : datum        - DATUM ELEVATION             
TDD .M        499.872              : tdd          - TOTAL DEPTH DRILLER         
RUN .         ONE                  : Run          - RUN NUMBER                  
ENG .         BILL                 : Engineer     - RECORDING ENGINEER          
WIT .         JIM                  : Witness      - WITNESSED BY                
MUD .         GEL                  : Mud_type     - MUD TYPE                    
MATR.         SANDSTONE            : Logunit      - NEUTRON MATRIX              
TMAX.C        26.1111              : BHT          - MAXIMUM RECORDED TEMPERATURE
BHTD.M        499.872              : BHTDEP       - MAXIMUM RECORDED TEMPERATURE
MATR.         1                    : LOGUNIT      - NEUTRON MATRIX              
RMT .C        25                   : MDTP         - TEMPERATURE OF MUD          
NEUT.         1                    : NEUTRON      - NEUTRON TYPE                
RESI.         0                    : RESIST       - RESISTIVITY TYPE            
RMC .OHMM     0.25                 : RMC          - RESISTIVITY OF MUD CAKE     
RMF .OHMM     0.25                 : RMF          - RESISTIVITY OF MUD FILTRATE 
SUFT.C        15                   : SUFT         - SURFACE TEMPERATURE         
~A  DEPTH       GR     PHID     PHIN     RESD
# ...
  373.512   62.629    0.270    0.421   10.403
  373.762   61.449    0.221    0.397   12.049
  374.012   59.196    0.189    0.374   12.985
  374.262   62.814    0.120    0.338   12.201
  374.512   70.995    0.075    0.280   10.152
  374.762   76.099    0.063    0.323    8.512
  375.012   81.592    0.115    0.377    7.372
  375.262   85.079    0.178    0.510    6.675
  375.512   87.690    0.258    0.535    6.344
  375.762   88.963    0.290    0.528    6.467
  376.012   89.941    0.270    0.521    6.596
  376.262   92.544    0.249    0.515    6.723
  376.512   94.793    0.230    0.511    6.764
  376.762   93.345    0.221    0.507    6.723
  377.012   92.392    0.228    0.508    6.610
  377.262   92.689    0.255    0.513    6.407
  377.512   92.970    0.261    0.517    6.199
  377.762   93.333    0.268    0.518    5.990
  378.012   93.112    0.279    0.521    5.893
  378.262   91.906    0.268    0.527    5.880
  378.512   89.470    0.256    0.532    6.082
  378.762   86.667    0.257    0.522    6.606
  379.012   83.943    0.294    0.510    7.482
  379.262   81.562    0.315    0.498    8.893
  379.512   78.431    0.309    0.482    9.864
  379.762   75.661    0.259    0.454   10.437
  380.012   77.499    0.177    0.367   10.645
  380.262   83.415    0.123    0.304   10.433
  380.512   87.883    0.158    0.345    9.491
  380.762   87.154    0.223    0.447    8.828
  381.012   89.097    0.259    0.523    8.277
  381.262   90.096    0.270    0.536    7.812
  381.512   90.385    0.257    0.527    7.686
  381.762   90.356    0.261    0.511    7.968
  382.012   91.451    0.268    0.492    7.942
  382.262   88.725    0.256    0.477    7.888
  382.512   85.901    0.239    0.475    7.914
  382.762   88.166    0.231    0.485    7.945
  383.012   88.939    0.230    0.475    8.012
  383.262   86.022    0.232    0.467    8.491
  383.512   82.419    0.238    0.477   10.094
  383.762   79.389    0.224    0.476   10.793
  384.012   75.156    0.197    0.460   10.602
  384.262   72.242    0.170    0.374   10.081
  384.512   80.213    0.080    0.324    9.404
  384.762   86.168    0.100    0.398    8.732
  385.012   90.409    0.200    0.468    7.975
  385.262   91.220    0.229    0.499    7.366
  385.512   92.165    0.256    0.499    7.012
  385.762   94.273    0.265    0.498    6.837
  386.012   95.510    0.274    0.518    6.698
  386.262   95.619    0.259    0.535    6.689
  386.512   94.859    0.263    0.554    6.713
  386.762   93.662    0.273    0.548    6.748
  387.012   92.554    0.271    0.533    6.832
  387.262   92.955    0.261    0.540    6.861
  387.512   94.050    0.250    0.547    6.639
  387.762   96.417    0.237    0.538    5.356
  388.012   97.834    0.229    0.532    4.488
  388.262   99.654    0.232    0.537    4.150
  388.512  100.102    0.244    0.545    4.314
  388.762   99.240    0.250    0.548    4.853
  389.012   97.430    0.241    0.537    5.464
  389.262   95.771    0.224    0.518    5.973
  389.512   95.434    0.221    0.497    6.341
  389.762   95.194    0.235    0.494    6.484
  390.012   95.435    0.243    0.514    6.514
  390.262   95.579    0.237    0.526    6.349
  390.512   96.350    0.231    0.535    4.448
  390.762   96.987    0.232    0.526    3.363
  391.012   97.976    0.245    0.511    2.876
  391.262   99.633    0.272    0.513    2.490
  391.512   98.975    0.287    0.578    2.264
  391.762   96.980    0.290    0.603    2.109
  392.012   93.392    0.298    0.618    2.064
  392.262   89.951    0.324    0.628    2.210
  392.512   87.655    0.350    0.637    2.569
  392.762   86.094    0.353    0.628    3.225
  393.012   86.553    0.356    0.617    3.932
  393.262   89.641    0.369    0.595    4.955
  393.512   91.540    0.380    0.555    5.647
  393.762   93.427    0.302    0.534    6.012
  394.012   89.936    0.265    0.513    6.202
  394.262   91.191    0.274    0.505    6.256
  394.512   92.801    0.286    0.502    6.241
  394.762   91.599    0.264    0.504    6.220
  395.012   88.135    0.252    0.508    6.108
  395.262   85.475    0.261    0.504    5.970
  395.512   84.098    0.263    0.511    5.817
  395.762   82.745    0.274    0.517    5.730
  396.012   82.240    0.293    0.524    5.691
  396.262   82.133    0.301    0.536    5.776
  396.512   81.950    0.307    0.533    5.938
  396.762   81.731    0.310    0.529    6.187
  397.012   81.142    0.295    0.533    6.393
  397.262   79.039    0.280    0.538    6.459
  397.512   77.513    0.274    0.539    6.354
  397.762   75.941    0.301    0.532    6.225
  398.012   76.067    0.328    0.521    6.103
  398.262   75.868    0.335    0.511    6.025
  398.512   74.177    0.336    0.499    5.900
  398.762   69.795    0.331    0.485    5.849
  399.012   68.784    0.339    0.480    5.765
  399.262   69.220    0.343    0.478    5.717
  399.512   69.570    0.346    0.476    5.708
  399.762   68.609    0.347    0.474    5.700
  400.012   68.565    0.342    0.479    5.695
  400.262   69.715    0.340    0.480    5.660
  400.512   71.657    0.343    0.475    5.682
  400.762   73.926    0.343    0.469    5.707
  401.012   77.490    0.338    0.482    5.743
  401.262   78.153    0.332    0.483    5.778
  401.512   79.013    0.332    0.479    5.818
  401.762   78.919    0.343    0.493    5.927
  402.012   77.237    0.331    0.505    6.000
  402.262   75.107    0.327    0.511    6.143
  402.512   71.939    0.313    0.509    6.461
  402.762   70.314    0.293    0.506    6.797
  403.012   68.802    0.285    0.498    7.049
  403.262   68.793    0.278    0.491    7.493
  403.512   68.999    0.281    0.489    7.882
  403.762   69.049    0.289    0.482    8.143
  404.012   70.645    0.283    0.467    8.012
  404.262   74.544    0.260    0.455    7.801
  404.512   76.399    0.244    0.450    8.155
  404.762   79.323    0.233    0.468    8.751
  405.012   80.241    0.253    0.482    9.282
  405.262   74.506    0.127    0.434    9.512
  405.512   74.493    0.108    0.418    9.249
  405.762   78.248    0.095    0.322    8.201
  406.012   81.120    0.143    0.342    6.832
  406.262   82.293    0.185    0.415    6.301
  406.512   81.840    0.230    0.474    6.302
  406.762   82.172    0.262    0.500    6.517
  407.012   82.515    0.270    0.494    6.713
  407.262   82.518    0.260    0.488    6.920
  407.512   82.396    0.250    0.491    7.097
  407.762   82.322    0.254    0.495    7.285
  408.012   81.132    0.260    0.492    7.457
  408.262   80.950    0.255    0.484    7.537
  408.512   81.529    0.236    0.468    7.513
  408.762   81.729    0.226    0.461    7.396
  409.012   81.247    0.227    0.461    7.140
  409.262   82.496    0.238    0.473    7.099
  409.512   83.131    0.250    0.491    7.151
  409.762   82.497    0.259    0.491    7.303
  410.012   82.015    0.248    0.479    7.366
  410.262   82.172    0.247    0.482    7.339
  410.512   83.521    0.237    0.480    7.095
  410.762   85.560    0.225    0.475    6.733
  411.012   88.388    0.213    0.474    6.412
  411.262   91.171    0.207    0.483    6.063
  411.512   93.644    0.222    0.498    5.885
  411.762   95.340    0.231    0.507    5.788
  412.012   96.163    0.235    0.515    5.723
  412.262   93.757    0.235    0.508    5.587
  412.512   91.862    0.234    0.501    5.422
  412.762   90.325    0.238    0.506    5.009
  413.012   89.647    0.241    0.513    4.734
  413.262   89.407    0.250    0.510    4.620
  413.512   89.462    0.267    0.518    4.491
  413.762   89.875    0.286    0.573    4.455
  414.012   90.895    0.314    0.586    4.328
  414.262   93.233    0.304    0.580    4.305
  414.512   94.131    0.303    0.591    4.241
  414.762   93.957    0.326    0.604    4.199
  415.012   92.620    0.342    0.593    4.100
  415.262   92.906    0.323    0.583    3.986
  415.512   93.585    0.313    0.572    3.733
  415.762   92.925    0.312    0.564    3.523
  416.012   93.301    0.312    0.559    3.289
  416.262   94.332    0.303    0.558    3.058
  416.512   95.738    0.294    0.566    2.855
  416.762   97.323    0.319    0.591    2.824
