~VERSION INFORMATION
 VERS.                 2.0:   CWLS LOG ASCII STANDARD -VERSION 2.0
 WRAP.                  NO:   ONE LINE PER DEPTH STEP
~WELL INFORMATION BLOCK
#MNEM.UNIT           DATA                    DESCRIPTION OF MNEMONIC
#---------    -------------------            -------------------------------
# Generated from Intellog Unique Number	CS_69_70/WELL/714
NULL.         -999.25                        : NULL_VALUE
WELL.         ET AL TWEEDIE                  : Well_name    - WELL              
LOC .         00/06-05-070-13W4/0            : Location     - LOCATION          
UWI .         00/06-05-070-13W4/0            : Uwi          - UNIQUE WELL ID    
ENTR.         SP                             : Entered      - ENTERED BY        
SRVC.         SCHLUMBERGER                   : Scn          - SERVICE COMPANY   
STRT.M        275                            : top_depth    - START DEPTH       
STOP.M        520                            : bot_depth    - STOP DEPTH        
STEP.M        0.25                           : increment    - STEP LENGTH       
~CURVE INFORMATION BLOCK
#MNEM UNIT       ERCB CURVE CODE    CURVE DESCRIPTION
#-----------   ------------------   ----------------------------------
DEPT.M        00 001 00 00         : DEPTH        - DEPTH                       
ILD .OHMM     00 120 00 00         : RESD         - DEEP RESISTIVITY (DIL)      
DPHI.V/V      00 890 00 00         : PHID         - DENSITY POROSITY (LIMESTONE)
NPHI.V/V      00 330 00 00         : PHIN         - NEUTRON POROSITY (LIMESTONE)
GR  .API      00 310 00 00         : GR           - GAMMA RAY                   
~PARAMETER INFORMATION       
#MNEM.UNIT           DATA             DESCRIPTION OF MNEMONIC
#---------         -----------     ------------------------------
GL  .M        577.2                : gl           - GROUND LEVEL ELEVATION      
EREF.M        581.1                : kb           - ELEVATION OF DEPTH REFERENCE
DATM.M        577.2                : datum        - DATUM ELEVATION             
TDD .M        528                  : tdd          - TOTAL DEPTH DRILLER         
RUN .         ONE                  : Run          - RUN NUMBER                  
ENG .         BILL                 : Engineer     - RECORDING ENGINEER          
WIT .         JIM                  : Witness      - WITNESSED BY                
MUD .         GEL                  : Mud_type     - MUD TYPE                    
MATR.         LIMESTONE            : Logunit      - NEUTRON MATRIX              
TMAX.C        23                   : BHT          - MAXIMUM RECORDED TEMPERATURE
BHTD.M        528                  : BHTDEP       - MAXIMUM RECORDED TEMPERATURE
MATR.         1                    : LOGUNIT      - NEUTRON MATRIX              
RMT .C        25                   : MDTP         - TEMPERATURE OF MUD          
NEUT.         1                    : NEUTRON      - NEUTRON TYPE                
RESI.         0                    : RESIST       - RESISTIVITY TYPE            
RMC .OHMM     0.25                 : RMC          - RESISTIVITY OF MUD CAKE     
RMF .OHMM     0.25                 : RMF          - RESISTIVITY OF MUD FILTRATE 
SUFT.C        15                   : SUFT         - SURFACE TEMPERATURE         
~A  DEPTH     RESD     PHID     PHIN       GR
# ...
  492.500    3.815    0.126    0.361  118.827
  492.750    3.768    0.138    0.358  117.303
  493.000    3.674    0.117    0.352  114.068
  493.250    3.460    0.103    0.350  117.926
  493.500    3.435    0.123    0.353  121.172
  493.750    3.373    0.135    0.350  124.908
  494.000    3.295    0.139    0.347  128.828
  494.250    3.225    0.141    0.353  126.448
  494.500    3.180    0.142    0.363  119.359
  494.750    3.321    0.127    0.358  114.350
  495.000    3.262    0.132    0.356  119.309
  495.250    3.209    0.147    0.359  124.818
  495.500    3.170    0.147    0.359  128.798
  495.750    3.144    0.141    0.358  132.044
  496.000    3.134    0.146    0.358  127.219
  496.250    3.135    0.129    0.352  126.124
  496.500    3.126    0.118    0.349  129.125
  496.750    3.140    0.115    0.348  131.638
  497.000    3.142    0.127    0.350  130.665
  497.250    3.104    0.121    0.354  127.368
  497.500    3.060    0.122    0.357  125.601
  497.750    2.989    0.129    0.361  126.095
  498.000    2.930    0.137    0.374  130.565
  498.250    2.911    0.145    0.381  127.879
  498.500    2.967    0.121    0.370  118.895
  498.750    3.110    0.099    0.359  110.278
  499.000    3.291    0.080    0.348  104.719
  499.250    3.450    0.099    0.345  110.167
  499.500    3.576    0.099    0.344  115.186
  499.750    3.708    0.088    0.344  114.764
  500.000    3.758    0.091    0.351  115.075
  500.250    3.795    0.086    0.354  117.954
  500.500    3.792    0.072    0.348  112.701
  500.750    3.794    0.069    0.348  107.815
  501.000    3.811    0.102    0.353  103.661
  501.250    3.841    0.117    0.348  105.685
  501.500    3.858    0.124    0.347  109.665
  501.750    3.861    0.135    0.348  112.850
  502.000    3.836    0.125    0.347  110.348
  502.250    3.774    0.122    0.344  103.871
  502.500    3.700    0.135    0.348  106.262
  502.750    3.607    0.141    0.352  113.424
  503.000    3.544    0.129    0.353  116.240
  503.250    3.533    0.120    0.349  116.124
  503.500    3.548    0.105    0.348  114.049
  503.750    3.666    0.096    0.347  110.325
  504.000    3.730    0.113    0.344  108.557
  504.250    3.760    0.100    0.335  108.807
  504.500    3.707    0.094    0.336  113.276
  504.750    3.580    0.093    0.341  117.317
  505.000    3.458    0.104    0.342  114.021
  505.250    3.403    0.121    0.349  119.286
  505.500    3.343    0.124    0.354  120.208
  505.750    3.295    0.133    0.352  118.195
  506.000    3.226    0.128    0.359  118.079
  506.250    3.203    0.121    0.352  117.472
  506.500    3.200    0.112    0.350  115.582
  506.750    3.190    0.115    0.348  120.846
  507.000    3.174    0.125    0.351  122.013
  507.250    3.165    0.120    0.355  119.573
  507.500    3.150    0.123    0.352  117.193
  507.750    3.151    0.124    0.347  111.328
  508.000    3.153    0.119    0.354  114.942
  508.250    3.132    0.127    0.351  117.515
  508.500    3.105    0.140    0.349  114.035
  508.750    3.045    0.130    0.352  115.630
  509.000    3.036    0.135    0.353  118.265
  509.250    3.026    0.135    0.356  115.396
  509.500    3.000    0.129    0.360  111.244
  509.750    2.942    0.138    0.371  111.555
  510.000    2.927    0.148    0.353  116.391
  510.250    2.912    0.138    0.350  112.116
  510.500    2.893    0.114    0.357  111.571
  510.750    2.889    0.105    0.374  114.144
  511.000    2.886    0.118    0.393  111.581
  511.250    2.898    0.144    0.410  108.469
  511.500    2.994    0.152    0.388  108.107
  511.750    3.179    0.162    0.357  112.026
  512.000    3.383    0.176    0.365  115.333
  512.250    3.667    0.187    0.370  111.059
  512.500    4.234    0.161    0.351  100.423
  512.750    4.989    0.085    0.343   83.918
  513.000    5.814    0.063    0.330   78.297
  513.250    6.891    0.072    0.314   70.904
  513.500    7.926    0.034    0.294   59.658
  513.750    8.967    0.014    0.275   53.119
  514.000    9.684    0.021    0.258   46.275
  514.250    9.964    0.068    0.258   55.393
  514.500    9.326    0.100    0.267   44.085
  514.750   10.590    0.056    0.224   34.184
  515.000   11.890    0.016    0.185   31.437
  515.250   12.534   -0.008    0.166   42.572
  515.500   12.636    0.034    0.185   55.725
  515.750   11.041    0.089    0.222   62.824
  516.000    9.827    0.088    0.250   52.372
  516.250    8.666    0.086    0.274   48.525
  516.500    7.743    0.101    0.294   51.833
  516.750    7.126    0.115    0.296   55.324
  517.000    6.498    0.104    0.303   52.272
  517.250    6.025    0.085    0.317   50.320
  517.500    5.608    0.080    0.322   53.261
  517.750    5.407    0.107    0.318   55.040
  518.000    6.290    0.124    0.315   55.413
  518.250    8.194    0.089    0.307   55.050
  518.500   11.373    0.045    0.224   53.955
  518.750   15.580    0.019    0.185   52.799
  519.000   21.664   -0.006    0.166   51.643
  519.250   26.254   -0.004    0.152   51.037
  519.500   28.405    0.002    0.143   51.898
  519.750   29.832    0.005    0.136   53.187
  520.000   30.076   -0.000    0.131   54.905
