~VERSION INFORMATION
 VERS.                 2.0:   CWLS LOG ASCII STANDARD -VERSION 2.0
 WRAP.                  NO:   ONE LINE PER DEPTH STEP
~WELL INFORMATION BLOCK
#MNEM.UNIT           DATA                    DESCRIPTION OF MNEMONIC
#---------    -------------------            -------------------------------
# Generated from Intellog Unique Number	CC_84_87/WELL/1054
NULL.         -999.25                        : NULL_VALUE
WELL.         PETROREP ET AL HOUSE           : Well_name    - WELL
LOC .         04-23-085-17W4                 : Location     - LOCATION          
UWI .         00/04-23-085-17W400            : Uwi          - UNIQUE WELL ID    
ENTR.         DW                             : Entered      - ENTERED BY        
SRVC.         COMPUTALOG                     : Scn          - SERVICE COMPANY   
DATE.         01 FEB 81                      : Date         - LOG DATE
STRT.M        100                            : top_depth    - START DEPTH       
STOP.M        253.002                        : bot_depth    - STOP DEPTH        
STEP.M        0.3                            : increment    - STEP LENGTH       
~CURVE INFORMATION BLOCK
#MNEM UNIT       ERCB CURVE CODE    CURVE DESCRIPTION
#-----------   ------------------   ----------------------------------
DEPT.M        00 001 00 00         : DEPTH        - DEPTH                       
DPHI.V/V      00 890 00 00         : PHID         - DENSITY POROSITY (LIMESTONE)
NPHI.V/V      00 330 00 00         : PHIN         - NEUTRON POROSITY (LIMESTONE)
GR  .API      00 310 00 00         : GR           - GAMMA RAY                   
ILD .OHMM     00 120 00 00         : RESD         - DEEP RESISTIVITY (DIL)      
~PARAMETER INFORMATION       
#MNEM.UNIT           DATA             DESCRIPTION OF MNEMONIC
#---------         -----------     ------------------------------
GL  .M        512.2                : gl           - GROUND LEVEL ELEVATION      
EREF.M        515.86               : kb           - ELEVATION OF DEPTH REFERENCE
DATM.M        515.86               : datum        - DATUM ELEVATION             
TDD .M        254                  : tdd          - TOTAL DEPTH DRILLER         
RUN .         ONE                  : Run          - RUN NUMBER                  
ENG .         BILL                 : Engineer     - RECORDING ENGINEER          
WIT .         JIM                  : Witness      - WITNESSED BY                
MUD .         GEL                  : Mud_type     - MUD TYPE                    
MATR.         LIMESTONE            : Logunit      - NEUTRON MATRIX              
TMAX.C        16                   : BHT          - MAXIMUM RECORDED TEMPERATURE
BHTD.M        254                  : BHTDEP       - MAXIMUM RECORDED TEMPERATURE
MATR.         1                    : LOGUNIT      - NEUTRON MATRIX              
RMT .C        25                   : MDTP         - TEMPERATURE OF MUD          
NEUT.         1                    : NEUTRON      - NEUTRON TYPE                
RESI.         0                    : RESIST       - RESISTIVITY TYPE            
RMC .OHMM     0.25                 : RMC          - RESISTIVITY OF MUD CAKE     
RMF .OHMM     0.25                 : RMF          - RESISTIVITY OF MUD FILTRATE 
SUFT.C        15                   : SUFT         - SURFACE TEMPERATURE         
~A  DEPTH     PHID     PHIN       GR     RESD
  100.000    0.310    0.403   53.368   27.620
  100.300    0.306    0.435   54.605   28.687
  100.600    0.320    0.464   55.840   29.794
  100.900    0.333    0.434   55.834   30.945
  101.200    0.336    0.375   56.446   30.950
  101.500    0.337    0.371   56.441   29.810
  101.800    0.323    0.439   57.676   28.711
  102.100    0.326    0.489   61.393   27.652
  102.400    0.321    0.449   60.144   26.633
  102.700    0.311    0.401   57.034   26.139
  103.000    0.368    0.401   56.408   27.148
  103.300    0.406    0.467   61.366   29.280
  103.600    0.376    0.419   64.463   30.989
  103.900    0.352    0.380   63.835   30.994
  104.200    0.319    0.392   65.691   30.999
  104.500    0.321    0.434   69.409   30.425
  104.800    0.326    0.461   74.367   30.431
  105.100    0.317    0.419   76.844   29.866
  105.400    0.305    0.392   75.594   28.767
  105.700    0.304    0.397   73.726   28.233
  106.000    0.311    0.423   72.478   26.686
  106.300    0.317    0.399   72.474   26.190
  106.600    0.319    0.394   73.087   24.292
  106.900    0.313    0.395   78.666   24.296
  107.200    0.272    0.475   80.522   24.762
  107.500    0.000    0.415   73.689   26.207
  107.800    0.084    0.174   66.235   28.802
  108.100    0.180    0.219   64.986   29.914
  108.400    0.246    0.305   66.842   29.919
  108.700    0.306    0.381   71.801   25.734
  109.000    0.324    0.384   79.863   19.766
  109.300    0.300    0.377   86.062   14.899
  109.600    0.252    0.356   95.985   10.415
  109.900    0.219    0.356  110.874    5.384
  110.200    0.225    0.443  110.867    4.545
  110.500    0.223    0.468  106.516    4.460
  110.800    0.224    0.448  102.785    4.902
  111.100    0.236    0.421  102.779    5.287
  111.400    0.241    0.416  104.635    5.811
  111.700    0.229    0.410  104.008    6.035
  112.000    0.227    0.421   94.693    6.268
  112.300    0.232    0.417   97.788    6.269
  112.600    0.239    0.398  100.885    6.389
  112.900    0.244    0.461  100.257    6.154
  113.200    0.249    0.492   95.908    5.708
  113.500    0.251    0.382   94.659    5.602
  113.800    0.250    0.352   93.413    5.929
  114.100    0.250    0.375   92.166    6.395
  114.400    0.254    0.447   84.091    6.641
  114.700    0.255    0.447   77.878    6.518
  115.000    0.254    0.328   80.975    6.046
  115.300    0.257    0.344   89.656    5.299
  115.600    0.260    0.433   94.614    5.104
  115.900    0.267    0.431   92.747    5.504
  116.200    0.275    0.417   84.052    7.444
  116.500    0.180    0.441   79.703   10.652
  116.800    0.190    0.301   73.489   13.359
  117.100    0.238    0.335   74.103   14.962
  117.400    0.302    0.390   79.059   15.540
  117.700    0.303    0.412   80.296   15.252
  118.000    0.299    0.416   79.048   14.147
  118.300    0.301    0.406   70.976   13.624
  118.600    0.293    0.404   66.003   12.637
  118.900    0.298    0.425   63.513   12.403
  119.200    0.313    0.447   62.889   12.642
  119.500    0.320    0.454   64.122   12.884
  119.800    0.323    0.431   64.115   13.131
  120.100    0.322    0.378   63.486   13.384
  120.400    0.326    0.387   62.859   13.135
  120.700    0.329    0.405   62.856   12.892
  121.000    0.329    0.430   64.710   12.895
  121.300    0.323    0.441   65.944   13.141
  121.600    0.315    0.433   65.319   14.173
  121.900    0.265    0.440   61.588   15.576
  122.200    0.191    0.335   57.239   27.429
  122.500    0.000    0.086   49.164   33.127
  122.800    0.000    0.076   44.193   30.724
  123.100    0.000    0.098   47.288   21.477
  123.400    0.147    0.196   52.868   17.130
  123.700    0.277    0.347   64.033   14.734
  124.000    0.287    0.456   78.921   13.411
  124.300    0.291    0.483   73.949   12.918
  124.600    0.302    0.516   62.772   12.678
  124.900    0.309    0.468   60.902   12.443
  125.200    0.316    0.415   62.137   12.682
  125.500    0.318    0.399   62.132   12.926
  125.800    0.297    0.418   59.642   12.928
  126.100    0.295    0.435   58.396   12.688
  126.400    0.300    0.440   61.492   12.690
  126.700    0.318    0.439   63.347   12.692
  127.000    0.321    0.453   63.342   12.457
  127.300    0.311    0.471   65.818   12.459
  127.600    0.312    0.475   67.672   12.229
  127.900    0.321    0.437   68.287   12.230
  128.200    0.326    0.440   60.832   12.465
  128.500    0.319    0.495   58.964   12.234
  128.800    0.318    0.479   59.578   12.236
  129.100    0.313    0.461   62.676   12.009
  129.400    0.313    0.458   65.153   11.787
  129.700    0.321    0.479   66.387   11.569
  130.000    0.338    0.456   62.656   11.354
  130.300    0.318    0.439   62.028   11.357
  130.600    0.319    0.414   63.885   11.358
  130.900    0.332    0.426   65.738   11.359
  131.200    0.324    0.419   66.354   11.578
  131.500    0.326    0.419   65.107   12.025
  131.800    0.319    0.450   64.479   12.489
  132.100    0.316    0.453   65.713   12.728
  132.400    0.323    0.391   65.708   12.492
  132.700    0.321    0.404   65.079   12.261
  133.000    0.304    0.457   65.075   11.373
  133.300    0.290    0.457   67.551   11.162
  133.600    0.290    0.423   71.886   10.955
  133.900    0.316    0.399   73.123   11.378
  134.200    0.320    0.392   74.978   11.596
  134.500    0.315    0.427   76.213   12.745
  134.800    0.299    0.472   74.966   14.007
  135.100    0.146    0.407   61.927   15.687
  135.400    0.000    0.131   54.473   16.292
  135.700    0.053    0.116   50.743   15.693
  136.000    0.197    0.418   60.666   14.555
  136.300    0.261    0.456   63.763   13.000
  136.600    0.293    0.470   66.859   11.611
  136.900    0.300    0.488   71.817   10.569
  137.200    0.305    0.504   76.155   10.373
  137.500    0.310    0.519   76.768   10.180
  137.800    0.310    0.493   73.658    9.993
  138.100    0.320    0.467   71.171    9.994
  138.400    0.328    0.456   66.819   10.186
  138.700    0.322    0.468   69.296   10.381
  139.000    0.320    0.491   68.669   10.988
  139.300    0.318    0.471   65.559   10.989
  139.600    0.315    0.444   62.449   10.991
  139.900    0.311    0.428   61.821   10.992
  140.200    0.310    0.424   63.058   10.994
  140.500    0.310    0.435   65.535   10.790
  140.800    0.314    0.433   66.769   10.792
  141.100    0.320    0.417   66.763   10.592
  141.400    0.323    0.414   65.516   10.594
  141.700    0.323    0.418   64.887   10.398
  142.000    0.319    0.430   66.742   10.205
  142.300    0.315    0.445   67.356   10.207
  142.600    0.312    0.461   66.109   10.018
  142.900    0.312    0.472   64.863    9.833
  143.200    0.316    0.460   64.234    9.650
  143.500    0.314    0.480   64.850    9.472
  143.800    0.312    0.464   66.705    9.473
  144.100    0.308    0.418   65.456    9.655
  144.400    0.308    0.415   64.829    9.656
  144.700    0.313    0.454   64.823    9.842
  145.000    0.320    0.427   65.436    9.844
  145.300    0.316    0.444   66.052   10.033
  145.600    0.311    0.482   70.388   10.034
  145.900    0.306    0.465   71.623   10.036
  146.200    0.300    0.427   70.377   10.037
  146.500    0.298    0.411   67.266   10.039
  146.800    0.303    0.406   66.019   10.040
  147.100    0.306    0.402   70.356    9.854
  147.400    0.302    0.379   72.834    9.672
  147.700    0.290    0.369   70.345    9.674
  148.000    0.302    0.413   66.615    9.675
  148.300    0.309    0.450   69.090    9.677
  148.600    0.302    0.464   70.946    9.678
  148.900    0.289    0.433   69.699    9.679
  149.201    0.289    0.475   68.449   10.053
  149.501    0.307    0.460   69.066   10.441
  149.801    0.314    0.452   74.023   11.051
  150.101    0.298    0.416   73.397   11.696
  150.401    0.241    0.204   65.943   11.921
  150.701    0.052    0.177   51.663   11.699
  151.001    0.146    0.244   59.103   11.058
  151.301    0.206    0.398   72.129   10.256
  151.601    0.276    0.420   78.948    9.878
  151.901    0.292    0.411   77.081    8.992
