~VERSION INFORMATION
 VERS.                 2.0:   CWLS LOG ASCII STANDARD -VERSION 2.0
 WRAP.                  NO:   ONE LINE PER DEPTH STEP
~WELL INFORMATION BLOCK
#MNEM.UNIT           DATA                    DESCRIPTION OF MNEMONIC
#---------    -------------------            -------------------------------
# Generated from Intellog Unique Number	CS_69_70/WELL/834
WELL.         ET AL TWEEDIE                  : Well_name    - WELL
LOC .         00/07-18-069-12W4/0            : Location     - LOCATION
UWI .         00/07-18-069-12W4/0            : Uwi          - UNIQUE WELL ID
ENTR.         SP                             : Entered      - ENTERED BY
SRVC.         SCHLUMBERGER                   : Scn          - SERVICE COMPANY
STRT.M        290                            : top_depth    - START DEPTH
STOP.M        495                            : bot_depth    - STOP DEPTH
STEP.M        0.25                           : increment    - STEP LENGTH
 NULL. -999.2500:NULL Value
~CURVE INFORMATION BLOCK
#MNEM UNIT       ERCB CURVE CODE    CURVE DESCRIPTION
#-----------   ------------------   ----------------------------------
DEPT.M        00 001 00 00         : DEPTH        - DEPTH
GR  .API      00 310 00 00         : GR           - GAMMA RAY
NPHI.V/V      00 330 00 00         : PHIN         - NEUTRON POROSITY (LIMESTONE)
DPHI.V/V      00 890 00 00         : PHID         - DENSITY POROSITY (LIMESTONE)
ILD .OHMM     00 120 00 00         : RESD         - DEEP RESISTIVITY (DIL)
~PARAMETER INFORMATION
#MNEM.UNIT           DATA             DESCRIPTION OF MNEMONIC
#---------         -----------     ------------------------------
GL  .M        595.57               : gl           - GROUND LEVEL ELEVATION
EREF.M        598.5                : kb           - ELEVATION OF DEPTH REFERENCE
DATM.M        597.57               : datum        - DATUM ELEVATION
TDD .M        495                  : tdd          - TOTAL DEPTH DRILLER
RUN .         ONE                  : Run          - RUN NUMBER
ENG .         BILL                 : Engineer     - RECORDING ENGINEER
WIT .         JIM                  : Witness      - WITNESSED BY
MUD .         GEL                  : Mud_type     - MUD TYPE
MATR.         LIMESTONE            : Logunit      - NEUTRON MATRIX
TMAX.C        26                   : BHT          - MAXIMUM RECORDED TEMPERATURE
BHTD.M        495                  : BHTDEP       - MAXIMUM RECORDED TEMPERATURE
MATR.         1                    : LOGUNIT      - NEUTRON MATRIX
RMT .C        25                   : MDTP         - TEMPERATURE OF MUD
NEUT.         1                    : NEUTRON      - NEUTRON TYPE
RESI.         0                    : RESIST       - RESISTIVITY TYPE
RMC .OHMM     0.25                 : RMC          - RESISTIVITY OF MUD CAKE
RMF .OHMM     0.25                 : RMF          - RESISTIVITY OF MUD FILTRATE
SUFT.C        15                   : SUFT         - SURFACE TEMPERATURE
~A  DEPTH       GR     PHIN     PHID     RESD
# ...
  333.500   77.655    0.431    0.280    2.661
  333.750   80.095    0.425    0.263    2.757
  334.000   82.048    0.416    0.246    2.858
  334.250   82.906    0.411    0.232    2.946
  334.500   82.486    0.421    0.249    3.036
  334.750   81.517    0.431    0.265    3.135
  335.000   80.062    0.440    0.261    3.261
  335.250   79.033    0.444    0.258    3.386
  335.500   78.309    0.450    0.283    3.497
  335.750   78.618    0.440    0.297    3.598
  336.000   79.902    0.433    0.266    3.574
  336.250   81.490    0.426    0.249    3.485
  336.500   82.895    0.421    0.249    3.392
  336.750   84.787    0.422    0.248    3.350
  337.000   86.679    0.443    0.254    3.353
  337.250   87.354    0.457    0.270    3.418
  337.500   86.264    0.464    0.250    3.516
  337.750   87.244    0.458    0.249    3.631
  338.000   86.458    0.455    0.253    3.667
  338.250   88.228    0.445    0.257    3.683
  338.500   91.887    0.437    0.265    3.632
  338.750   93.899    0.439    0.275    3.555
  339.000   91.471    0.449    0.271    3.537
  339.250   90.442    0.462    0.262    3.579
  339.500   90.935    0.469    0.275    3.628
  339.750   92.644    0.478    0.310    3.678
  340.000   93.258    0.467    0.287    3.722
  340.250   93.446    0.464    0.257    3.794
  340.500   91.566    0.466    0.239    3.838
  340.750   89.137    0.452    0.274    3.906
  341.000   86.100    0.446    0.271    3.930
  341.250   85.315    0.438    0.267    3.918
  341.500   90.676    0.445    0.264    3.842
  341.750   94.819    0.462    0.260    3.726
  342.000   94.521    0.475    0.247    3.653
  342.250   87.893    0.447    0.258    3.582
  342.500   81.328    0.415    0.269    3.468
  342.750   79.567    0.417    0.280    3.369
  343.000   78.964    0.423    0.278    3.279
  343.250   77.875    0.429    0.268    3.162
  343.500   75.263    0.441    0.283    3.049
  343.750   74.478    0.451    0.302    2.957
  344.000   76.857    0.452    0.308    2.921
  344.250   80.818    0.451    0.304    2.902
  344.500   84.658    0.447    0.295    2.941
  344.750   87.524    0.439    0.283    3.043
  345.000   88.806    0.430    0.271    3.108
  345.250   82.180    0.434    0.264    3.191
  345.500   76.892    0.440    0.281    3.271
  345.750   77.323    0.423    0.292    3.279
  346.000   80.431    0.407    0.282    3.245
  346.250   83.723    0.394    0.268    3.260
  346.500   86.894    0.384    0.257    3.341
  346.750   89.456    0.377    0.246    3.607
  347.000   90.555    0.377    0.232    3.808
  347.250   88.188    0.383    0.223    4.050
  347.500   85.151    0.404    0.236    4.291
  347.750   85.400    0.422    0.246    4.415
  348.000   88.449    0.436    0.244    4.418
  348.250   90.403    0.436    0.246    4.438
  348.500   91.746    0.437    0.253    4.482
  348.750   92.481    0.433    0.246    4.511
  349.000   92.792    0.426    0.239    4.513
  349.250   92.371    0.434    0.276    4.360
  349.500   94.202    0.450    0.277    3.834
  349.750   91.835    0.471    0.304    3.421
  350.000   82.834    0.498    0.335    3.020
  350.250   73.529    0.465    0.351    2.801
  350.500   64.104    0.444    0.339    2.594
  350.750   60.883    0.431    0.333    2.420
  351.000   57.663    0.420    0.339    2.329
  351.250   59.068    0.413    0.330    2.297
  351.500   62.361    0.414    0.322    2.298
  351.750   64.313    0.416    0.313    2.321
  352.000   66.206    0.423    0.302    2.414
  352.250   66.332    0.441    0.300    2.507
  352.500   64.208    0.451    0.319    2.570
  352.750   61.415    0.444    0.323    2.600
  353.000   58.926    0.436    0.331    2.526
  353.250   56.801    0.433    0.323    2.468
  353.500   53.155    0.426    0.329    2.443
  353.750   49.571    0.414    0.318    2.426
  354.000   48.663    0.405    0.319    2.428
  354.250   51.225    0.401    0.322    2.416
  354.500   52.691    0.402    0.306    2.400
  354.750   52.758    0.409    0.305    2.384
  355.000   52.094    0.424    0.319    2.363
  355.250   51.856    0.441    0.325    2.348
  355.500   52.288    0.448    0.315    2.328
  355.750   52.538    0.432    0.314    2.308
  356.000   52.299    0.419    0.332    2.288
  356.250   51.453    0.407    0.329    2.298
  356.500   55.231    0.401    0.316    2.338
  356.750   60.775    0.400    0.306    2.393
  357.000   65.527    0.398    0.296    2.475
  357.250   69.183    0.421    0.288    2.638
  357.500   73.631    0.415    0.282    2.800
  357.750   76.680    0.405    0.269    3.011
  358.000   76.929    0.403    0.260    3.203
  358.250   73.891    0.397    0.276    3.289
  358.500   70.002    0.393    0.288    3.309
  358.750   67.574    0.390    0.280    3.127
  359.000   71.049    0.388    0.283    2.923
  359.250   72.698    0.394    0.288    2.808
  359.500   73.189    0.416    0.289    2.719
  359.750   71.614    0.427    0.291    2.705
  360.000   69.550    0.423    0.296    2.723
  360.250   67.730    0.419    0.309    2.735
  360.500   66.518    0.412    0.320    2.731
  360.750   65.915    0.408    0.313    2.713
  361.000   66.104    0.418    0.323    2.679
  361.250   66.414    0.435    0.331    2.637
  361.500   65.932    0.445    0.330    2.596
  361.750   64.842    0.436    0.319    2.583
  362.000   64.910    0.437    0.311    2.613
  362.250   67.776    0.439    0.310    2.674
  362.500   70.093    0.450    0.300    2.740
  362.750   73.447    0.465    0.290    2.846
  363.000   75.094    0.457    0.284    3.016
  363.250   77.047    0.445    0.280    3.108
  363.500   80.764    0.435    0.276    3.198
  363.750   84.056    0.428    0.267    3.272
  364.000   86.618    0.420    0.255    3.316
  364.250   84.859    0.411    0.248    3.362
  364.500   81.274    0.406    0.260    3.370
  364.750   79.454    0.433    0.255    3.385
  365.000   85.545    0.462    0.246    3.338
  365.250   89.019    0.480    0.258    3.172
  365.500   89.451    0.500    0.265    3.036
  365.750   84.041    0.482    0.255    2.999
  366.000   80.334    0.485    0.269    3.080
  366.250   79.305    0.480    0.279    3.192
  366.500   76.634    0.471    0.273    3.345
  366.750   73.840    0.454    0.307    3.493
  367.000   71.472    0.440    0.321    3.521
  367.250   69.045    0.430    0.332    3.315
  367.500   68.076    0.426    0.339    3.076
  367.750   67.595    0.441    0.343    2.955
  368.000   66.991    0.429    0.312    2.892
  368.250   65.902    0.417    0.297    2.841
  368.500   65.238    0.411    0.288    2.833
  368.750   64.818    0.416    0.277    2.866
  369.000   64.763    0.430    0.263    2.938
  369.250   65.316    0.425    0.275    3.006
  369.500   66.964    0.415    0.291    3.064
  369.750   69.708    0.409    0.302    3.112
  370.000   71.418    0.403    0.306    3.155
  370.250   72.884    0.415    0.292    3.192
  370.500   74.350    0.420    0.274    3.235
  370.750   77.033    0.419    0.261    3.304
  371.000   81.969    0.419    0.254    3.451
  371.250   85.078    0.421    0.244    3.517
  371.500   87.701    0.422    0.256    3.585
  371.750   88.496    0.427    0.255    3.627
  372.000   87.772    0.430    0.255    3.630
  372.250   86.196    0.431    0.254    3.599
  372.500   84.802    0.444    0.244    3.622
  372.750   83.894    0.460    0.233    3.631
  373.000   83.656    0.470    0.243    3.647
  373.250   87.313    0.472    0.248    3.663
  373.500   84.580    0.465    0.248    3.685
  373.750   82.942    0.460    0.239    3.655
  374.000   85.626    0.454    0.233    3.650
  374.250   88.128    0.451    0.240    3.666
  374.500   89.167    0.456    0.243    3.662
  374.750   89.478    0.467    0.222    3.657
  375.000   88.691    0.476    0.249    3.654
  375.250   86.263    0.460    0.256    3.615
  375.500   83.165    0.444    0.271    3.526
  375.750   81.466    0.445    0.263    3.489
  376.000   79.585    0.450    0.259    3.472
  376.250   82.512    0.483    0.258    3.461
  376.500   84.708    0.476    0.255    3.426
  376.750   81.976    0.466    0.253    3.378
