~VERSION INFORMATION
 VERS.                 2.0:   CWLS LOG ASCII STANDARD -VERSION 2.0
 WRAP.                  NO:   ONE LINE PER DEPTH STEP
~WELL INFORMATION BLOCK
#MNEM.UNIT           DATA                    DESCRIPTION OF MNEMONIC
#---------    -------------------            -------------------------------
# Generated from Intellog Unique Number	CS_77_79/WELL/851
WELL.         BOW VALLEY INDUSTRIES LTD      : Well_name    - WELL
LOC .         00/04-26-077-15W4/0            : Location     - LOCATION
UWI .         00/04-26-077-15W4/0            : Uwi          - UNIQUE WELL ID
ENTR.         SP                             : Entered      - ENTERED BY
SRVC.         SCHLUMBERGER                   : Scn          - SERVICE COMPANY
STRT.M        270                            : top_depth    - START DEPTH
STOP.M        515                            : bot_depth    - STOP DEPTH
STEP.M        0.25                           : increment    - STEP LENGTH
 NULL. -999.2500:NULL Value
~CURVE INFORMATION BLOCK
#MNEM UNIT       ERCB CURVE CODE    CURVE DESCRIPTION
#-----------   ------------------   ----------------------------------
DEPT.M        00 001 00 00         : DEPTH        - DEPTH
ILD .OHMM     00 120 00 00         : RESD         - DEEP RESISTIVITY (DIL)
DPHI.V/V      00 890 00 00         : PHID         - DENSITY POROSITY (LIMESTONE)
NPHI.V/V      00 330 00 00         : PHIN         - NEUTRON POROSITY (LIMESTONE)
GR  .API      00 310 00 00         : GR           - GAMMA RAY
~PARAMETER INFORMATION
#MNEM.UNIT           DATA             DESCRIPTION OF MNEMONIC
#---------         -----------     ------------------------------
GL  .M        662.4                : gl           - GROUND LEVEL ELEVATION
EREF.M        665.7                : kb           - ELEVATION OF DEPTH REFERENCE
DATM.M        662.4                : datum        - DATUM ELEVATION
TDD .M        524.6                : tdd          - TOTAL DEPTH DRILLER
RUN .         ONE                  : Run          - RUN NUMBER
ENG .         BILL                 : Engineer     - RECORDING ENGINEER
WIT .         JIM                  : Witness      - WITNESSED BY
MUD .         GEL                  : Mud_type     - MUD TYPE
MATR.         LIMESTONE            : Logunit      - NEUTRON MATRIX
TMAX.C        26.1                 : BHT          - MAXIMUM RECORDED TEMPERATURE
BHTD.M        524.6                : BHTDEP       - MAXIMUM RECORDED TEMPERATURE
MATR.         1                    : LOGUNIT      - NEUTRON MATRIX
RMT .C        25                   : MDTP         - TEMPERATURE OF MUD
NEUT.         1                    : NEUTRON      - NEUTRON TYPE
RESI.         0                    : RESIST       - RESISTIVITY TYPE
RMC .OHMM     0.25                 : RMC          - RESISTIVITY OF MUD CAKE
RMF .OHMM     0.25                 : RMF          - RESISTIVITY OF MUD FILTRATE
SUFT.C        15                   : SUFT         - SURFACE TEMPERATURE
~A  DEPTH     RESD     PHID     PHIN       GR
# ...
  400.500    6.579    0.341    0.454   62.083
  400.750    6.579    0.337    0.457   62.697
  401.000    6.459    0.336    0.445   62.090
  401.250    6.459    0.336    0.429   62.098
  401.500    6.341    0.332    0.424   62.101
  401.750    6.342    0.330    0.426   62.715
  402.000    6.343    0.327    0.426   62.718
  402.250    6.343    0.320    0.423   62.723
  402.500    6.585    0.299    0.413   61.509
  402.750    6.835    0.286    0.408   60.292
  403.000    7.364    0.247    0.388   59.689
  403.250    7.788    0.146    0.356   60.301
  403.500    8.392    0.126    0.321   61.525
  403.750    8.711    0.167    0.337   63.969
  404.000    8.551    0.221    0.367   65.194
  404.250    8.239    0.264    0.447   67.027
  404.500    7.370    0.313    0.475   67.031
  404.750    6.841    0.346    0.470   63.987
  405.000    6.592    0.350    0.459   63.381
  405.250    6.471    0.348    0.452   64.605
  405.500    6.236    0.351    0.449   65.830
  405.750    6.236    0.355    0.447   65.226
  406.000    6.122    0.357    0.443   65.840
  406.250    6.123    0.352    0.448   66.453
  406.500    6.123    0.354    0.447   66.457
  406.750    6.124    0.356    0.437   65.853
  407.000    6.124    0.351    0.427   64.028
  407.250    6.125    0.344    0.425   61.594
  407.500    6.126    0.337    0.432   60.988
  407.750    6.242    0.341    0.436   61.602
  408.000    6.243    0.346    0.447   62.826
  408.250    6.243    0.350    0.455   64.049
  408.500    6.244    0.345    0.458   63.444
  408.750    6.362    0.338    0.453   62.841
  409.000    6.362    0.334    0.449   62.843
  409.250    6.246    0.338    0.441   64.067
  409.500    6.132    0.338    0.445   66.510
  409.750    6.132    0.335    0.451   67.124
  410.000    6.020    0.344    0.459   64.692
  410.250    6.020    0.346    0.467   64.085
  410.500    6.021    0.340    0.472   65.310
  410.750    6.022    0.338    0.472   66.534
  411.000    6.022    0.341    0.467   67.147
  411.250    6.023    0.345    0.457   63.494
  411.500    5.913    0.346    0.449   62.888
  411.750    5.697    0.343    0.432   64.112
  412.000    5.489    0.339    0.425   65.337
  412.250    5.805    0.339    0.427   65.340
  412.500    5.806    0.345    0.436   64.126
  412.750    5.916    0.347    0.436   62.301
  413.000    6.028    0.349    0.442   62.305
  413.250    6.142    0.347    0.450   62.918
  413.500    6.143    0.347    0.460   65.363
  413.750    6.259    0.345    0.463   67.807
  414.000    6.259    0.345    0.463   69.030
  414.250    6.378    0.342    0.466   65.985
  414.500    6.498    0.340    0.463   63.551
  414.750    6.621    0.340    0.460   62.336
  415.000    6.873    0.351    0.455   64.171
  415.250    7.003    0.357    0.461   64.785
  415.500    7.135    0.358    0.467   65.399
  415.750    7.271    0.357    0.469   65.404
  416.000    7.138    0.354    0.467   65.408
  416.250    7.138    0.351    0.465   65.413
  416.500    7.007    0.348    0.462   65.415
  416.750    6.879    0.345    0.465   67.860
  417.000    6.752    0.341    0.467   67.864
  417.250    6.507    0.339    0.463   66.648
  417.500    6.507    0.341    0.458   65.434
  417.750    6.630    0.346    0.451   64.828
  418.000    6.756    0.347    0.448   65.444
  418.250    7.013    0.352    0.448   66.667
  418.500    7.145    0.359    0.448   66.671
  418.750    7.280    0.364    0.463   66.065
  419.000    7.418    0.365    0.464   63.631
  419.250    7.558    0.358    0.462   64.245
  419.500    7.420    0.356    0.458   64.859
  419.750    7.150    0.347    0.449   64.864
  420.000    7.018    0.345    0.446   64.259
  420.250    6.763    0.345    0.444   63.654
  420.500    6.396    0.345    0.444   63.658
  420.750    6.279    0.341    0.443   63.662
  421.000    6.164    0.337    0.440   63.057
  421.250    6.051    0.336    0.440   63.062
  421.500    5.939    0.336    0.441   63.065
  421.750    5.940    0.332    0.451   63.682
  422.000    6.053    0.330    0.453   64.294
  422.250    6.167    0.329    0.446   63.081
  422.500    6.168    0.331    0.439   63.084
  422.750    6.284    0.335    0.442   64.309
  423.000    6.403    0.332    0.450   66.142
  423.250    6.404    0.330    0.461   66.755
  423.500    6.286    0.324    0.470   66.760
  423.750    5.946    0.319    0.475   65.545
  424.000    5.837    0.315    0.475   64.939
  424.250    5.729    0.321    0.475   64.944
  424.500    5.730    0.312    0.474   64.948
  424.750    5.625    0.334    0.459   66.172
  425.000    5.626    0.344    0.453   65.567
  425.250    5.523    0.348    0.456   64.962
  425.500    5.523    0.356    0.463   65.577
  425.750    5.524    0.363    0.458   66.801
  426.000    5.423    0.358    0.453   66.804
  426.250    5.423    0.347    0.453   66.809
  426.500    5.324    0.344    0.457   66.205
  426.750    5.324    0.342    0.469   66.818
  427.000    5.227    0.336    0.476   66.823
  427.250    5.227    0.331    0.483   66.217
  427.500    5.131    0.335    0.491   65.613
  427.750    5.037    0.331    0.502   65.616
  428.000    5.038    0.339    0.477   65.622
  428.250    5.039    0.335    0.459   65.015
  428.500    5.134    0.330    0.436   65.629
  428.750    5.134    0.327    0.436   66.244
  429.000    5.330    0.319    0.436   66.859
  429.250    5.431    0.322    0.443   67.472
  429.500    5.431    0.324    0.446   67.479
  429.750    5.332    0.327    0.442   67.481
  430.000    5.234    0.347    0.441   68.705
  430.250    5.138    0.326    0.451   72.370
  430.500    5.044    0.326    0.459   73.591
  430.750    5.044    0.316    0.457   77.256
  431.000    4.952    0.295    0.463   78.479
  431.250    4.952    0.296    0.477   83.364
  431.500    4.861    0.290    0.487   84.586
  431.750    4.862    0.309    0.475   87.029
  432.000    4.863    0.308    0.466   87.643
  432.250    4.773    0.296    0.468   88.868
  432.500    4.774    0.292    0.477   91.922
  432.750    4.774    0.292    0.486   94.366
  433.000    4.687    0.285    0.484   97.419
  433.250    4.687    0.269    0.486   99.862
  433.500    4.776    0.251    0.493   98.647
  433.750    4.866    0.248    0.484   96.212
  434.000    4.958    0.253    0.461   93.777
  434.250    5.052    0.258    0.455   91.343
  434.500    5.147    0.262    0.442   91.347
  434.750    5.444    0.270    0.448   89.522
  435.000    5.547    0.275    0.457   85.259
  435.250    5.758    0.235    0.459   82.825
  435.500    5.977    0.238    0.458   80.998
  435.750    6.090    0.240    0.456   79.784
  436.000    6.205    0.229    0.453   79.178
  436.250    6.442    0.205    0.433   74.914
  436.500    6.687    0.120    0.389   70.040
  436.750    7.071    0.107    0.323   65.776
  437.000    7.908    0.123    0.296   67.610
  437.250    8.058    0.154    0.316   76.152
  437.500    8.059    0.193    0.345   81.643
  437.750    7.765    0.218    0.409   90.796
  438.000    7.482    0.212    0.453   93.238
  438.250    7.210    0.233    0.466   95.681
  438.500    7.077    0.231    0.468   97.516
  438.750    6.947    0.220    0.466   96.300
  439.000    6.949    0.220    0.465   93.866
  439.250    7.080    0.220    0.458   93.261
  439.500    7.080    0.235    0.466   97.533
  439.750    7.214    0.219    0.473  100.586
  440.000    7.489    0.207    0.456   96.932
  440.250    7.774    0.210    0.438   93.888
  440.500    7.775    0.212    0.430   92.672
  440.750    8.071    0.218    0.425   96.336
  441.000    8.071    0.205    0.421   97.560
  441.250    7.924    0.191    0.421   97.564
  441.500    7.494    0.193    0.430  101.838
  441.750    7.087    0.209    0.436  105.500
  442.000    6.829    0.223    0.438  107.335
  442.250    6.459    0.212    0.451  105.510
  442.500    6.224    0.211    0.456  102.467
  442.750    5.997    0.219    0.444  101.250
  443.000    5.778    0.226    0.437   98.206
  443.250    5.672    0.221    0.436   95.770
  443.500    5.673    0.220    0.440   93.336
  443.750    5.569    0.208    0.491   93.342
