~VERSION INFORMATION
 VERS.                 2.0:   CWLS LOG ASCII STANDARD -VERSION 2.0
 WRAP.                  NO:   ONE LINE PER DEPTH STEP
~WELL INFORMATION BLOCK
#MNEM.UNIT           DATA                    DESCRIPTION OF MNEMONIC
#---------    -------------------            -------------------------------
# Generated from Intellog Unique Number	CX_WELLS/WELL/3065
WELL.         AMOCO A-1 HOUSE                : Well_name    - WELL
LOC .         00/06-27-082-14W4/0            : Location     - LOCATION
UWI .         00/06-27-082-14W400            : Uwi          - UNIQUE WELL ID
ENTR.         TIM                            : Entered      - ENTERED BY
SRVC.         SCHLUMBERGER                   : Scn          - SERVICE COMPANY
DATE.         03/04/92                       : Date         - LOG DATE
STRT.F        450                            : top_depth    - START DEPTH
STOP.F        1189.83                        : bot_depth    - STOP DEPTH
STEP.F        0.82                           : increment    - STEP LENGTH
 NULL. -999.2500:NULL Value
~CURVE INFORMATION BLOCK
#MNEM UNIT       ERCB CURVE CODE    CURVE DESCRIPTION
#-----------   ------------------   ----------------------------------
DEPT.F        00 001 00 00         : DEPTH        - DEPTH
GR  .API      00 310 00 00         : GR           - GAMMA RAY
NPHI.V/V      00 330 00 00         : PHIN         - NEUTRON POROSITY (SANDSTONE)
DPHI.V/V      00 890 00 00         : PHID         - DENSITY POROSITY (SANDSTONE)
ILD .OHMM     00 120 00 00         : RESD         - DEEP RESISTIVITY (OTHER)
~PARAMETER INFORMATION
#MNEM.UNIT           DATA             DESCRIPTION OF MNEMONIC
#---------         -----------     ------------------------------
GL  .F        1905.3               : gl           - GROUND LEVEL ELEVATION
EREF.F        1919                 : kb           - ELEVATION OF DEPTH REFERENCE
DATM.F        1919                 : datum        - DATUM ELEVATION
TDD .F        1224                 : tdd          - TOTAL DEPTH DRILLER
RUN .         ONE                  : Run          - RUN NUMBER
ENG .         JO                   : Engineer     - RECORDING ENGINEER
WIT .         TIM                  : Witness      - WITNESSED BY
MUD .         GEL                  : Mud_type     - MUD TYPE
MATR.         SANDSTONE            : Logunit      - NEUTRON MATRIX
TMAX.F        72                   : BHT          - MAXIMUM RECORDED TEMPERATURE
BHTD.F        1224                 : BHTDEP       - MAXIMUM RECORDED TEMPERATURE
RMT .F        72                   : MDTP         - TEMPERATURE OF MUD
MUDD.LB/G     1                    : MWT          - MUD DENSITY
NEUT.         1                    : NEUTRON      - NEUTRON TYPE
RESI.         1.9                  : RESIST       - RESISTIVITY TYPE
RM  .OHMM     1.9                  : RM           - RESISTIVITY OF MUD
RMC .OHMM     1.9                  : RMC          - RESISTIVITY OF MUD CAKE
RMF .OHMM     1.84                 : RMF          - RESISTIVITY OF MUD FILTRATE
SUFT.F        32                   : SUFT         - SURFACE TEMPERATURE
~A  DEPTH       GR     PHIN     PHID     RESD
# ...
  592.717  105.704    0.468    0.258    9.182
  593.537  106.994    0.460    0.240    9.361
  594.357  107.077    0.452    0.240    9.723
  595.177  105.937    0.456    0.246    9.916
  595.997  104.780    0.459    0.265   10.113
  596.818  103.029    0.460    0.269   10.322
  597.638  102.467    0.457    0.274   10.337
  598.458  101.294    0.461    0.284   10.356
  599.278   99.526    0.464    0.285   10.364
  600.098   97.757    0.464    0.278   10.380
  600.919   95.989    0.458    0.269   10.395
  601.739   92.998    0.454    0.263   10.230
  602.559   89.394    0.460    0.265   10.057
  603.379   84.568    0.465    0.266   10.076
  604.199   77.906    0.456    0.264   10.087
  605.020   72.485    0.452    0.261    9.927
  605.840   71.329    0.452    0.256    9.755
  606.660   71.990    0.451    0.249    9.777
  607.480   73.908    0.449    0.251    9.611
  608.301   76.438    0.447    0.252    9.629
  609.121   78.340    0.446    0.253    9.640
  609.941   78.406    0.447    0.253    9.654
  610.761   76.654    0.448    0.255    9.498
  611.581   75.498    0.449    0.259    9.512
  612.402   75.548    0.447    0.257    9.351
  613.222   76.854    0.447    0.249    9.365
  614.042   78.144    0.447    0.246    9.209
  614.862   79.434    0.447    0.245    9.230
  615.682   80.724    0.448    0.241    9.077
  616.503   82.014    0.453    0.240    8.930
  617.323   83.915    0.458    0.238    8.778
  618.143   85.222    0.460    0.237    8.788
  618.963   82.842    0.461    0.242    8.646
  619.783   81.057    0.464    0.250    8.499
  620.604   79.289    0.471    0.246    8.521
  621.424   77.537    0.475    0.245    8.528
  622.244   76.381    0.472    0.246    8.540
  623.064   76.464    0.471    0.247    8.553
  623.885   75.936    0.472    0.247    8.566
  624.705   75.357    0.474    0.248    8.579
  625.525   75.424    0.474    0.253    8.594
  626.345   75.490    0.465    0.255    8.610
  627.165   74.962    0.454    0.257    8.620
  627.986   73.822    0.445    0.257    8.801
  628.806   73.872    0.450    0.256    8.811
  629.626   73.939    0.465    0.252    8.821
  630.446   74.633    0.460    0.253    8.831
  631.266   75.328    0.461    0.259    8.531
  632.087   75.362    0.464    0.265    8.543
  632.907   74.867    0.476    0.273    8.253
  633.727   74.900    0.484    0.274    8.117
  634.547   74.372    0.481    0.273    7.982
  635.367   73.860    0.476    0.270    7.991
  636.188   73.877    0.471    0.269    7.861
  637.008   73.332    0.469    0.265    7.731
  637.828   73.398    0.470    0.259    7.745
  638.648   72.886    0.473    0.255    7.754
  639.469   72.936    0.473    0.259    7.626
  640.289   73.003    0.475    0.266    7.637
  641.109   72.491    0.478    0.270    7.648
  641.929   71.913    0.485    0.264    7.527
  642.749   71.980    0.492    0.260    7.535
  643.570   73.898    0.490    0.266    7.416
  644.390   75.799    0.483    0.272    7.424
  645.210   77.701    0.472    0.266    7.433
  646.030   78.379    0.468    0.265    7.586
  646.850   77.239    0.468    0.263    7.594
  647.671   77.289    0.470    0.260    7.742
  648.491   76.149    0.477    0.257    7.757
  649.311   75.621    0.483    0.256    7.631
  650.131   76.911    0.484    0.257    7.502
  650.951   78.829    0.478    0.256    7.247
  651.772   80.085    0.473    0.256    7.124
  652.592   83.243    0.465    0.256    6.761
  653.412   84.550    0.461    0.256    6.646
  654.232   85.806    0.454    0.255    6.536
  655.052   87.113    0.459    0.252    6.428
  655.873   87.775    0.465    0.251    6.324
  656.693   87.858    0.472    0.248    6.219
  657.513   87.313    0.478    0.248    6.230
  658.333   85.561    0.481    0.247    6.235
  659.154   81.958    0.487    0.245    6.244
  659.974   80.173    0.492    0.253    6.371
  660.794   75.363    0.493    0.261    6.867
  661.614   72.355    0.483    0.270    7.130
  662.434   68.140    0.478    0.282    7.402
  663.255   68.819    0.476    0.299    7.552
  664.075   68.885    0.473    0.302    7.560
  664.895   67.117    0.483    0.300    7.575
  665.715   67.200    0.497    0.301    7.586
  666.535   69.102    0.493    0.302    7.193
  667.356   71.615    0.488    0.303    6.821
  668.176   73.550    0.489    0.309    6.708
  668.996   72.971    0.490    0.311    6.967
  669.816   71.203    0.490    0.315    7.372
  670.636   70.658    0.492    0.313    7.383
  671.457   72.593    0.495    0.305    7.135
  672.277   75.106    0.503    0.285    6.887
  673.097   76.991    0.504    0.275    6.651
  673.917   77.058    0.513    0.268    6.661
  674.738   75.289    0.523    0.269    6.796
  675.558   72.959    0.529    0.273    6.801
  676.378   72.993    0.520    0.282    6.941
  677.198   73.059    0.513    0.305    6.952
  678.018   71.919    0.492    0.313    7.087
  678.839   71.358    0.484    0.319    7.103
  679.659   70.218    0.488    0.309    6.983
  680.479   69.044    0.495    0.303    6.990
  681.299   67.888    0.502    0.300    6.756
  682.119   66.136    0.486    0.309    6.768
  682.940   64.996    0.470    0.318    6.773
  683.760   63.823    0.472    0.325    6.910
  684.580   63.889    0.483    0.319    6.918
  685.400   64.584    0.496    0.308    6.928
  686.220   65.263    0.509    0.300    6.944
  687.041   65.346    0.507    0.301    7.082
  687.861   65.412    0.498    0.304    7.220
  688.681   64.851    0.499    0.309    7.639
  689.501   63.099    0.500    0.319    8.077
  690.322   62.537    0.503    0.322    9.029
  691.142   60.786    0.501    0.319    9.546
  691.962   59.629    0.481    0.319   10.664
  692.782   57.861    0.484    0.320   11.697
  693.602   56.721    0.487    0.325   13.071
  694.423   56.142    0.493    0.328   14.343
  695.243   55.597    0.495    0.328   14.891
  696.063   55.697    0.495    0.329   15.477
  696.883   55.136    0.496    0.331   15.773
  697.703   55.202    0.496    0.332   16.093
  698.524   55.269    0.490    0.329   16.117
  699.344   55.964    0.482    0.323   16.141
  700.164   56.014    0.478    0.322   16.474
  700.984   57.320    0.483    0.323   16.492
  701.804   58.627    0.493    0.326   16.511
  702.625   60.545    0.503    0.326   16.541
  703.445   61.207    0.497    0.325   16.572
  704.265   62.497    0.494    0.326   16.590
  705.085   63.786    0.492    0.325   16.322
  705.906   64.481    0.491    0.320   16.340
  706.726   64.548    0.490    0.315   15.785
  707.546   63.391    0.470    0.279   15.518
  708.366   62.846    0.450    0.257   15.277
  709.186   62.930    0.455    0.258   15.018
  710.007   63.591    0.483    0.307   14.775
  710.827   64.286    0.500    0.317   14.519
  711.647   65.576    0.502    0.319   14.026
  712.467   66.254    0.503    0.321   13.555
  713.287   66.933    0.503    0.322   13.325
  714.108   67.611    0.503    0.325   13.100
  714.928   68.306    0.500    0.325   12.660
  715.748   68.356    0.499    0.323   12.445
  716.568   68.422    0.497    0.322   12.459
  717.388   68.505    0.496    0.319   12.482
  718.209   68.555    0.497    0.320   12.496
  719.029   68.027    0.499    0.324   13.227
  719.849   66.275    0.506    0.327   13.480
  720.669   65.119    0.512    0.331   14.268
  721.490   64.557    0.517    0.332   14.284
  722.310   64.012    0.507    0.334   14.573
  723.130   64.095    0.499    0.338   14.595
  723.950   63.534    0.497    0.340   14.611
  724.770   63.005    0.496    0.336   14.638
  725.591   62.460    0.493    0.331   14.671
  726.411   62.544    0.492    0.331   14.417
  727.231   63.239    0.488    0.334   14.438
  728.051   63.900    0.491    0.335   14.204
  728.871   65.190    0.494    0.334   13.964
  729.692   66.496    0.493    0.334   13.985
  730.512   67.158    0.482    0.333   13.753
  731.332   67.241    0.485    0.330   13.286
  732.152   66.680    0.493    0.329   12.839
  732.972   65.523    0.501    0.325   12.622
  733.793   64.978    0.514    0.324   12.408
  734.613   65.673    0.529    0.322   11.766
