~VERSION INFORMATION
 VERS.                 2.0:   CWLS LOG ASCII STANDARD -VERSION 2.0
 WRAP.                  NO:   ONE LINE PER DEPTH STEP
~WELL INFORMATION BLOCK
#MNEM.UNIT           DATA                    DESCRIPTION OF MNEMONIC
#---------    -------------------            -------------------------------
# Generated from Intellog Unique Number	CW_82_90/WELL/620
WELL.         ANDEX WABASCA 07-27            : Well_name    - WELL
LOC .         00/07-27-082-21W4/0            : Location     - LOCATION
UWI .         00/07-27-082-21W4/0            : Uwi          - UNIQUE WELL ID
ENTR.         JAYE                           : Entered      - ENTERED BY
SRVC.         SCHLUMBERGER                   : Scn          - SERVICE COMPANY
DATE.         13 FEB 74                      : Date         - LOG DATE
STRT.M        228.6                          : top_depth    - START DEPTH
STOP.M        460.35                         : bot_depth    - STOP DEPTH
STEP.M        0.25                           : increment    - STEP LENGTH
 NULL. -999.2500:NULL Value
~CURVE INFORMATION BLOCK
#MNEM UNIT       ERCB CURVE CODE    CURVE DESCRIPTION
#-----------   ------------------   ----------------------------------
DEPT.M        00 001 00 00         : DEPTH        - DEPTH
CALI.MM       00 280 01 00         : CAL          - CALIPER
GR  .API      00 310 00 00         : GR           - GAMMA RAY
NPHI.V/V      00 330 00 00         : PHIN         - NEUTRON POROSITY (SANDSTONE)
DPHI.V/V      00 890 00 00         : PHID         - DENSITY POROSITY (SANDSTONE)
ILD .OHMM     00 120 00 00         : RESD         - DEEP RESISTIVITY (DIL)
~PARAMETER INFORMATION
#MNEM.UNIT           DATA             DESCRIPTION OF MNEMONIC
#---------         -----------     ------------------------------
GL  .M        623.621              : gl           - GROUND LEVEL ELEVATION
EREF.M        627.278              : kb           - ELEVATION OF DEPTH REFERENCE
DATM.M        623.621              : datum        - DATUM ELEVATION
TDD .M        467.868              : tdd          - TOTAL DEPTH DRILLER
RUN .         ONE                  : Run          - RUN NUMBER
ENG .         WOON                 : Engineer     - RECORDING ENGINEER
WIT .         McARTHUR             : Witness      - WITNESSED BY
BASE.         EDMONTON             : Branch       - HOME BASE OF LOGGING UNIT
MUD .         GEL                  : Mud_type     - MUD TYPE
MATR.         SANDSTONE            : Logunit      - NEUTRON MATRIX
TMAX.C        30.5556              : BHT          - MAXIMUM RECORDED TEMPERATURE
BHTD.M        467.868              : BHTDEP       - MAXIMUM RECORDED TEMPERATURE
RMT .C        15.5556              : MDTP         - TEMPERATURE OF MUD
MUDD.KG/M     9500                 : MWT          - MUD DENSITY
NEUT.         1                    : NEUTRON      - NEUTRON TYPE
RESI.         0                    : RESIST       - RESISTIVITY TYPE
RM  .OHMM     0.25                 : RM           - RESISTIVITY OF MUD
RMC .OHMM     0.25                 : RMC          - RESISTIVITY OF MUD CAKE
RMF .OHMM     2.23                 : RMF          - RESISTIVITY OF MUD FILTRATE
SUFT.C        4                    : SUFT         - SURFACE TEMPERATURE
~A  DEPTH      CAL       GR     PHIN     PHID     RESD
# ...
  265.100  154.907   47.878    0.490    0.348   25.717
  265.350  154.298   47.094    0.467    0.349   26.986
  265.600  153.070   47.709    0.451    0.330   28.423
  265.850  150.814   47.899    0.451    0.348   29.714
  266.100  148.455   48.512    0.465    0.349   29.765
  266.350  147.537   49.979    0.472    0.333   29.376
  266.600  147.342   48.402    0.460    0.346   28.351
  266.850  147.763   48.773    0.454    0.350   27.620
  267.100  148.188   49.693    0.453    0.352   26.956
  267.350  147.269   52.072    0.473    0.359   26.017
  267.600  145.940   52.748    0.482    0.341   24.972
  267.850  144.611   53.119    0.477    0.354   23.923
  268.100  143.900   53.795    0.465    0.358   23.392
  268.350  144.220   54.288    0.448    0.362   22.535
  268.600  144.542   54.415    0.435    0.356   22.241
  268.850  145.168   54.908    0.447    0.371   22.032
  269.100  147.756   56.861    0.460    0.373   21.905
  269.350  149.105   58.876    0.479    0.375   21.499
  269.600  149.218   57.118    0.495    0.373   20.596
  269.850  148.817   55.663    0.502    0.358   19.189
  270.100  150.476   53.662    0.497    0.354   17.323
  270.350  152.548   52.267    0.460    0.358   14.463
  270.600  153.589   54.404    0.467    0.366   14.842
  270.850  154.940   53.558    0.460    0.357   17.123
  271.100  155.568   55.025    0.453    0.346   19.790
  271.350  156.094   57.039    0.447    0.351   20.120
  271.600  156.310   58.689    0.467    0.355   20.005
  271.850  156.422   60.034    0.480    0.345   19.671
  272.100  156.845   61.804    0.468    0.348   18.845
  272.350  156.444   61.505    0.461    0.347   18.290
  272.600  156.454   59.322    0.466    0.345   18.630
  272.850  156.053   57.867    0.467    0.342   19.224
  273.100  155.444   57.509    0.491    0.351   19.150
  273.350  154.838   57.453    0.493    0.350   19.652
  273.600  154.334   57.460    0.488    0.355   19.576
  273.850  153.826   57.465    0.496    0.339   19.464
  274.100  153.734   56.072    0.499    0.352   19.245
  274.350  154.362   52.549    0.491    0.355   19.243
  274.600  155.405   50.729    0.485    0.365   19.240
  274.850  155.929   51.163    0.483    0.374   19.344
  275.100  154.394   52.508    0.495    0.372   19.413
  275.350  153.271   54.582    0.500    0.352   19.483
  275.600  152.458   54.892    0.490    0.342   19.515
  275.850  151.849   51.369    0.484    0.352   19.367
  276.100  151.038   51.618    0.490    0.364   19.222
  276.350  150.119   53.146    0.495    0.371   19.076
  276.600  149.716   54.977    0.488    0.365   18.791
  276.850  149.214   56.263    0.489    0.353   18.684
  277.100  148.707   55.659    0.499    0.350   18.578
  277.350  148.202   54.814    0.509    0.358   18.472
  277.600  147.903   54.941    0.515    0.367   18.298
  277.850  147.296   54.522    0.492    0.357   18.126
  278.100  149.573   53.615    0.484    0.366   17.922
  278.350  151.232   53.439    0.482    0.368   17.688
  278.600  153.716   53.201    0.480    0.365   17.327
  278.850  154.962   52.294    0.493    0.359   17.133
  279.100  155.388   52.545    0.503    0.363   17.162
  279.350  155.395   52.794    0.511    0.352   17.384
  279.600  155.614   53.227    0.503    0.348   17.446
  279.850  155.627   53.476    0.486    0.350   17.476
  280.100  155.738   53.725    0.488    0.345   17.408
  280.350  156.057   53.853    0.495    0.334   16.990
  280.600  156.479   53.920    0.495    0.345   16.799
  280.850  156.905   54.109    0.499    0.354   16.764
  281.100  156.811   53.932    0.491    0.358   16.700
  281.350  156.613   54.671    0.477    0.365   16.575
  281.600  156.008   54.796    0.476    0.376   16.027
  281.850  155.706   55.654    0.485    0.371   15.325
  282.100  153.964   56.452    0.512    0.373   15.069
  282.350  150.267   57.432    0.524    0.367   14.900
  282.600  149.967   57.196    0.520    0.366   14.678
  282.850  152.554   57.566    0.499    0.360   14.594
  283.100  155.450   58.606    0.490    0.354   14.755
  283.350  151.546   59.526    0.484    0.359   14.427
  283.600  149.596   62.878    0.489    0.354   13.924
  283.850  148.167   65.927    0.501    0.331   13.565
  284.100  148.278   63.622    0.500    0.316   13.264
  284.350  150.040   62.290    0.490    0.318   12.969
  284.600  153.658   62.599    0.474    0.322   12.564
  284.850  157.171   61.815    0.473    0.342   12.240
  285.100  158.727   61.942    0.475    0.354   12.352
  285.350  158.946   61.766    0.486    0.358   12.581
  285.600  159.266   61.653    0.494    0.368   12.744
  285.850  158.964   60.135    0.507    0.373   12.766
  286.100  158.562   59.898    0.518    0.358   13.223
  286.350  157.853   60.269    0.526    0.353   13.543
  286.600  156.730   62.892    0.511    0.356   13.873
  286.850  152.618   64.054    0.497    0.343   14.263
  287.100  149.333   63.574    0.511    0.351   14.474
  287.350  149.240   63.519    0.512    0.354   14.634
  287.600  150.177   64.255    0.512    0.348   14.962
  287.850  152.351   66.210    0.514    0.337   15.183
  288.100  155.351   67.189    0.522    0.332   15.295
  288.350  156.596   61.048    0.522    0.341   15.435
  288.600  157.534   57.586    0.496    0.331   15.577
  288.850  157.956   53.758    0.490    0.311   15.632
  289.100  157.657   53.767    0.493    0.287   15.688
  289.350  158.080   54.198    0.501    0.291   15.627
  289.600  157.987   55.115    0.504    0.299   15.451
  289.850  158.204   57.373    0.501    0.297   14.831
  290.100  158.627   62.673    0.456    0.284   13.766
  290.350  159.152   66.149    0.460    0.275   12.707
  290.600  159.266   64.999    0.485    0.280   11.642
  290.850  159.482   63.058    0.484    0.293   10.807
  291.100  159.803   65.073    0.478    0.304    9.902
  291.350  160.122   66.903    0.474    0.293   10.275
  291.600  160.132   69.041    0.474    0.275   10.273
  291.850  159.938   69.959    0.480    0.263    9.879
  292.100  159.535   69.599    0.485    0.274    9.221
  292.350  158.927   67.110    0.512    0.272    8.785
  292.600  157.702   65.231    0.516    0.274    8.307
  292.850  155.342   63.958    0.501    0.315    8.798
  293.100  154.115   61.835    0.483    0.322    9.798
  293.350  152.788   61.295    0.456    0.314   11.178
  293.600  151.354   59.535    0.455    0.322   13.040
  293.850  153.322   55.281    0.451    0.328   14.070
  294.100  156.836   54.983    0.447    0.336   14.874
  294.350  157.778   55.963    0.456    0.327   15.151
  294.600  157.888   55.482    0.489    0.320   14.569
  294.850  157.488   53.787    0.487    0.344   15.545
  295.100  156.879   52.938    0.485    0.346   16.251
  295.350  156.376   52.581    0.467    0.342   16.801
  295.600  155.973   53.742    0.463    0.343   17.082
  295.850  155.982   54.235    0.443    0.331   17.207
  296.100  156.198   53.328    0.441    0.330   17.172
  296.350  156.418   53.152    0.447    0.322   17.138
  296.600  156.631   53.158    0.445    0.310   17.135
  296.850  156.437   54.078    0.436    0.310   16.974
  297.100  156.240   54.936    0.434    0.319   16.628
  297.350  156.354   54.943    0.436    0.324   16.410
  297.600  156.467   55.617    0.435    0.326   16.408
  297.850  156.786   57.693    0.442    0.329   16.224
  298.100  155.973   59.646    0.460    0.334   15.893
  298.350  154.952   59.591    0.472    0.328   15.714
  298.600  153.520   57.408    0.476    0.321   15.683
  298.850  153.636   55.283    0.481    0.320   15.449
  299.100  153.747   53.646    0.480    0.331   15.418
  299.350  155.927   53.288    0.476    0.328   15.416
  299.600  156.757   53.780    0.483    0.313   15.413
  299.850  158.623   54.273    0.495    0.304   15.497
  300.100  159.871   54.767    0.510    0.302   15.495
  300.350  159.157   54.833    0.507    0.309   15.666
  300.600  156.491   54.475    0.487    0.311   16.286
  300.850  154.234   53.081    0.460    0.307   16.995
  301.100  153.006   50.169    0.360    0.278   17.967
  301.350  157.140   49.016    0.294    0.181   19.530
