~VERSION INFORMATION
 VERS.                 2.0:   CWLS LOG ASCII STANDARD -VERSION 2.0
 WRAP.                  NO:   ONE LINE PER DEPTH STEP
~WELL INFORMATION BLOCK
#MNEM.UNIT           DATA                    DESCRIPTION OF MNEMONIC
#---------    -------------------            -------------------------------
# Generated from Intellog Unique Number	CW_73_75/WELL/59
WELL.         06-19-075-24W4                 : Well_name    - WELL
LOC .         00/06-19-075-24W4/0            : Location     - LOCATION
UWI .         00/06-19-075-24W4/0            : Uwi          - UNIQUE WELL ID
ENTR.         JJ                             : Entered      - ENTERED BY
SRVC.         SCHLUMBERGER                   : Scn          - SERVICE COMPANY
DATE.         14 MAR 62                      : Date         - LOG DATE
STRT.M        548.64                         : top_depth    - START DEPTH
STOP.M        676.64                         : bot_depth    - STOP DEPTH
STEP.M        0.25                           : increment    - STEP LENGTH
 NULL. -999.2500:NULL Value
~CURVE INFORMATION BLOCK
#MNEM UNIT       ERCB CURVE CODE    CURVE DESCRIPTION
#-----------   ------------------   ----------------------------------
DEPT.M        00 001 00 00         : DEPTH        - DEPTH
DELT.US/F     00 520 00 00         : DELT         - SONIC TRAVEL TIME
GR  .API      00 310 00 00         : GR           - GAMMA RAY
ILD .OHMM     00 120 00 00         : RESD         - DEEP RESISTIVITY (DIL)
~PARAMETER INFORMATION
#MNEM.UNIT           DATA             DESCRIPTION OF MNEMONIC
#---------         -----------     ------------------------------
GL  .M        765.505              : gl           - GROUND LEVEL ELEVATION
EREF.M        769.01               : kb           - ELEVATION OF DEPTH REFERENCE
DATM.M        765.505              : datum        - DATUM ELEVATION
TDD .M        690.372              : tdd          - TOTAL DEPTH DRILLER
RUN .         ONE                  : Run          - RUN NUMBER
ENG .         SKILTON              : Engineer     - RECORDING ENGINEER
WIT .         HOOKS                : Witness      - WITNESSED BY
BASE.         EDM                  : Branch       - HOME BASE OF LOGGING UNIT
MUD .         GEL                  : Mud_type     - MUD TYPE
MATR.         SANDSTONE            : Logunit      - NEUTRON MATRIX
TMAX.C        24.4444              : BHT          - MAXIMUM RECORDED TEMPERATURE
BHTD.M        691.591              : BHTDEP       - MAXIMUM RECORDED TEMPERATURE
RMT .C        21.1111              : MDTP         - TEMPERATURE OF MUD
MUDD.KG/M     1104                 : MWT          - MUD DENSITY
NEUT.         1                    : NEUTRON      - NEUTRON TYPE
RESI.         0                    : RESIST       - RESISTIVITY TYPE
RM  .OHMM     3.1                  : RM           - RESISTIVITY OF MUD
RMC .OHMM     3.2                  : RMC          - RESISTIVITY OF MUD CAKE
RMF .OHMM     3                    : RMF          - RESISTIVITY OF MUD FILTRATE
SUFT.C        5                    : SUFT         - SURFACE TEMPERATURE
~A  DEPTH     DELT       GR     RESD
  548.640  300.113   65.016   11.549
  548.890  337.393   61.927    9.227
  549.140  370.727   64.102    6.684
  549.390  379.618   70.418    5.883
  549.640  377.473   74.204    5.462
  549.890  362.388   77.350    5.041
  550.140  370.101   72.559    4.880
  550.390  366.640   71.710    4.780
  550.640  373.565   79.197    4.659
  550.890  379.889   83.473    4.679
  551.140  368.881   86.276    4.678
  551.390  367.262   90.742    4.557
  551.640  363.665   88.533    4.537
  551.890  375.520   86.662    4.556
  552.140  387.372   89.569    4.395
  552.390  400.076   95.791    4.175
  552.640  408.444   99.621    3.753
  552.890  405.184  100.967    3.393
  553.140  401.592   97.786    2.992
  553.390  405.034   94.794    2.411
  553.640  407.287   96.142    1.950
  553.890  402.716   97.873    1.669
  554.140  393.277   99.272    1.448
  554.390  388.832  102.618    1.748
  554.640  373.348  103.864    2.008
  554.890  375.012   99.214    2.548
  555.140  377.669   94.959    3.228
  555.390  396.026   90.945    4.008
  555.640  400.314   86.246    4.167
  555.890  404.614   87.498    4.146
  556.140  386.697   93.666    4.126
  556.390  383.637   98.035    4.105
  556.640  370.650  100.550    4.165
  556.890  377.377   97.222    4.164
  557.140  373.848   93.403    4.244
  557.390  370.254   91.094    4.363
  557.640  378.887   88.931    4.723
  557.890  378.914   83.307    5.303
  558.140  386.823   82.171    6.363
  558.390  393.411   83.028    7.323
  558.640  394.758   84.864    7.923
  558.890  421.455   78.850    9.003
  559.140  429.620   70.642   10.024
  559.390  434.771   74.040   11.324
  559.640  442.816   77.728   12.325
  559.890  434.428   80.534   13.625
  560.140  412.438   78.371   15.126
  560.390  401.559   73.818   16.806
  560.640  393.238   68.391   17.806
  560.890  397.857   65.210   18.506
  561.140  418.055   65.187   17.945
  561.390  422.018   70.386   15.243
  561.640  409.954   75.341   12.920
  561.890  404.854   70.250   10.818
  562.140  405.988   67.748    8.996
  562.390  410.356   65.488    7.774
  562.640  389.420   70.782    7.674
  562.890  361.716   71.549    7.373
  563.140  337.162   67.336    6.472
  563.390  324.837   63.173    5.530
  563.640  347.989   61.206    4.589
  563.890  359.708   57.292    4.048
  564.140  364.123   56.153    3.567
  564.390  364.809   63.639    3.506
  564.640  368.388   67.037    3.686
  564.890  368.604   68.335    3.845
  565.140  362.456   70.117    3.985
  565.390  357.151   73.556    4.305
  565.640  355.932   72.272    4.444
  565.890  359.242   74.019    4.504
  566.140  368.328   75.549    4.423
  566.390  374.462   78.748    4.222
  566.640  376.527   81.512    4.002
  566.890  376.678   80.810    3.881
  567.140  375.913   79.479    3.980
  567.390  372.849   77.166    4.180
  567.640  363.083   79.297    4.420
  567.890  355.553   80.884    4.779
  568.140  358.990   88.324    5.279
  568.390  376.693   92.106    5.939
  568.640  392.090   84.048    6.759
  568.890  416.752   76.571    7.920
  569.140  426.565   74.906    8.820
  569.390  379.805   76.592   10.060
  569.640  355.192   77.687   11.721
  569.890  316.512   78.449   13.021
  570.140  279.550   73.168   14.142
  570.390  292.319   66.182   10.718
  570.640  312.907   62.703    7.916
  570.890  334.940   68.682    6.074
  571.140  354.875   76.312    4.512
  571.390  369.155   81.752    3.991
  571.640  370.561   84.755    4.110
  571.890  364.995   89.028    4.270
  572.140  355.558   90.128    4.329
  572.390  354.864   83.292    4.529
  572.640  353.109   84.886    4.668
  572.890  348.670   86.912    4.688
  573.140  354.343   88.890    4.567
  573.390  356.993   89.600    4.406
  573.640  363.128   89.047    4.186
  573.890  367.813   91.276    3.985
  574.140  374.936   87.745    3.744
  574.390  380.412   90.406    3.623
  574.640  388.846   93.655    3.683
  574.890  384.008   89.301    3.742
  575.140  376.741   88.165    3.882
  575.390  369.668   89.217    3.981
  575.640  375.205   91.049    4.081
  575.890  386.203   91.862    3.980
  576.140  398.716   91.890    3.759
  576.390  399.589   91.775    3.539
  576.640  405.588   88.879    3.118
  576.890  395.500   90.668    2.677
  577.140  368.650   91.624    2.596
  577.390  355.531   92.822    2.676
  577.640  346.093   92.465    3.076
  577.890  343.163   86.500    3.395
  578.140  392.598   81.271    3.935
  578.390  422.978   78.909    4.575
  578.640  458.810   74.505    5.815
  578.890  474.406   69.814    6.836
  579.140  464.114   66.430    6.335
  579.390  426.226   62.124    5.554
  579.640  402.463   57.866    5.033
  579.890  381.066   56.679    4.812
  580.140  365.389   62.068    4.931
  580.390  354.634   66.242    5.391
  580.640  357.352   63.644    5.651
  580.890  370.847   61.581    5.250
  581.140  377.901   61.167    4.729
  581.390  384.496   61.492    4.468
  581.640  387.337   62.350    4.087
  581.890  387.099   62.141    3.846
  582.140  386.078   61.193    3.606
  582.390  381.763   59.615    3.465
  582.640  379.291   60.377    3.324
  582.890  380.563   63.190    3.324
  583.140  372.309   66.634    3.323
  583.390  353.343   67.490    4.163
  583.640  293.902   67.278    5.183
  583.890  275.397   64.528    6.424
  584.140  278.311   59.495    7.684
  584.390  290.426   58.742    8.484
  584.640  287.888   58.483    9.004
  584.890  302.758   58.364    7.963
  585.140  306.068   58.300    6.641
  585.390  327.841   57.402    5.640
  585.640  361.837   55.338    4.778
  585.890  379.400   54.496    4.157
  586.140  383.500   56.035    3.656
  586.390  382.669   58.015    3.155
  586.640  380.064   60.482    2.795
  586.890  377.064   61.728    2.594
  587.140  379.518   62.053    2.633
  587.390  378.158   59.110    2.593
  587.640  376.545   59.678    2.632
  587.890  374.323   58.006    2.652
  588.140  373.692   59.157    2.651
  588.390  373.652   59.671    2.730
  588.640  373.817   60.388    2.830
  588.890  375.940   62.269    3.010
  589.140  372.877   64.886    3.369
  589.390  376.449   64.231    3.669
  589.640  374.957   60.023    4.089
  589.890  371.762   60.197    4.268
  590.140  368.235   58.282    4.288
  590.390  365.308   56.165    4.267
  590.640  363.949   63.262    3.986
  590.890  369.955   66.757    3.705
  591.140  372.470   62.837    3.144
  591.390  373.484   60.241    2.683
  591.640  360.893   61.634    2.323
  591.890  344.163   61.127    2.262
  592.140  291.163   63.255    2.482
  592.390  249.459   64.993    3.262
  592.640  246.332   60.048    5.443
  592.890  243.268   53.068    7.424
  593.140  246.380   46.660    9.425
  593.390  264.540   39.526   12.507
  593.640  270.342   46.869   12.686
  593.890  287.451   55.139   10.184
  594.140  329.921   61.013    7.521
  594.390  354.781   61.970    5.639
  594.640  369.847   59.760    4.598
  594.890  374.607   59.501    3.636
  595.140  358.923   60.309    2.855
  595.390  340.218   61.512    2.494
  595.640  335.976   59.688    2.514
  595.890  332.648   58.549    2.873
  596.140  351.727   63.062    3.293
  596.390  364.692   66.314    3.713
  596.640  364.775   61.423    4.113
  596.890  363.689   60.775    4.372
  597.140  366.471   62.650    4.412
  597.390  368.001   66.093    4.271
  597.640  364.484   64.662    4.170
  597.890  357.144   62.208    4.090
  598.140  350.797   62.485    4.069
  598.390  343.006   65.780    4.269
  598.640  304.658   68.438    4.668
  598.890  303.689   72.612    5.328
  599.140  301.812   71.475    5.768
  599.390  311.298   74.430    5.968
  599.640  343.050   81.236    6.067
  599.890  339.587   86.481    5.887
  600.140  336.332   83.343    5.606
  600.390  330.514   79.816    5.445
  600.640  320.348   72.975    5.625
  600.890  317.025   70.716    6.204
  601.140  327.493   75.960    6.424
  601.390  330.277   74.090    6.123
  601.640  329.054   69.101    5.782
  601.890  299.707   67.962    5.802
  602.140  285.541   70.919    6.142
  602.390  272.807   74.992    6.501
  602.640  295.441   80.334    6.701
