~VERSION INFORMATION
 VERS.                 2.0:   CWLS LOG ASCII STANDARD -VERSION 2.0
 WRAP.                  NO:   ONE LINE PER DEPTH STEP
~WELL INFORMATION BLOCK
#MNEM.UNIT           DATA                    DESCRIPTION OF MNEMONIC
#---------    -------------------            -------------------------------
# Generated from Intellog Unique Number	CN_94_101/WELL/2773
WELL.         PARAMOUNT LTD.                 : Well_name    - WELL
LOC .         00/04-23-094-21W4/0            : Location     - LOCATION
UWI .         00/04-23-094-21W4/0            : Uwi          - UNIQUE WELL ID
ENTR.         JOETTE                         : Entered      - ENTERED BY
SRVC.         COMPUTALOG                     : Scn          - SERVICE COMPANY
DATE.         07/03/92                       : Date         - LOG DATE
STRT.M        175                            : top_depth    - START DEPTH
STOP.M        350                            : bot_depth    - STOP DEPTH
STEP.M        0.25                           : increment    - STEP LENGTH
 NULL. -999.2500:NULL Value
~CURVE INFORMATION BLOCK
#MNEM UNIT       ERCB CURVE CODE    CURVE DESCRIPTION
#-----------   ------------------   ----------------------------------
DEPT.M        00 001 00 00         : DEPTH        - DEPTH
CALI.MM       00 280 01 00         : CAL          - CALIPER
GR  .API      00 310 00 00         : GR           - GAMMA RAY
NPHI.V/V      00 330 00 00         : PHIN         - NEUTRON POROSITY (SANDSTONE)
DPHI.V/V      00 890 00 00         : PHID         - DENSITY POROSITY (SANDSTONE)
ILD .OHMM     00 120 00 00         : RESD         - DEEP RESISTIVITY (DIL)
~PARAMETER INFORMATION
#MNEM.UNIT           DATA             DESCRIPTION OF MNEMONIC
#---------         -----------     ------------------------------
GL  .M        662.1                : gl           - GROUND LEVEL ELEVATION
EREF.M        665.5                : kb           - ELEVATION OF DEPTH REFERENCE
DATM.M        665.5                : datum        - DATUM ELEVATION
TDD .M        354.5                : tdd          - TOTAL DEPTH DRILLER
RUN .         ONE                  : Run          - RUN NUMBER
ENG .         JO                   : Engineer     - RECORDING ENGINEER
WIT .         TIM                  : Witness      - WITNESSED BY
MUD .         GEL                  : Mud_type     - MUD TYPE
MATR.         SANDSTONE            : Logunit      - NEUTRON MATRIX
TMAX.C        25                   : BHT          - MAXIMUM RECORDED TEMPERATURE
BHTD.M        354.5                : BHTDEP       - MAXIMUM RECORDED TEMPERATURE
RMT .C        7.8                  : MDTP         - TEMPERATURE OF MUD
MUDD.KG/M     1050                 : MWT          - MUD DENSITY
NEUT.         1                    : NEUTRON      - NEUTRON TYPE
RESI.         0                    : RESIST       - RESISTIVITY TYPE
RM  .OHMM     3.2                  : RM           - RESISTIVITY OF MUD
RMC .OHMM     3.2                  : RMC          - RESISTIVITY OF MUD CAKE
RMF .OHMM     3.2                  : RMF          - RESISTIVITY OF MUD FILTRATE
SUFT.C        4                    : SUFT         - SURFACE TEMPERATURE
~A  DEPTH      CAL       GR     PHIN     PHID     RESD
# ...
  321.000  165.337   98.183    0.393    0.235   14.451
  321.250  165.367   97.609    0.391    0.224   15.299
  321.500  165.411   91.117    0.375    0.181   14.999
  321.750  168.408   85.813    0.351    0.097   14.152
  322.000  170.395   91.152    0.366    0.085   13.358
  322.250  176.351   99.460    0.398    0.131   10.404
  322.500  178.361  103.621    0.400    0.198    8.750
  322.750  178.383  107.189    0.407    0.205    7.647
  323.000  177.426  107.212    0.410    0.204    7.216
  323.250  178.435  107.821    0.404    0.201    7.352
  323.500  183.404  109.023    0.383    0.208    7.490
  323.750  184.420  110.816    0.377    0.207    7.780
  324.000  184.457  112.609    0.375    0.204    8.081
  324.250  183.486  112.031    0.380    0.202    8.554
  324.500  178.584  107.906    0.379    0.212    9.592
  324.750  172.696  101.414    0.373    0.259   10.156
  325.000  166.808   96.698    0.367    0.272   10.754
  325.250  166.837   91.389    0.374    0.265   11.830
  325.500  169.841   91.999    0.380    0.258   12.767
  325.750  170.850   99.710    0.376    0.242   14.044
  326.000  170.880   99.728    0.364    0.166   14.587
  326.250  169.923  100.342    0.358    0.152   14.579
  326.500  169.953  103.911    0.364    0.185   14.296
  326.750  170.969  107.480    0.366    0.211   13.234
  327.000  174.944  109.278    0.360    0.202   11.566
  327.250  179.913  110.479    0.359    0.188   10.707
  327.500  175.011  112.860    0.356    0.169   10.299
  327.750  171.096  111.102    0.347    0.170   10.293
  328.000  176.050  108.753    0.351    0.203   10.285
  328.250  181.998  107.592    0.356    0.214   10.283
  328.500  181.049  109.977    0.366    0.215   10.082
  328.750  177.133  111.183    0.372    0.217    9.884
  329.000  176.169  111.192    0.380    0.218    9.509
  329.250  182.117  110.026    0.383    0.223    9.145
  329.500  187.086  106.497    0.373    0.226    8.797
  329.750  183.178  104.735    0.357    0.219    8.628
  330.000  178.268  111.268    0.361    0.207    8.459
  330.250  171.401  115.428    0.373    0.204    8.295
  330.500  171.424  114.262    0.376    0.200    8.133
  330.750  176.385  109.546    0.368    0.199    7.974
  331.000  174.450  102.462    0.370    0.195    7.670
  331.250  173.486   98.929    0.376    0.176    7.379
  331.500  170.564  108.416    0.372    0.153    6.701
  331.750  169.615  117.311    0.357    0.201    5.121
  332.000  168.643  125.022    0.369    0.220    4.390
  332.250  169.659  123.857    0.400    0.230    4.063
  332.500  170.683  113.222    0.431    0.227    3.984
  332.750  172.686  103.771    0.446    0.222    4.299
  333.000  175.667  101.422    0.445    0.214    4.640
  333.250  174.718  100.256    0.440    0.209    5.008
  333.500  173.754   93.764    0.432    0.210    5.836
  333.750  170.832   94.965    0.378    0.212    7.202
  334.000  168.889  100.309    0.349    0.191    8.394
  334.250  174.845  107.429    0.346    0.137    9.413
  334.500  178.812  112.190    0.353    0.196    9.589
  334.750  180.815  107.474    0.370    0.207    9.225
  335.000  178.887  104.528    0.388    0.205    8.061
  335.250  176.936  107.509    0.407    0.191    7.321
  335.500  175.972  109.890    0.402    0.192    7.041
  335.750  175.016  113.468    0.385    0.208    7.038
  336.000  178.005  115.257    0.382    0.213    7.310
  336.250  179.021  115.270    0.380    0.201    7.593
  336.500  178.064  114.109    0.374    0.190    8.039
  336.750  176.121  111.759    0.365    0.176    9.015
  337.000  172.213  110.594    0.375    0.174   10.504
  337.250  170.263  110.612    0.376    0.180   11.557
  337.500  168.320  112.409    0.370    0.181   12.471
  337.750  166.385  113.602    0.365    0.178   12.465
  338.000  166.407  114.212    0.369    0.177   12.223
  338.250  166.444  114.229    0.366    0.184   11.312
  338.500  166.467  116.619    0.344    0.198   10.676
  338.750  167.483  113.086    0.336    0.193   10.271
  339.000  168.506  118.435    0.339    0.189    9.878
  339.250  169.537  120.224    0.354    0.186   10.063
  339.500  170.539  119.650    0.366    0.182   10.454
  339.750  171.570  116.708    0.361    0.178   11.721
  340.000  171.592  113.176    0.356    0.173   12.176
  340.250  171.614  110.826    0.348    0.168   13.392
  340.500  170.680  109.069    0.341    0.153   13.646
  340.750  170.688  108.499    0.332    0.154   13.635
  341.000  170.717  107.921    0.335    0.158   13.371
  341.250  170.755  107.943    0.342    0.196   13.114
  341.500  170.777  109.736    0.348    0.217   12.375
  341.750  171.793  111.525    0.346    0.210   11.902
  342.000  173.803  116.874    0.345    0.199   12.125
  342.250  173.833  119.259    0.349    0.188   12.596
  342.500  174.849  116.910    0.357    0.181   13.591
  342.750  174.879  113.973    0.353    0.175   14.117
  343.000  176.889  112.798    0.347    0.168   14.662
  343.250  176.904  111.637    0.325    0.164   14.939
  343.500  177.935  110.471    0.323    0.152   15.220
  343.750  175.992  109.897    0.322    0.185   15.508
  344.000  175.028  108.140    0.331    0.191   15.799
  344.250  174.086  106.974    0.341    0.191   15.793
  344.500  174.109  106.405    0.349    0.195   15.483
  344.750  175.132  109.973    0.355    0.201   15.480
  345.000  175.147  112.358    0.361    0.203   15.470
  345.250  176.163  111.193    0.363    0.192   15.463
  345.500  176.193  110.619    0.359    0.181   15.457
  345.750  178.196  110.632    0.350    0.176   15.450
  346.000  178.225  110.058    0.342    0.174   15.439
  346.250  171.358  102.975    0.324    0.164   15.433
  346.500  173.361  106.543    0.312    0.138   14.562
  346.750  176.342  110.704    0.340    0.199   14.008
  347.000  182.297  111.905    0.362    0.194   12.009
  347.250  186.273  110.740    0.402    0.177   10.700
  347.500  189.269  110.166    0.419    0.146    9.350
  347.750  185.353  110.183    0.415    0.139    9.897
  348.000  181.438  110.798    0.410    0.139   10.084
  348.250  180.481  109.045    0.404    0.150   10.276
  348.500  181.490  106.691    0.394    0.161    9.883
  348.750  186.459   99.015    0.393    0.172    9.693
  349.000  189.440   93.115    0.389    0.183    9.147
  349.250  194.409   89.587    0.388    0.185    8.465
  349.500  201.336   87.237    0.392    0.164    8.301
  349.750  209.264   84.291    0.399    0.129    8.297
  350.000  209.294   65.959    0.398    0.122    8.956
