~VERSION INFORMATION
 VERS.                 2.0:   CWLS LOG ASCII STANDARD -VERSION 2.0
 WRAP.                  NO:   ONE LINE PER DEPTH STEP
~WELL INFORMATION BLOCK
#MNEM.UNIT           DATA                    DESCRIPTION OF MNEMONIC
#---------    -------------------            -------------------------------
# Generated from Intellog Unique Number	CS_77_79/WELL/911
WELL.         HOME LEISMER                   : Well_name    - WELL
LOC .         00/07-29-078-07W4/0            : Location     - LOCATION
UWI .         00/07-29-078-07W4/0            : Uwi          - UNIQUE WELL ID
ENTR.         JHS                            : Entered      - ENTERED BY
SRVC.         SCHLUMBERGER                   : Scn          - SERVICE COMPANY
STRT.M        129.845                        : top_depth    - START DEPTH
STOP.M        344.095                        : bot_depth    - STOP DEPTH
STEP.M        0.25                           : increment    - STEP LENGTH
 NULL. -999.2500:NULL Value
~CURVE INFORMATION BLOCK
#MNEM UNIT       ERCB CURVE CODE    CURVE DESCRIPTION
#-----------   ------------------   ----------------------------------
DEPT.M        00 001 00 00         : DEPTH        - DEPTH
RHOB.KG/M3    00 350 00 00         : DENS         - BULK DENSITY
GR  .API      00 310 00 00         : GR           - GAMMA RAY
DPHI.V/V      00 890 00 00         : PHID         - DENSITY POROSITY (SANDSTONE)
NPHI.V/V      00 330 00 00         : PHIN         - NEUTRON POROSITY (SANDSTONE)
ILD .OHMM     00 120 00 00         : RESD         - DEEP RESISTIVITY (DIL)
~PARAMETER INFORMATION
#MNEM.UNIT           DATA             DESCRIPTION OF MNEMONIC
#---------         -----------     ------------------------------
GL  .M        545.592              : gl           - GROUND LEVEL ELEVATION
EREF.M        549.432              : kb           - ELEVATION OF DEPTH REFERENCE
DATM.M        549.432              : datum        - DATUM ELEVATION
TDD .M        446.227              : tdd          - TOTAL DEPTH DRILLER
RUN .         ONE                  : Run          - RUN NUMBER
ENG .         BILL                 : Engineer     - RECORDING ENGINEER
WIT .         JIM                  : Witness      - WITNESSED BY
MUD .         GEL                  : Mud_type     - MUD TYPE
MATR.         SANDSTONE            : Logunit      - NEUTRON MATRIX
TMAX.C        21.6667              : BHT          - MAXIMUM RECORDED TEMPERATURE
BHTD.M        446.227              : BHTDEP       - MAXIMUM RECORDED TEMPERATURE
MATR.         1                    : LOGUNIT      - NEUTRON MATRIX
RMT .C        25                   : MDTP         - TEMPERATURE OF MUD
NEUT.         1                    : NEUTRON      - NEUTRON TYPE
RESI.         0                    : RESIST       - RESISTIVITY TYPE
RMC .OHMM     0.25                 : RMC          - RESISTIVITY OF MUD CAKE
RMF .OHMM     0.25                 : RMF          - RESISTIVITY OF MUD FILTRATE
SUFT.C        15                   : SUFT         - SURFACE TEMPERATURE
~A  DEPTH     DENS       GR     PHID     PHIN     RESD
# ...
  166.345   -0.000  116.787    0.241    0.496    8.313
  166.595   -0.000  116.499    0.264    0.523    8.275
  166.845    0.000  112.922    0.264    0.553    8.510
  167.095    0.000  108.963    0.261    0.557    9.331
  167.345    0.000  104.255    0.265    0.547   10.243
  167.595   -0.000   96.770    0.273    0.548   11.296
  167.845   -0.000   92.360    0.262    0.531   12.305
  168.095    0.000   95.332    0.254    0.521   12.560
  168.345    0.000   96.456    0.244    0.511   13.209
  168.595    0.000   93.867    0.258    0.525   13.932
  168.845   -0.000   90.729    0.290    0.507   14.086
  169.095   -0.000   90.427    0.315    0.504   14.435
  169.345   -0.000   94.191    0.315    0.498   14.124
  169.595    0.000   97.233    0.309    0.499   13.719
  169.845    0.000   98.027    0.304    0.511   13.310
  170.095    0.000  101.939    0.284    0.497   12.652
  170.345   -0.000  107.576    0.279    0.509   12.499
  170.595   -0.000  110.010    0.249    0.525   12.388
  170.845   -0.000  106.461    0.242    0.543   12.243
  171.095    0.000  103.246    0.255    0.541   12.126
  171.345    0.000   99.589    0.255    0.522   11.831
  171.595   -0.000   95.103    0.236    0.533   11.421
  171.845   -0.000   90.812    0.246    0.513   10.972
  172.095   -0.000   87.221    0.260    0.491   10.267
  172.345    0.000   86.856    0.295    0.486    8.922
  172.595    0.000   91.209    0.288    0.502    7.726
  172.845    0.000   97.059    0.260    0.518    6.875
  173.095   -0.000   93.105    0.241    0.509    6.886
  173.345   -0.000   84.546    0.255    0.516    7.343
  173.595   -0.000   70.760    0.267    0.522    9.480
  173.845    0.000   61.427    0.280    0.494   12.899
  174.095    0.000   55.262    0.286    0.457   17.034
  174.345   -0.000   53.631    0.303    0.444   20.926
  174.595   -0.000   53.700    0.304    0.435   23.904
  174.845   -0.000   52.882    0.301    0.434   26.197
  175.095    0.000   51.839    0.308    0.453   28.280
  175.345    0.000   52.710    0.313    0.451   29.499
  175.595    0.000   55.239    0.312    0.453   30.695
  175.845   -0.000   56.209    0.305    0.459   31.693
  176.095   -0.000   55.268    0.298    0.454   32.714
  176.345   -0.000   54.314    0.293    0.431   33.771
  176.595    0.000   54.347    0.309    0.417   34.850
  176.845    0.000   54.139    0.316    0.436   35.965
  177.095    0.000   53.774    0.315    0.445   37.118
  177.345   -0.000   54.518    0.326    0.441   37.567
  177.595   -0.000   56.450    0.332    0.443   38.823
  177.845    0.000   57.470    0.327    0.454   40.076
  178.095    0.000   56.496    0.331    0.457   41.355
  178.345    0.000   55.541    0.336    0.440   42.598
  178.595   -0.000   54.474    0.337    0.443   42.501
  178.845   -0.000   57.072    0.332    0.444   43.485
  179.095   -0.000   58.053    0.335    0.430   43.428
  179.345    0.000   57.068    0.344    0.431   44.174
  179.595    0.000   57.752    0.342    0.446   44.337
  179.845    0.000   58.798    0.346    0.450   44.412
  180.095   -0.000   60.250    0.340    0.441   44.556
  180.345   -0.000   63.294    0.340    0.443   43.662
  180.595    0.000   63.724    0.344    0.455   42.916
  180.845    0.000   62.338    0.336    0.462   42.446
  181.095    0.000   61.136    0.349    0.464   42.241
  181.345   -0.000   60.675    0.350    0.453   42.257
  181.595   -0.000   61.390    0.347    0.438   42.363
  181.845   -0.000   61.376    0.336    0.443   41.387
  182.095    0.000   60.819    0.334    0.460   40.806
  182.345    0.000   60.581    0.341    0.473   40.588
  182.595    0.000   58.784    0.343    0.468   39.384
  182.845   -0.000   57.295    0.353    0.471   39.547
  183.095   -0.000   55.344    0.362    0.459   38.745
  183.345   -0.000   54.732    0.354    0.456   38.059
  183.595    0.000   56.178    0.361    0.459   36.965
  183.845    0.000   57.207    0.363    0.469   35.867
  184.095   -0.000   57.214    0.358    0.470   34.845
  184.345   -0.000   56.532    0.348    0.483   32.785
  184.595   -0.000   57.634    0.356    0.500   30.759
  184.845    0.000   59.635    0.355    0.504   29.016
  185.095    0.000   60.663    0.346    0.485   28.474
  185.345    0.000   61.795    0.341    0.471   27.926
  185.595   -0.000   63.892    0.352    0.459   27.997
  185.845   -0.000   64.426    0.370    0.465   28.016
  186.095   -0.000   63.282    0.378    0.489   28.022
  186.345    0.000   61.028    0.363    0.497   27.480
  186.595    0.000   61.025    0.355    0.501   28.166
  186.845    0.000   60.389    0.353    0.496   28.143
  187.095   -0.000   58.490    0.359    0.496   28.159
  187.345   -0.000   55.979    0.359    0.508   28.101
  187.595    0.000   56.685    0.342    0.515   27.218
  187.845    0.000   59.168    0.358    0.535   27.175
  188.095    0.000   58.433    0.362    0.498   27.829
  188.345   -0.000   55.853    0.357    0.496   27.748
  188.595   -0.000   53.798    0.354    0.504   28.347
  188.845   -0.000   52.632    0.348    0.497   28.959
  189.095    0.000   55.290    0.363    0.499   28.883
  189.345    0.000   56.321    0.360    0.490   29.593
  189.595    0.000   55.620    0.358    0.490   29.572
  189.845   -0.000   53.084    0.358    0.506   30.168
  190.095   -0.000   52.830    0.350    0.509   30.134
  190.345    0.000   53.867    0.365    0.504   30.753
  190.595    0.000   53.947    0.352    0.501   30.793
  190.845    0.000   53.230    0.360    0.506   30.865
  191.095   -0.000   50.459    0.380    0.512   30.338
  191.345   -0.000   50.549    0.365    0.514   30.351
  191.595   -0.000   52.289    0.358    0.503   30.383
  191.845    0.000   52.750    0.365    0.494   29.921
  192.095    0.000   52.762    0.369    0.487   29.923
  192.345    0.000   52.777    0.361    0.476   29.313
  192.595   -0.000   54.791    0.357    0.470   29.379
  192.845   -0.000   56.212    0.362    0.460   29.387
  193.095   -0.000   58.308    0.368    0.467   29.429
  193.345    0.000   60.065    0.366    0.488   28.876
  193.595    0.000   59.319    0.365    0.505   28.948
  193.845   -0.000   58.413    0.365    0.503   28.976
  194.095   -0.000   55.662    0.358    0.503   28.678
  194.345   -0.000   55.415    0.365    0.506   28.407
  194.595    0.000   56.485    0.363    0.493   28.021
  194.845    0.000   56.230    0.357    0.488   27.456
  195.095    0.000   55.913    0.358    0.488   27.534
  195.345   -0.000   55.276    0.365    0.483   27.620
  195.595   -0.000   55.996    0.361    0.486   27.035
  195.845   -0.000   56.635    0.360    0.485   27.127
  196.095    0.000   56.705    0.363    0.490   26.778
  196.345    0.000   54.849    0.371    0.481   26.691
  196.595   -0.000   51.795    0.373    0.476   26.693
  196.845   -0.000   51.713    0.355    0.493   26.399
  197.095   -0.000   54.560    0.352    0.486   26.183
  197.345    0.000   59.002    0.361    0.492   25.373
  197.595    0.000   60.648    0.365    0.488   24.911
  197.845    0.000   57.413    0.362    0.499   24.479
  198.095   -0.000   54.866    0.368    0.505   24.910
  198.345   -0.000   57.040    0.367    0.491   25.413
  198.595   -0.000   58.602    0.355    0.490   26.543
  198.845    0.000   56.077    0.335    0.489   28.303
  199.095    0.000   54.328    0.212    0.412   31.067
  199.345    0.000   52.515    0.038    0.228   40.926
  199.595   -0.000   50.141    0.022    0.200   60.038
  199.845   -0.000   48.550    0.120    0.205   69.665
  200.095    0.000   53.534    0.185    0.244   65.445
  200.345    0.000   61.343    0.275    0.335   53.031
  200.595    0.000   64.344    0.354    0.464   33.581
  200.845   -0.000   63.210    0.361    0.507   25.345
  201.095   -0.000   60.967    0.360    0.498   21.664
  201.345   -0.000   61.876    0.358    0.475   20.500
  201.595    0.000   60.292    0.363    0.471   20.171
  201.845    0.000   60.149    0.359    0.484   20.473
  202.095    0.000   62.548    0.351    0.494   20.664
  202.345   -0.000   64.185    0.356    0.508   20.660
  202.595   -0.000   63.023    0.359    0.498   20.653
