~VERSION INFORMATION
 VERS.                 2.0:   CWLS LOG ASCII STANDARD -VERSION 2.0
 WRAP.                  NO:   ONE LINE PER DEPTH STEP
~WELL INFORMATION BLOCK
#MNEM.UNIT           DATA                    DESCRIPTION OF MNEMONIC
#---------    -------------------            -------------------------------
# Generated from Intellog Unique Number	CS_77_79/WELL/869
WELL.         AMOCO                          : Well_name    - WELL
LOC .         00/06-11-077-09W4/0            : Location     - LOCATION
UWI .         00/06-11-077-09W4/0            : Uwi          - UNIQUE WELL ID
ENTR.         SP                             : Entered      - ENTERED BY
SRVC.         SCHLUMBERGER                   : Scn          - SERVICE COMPANY
STRT.M        228.6                          : top_depth    - START DEPTH
STOP.M        438.6                          : bot_depth    - STOP DEPTH
STEP.M        0.25                           : increment    - STEP LENGTH
 NULL. -999.2500:NULL Value
~CURVE INFORMATION BLOCK
#MNEM UNIT       ERCB CURVE CODE    CURVE DESCRIPTION
#-----------   ------------------   ----------------------------------
DEPT.M        00 001 00 00         : DEPTH        - DEPTH
GR  .API      00 310 00 00         : GR           - GAMMA RAY
DPHI.V/V      00 890 00 00         : PHID         - DENSITY POROSITY (SANDSTONE)
NPHI.V/V      00 330 00 00         : PHIN         - NEUTRON POROSITY (SANDSTONE)
ILD .OHMM     00 120 00 00         : RESD         - DEEP RESISTIVITY (DIL)
~PARAMETER INFORMATION
#MNEM.UNIT           DATA             DESCRIPTION OF MNEMONIC
#---------         -----------     ------------------------------
GL  .M        631.7                : gl           - GROUND LEVEL ELEVATION
EREF.M        635.8                : kb           - ELEVATION OF DEPTH REFERENCE
DATM.M        631.7                : datum        - DATUM ELEVATION
TDD .M        442                  : tdd          - TOTAL DEPTH DRILLER
RUN .         ONE                  : Run          - RUN NUMBER
ENG .         BILL                 : Engineer     - RECORDING ENGINEER
WIT .         JIM                  : Witness      - WITNESSED BY
MUD .         GEL                  : Mud_type     - MUD TYPE
MATR.         SANDSTONE            : Logunit      - NEUTRON MATRIX
TMAX.C        60                   : BHT          - MAXIMUM RECORDED TEMPERATURE
BHTD.M        2072                 : BHTDEP       - MAXIMUM RECORDED TEMPERATURE
MATR.         1                    : LOGUNIT      - NEUTRON MATRIX
RMT .C        25                   : MDTP         - TEMPERATURE OF MUD
NEUT.         1                    : NEUTRON      - NEUTRON TYPE
RESI.         0                    : RESIST       - RESISTIVITY TYPE
RMC .OHMM     0.25                 : RMC          - RESISTIVITY OF MUD CAKE
RMF .OHMM     0.25                 : RMF          - RESISTIVITY OF MUD FILTRATE
SUFT.C        15                   : SUFT         - SURFACE TEMPERATURE
~A  DEPTH       GR     PHID     PHIN     RESD
# ...
  402.600   84.649    0.290    0.397   20.425
  402.850   80.616    0.295    0.405   20.344
  403.100   76.336    0.299    0.413   20.314
  403.350   78.431    0.292    0.414   21.360
  403.600   76.624    0.303    0.423   21.986
  403.850   77.966    0.327    0.444   22.310
  404.100   78.414    0.317    0.418   20.715
  404.350   83.671    0.300    0.404   17.885
  404.600   87.161    0.282    0.382   15.146
  404.850   90.036    0.250    0.371   13.011
  405.100   89.769    0.231    0.372   11.695
  405.350   85.107    0.231    0.376   10.962
  405.600   76.775    0.242    0.373   10.651
  405.850   72.016    0.268    0.371   12.679
  406.100   67.147    0.290    0.414   15.035
  406.350   64.407    0.309    0.432   18.762
  406.600   62.013    0.326    0.441   19.982
  406.850   60.900    0.337    0.431   20.477
  407.100   64.159    0.319    0.420   19.574
  407.350   67.278    0.309    0.407   19.658
  407.600   64.796    0.324    0.399   21.048
  407.850   62.213    0.332    0.395   25.459
  408.100   60.875    0.325    0.402   36.215
  408.350   58.294    0.333    0.417   55.558
  408.600   56.421    0.328    0.425   85.550
  408.850   55.407    0.316    0.430  135.626
  409.100   55.215    0.330    0.439  166.623
  409.350   56.429    0.330    0.440  152.399
  409.600   57.772    0.333    0.433  142.439
  409.850   57.004    0.338    0.432  127.156
  410.100   56.464    0.337    0.433  116.284
  410.350   56.409    0.339    0.427  107.219
  410.600   56.301    0.334    0.435  101.732
  410.850   55.834    0.330    0.438   98.521
  411.100   55.365    0.336    0.437   99.198
  411.350   56.453    0.342    0.428  100.150
  411.600   54.202    0.348    0.436   98.879
  411.850   50.035    0.346    0.440   95.921
  412.100   47.391    0.342    0.433   93.086
  412.350   44.982    0.336    0.420   81.223
  412.600   45.280    0.337    0.424   46.946
  412.850   51.395    0.338    0.431   30.925
  413.100   56.934    0.338    0.423   21.480
  413.350   61.808    0.338    0.428   17.275
  413.600   68.324    0.327    0.434   13.460
  413.850   73.362    0.319    0.415   12.038
  414.100   81.445    0.308    0.403   11.332
  414.350   87.028    0.297    0.423   10.830
  414.600   94.658    0.280    0.435   10.582
  414.850   94.763    0.273    0.441   10.600
  415.100   91.174    0.284    0.436   10.614
  415.350   93.530    0.276    0.436   10.293
  415.600   96.104    0.283    0.436    9.682
  415.850   93.423    0.279    0.436    9.384
  416.100   95.492    0.250    0.443    9.335
  416.350   98.897    0.219    0.435    9.348
  416.600   99.012    0.079    0.439    8.759
  416.850   86.733    0.004    0.430    7.850
  417.100   79.478   -0.001    0.411    7.286
  417.350   83.413   -0.012    0.380    7.001
  417.600   94.716    0.141    0.402    6.586
  417.850  109.291    0.209    0.416    6.305
  418.100  123.773    0.232    0.439    6.114
  418.350  126.367    0.232    0.449    6.375
  418.600  124.991    0.225    0.449    6.737
  418.850  123.373    0.229    0.449    7.272
  419.100  115.250    0.252    0.448    7.919
  419.350  107.743    0.267    0.459    8.998
  419.600   98.581    0.271    0.501   10.353
  419.850   83.216    0.246    0.489   11.534
  420.100   68.665    0.257    0.372   12.674
  420.350   71.302    0.270    0.386   13.564
  420.600   76.015    0.273    0.384   14.429
  420.850   80.872    0.260    0.382   14.900
  421.100   83.965    0.259    0.399   15.365
  421.350   80.485    0.272    0.413   15.633
  421.600   69.200    0.289    0.410   15.588
  421.850   68.500    0.292    0.416   14.522
  422.100   70.472    0.296    0.415   14.188
  422.350   71.622    0.303    0.408   12.876
  422.600   75.413    0.300    0.411   11.343
  422.850   78.468    0.289    0.419   10.164
  423.100   80.923    0.283    0.408    9.117
  423.350   86.816    0.272    0.395    8.473
  423.600   97.826    0.255    0.374    8.025
  423.850  108.994    0.220    0.359    7.798
  424.100  115.416    0.192    0.387    7.457
  424.350  118.963    0.183    0.408    7.228
  424.600  120.803    0.173    0.430    6.873
  424.850  122.435    0.180    0.426    6.793
  425.100  125.907    0.181    0.431    6.759
  425.350  126.087    0.179    0.439    6.756
  425.600  126.698    0.175    0.446    6.757
  425.850  127.545    0.178    0.451    6.759
  426.100  129.487    0.183    0.441    6.759
  426.350  132.413    0.190    0.425    6.756
  426.600  135.422    0.199    0.420    6.738
  426.850  140.337    0.190    0.429    7.250
  427.100  146.219    0.180    0.433    6.561
  427.350  150.651    0.181    0.426    6.640
  427.600  146.326    0.186    0.431    6.631
  427.850  138.600    0.192    0.445    6.770
  428.100  131.914    0.196    0.457    6.894
  428.350  127.253    0.195    0.461    6.891
  428.600  123.344    0.194    0.456    6.893
  428.850  121.880    0.193    0.437    6.899
  429.100  119.243    0.201    0.440    7.125
  429.350  116.932    0.211    0.435    7.270
  429.600  117.971    0.207    0.428    7.410
  429.850  122.547    0.198    0.430    7.477
  430.100  128.694    0.194    0.458    7.723
  430.350  129.301    0.204    0.469    7.836
  430.600  124.860    0.212    0.462    8.008
  430.850  117.850    0.216    0.434    7.995
  431.100  111.277    0.223    0.419    8.268
  431.350  109.149    0.245    0.427    8.049
  431.600  107.439    0.245    0.430    7.571
  431.850  104.771    0.242    0.420    7.252
  432.100   99.135    0.241    0.408    7.143
  432.350   99.096    0.243    0.403    7.036
  432.600   98.400    0.246    0.402    7.101
  432.850   98.444    0.247    0.403    7.342
  433.100  101.017    0.246    0.411    7.805
  433.350  104.870    0.244    0.393    8.247
  433.600  112.693    0.238    0.389    8.313
  433.850  119.227    0.221    0.395    8.474
  434.100  128.608    0.220    0.413    8.574
  434.350  138.303    0.212    0.421    8.774
  434.600  142.425    0.206    0.420    9.184
  434.850   72.831    0.200    0.399    9.301
  435.100   52.563    0.203    0.384    9.608
  435.350   31.712    0.208    0.375    9.810
  435.600   21.023    0.218    0.369    9.803
  435.850   21.317    0.209    0.378    9.781
  436.100   22.198    0.198    0.396   10.401
  436.350   28.987    0.171    0.414   11.879
  436.600   70.639    0.137    0.437   13.332
  436.850  117.150    0.100    0.399   15.447
  437.100  144.937    0.039    0.366   17.034
  437.350  145.460    0.017    0.334   19.528
  437.600  145.169    0.017    0.285   21.553
  437.850  143.520    0.024    0.287   23.151
  438.100  135.153    0.028    0.286   22.693
  438.350  116.750    0.049    0.283   19.468
  438.600  104.309    0.035    0.281   17.967
