~VERSION INFORMATION
 VERS.                 2.0:   CWLS LOG ASCII STANDARD -VERSION 2.0
 WRAP.                  NO:   ONE LINE PER DEPTH STEP
~WELL INFORMATION BLOCK
#MNEM.UNIT           DATA                    DESCRIPTION OF MNEMONIC
#---------    -------------------            -------------------------------
# Generated from Intellog Unique Number	CX_WELLS/WELL/3171
WELL.         ULSTER ET AL HANGST            : Well_name    - WELL
LOC .         00/02-02-083-11W4/0            : Location     - LOCATION
UWI .         00/02-02-083-11W400            : Uwi          - UNIQUE WELL ID
ENTR.         T                              : Entered      - ENTERED BY
SRVC.         SCHLUMBERGER                   : Scn          - SERVICE COMPANY
STRT.M        285                            : top_depth    - START DEPTH
STOP.M        510                            : bot_depth    - STOP DEPTH
STEP.M        0.25                           : increment    - STEP LENGTH
 NULL. -999.2500:NULL Value
~CURVE INFORMATION BLOCK
#MNEM UNIT       ERCB CURVE CODE    CURVE DESCRIPTION
#-----------   ------------------   ----------------------------------
DEPT.M        00 001 00 00         : DEPTH        - DEPTH
GR  .API      00 310 00 00         : GR           - GAMMA RAY
NPHI.V/V      00 330 00 00         : PHIN         - NEUTRON POROSITY (SANDSTONE)
DPHI.V/V      00 890 00 00         : PHID         - DENSITY POROSITY (SANDSTONE)
ILD .OHMM     00 120 00 00         : RESD         - DEEP RESISTIVITY (DIL)
~PARAMETER INFORMATION
#MNEM.UNIT           DATA             DESCRIPTION OF MNEMONIC
#---------         -----------     ------------------------------
GL  .M        733                  : gl           - GROUND LEVEL ELEVATION
EREF.M        736.9                : kb           - ELEVATION OF DEPTH REFERENCE
DATM.M        736.9                : datum        - DATUM ELEVATION
TDD .M        508                  : tdd          - TOTAL DEPTH DRILLER
RUN .         ONE                  : Run          - RUN NUMBER
ENG .         BILL                 : Engineer     - RECORDING ENGINEER
WIT .         JIM                  : Witness      - WITNESSED BY
MUD .         GEL                  : Mud_type     - MUD TYPE
MATR.         SANDSTONE            : Logunit      - NEUTRON MATRIX
TMAX.C        23                   : BHT          - MAXIMUM RECORDED TEMPERATURE
BHTD.M        508                  : BHTDEP       - MAXIMUM RECORDED TEMPERATURE
MATR.         1                    : LOGUNIT      - NEUTRON MATRIX
RMT .C        20                   : MDTP         - TEMPERATURE OF MUD
NEUT.         1                    : NEUTRON      - NEUTRON TYPE
RESI.         4.2                  : RESIST       - RESISTIVITY TYPE
RMC .OHMM     4.2                  : RMC          - RESISTIVITY OF MUD CAKE
RMF .OHMM     3.75                 : RMF          - RESISTIVITY OF MUD FILTRATE
SUFT.C        15                   : SUFT         - SURFACE TEMPERATURE
~A  DEPTH       GR     PHIN     PHID     RESD
# ...
  372.000   82.673    0.488    0.244    4.795
  372.250   89.570    0.489    0.251    4.465
  372.500   94.176    0.494    0.249    4.011
  372.750   93.106    0.499    0.242    3.736
  373.000   93.147    0.511    0.242    3.544
  373.250  100.043    0.518    0.242    3.364
  373.500  100.667    0.521    0.242    3.247
  373.750  100.721    0.523    0.242    3.193
  374.000  103.620    0.523    0.242    3.198
  374.250  104.813    0.524    0.243    3.202
  374.500  101.453    0.524    0.246    3.208
  374.750   99.800    0.523    0.249    3.271
  375.000   98.161    0.523    0.253    3.335
  375.250   97.660    0.524    0.258    3.463
  375.500   97.714    0.528    0.262    3.529
  375.750   97.755    0.539    0.256    3.601
  376.000   97.809    0.557    0.255    3.604
  376.250   98.460    0.568    0.253    3.419
  376.500   98.487    0.560    0.254    3.186
  376.750   97.986    0.555    0.256    3.020
  377.000   96.902    0.555    0.259    2.813
  377.250   95.805    0.558    0.264    2.573
  377.500   94.748    0.558    0.271    2.485
  377.750   93.678    0.555    0.274    2.445
  378.000   93.136    0.545    0.281    2.492
  378.250   92.053    0.520    0.288    2.685
  378.500   89.844    0.498    0.290    2.786
  378.750   88.192    0.497    0.287    3.110
  379.000   86.539    0.495    0.281    3.471
  379.250   85.455    0.491    0.280    3.805
  379.500   87.230    0.484    0.284    4.248
  379.750   88.395    0.476    0.288    4.492
  380.000   87.894    0.477    0.294    4.580
  380.250   85.659    0.479    0.300    4.189
  380.500   84.575    0.479    0.302    3.762
  380.750   81.784    0.477    0.309    3.381
  381.000   77.855    0.472    0.317    3.265
  381.250   73.357    0.463    0.343    3.328
  381.500   68.859    0.453    0.350    3.853
  381.750   63.792    0.446    0.360    5.745
  382.000   58.739    0.440    0.361    6.295
  382.250   55.379    0.434    0.354    9.056
  382.500   53.171    0.432    0.349    9.571
  382.750   52.629    0.431    0.341   10.690
  383.000   53.252    0.427    0.347   11.091
  383.250   55.624    0.424    0.352   11.515
  383.500   55.095    0.422    0.358   11.328
  383.750   54.581    0.422    0.360   11.339
  384.000   52.928    0.426    0.360   11.152
  384.250   52.413    0.428    0.361   10.967
  384.500   53.023    0.431    0.361   10.785
  384.750   53.077    0.433    0.362   10.617
  385.000   52.590    0.434    0.363   10.620
  385.250   51.492    0.435    0.363   10.635
  385.500   50.978    0.436    0.363   10.649
  385.750   51.601    0.437    0.362   10.664
  386.000   52.224    0.437    0.361   10.487
  386.250   52.279    0.437    0.361   10.317
  386.500   51.209    0.437    0.361   10.146
  386.750   52.970    0.437    0.361    9.978
  387.000   55.856    0.437    0.361    9.991
  387.250   55.910    0.434    0.361   10.005
  387.500   55.978    0.431    0.361    9.839
  387.750   56.615    0.430    0.359    9.856
  388.000   56.670    0.432    0.357    9.693
  388.250   56.670    0.434    0.357    9.706
  388.500   58.513    0.438    0.357    9.716
  388.750   57.984    0.442    0.358    9.732
  389.000   58.039    0.444    0.359    9.920
  389.250   57.497    0.445    0.353   10.877
  389.500   55.871    0.433    0.106   11.289
  389.750   52.484    0.383    0.173   12.379
  390.000   45.141    0.392    0.327   13.569
  390.250   44.057    0.416    0.342   14.873
  390.500   45.250    0.439    0.348   14.903
  390.750   50.439    0.451    0.352   13.385
  391.000   53.921    0.457    0.361    9.679
  391.250   54.531    0.456    0.365    9.342
  391.500   55.737    0.447    0.360    8.867
  391.750   56.943    0.445    0.358    8.873
  392.000   58.691    0.444    0.356    8.888
  392.250   58.190    0.442    0.356    8.900
  392.500   57.106    0.440    0.357    8.912
  392.750   57.729    0.438    0.358    8.928
  393.000   60.046    0.436    0.363    8.937
  393.250   60.670    0.436    0.364    9.118
  393.500   59.031    0.435    0.366    9.125
  393.750   56.267    0.435    0.366    9.477
  394.000   55.752    0.435    0.366    9.490
  394.250   56.362    0.433    0.363    9.849
  394.500   56.403    0.433    0.358   10.043
  394.750   57.026    0.431    0.409   10.621
  395.000   57.094    0.421    0.415   11.027
  395.250   56.566    0.337    0.128   11.657
  395.500   54.358    0.268    0.128   12.778
  395.750   53.260    0.259    0.177   14.267
  396.000   50.483    0.250    0.172   15.918
  396.250   48.830    0.211    0.069   18.090
  396.500   47.746    0.199    0.067   20.191
  396.750   47.814    0.229    0.068   21.346
  397.000   49.020    0.257    0.091   19.534
  397.250   49.617    0.323    0.111   16.920
  397.500   51.392    0.354    0.163   13.394
  397.750   53.736    0.397    0.298   11.398
  398.000   54.901    0.426    0.345   10.240
  398.250   57.245    0.442    0.354    9.713
  398.500   59.576    0.449    0.360    9.050
  398.750   60.199    0.445    0.364    8.587
  399.000   57.422    0.442    0.366    8.288
  399.250   56.324    0.437    0.365    8.007
  399.500   55.268    0.433    0.363    7.733
  399.750   55.309    0.431    0.361    7.602
  400.000   55.363    0.433    0.360    7.345
  400.250   54.835    0.434    0.356    7.226
  400.500   54.334    0.440    0.353    7.231
  400.750   53.819    0.444    0.351    7.113
  401.000   53.318    0.443    0.352    7.120
  401.250   52.789    0.438    0.355    7.007
  401.500   52.302    0.431    0.356    6.889
  401.750   52.343    0.425    0.353    6.898
  402.000   52.397    0.431    0.355    6.905
  402.250   52.465    0.438    0.359    6.917
  402.500   52.492    0.442    0.361    7.055
  402.750   52.574    0.449    0.362    7.062
  403.000   53.197    0.459    0.363    7.335
  403.250   53.834    0.472    0.363    7.476
  403.500   54.430    0.473    0.360    7.909
  403.750   56.205    0.469    0.357    8.059
  404.000   56.829    0.464    0.356    8.373
  404.250   57.438    0.458    0.354    8.379
  404.500   57.520    0.454    0.352    8.396
  404.750   55.285    0.453    0.350    8.405
  405.000   55.352    0.449    0.344    8.419
  405.250   54.851    0.446    0.338    8.578
  405.500   54.879    0.443    0.326    8.593
  405.750   56.654    0.437    0.317    8.453
  406.000   61.247    0.430    0.311    8.162
  406.250   67.005    0.426    0.306    7.882
  406.500   72.750    0.434    0.302    7.211
  406.750   78.495    0.446    0.291    6.597
  407.000   84.266    0.462    0.283    6.032
  407.250   88.318    0.475    0.271    5.520
  407.500   89.483    0.472    0.267    5.236
  407.750   90.675    0.472    0.265    5.057
  408.000   85.039    0.478    0.264    4.973
  408.250   81.679    0.486    0.262    4.801
  408.500   82.885    0.488    0.259    4.640
  408.750   86.354    0.484    0.257    4.480
  409.000   87.546    0.490    0.263    4.404
  409.250   84.755    0.486    0.271    4.180
  409.500   81.409    0.481    0.277    3.966
  409.750   82.602    0.474    0.286    3.899
  410.000   83.211    0.470    0.294    3.905
  410.250   84.404    0.465    0.296    4.053
  410.500   82.751    0.461    0.298    4.606
  410.750   80.543    0.459    0.289    5.234
  411.000   79.459    0.457    0.243    5.534
  411.250   78.389    0.456    0.205    5.446
  411.500   79.581    0.451    0.216    5.451
  411.750   81.925    0.452    0.235    5.459
  412.000   83.660    0.454    0.245    5.466
  412.250   87.128    0.459    0.250    5.472
  412.500   90.638    0.461    0.250    5.472
  412.750   92.968    0.462    0.247    6.014
  413.000   92.995    0.457    0.246    5.910
  413.250   92.494    0.456    0.245    5.812
  413.500   92.562    0.453    0.241    5.820
  413.750   92.589    0.455    0.233    5.726
  414.000   93.213    0.459    0.236    5.627
  414.250   93.281    0.465    0.240    5.436
  414.500   91.059    0.474    0.245    5.249
  414.750   88.837    0.480    0.250    4.891
  415.000   91.181    0.487    0.254    4.476
  415.250   92.360    0.493    0.256    4.242
