~VERSION INFORMATION
 VERS.                 2.0:   CWLS LOG ASCII STANDARD -VERSION 2.0
 WRAP.                  NO:   ONE LINE PER DEPTH STEP
~WELL INFORMATION BLOCK
#MNEM.UNIT           DATA                    DESCRIPTION OF MNEMONIC
#---------    -------------------            -------------------------------
# Generated from Intellog Unique Number	CX_WELLS/WELL/2820
WELL.         BANKENO THORNBURY              : Well_name    - WELL
LOC .         00/09-18-081-12W4/0            : Location     - LOCATION
UWI .         00/09-18-081-12W400            : Uwi          - UNIQUE WELL ID
ENTR.         T                              : Entered      - ENTERED BY
SRVC.         SCHLUMBERGER                   : Scn          - SERVICE COMPANY
STRT.M        400                            : top_depth    - START DEPTH
STOP.M        535                            : bot_depth    - STOP DEPTH
STEP.M        0.25                           : increment    - STEP LENGTH
 NULL. -999.2500:NULL Value
~CURVE INFORMATION BLOCK
#MNEM UNIT       ERCB CURVE CODE    CURVE DESCRIPTION
#-----------   ------------------   ----------------------------------
DEPT.M        00 001 00 00         : DEPTH        - DEPTH
GR  .API      00 310 00 00         : GR           - GAMMA RAY
NPHI.V/V      00 330 00 00         : PHIN         - NEUTRON POROSITY (SANDSTONE)
DPHI.V/V      00 890 00 00         : PHID         - DENSITY POROSITY (SANDSTONE)
ILD .OHMM     00 120 00 00         : RESD         - DEEP RESISTIVITY (OTHER)
~PARAMETER INFORMATION
#MNEM.UNIT           DATA             DESCRIPTION OF MNEMONIC
#---------         -----------     ------------------------------
GL  .M        726.2                : gl           - GROUND LEVEL ELEVATION
EREF.M        729.9                : kb           - ELEVATION OF DEPTH REFERENCE
DATM.M        729.9                : datum        - DATUM ELEVATION
TDD .M        642                  : tdd          - TOTAL DEPTH DRILLER
RUN .         ONE                  : Run          - RUN NUMBER
ENG .         BILL                 : Engineer     - RECORDING ENGINEER
WIT .         JIM                  : Witness      - WITNESSED BY
MUD .         GEL                  : Mud_type     - MUD TYPE
MATR.         SANDSTONE            : Logunit      - NEUTRON MATRIX
TMAX.C        17                   : BHT          - MAXIMUM RECORDED TEMPERATURE
BHTD.M        642                  : BHTDEP       - MAXIMUM RECORDED TEMPERATURE
MATR.         1                    : LOGUNIT      - NEUTRON MATRIX
RMT .C        17                   : MDTP         - TEMPERATURE OF MUD
NEUT.         1                    : NEUTRON      - NEUTRON TYPE
RESI.         0.4                  : RESIST       - RESISTIVITY TYPE
RMC .OHMM     2.33                 : RMC          - RESISTIVITY OF MUD CAKE
RMF .OHMM     2.33                 : RMF          - RESISTIVITY OF MUD FILTRATE
SUFT.C        4                    : SUFT         - SURFACE TEMPERATURE
~A  DEPTH       GR     PHIN     PHID     RESD
# ...
  443.500   81.155    0.468    0.286    6.291
  443.750   81.110    0.461    0.290    6.176
  444.000   81.083    0.452    0.298    6.171
  444.250   80.456    0.444    0.300    6.170
  444.500   77.464    0.438    0.291    6.165
  444.750   75.063    0.434    0.267    6.161
  445.000   73.845    0.436    0.260    6.158
  445.250   73.809    0.443    0.259    6.156
  445.500   74.355    0.462    0.290    6.152
  445.750   74.901    0.460    0.294    6.038
  446.000   74.883    0.436    0.303    6.035
  446.250   75.438    0.436    0.306    6.032
  446.500   75.393    0.442    0.300    5.921
  446.750   74.775    0.446    0.300    5.811
  447.000   73.547    0.449    0.299    5.810
  447.250   72.329    0.452    0.299    5.602
  447.500   71.693    0.460    0.299    5.401
  447.750   71.666    0.476    0.304    5.302
  448.000   72.812    0.481    0.307    5.021
  448.250   74.550    0.480    0.308    4.755
  448.500   77.461    0.473    0.309    4.585
  448.750   80.963    0.467    0.309    4.342
  449.000   82.709    0.469    0.302    4.187
  449.250   85.038    0.477    0.278    4.037
  449.500   86.202    0.482    0.273    4.107
  449.750   88.504    0.490    0.266    4.255
  450.000   89.077    0.485    0.262    4.570
  450.250   88.450    0.472    0.266    4.907
  450.500   86.049    0.464    0.274    5.364
  450.750   82.466    0.454    0.285    5.557
  451.000   81.239    0.447    0.299    5.655
  451.250   79.429    0.442    0.280    5.651
  451.500   81.176    0.443    0.234    5.649
  451.750   84.678    0.458    0.225    5.747
  452.000   84.050    0.469    0.233    5.744
  452.250   81.650    0.473    0.240    5.741
  452.500   79.849    0.453    0.210    5.738
  452.750   77.448    0.348    0.157    5.632
  453.000   76.821    0.371    0.140    5.629
  453.250   79.732    0.409    0.169    5.525
  453.500   81.478    0.435    0.193    5.424
  453.750   83.216    0.419    0.207    5.325
  454.000   84.362    0.419    0.219    5.322
  454.250   86.100    0.422    0.220    5.224
  454.500   87.829    0.416    0.221    5.221
  454.750   88.375    0.413    0.221    5.313
  455.000   86.565    0.409    0.221    5.405
  455.250   85.356    0.407    0.220    5.501
  455.500   84.137    0.405    0.220    5.498
  455.750   84.692    0.405    0.220    5.593
  456.000   87.594    0.402    0.221    5.491
  456.250   88.750    0.400    0.221    5.391
  456.500   89.314    0.400    0.221    5.105
  456.750   90.451    0.399    0.221    4.835
  457.000   90.424    0.399    0.221    4.418
  457.250   89.197    0.403    0.221    3.964
  457.500   87.987    0.405    0.221    3.138
  457.750   84.977    0.408    0.221    2.483
  458.000   83.777    0.421    0.232    2.074
  458.250   81.967    0.445    0.261    2.110
  458.500   78.366    0.474    0.283    2.307
  458.750   77.157    0.488    0.293    2.710
  459.000   75.338    0.477    0.288    3.241
  459.250   74.702    0.460    0.274    3.876
  459.500   74.093    0.446    0.252    4.472
  459.750   73.457    0.438    0.241    5.067
  460.000   74.012    0.435    0.233    5.440
  460.250   73.985    0.428    0.230    5.439
  460.500   73.949    0.420    0.230    5.736
  460.750   73.312    0.401    0.226    5.431
  461.000   74.459    0.373    0.230    5.145
  461.250   78.570    0.361    0.253    4.617
  461.500   82.672    0.398    0.260    4.219
  461.750   85.001    0.445    0.261    3.461
  462.000   86.138    0.463    0.254    3.397
  462.250   86.694    0.465    0.240    3.583
  462.500   86.658    0.438    0.232    3.580
  462.750   86.030    0.413    0.230    3.515
  463.000   87.177    0.432    0.229    3.212
  463.250   88.332    0.468    0.229    2.987
  463.500   90.661    0.485    0.232    2.830
  463.750   90.625    0.484    0.237    3.038
  464.000   89.998    0.489    0.249    3.148
  464.250   88.779    0.512    0.253    3.441
  464.500   86.960    0.482    0.233    3.629
  464.750   86.333    0.452    0.231    3.759
  465.000   85.106    0.453    0.236    3.497
  465.250   85.661    0.456    0.245    3.371
  465.500   86.225    0.457    0.243    3.431
  465.750   89.727    0.461    0.227    3.555
  466.000   90.874    0.453    0.214    3.749
  466.250   90.838    0.443    0.195    3.954
  466.500   91.975    0.433    0.182    4.246
  466.750   93.731    0.445    0.213    4.559
  467.000   96.650    0.457    0.236    4.640
  467.250   99.561    0.457    0.241    4.894
  467.500   98.934    0.428    0.237    5.161
  467.750   96.533    0.425    0.231    5.642
  468.000   94.142    0.406    0.227    6.168
  468.250   89.367    0.395    0.232    6.744
  468.500   86.975    0.397    0.241    7.242
  468.750   82.792    0.400    0.252    7.776
  469.000   79.209    0.392    0.256    8.055
  469.250   74.434    0.385    0.259    8.496
  469.500   73.225    0.384    0.267    8.960
  469.750   74.953    0.411    0.278    9.283
  470.000   76.109    0.417    0.301    9.276
  470.250   78.437    0.426    0.302    8.947
  470.500   81.348    0.413    0.273    8.321
  470.750   81.312    0.372    0.235    7.741
  471.000   78.329    0.369    0.225    7.600
  471.250   75.328    0.369    0.232    7.327
  471.500   77.657    0.380    0.242    7.322
  471.750   79.404    0.388    0.248    7.451
  472.000   80.532    0.384    0.241    7.719
  472.250   80.514    0.381    0.235    7.994
  472.500   81.651    0.377    0.236    8.284
  472.750   83.380    0.374    0.238    8.736
  473.000   84.544    0.373    0.239    9.052
  473.250   87.464    0.375    0.233    9.546
  473.500   90.975    0.379    0.227   10.070
  473.750   96.251    0.382    0.223   11.006
  474.000   98.589    0.388    0.219   11.405
  474.250   98.553    0.393    0.226   12.467
  474.500   94.378    0.398    0.235   13.389
  474.750   88.421    0.396    0.245   15.447
  475.000   83.065    0.387    0.255   18.145
  475.250   77.699    0.355    0.249   22.492
  475.500   66.421    0.334    0.236   25.035
  475.750   64.029    0.331    0.240   26.884
  476.000   59.855    0.319    0.260   25.460
  476.250   55.090    0.330    0.288   22.442
  476.500   54.462    0.345    0.323   18.082
  476.750   59.156    0.345    0.293   15.655
  477.000   66.805    0.333    0.254   13.313
  477.250   72.090    0.339    0.228   12.163
  477.500   78.548    0.368    0.207   11.315
  477.750   79.112    0.382    0.200   11.107
  478.000   77.894    0.374    0.204   11.302
  478.250   74.311    0.371    0.207   11.921
  478.500   70.718    0.366    0.219   12.573
  478.750   72.465    0.369    0.228   13.501
  479.000   81.297    0.384    0.229   14.760
  479.250   81.261    0.384    0.218   16.135
  479.500   68.810    0.370    0.225   16.126
  479.750   63.453    0.352    0.250   14.996
  480.000   55.131    0.351    0.255   14.463
  480.250   62.199    0.353    0.249   13.696
  480.500   73.986    0.356    0.221   12.971
  480.750   76.297    0.358    0.210   12.507
  481.000   76.870    0.364    0.209   12.059
  481.250   78.016    0.389    0.234   12.054
  481.500   79.745    0.415    0.261   11.833
  481.750   80.309    0.443    0.268   11.614
  482.000   82.047    0.461    0.281   11.608
  482.250   79.646    0.394    0.253   13.390
  482.500   73.098    0.354    0.227   14.907
  482.750   67.741    0.331    0.228   17.198
  483.000   61.793    0.342    0.274   15.996
  483.250   61.757    0.355    0.293   13.363
  483.500   69.998    0.384    0.273   11.569
  483.750   78.830    0.412    0.231   10.015
  484.000   83.514    0.404    0.216    9.831
  484.250   85.843    0.363    0.202   10.184
  484.500   85.216    0.353    0.203   10.365
  484.750   82.815    0.345    0.207   10.736
  485.000   80.414    0.370    0.209   11.322
  485.250   79.205    0.373    0.215   11.942
  485.500   76.804    0.373    0.219   12.373
  485.750   73.221    0.368    0.225   13.048
  486.000   70.820    0.358    0.236   13.762
  486.250   66.045    0.345    0.252   14.516
  486.500   61.871    0.336    0.254   15.036
  486.750   57.096    0.337    0.259   15.301
