~VERSION INFORMATION
 VERS.                 2.0:   CWLS LOG ASCII STANDARD -VERSION 2.0
 WRAP.                  NO:   ONE LINE PER DEPTH STEP
~WELL INFORMATION BLOCK
#MNEM.UNIT           DATA                    DESCRIPTION OF MNEMONIC
#---------    -------------------            -------------------------------
# Generated from Intellog Unique Number	CW_73_75/WELL/591
WELL.         ASHLAND ET AL MCMILLAN 06-31   : Well_name    - WELL
LOC .         00/06-31-074-19W4/0            : Location     - LOCATION
UWI .         00/06-31-074-19W4/0            : Uwi          - UNIQUE WELL ID
ENTR.         JAYE                           : Entered      - ENTERED BY
SRVC.         WESTERN ATLAS                  : Scn          - SERVICE COMPANY
DATE.         17 JAN 76                      : Date         - LOG DATE
STRT.M        298.704                        : top_depth    - START DEPTH
STOP.M        508.954                        : bot_depth    - STOP DEPTH
STEP.M        0.25                           : increment    - STEP LENGTH
 NULL. -999.2500:NULL Value
~CURVE INFORMATION BLOCK
#MNEM UNIT       ERCB CURVE CODE    CURVE DESCRIPTION
#-----------   ------------------   ----------------------------------
DEPT.M        00 001 00 00         : DEPTH        - DEPTH
ILD .OHMM     00 120 00 00         : RESD         - DEEP RESISTIVITY (DIL)
GR  .API      00 310 00 00         : GR           - GAMMA RAY
CALI.MM       00 280 01 00         : CAL          - CALIPER
NPHI.V/V      00 330 00 00         : PHIN         - NEUTRON POROSITY (SANDSTONE)
DPHI.V/V      00 890 00 00         : PHID         - DENSITY POROSITY (SANDSTONE)
COND.MMHO                          : COND         - DEEP CONDUCTIVITY (DIL)
~PARAMETER INFORMATION
#MNEM.UNIT           DATA             DESCRIPTION OF MNEMONIC
#---------         -----------     ------------------------------
GL  .M        616.61               : gl           - GROUND LEVEL ELEVATION
EREF.M        619.658              : kb           - ELEVATION OF DEPTH REFERENCE
DATM.M        616.61               : datum        - DATUM ELEVATION
TDD .M        514.502              : tdd          - TOTAL DEPTH DRILLER
RUN .         ONE                  : Run          - RUN NUMBER
BASE.         EDMONTON             : Branch       - HOME BASE OF LOGGING UNIT
MATR.         SANDSTONE            : Logunit      - NEUTRON MATRIX
TMAX.C        23.8889              : BHT          - MAXIMUM RECORDED TEMPERATURE
BHTD.M        512.978              : BHTDEP       - MAXIMUM RECORDED TEMPERATURE
RMT .C        -15.7222             : MDTP         - TEMPERATURE OF MUD
MUDD.KG/M     0                    : MWT          - MUD DENSITY
NEUT.         1                    : NEUTRON      - NEUTRON TYPE
RESI.         0                    : RESIST       - RESISTIVITY TYPE
RM  .OHMM     4                    : RM           - RESISTIVITY OF MUD
RMC .OHMM     0                    : RMC          - RESISTIVITY OF MUD CAKE
RMF .OHMM     3.9                  : RMF          - RESISTIVITY OF MUD FILTRATE
SUFT.C        -17.7778             : SUFT         - SURFACE TEMPERATURE
~A  DEPTH     RESD       GR      CAL     PHIN     PHID     COND
# ...
  329.954    7.674  113.841  237.246    0.402    0.226  130.306
  330.204    7.298   99.953  234.628    0.400    0.249  137.025
  330.454    7.880   77.222  230.762    0.394    0.285  126.897
  330.704    8.742   77.272  229.283    0.386    0.301  114.393
  330.954   10.171   80.945  229.783    0.385    0.306   98.321
  331.204   14.416   80.196  230.699    0.402    0.304   69.368
  331.454   17.710   81.228  230.472    0.401    0.297   56.466
  331.704   20.695   79.252  229.413    0.393    0.292   48.321
  331.954   24.291   81.082  226.067    0.391    0.292   41.167
  332.204   26.060   83.280  221.783    0.401    0.307   38.373
  332.454   25.546   85.602  215.941    0.420    0.316   39.145
  332.704   17.679   89.397  209.164    0.446    0.325   56.566
  332.954   10.867   91.411  203.634    0.433    0.352   92.019
  333.204    7.462   87.839  209.955    0.418    0.380  134.012
  333.454    5.526   88.563  233.538    0.408    0.398  180.960
  333.704    4.481   90.271  246.410    0.411    0.338  223.152
  333.954    4.392   89.093  240.568    0.393    0.282  227.690
  334.204    5.219   90.371  224.640    0.381    0.261  191.602
  334.454    6.247   94.410  193.844    0.378    0.244  160.073
  334.704    8.318   91.452  197.359    0.374    0.227  120.219
  334.954    9.199   87.142  199.730    0.371    0.208  108.706
  335.204    9.531   82.096  201.165    0.372    0.205  104.920
  335.454   10.312   73.303  201.875    0.358    0.189   96.974
  335.704   10.663   74.151  205.494    0.347    0.171   93.782
  335.954   10.576   84.455  207.345    0.355    0.208   94.556
  336.204   10.319   86.653  200.464    0.364    0.256   96.913
  336.454    9.260   81.177  197.012    0.372    0.258  107.993
  336.704    7.924   81.656  200.942    0.379    0.256  126.205
  336.954    8.414   83.732  205.499    0.387    0.255  118.853
  337.204    9.334   80.466  207.452    0.390    0.267  107.141
  337.454   10.436   75.788  207.747    0.395    0.265   95.824
  337.704   11.917   76.698  215.004    0.406    0.253   83.914
  337.954   12.449   81.107  216.751    0.401    0.253   80.327
  338.204   12.211   85.884  216.313    0.396    0.251   81.893
  338.454   10.510   90.048  217.022    0.407    0.246   95.150
  338.704    9.292   90.281  217.939    0.425    0.242  107.616
  338.954    8.568   89.594  219.789    0.417    0.246  116.712
  339.204    7.682   90.687  217.899    0.397    0.254  130.168
  339.454    6.982   93.132  218.295    0.386    0.277  143.228
  339.704    5.967   92.874  222.435    0.380    0.303  167.584
  339.954    5.309   90.161  227.925    0.382    0.339  188.372
  340.204    5.095   90.334  229.049    0.379    0.354  196.279
  340.454    5.249   93.269  226.741    0.369    0.272  190.513
  340.704    5.454   95.591  229.840    0.359    0.231  183.358
  340.954    5.860   99.815  235.539    0.372    0.224  170.656
  341.204    6.657  100.971  238.535    0.397    0.265  150.224
  341.454    6.820   95.494  239.969    0.391    0.290  146.637
  341.704    6.923   82.220  241.405    0.391    0.285  144.436
  341.954    7.316   74.225  242.634    0.378    0.290  136.688
  342.204    8.457   63.653  243.131    0.366    0.307  118.238
  342.454   10.839   54.615  243.946    0.353    0.303   92.258
  342.704   13.476   50.367  249.229    0.358    0.310   74.204
  342.954   17.202   52.320  255.135    0.392    0.320   58.132
  343.204   20.493   54.764  261.562    0.422    0.333   48.798
  343.454   21.369   56.471  267.781    0.452    0.301   46.797
  343.704   21.747   57.074  277.534    0.451    0.300   45.984
  343.954   23.484   57.185  284.790    0.443    0.306   45.171
  344.204   26.189   58.770  288.722    0.433    0.315   43.367
  344.454   28.513   60.722  292.237    0.418    0.333   39.583
  344.704   32.396   54.694  295.960    0.424    0.348   36.788
  344.954   35.499   54.313  300.306    0.432    0.344   33.796
  345.204   37.813   54.670  303.094    0.420    0.325   29.416
  345.454   39.354   54.106  305.467    0.398    0.316   25.632
  345.704   41.672   52.436  307.111    0.386    0.314   21.054
  345.954   43.992   51.504  306.882    0.383    0.316   17.269
  346.204   48.654   52.658  302.600    0.395    0.320   13.879
  346.454   51.761   56.761  290.727    0.395    0.310   11.680
  346.704   57.601   57.853  280.622    0.394    0.305    8.092
  346.954   60.705   56.491  275.299    0.393    0.311    5.497
  347.204   56.756   57.646  268.832    0.393    0.321    4.487
  347.454   53.988   60.152  261.118    0.394    0.332    3.872
  347.704   50.830   60.201  253.510    0.390    0.338    3.852
  347.954   47.269   56.690  254.945    0.382    0.333    5.418
  348.204   44.900   54.897  255.965    0.376    0.319    6.587
  348.454   41.737   53.167  258.856    0.369    0.311    8.351
  348.704   40.923   50.638  259.357    0.363    0.306   10.311
  348.954   40.896   52.283  246.755    0.358    0.303   11.284
  349.204   39.687   52.026  225.837    0.361    0.310   13.047
  349.454   38.097   51.953  213.444    0.359    0.318   14.216
  349.704   34.540   51.511  201.988    0.354    0.298   15.386
  349.954   30.595   50.700  195.833    0.349    0.286   15.365
  350.204   26.653   50.321  193.214    0.346    0.294   16.337
  350.454   23.099   49.020  192.154    0.349    0.310   19.686
  350.704   19.937   46.306  191.822    0.346    0.303   25.810
  350.954   29.485   46.048  191.905    0.343    0.296   33.916
  351.204   22.032   47.143  192.196    0.342    0.290   45.390
  351.454   18.026   48.420  193.215    0.342    0.300   55.476
  351.704   16.286   47.855  193.615    0.342    0.302   61.402
  351.954   15.075   45.695  193.697    0.343    0.294   66.337
  352.204   14.031   46.481  194.092    0.347    0.281   71.272
  352.454   12.987   48.189  195.219    0.351    0.282   76.999
  352.704   11.833   49.036  195.301    0.367    0.347   84.510
  352.954   10.483   47.674  193.827    0.374    0.355   95.390
  353.204    9.171   49.014  192.244    0.368    0.322  109.044
  353.454    8.216   54.281  191.601    0.366    0.311  121.707
  353.704    7.896   53.533  191.479    0.364    0.305  126.642
  353.954    7.998   51.924  191.874    0.364    0.300  125.037
  354.204    8.288   52.405  192.895    0.361    0.288  120.657
  354.454    8.734   55.155  193.499    0.358    0.279  114.493
  354.704    9.316   55.327  193.686    0.368    0.283  107.340
  354.954    9.750   55.746  192.212    0.381    0.298  102.564
  355.204    9.886   59.725  191.255    0.394    0.306  101.157
  355.454    9.339   62.414  191.444    0.400    0.324  107.082
  355.704    8.865   60.624  191.840    0.400    0.344  112.809
  355.954    8.551   57.910  192.440    0.398    0.353  116.951
  356.204    8.382   55.627  193.774    0.386    0.343  119.310
  356.454    8.260   54.325  194.586    0.386    0.351  121.072
  356.704    8.455   55.848  194.982    0.388    0.357  118.277
  356.954    8.600   55.959  194.756    0.380    0.356  116.278
  357.204    8.827   55.640  194.112    0.376    0.346  113.284
  357.454    8.970   55.691  182.758    0.371    0.325  111.482
  357.704    9.302   52.854  178.683    0.361    0.322  107.498
  357.954    9.533   50.202  185.006    0.362    0.319  104.902
  358.204    9.756   51.418  197.150    0.377    0.316  102.504
  358.454   10.029   50.302  198.378    0.388    0.306   99.710
  358.704   10.152   51.579  195.657    0.378    0.312   98.501
  358.954   10.237   49.418  195.636    0.380    0.309   97.688
  359.204   10.239   46.889  198.316    0.381    0.305   97.668
  359.454   10.077   45.957  198.402    0.391    0.307   99.233
  359.704    9.843   48.278  198.279    0.381    0.321  101.592
  359.954    9.694   50.107  201.067    0.377    0.331  103.159
  360.204    9.477   50.956  202.503    0.378    0.322  105.517
  360.454    9.219   49.655  194.373    0.372    0.318  108.469
  360.704    9.007   49.090  191.336    0.369    0.329  111.025
  360.954    8.897   49.263  191.733    0.376    0.338  112.393
