~VERSION INFORMATION
 VERS.                 2.0:   CWLS LOG ASCII STANDARD -VERSION 2.0
 WRAP.                  NO:   ONE LINE PER DEPTH STEP
~WELL INFORMATION BLOCK
#MNEM.UNIT           DATA                    DESCRIPTION OF MNEMONIC
#---------    -------------------            -------------------------------
# Generated from Intellog Unique Number	CN_94_101/WELL/2610
WELL.         PARAMOUNT RESOURCES LTD.       : Well_name    - WELL
LOC .         00/08-16-094-18W4/0            : Location     - LOCATION
UWI .         00/08-16-094-18W400            : Uwi          - UNIQUE WELL ID
ENTR.         JOETTE                         : Entered      - ENTERED BY
SRVC.         COMPUTALOG                     : Scn          - SERVICE COMPANY
DATE.         06/18/92                       : Date         - LOG DATE
STRT.M        90                             : top_depth    - START DEPTH
STOP.M        268                            : bot_depth    - STOP DEPTH
STEP.M        0.25                           : increment    - STEP LENGTH
 NULL. -999.2500:NULL Value
~CURVE INFORMATION BLOCK
#MNEM UNIT       ERCB CURVE CODE    CURVE DESCRIPTION
#-----------   ------------------   ----------------------------------
DEPT.M        00 001 00 00         : DEPTH        - DEPTH
CALI.MM       00 280 01 00         : CAL          - CALIPER
GR  .API      00 310 00 00         : GR           - GAMMA RAY
NPHI.V/V      00 330 00 00         : PHIN         - NEUTRON POROSITY (SANDSTONE)
DPHI.V/V      00 890 00 00         : PHID         - DENSITY POROSITY (SANDSTONE)
ILD .OHMM     00 120 00 00         : RESD         - DEEP RESISTIVITY (DIL)
~PARAMETER INFORMATION
#MNEM.UNIT           DATA             DESCRIPTION OF MNEMONIC
#---------         -----------     ------------------------------
GL  .M        537.5                : gl           - GROUND LEVEL ELEVATION
EREF.M        541.3                : kb           - ELEVATION OF DEPTH REFERENCE
DATM.M        541.3                : datum        - DATUM ELEVATION
TDD .M        269                  : tdd          - TOTAL DEPTH DRILLER
RUN .         ONE                  : Run          - RUN NUMBER
ENG .         JO                   : Engineer     - RECORDING ENGINEER
WIT .         TIM                  : Witness      - WITNESSED BY
MUD .         GEL                  : Mud_type     - MUD TYPE
MATR.         SANDSTONE            : Logunit      - NEUTRON MATRIX
TMAX.C        26                   : BHT          - MAXIMUM RECORDED TEMPERATURE
BHTD.M        269                  : BHTDEP       - MAXIMUM RECORDED TEMPERATURE
RMT .C        14.4                 : MDTP         - TEMPERATURE OF MUD
MUDD.KG/M     1080                 : MWT          - MUD DENSITY
NEUT.         1                    : NEUTRON      - NEUTRON TYPE
RESI.         0                    : RESIST       - RESISTIVITY TYPE
RM  .OHMM     3                    : RM           - RESISTIVITY OF MUD
RMC .OHMM     3                    : RMC          - RESISTIVITY OF MUD CAKE
RMF .OHMM     3                    : RMF          - RESISTIVITY OF MUD FILTRATE
SUFT.C        4                    : SUFT         - SURFACE TEMPERATURE
~A  DEPTH      CAL       GR     PHIN     PHID     RESD
# ...
  126.500  166.426   87.235    0.474    0.280    8.679
  126.750  166.504   92.111    0.485    0.278    5.058
  127.000  168.685   92.173    0.493    0.282    4.614
  127.250  169.763   92.235    0.502    0.276    4.369
  127.500  170.814   94.097    0.494    0.270    4.714
  127.750  171.917   99.572    0.493    0.275    5.280
  128.000  172.021   96.620    0.494    0.293    6.027
  128.250  169.127   81.676    0.483    0.311    6.501
  128.500  162.261   71.544    0.450    0.307    7.424
  128.750  163.364   71.007    0.479    0.152    7.859
  129.000  167.440   77.665    0.394    0.099    8.175
  129.250  165.571   70.532    0.318    0.172    8.033
  129.500  161.652   67.012    0.352    0.253    7.746
  129.750  161.756   73.655    0.420    0.257    6.807
  130.000  169.855   86.925    0.457    0.260    6.096
  130.250  174.982   90.617    0.467    0.277    5.667
  130.500  172.088   91.248    0.460    0.295    5.673
  130.750  169.193   91.909    0.448    0.285    5.679
  131.000  166.299   89.573    0.436    0.273    5.903
  131.250  169.401   84.854    0.443    0.264    6.141
  131.500  175.502   86.131    0.454    0.278    6.263
  131.750  175.606   83.164    0.461    0.286    6.508
  132.000  171.712   77.830    0.449    0.280    6.767
  132.250  165.846   79.691    0.456    0.276    6.904
  132.500  161.952   85.166    0.473    0.266    6.916
  132.750  161.056   90.641    0.477    0.255    6.921
  133.000  167.183   91.303    0.466    0.238    6.933
  133.250  170.259   90.182    0.463    0.244    6.814
  133.500  173.362   89.013    0.468    0.257    6.697
  133.750  176.438   88.492    0.465    0.258    6.583
  134.000  177.567   89.754    0.462    0.253    6.470
  134.250  176.698   91.000    0.472    0.251    6.357
  134.500  175.776   94.060    0.485    0.250    6.248
  134.750  173.907   94.123    0.482    0.254    6.141
  135.000  172.960   97.199    0.467    0.261    6.036
  135.250  171.091   96.662    0.462    0.268    5.932
  135.500  169.170   91.311    0.474    0.272    5.943
  135.750  167.301   93.189    0.485    0.266    5.843
  136.000  167.431   97.448    0.479    0.264    5.847
  136.250  167.535   98.710    0.471    0.280    5.855
  136.500  168.613   95.774    0.466    0.287    5.755
  136.750  168.717   93.438    0.469    0.276    5.656
  137.000  167.847   92.901    0.476    0.271    5.458
  137.250  166.952   92.364    0.483    0.270    5.265
  137.500  167.030   93.025    0.488    0.267    5.080
  137.750  169.133   93.703    0.478    0.259    5.085
  138.000  171.287   94.965    0.461    0.257    5.094
  138.250  170.366   93.213    0.457    0.252    5.394
  138.500  169.497   86.679    0.461    0.244    5.821
  138.750  168.575   81.360    0.454    0.231    6.281
  139.000  167.654   79.608    0.443    0.203    6.652
  139.250  166.810   83.268    0.439    0.176    6.663
  139.500  166.888   88.727    0.459    0.174    6.076
  139.750  166.966   98.384    0.481    0.277    5.339
  140.000  166.071  107.457    0.500    0.283    4.605
  140.250  165.201  112.317    0.501    0.282    3.901
  140.500  163.307  111.180    0.500    0.274    3.831
  140.750  164.410  107.644    0.502    0.266    3.838
  141.000  166.513  105.923    0.503    0.258    4.065
  141.250  168.668  105.970    0.500    0.254    4.145
  141.500  169.719  110.230    0.506    0.254    4.392
  141.750  170.874  112.707    0.502    0.258    4.653
  142.000  170.926  109.171    0.505    0.265    4.744
  142.250  170.031  105.620    0.500    0.259    4.841
  142.500  169.135  103.883    0.482    0.239    4.848
  142.750  167.241  105.145    0.463    0.233    4.677
  143.000  165.346  109.421    0.491    0.249    4.268
  143.250  165.502  113.097    0.510    0.260    4.038
  143.500  165.580  110.745    0.530    0.267    3.826
  143.750  166.683  107.209    0.518    0.274    3.902
  144.000  167.787  104.289    0.491    0.270    4.133
  144.250  168.864  103.121    0.480    0.257    4.543
  144.500  168.994   98.386    0.471    0.244    4.902
  144.750  168.072   91.852    0.470    0.248    5.387
  145.000  166.178   92.514    0.467    0.256    5.817
  145.250  164.283   98.589    0.482    0.265    5.933
  145.500  162.440  102.249    0.488    0.274    5.727
  145.750  161.518  105.925    0.477    0.284    5.625
  146.000  161.622   99.376    0.449    0.296    5.430
  146.250  161.726   91.027    0.429    0.296    5.434
  146.500  161.804   82.694    0.423    0.249    5.864
  146.750  161.960   79.159    0.431    0.217    6.693
  147.000  162.038   81.036    0.462    0.194    6.827
  147.250  163.194   84.696    0.459    0.178    6.712
  147.500  165.271   88.341    0.454    0.219    6.595
  147.750  167.399   93.816    0.461    0.241    6.362
  148.000  167.477   92.095    0.469    0.250    6.373
  148.250  169.606   87.944    0.462    0.261    6.500
  148.500  169.658   84.393    0.431    0.291    7.150
  148.750  169.814   77.259    0.433    0.267    7.428
  149.000  168.893   77.322    0.448    0.237    7.581
  149.250  166.998   85.195    0.470    0.228    6.917
  149.500  165.129   91.854    0.477    0.190    6.307
  149.750  166.206   95.530    0.473    0.162    5.860
  150.000  167.284   97.391    0.487    0.202    5.151
  150.250  170.464  102.251    0.502    0.212    4.785
  150.500  171.515  109.509    0.512    0.218    4.447
  150.750  171.593  114.968    0.515    0.240    4.212
  151.000  169.751  117.429    0.503    0.248    4.217
  151.250  168.855  113.294    0.496    0.256    4.222
  151.500  168.959  109.759    0.493    0.262    4.394
  151.750  168.064  106.223    0.496    0.264    4.481
  152.000  167.168  106.317    0.492    0.267    4.484
  152.250  166.273  106.363    0.488    0.273    4.575
  152.500  166.351  105.826    0.493    0.277    4.669
  152.750  165.507  102.275    0.491    0.282    4.676
  153.000  165.585  102.937    0.485    0.279    4.772
  153.250  165.663  101.800    0.487    0.272    4.775
  153.500  166.793   98.265    0.467    0.269    4.694
  153.750  168.870   97.159    0.482    0.265    4.284
  154.000  171.998  100.204    0.488    0.270    4.132
  154.250  173.075  103.864    0.491    0.280    3.984
  154.500  174.179  105.126    0.486    0.276    4.302
  154.750  174.283  104.620    0.477    0.266    4.728
  155.000  172.388  103.452    0.469    0.256    5.602
  155.250  171.492   94.504    0.460    0.260    6.157
  155.500  173.595   87.386    0.443    0.295    6.898
  155.750  172.752   83.235    0.424    0.300    7.171
  156.000  164.808   83.313    0.425    0.296    7.454
  156.250  157.942   86.989    0.447    0.264    7.461
  156.500  158.072   88.819    0.469    0.236    6.934
  156.750  159.124   92.479    0.486    0.204    6.689
  157.000  162.252   97.954    0.475    0.178    6.577
  157.250  164.381  101.015    0.454    0.134    6.586
  157.500  164.511   98.679    0.440    0.121    6.846
  157.750  164.589   98.141    0.494    0.149    6.982
  158.000  164.693  107.798    0.506    0.223    6.743
  158.250  163.797  113.273    0.509    0.229    6.498
  158.500  162.928  114.535    0.503    0.229    5.606
  158.750  161.980  113.998    0.492    0.229    5.018
  159.000  161.137  111.062    0.483    0.230    4.249
  159.250  161.189  107.526    0.503    0.239    3.949
  159.500  162.292  110.587    0.525    0.264    3.670
  159.750  165.395  111.849    0.526    0.288    3.539
  160.000  167.523  111.311    0.538    0.295    3.351
  160.250  164.629  109.590    0.545    0.293    3.234
  160.500  164.733  107.254    0.526    0.296    3.118
  160.750  165.837  105.518    0.512    0.301    3.009
  161.000  164.941  107.979    0.519    0.302    2.903
  161.250  163.046  109.240    0.518    0.301    2.853
  161.500  160.152  107.488    0.515    0.311    2.806
  161.750  160.256  103.368    0.530    0.323    2.808
  162.000  161.359  103.431    0.555    0.318    2.811
  162.250  162.489  103.478    0.538    0.313    2.979
  162.500  163.592  102.956    0.507    0.304    3.038
  162.750  165.721  101.235    0.483    0.295    3.278
