~VERSION INFORMATION
 VERS.                 2.0:   CWLS LOG ASCII STANDARD -VERSION 2.0
 WRAP.                  NO:   ONE LINE PER DEPTH STEP
~WELL INFORMATION BLOCK
#MNEM.UNIT           DATA                    DESCRIPTION OF MNEMONIC
#---------    -------------------            -------------------------------
# Generated from Intellog Unique Number	CC_80_83/WELL/1044
NULL.         -999.25                        : NULL_VALUE
LOC .         01-27-080-14W4                 : Location     - LOCATION          
UWI .         00/01-27-080-14W4/0            : Uwi          - UNIQUE WELL ID    
ENTR.         DW                             : Entered      - ENTERED BY        
SRVC.         SCHLUMBERGER                   : Scn          - SERVICE COMPANY   
STRT.M        240                            : top_depth    - START DEPTH       
STOP.M        474.75                         : bot_depth    - STOP DEPTH        
STEP.M        0.25                           : increment    - STEP LENGTH       
~CURVE INFORMATION BLOCK
#MNEM UNIT       ERCB CURVE CODE    CURVE DESCRIPTION
#-----------   ------------------   ----------------------------------
DEPT.M        00 001 00 00         : DEPTH        - DEPTH                       
GR  .API      00 310 00 00         : GR           - GAMMA RAY                   
DPHI.V/V      00 890 00 00         : PHID         - DENSITY POROSITY (SANDSTONE)
NPHI.V/V      00 330 00 00         : PHIN         - NEUTRON POROSITY (SANDSTONE)
ILD .OHMM     00 120 00 00         : RESD         - DEEP RESISTIVITY (DIL)      
~PARAMETER INFORMATION       
#MNEM.UNIT           DATA             DESCRIPTION OF MNEMONIC
#---------         -----------     ------------------------------
GL  .M        663.1                : gl           - GROUND LEVEL ELEVATION      
EREF.M        667.1                : kb           - ELEVATION OF DEPTH REFERENCE
DATM.M        667.1                : datum        - DATUM ELEVATION             
TDD .M        477                  : tdd          - TOTAL DEPTH DRILLER         
RUN .         ONE                  : Run          - RUN NUMBER                  
ENG .         BILL                 : Engineer     - RECORDING ENGINEER          
WIT .         JIM                  : Witness      - WITNESSED BY                
MUD .         GEL                  : Mud_type     - MUD TYPE                    
MATR.         SANDSTONE            : Logunit      - NEUTRON MATRIX              
TMAX.C        21.1                 : BHT          - MAXIMUM RECORDED TEMPERATURE
BHTD.M        477                  : BHTDEP       - MAXIMUM RECORDED TEMPERATURE
MATR.         1                    : LOGUNIT      - NEUTRON MATRIX              
RMT .C        25                   : MDTP         - TEMPERATURE OF MUD          
NEUT.         1                    : NEUTRON      - NEUTRON TYPE                
RESI.         0                    : RESIST       - RESISTIVITY TYPE            
RMC .OHMM     0.25                 : RMC          - RESISTIVITY OF MUD CAKE     
RMF .OHMM     0.25                 : RMF          - RESISTIVITY OF MUD FILTRATE 
SUFT.C        15                   : SUFT         - SURFACE TEMPERATURE         
~A  DEPTH       GR     PHID     PHIN     RESD
# ...
  327.000   58.957    0.314    0.450   16.918
  327.250   61.013    0.309    0.446   16.937
  327.500   62.740    0.324    0.437   16.680
  327.750   58.375    0.333    0.426   16.551
  328.000   55.093    0.330    0.419   16.581
  328.250   58.391    0.328    0.420   16.565
  328.500   60.198    0.325    0.431   16.557
  328.750   60.326    0.315    0.437   16.526
  329.000   59.096    0.325    0.438   16.791
  329.250   57.059    0.326    0.436   16.830
  329.500   56.791    0.316    0.434   17.052
  329.750   57.723    0.318    0.437   17.570
  330.000   55.829    0.330    0.445   17.500
  330.250   52.553    0.340    0.441   17.226
  330.500   52.033    0.344    0.424   16.901
  330.750   54.626    0.332    0.424   16.837
  331.000   57.502    0.310    0.436   16.727
  331.250   59.389    0.293    0.441   16.463
  331.500   60.858    0.298    0.452   16.485
  331.750   60.444    0.333    0.463   16.482
  332.000   59.314    0.342    0.464   16.477
  332.250   58.825    0.334    0.439   16.455
  332.500   59.272    0.334    0.421   16.506
  332.750   59.593    0.330    0.431   16.380
  333.000   60.283    0.307    0.442   15.825
  333.250   64.501    0.296    0.447   15.557
  333.500   66.772    0.312    0.454   15.341
  333.750   67.414    0.326    0.449   15.021
  334.000   64.549    0.328    0.446   14.976
  334.250   60.585    0.329    0.461   15.267
  334.500   62.798    0.321    0.472   15.500
  334.750   65.384    0.308    0.458   15.765
  335.000   61.968    0.320    0.448   15.783
  335.250   59.341    0.321    0.442   15.846
  335.500   61.774    0.302    0.433   15.544
  335.750   67.120    0.293    0.436   14.721
  336.000   69.559    0.302    0.462   14.039
  336.250   62.941    0.312    0.471   13.356
  336.500   63.880    0.305    0.444   12.928
  336.750   68.433    0.288    0.423   12.362
  337.000   74.718    0.272    0.425   11.909
  337.250   81.701    0.263    0.430   11.376
  337.500   82.005    0.259    0.427   10.299
  337.750   79.136    0.262    0.424   10.227
  338.000   74.013    0.275    0.435   10.728
  338.250   69.541    0.290    0.453   11.135
  338.500   60.217    0.309    0.447   12.100
  338.750   50.995    0.328    0.426   13.391
  339.000   56.093    0.327    0.431   13.451
  339.250   64.034    0.298    0.439   12.796
  339.500   68.711    0.278    0.456   12.521
  339.750   64.830    0.285    0.451   12.223
  340.000   56.422    0.305    0.435   11.877
  340.250   51.853    0.316    0.435   12.077
  340.500   51.668    0.316    0.438   12.935
  340.750   50.175    0.329    0.443   14.036
  341.000   48.928    0.333    0.441   14.831
  341.250   50.967    0.331    0.432   15.335
  341.500   57.149    0.330    0.423   15.106
  341.750   64.042    0.320    0.424   14.352
  342.000   67.221    0.292    0.436   13.918
  342.250   67.079    0.275    0.457   13.084
  342.500   62.952    0.290    0.462   12.044
  342.750   58.778    0.320    0.492   11.287
  343.000   59.873    0.343    0.509   10.371
  343.250   66.264    0.345    0.483    8.991
  343.500   75.429    0.316    0.474    7.646
  343.750   87.130    0.278    0.473    6.469
  344.000   87.945    0.247    0.464    6.015
  344.250   88.137    0.248    0.457    5.877
  344.500   94.412    0.256    0.457    5.897
  344.750  100.324    0.258    0.461    6.117
  345.000  100.076    0.275    0.466    6.188
  345.250   94.052    0.289    0.487    5.926
  345.500   88.042    0.286    0.540    5.396
  345.750   90.801    0.284    0.524    4.986
  346.000   99.083    0.274    0.504    4.675
  346.250  103.674    0.250    0.549    4.292
  346.500  100.639    0.243    0.564    3.966
  346.750   92.523    0.249    0.549    3.774
  347.000   96.112    0.245    0.541    3.637
  347.250   98.355    0.244    0.539    3.587
  347.500   97.046    0.244    0.528    3.622
  347.750   98.544    0.238    0.511    3.683
  348.000   98.282    0.240    0.508    3.740
  348.250   96.276    0.260    0.528    3.797
  348.500   93.381    0.273    0.533    3.898
  348.750   87.180    0.276    0.525    4.081
  349.000   82.049    0.264    0.544    4.246
  349.250   83.737    0.255    0.568    4.395
  349.500   88.441    0.275    0.537    4.611
  349.750   88.498    0.297    0.501    4.696
  350.000   89.072    0.296    0.525    4.680
  350.250   90.394    0.294    0.545    4.780
  350.500   91.134    0.287    0.536    4.922
  350.750   90.582    0.261    0.515    5.143
  351.000   88.387    0.241    0.480    5.806
  351.250   86.767    0.264    0.460    6.838
  351.500   85.206    0.266    0.447    7.571
  351.750   78.699    0.249    0.468    7.826
  352.000   74.058    0.243    0.500    7.891
  352.250   77.905    0.248    0.493    7.810
  352.500   83.542    0.248    0.466    7.710
  352.750   84.501    0.252    0.465    8.359
  353.000   80.705    0.281    0.463    8.807
  353.250   74.931    0.306    0.478    9.397
  353.500   71.383    0.313    0.496    9.678
  353.750   70.134    0.313    0.471    9.201
  354.000   73.127    0.301    0.424    8.280
  354.250   89.830    0.264    0.450    6.349
  354.500  100.881    0.251    0.511    4.730
  354.750  104.423    0.266    0.557    3.847
  355.000  102.186    0.275    0.568    3.238
  355.250   97.959    0.253    0.554    2.759
  355.500   99.066    0.225    0.540    2.669
  355.750  101.222    0.238    0.550    2.756
  356.000  101.575    0.257    0.559    2.812
  356.250   96.202    0.258    0.560    2.828
  356.500   92.352    0.252    0.554    2.516
  356.750   95.668    0.263    0.541    1.729
  357.000   99.717    0.289    0.543    0.898
  357.250  100.619    0.304    0.579    0.498
  357.500   97.418    0.315    0.585    0.464
  357.750   94.391    0.319    0.578    0.442
  358.000   92.935    0.307    0.594    0.976
  358.250   92.181    0.291    0.611    2.105
  358.500   92.249    0.288    0.580    3.056
  358.750   91.830    0.285    0.530    4.147
  359.000   90.764    0.263    0.525    4.552
  359.250   92.863    0.241    0.537    4.483
  359.500   95.221    0.244    0.545    4.257
  359.750   93.478    0.255    0.549    4.007
  360.000   89.729    0.242    0.527    3.890
  360.250   86.946    0.238    0.482    3.754
  360.500   86.730    0.244    0.482    3.807
  360.750   88.801    0.241    0.505    4.057
  361.000   91.439    0.232    0.519    4.251
  361.250   92.142    0.237    0.523    4.279
  361.500   89.758    0.251    0.522    4.361
  361.750   86.560    0.240    0.508    4.705
  362.000   85.119    0.229    0.481    5.216
  362.250   87.194    0.233    0.462    5.540
  362.500   90.284    0.242    0.452    5.868
  362.750   90.971    0.239    0.444    6.366
  363.000   90.463    0.223    0.440    6.635
  363.250   92.511    0.214    0.447    6.533
  363.500   94.063    0.232    0.462    6.424
  363.750   93.952    0.248    0.481    6.244
  364.000   93.335    0.242    0.501    5.792
  364.250   91.770    0.232    0.503    5.272
  364.500   89.215    0.228    0.475    5.057
  364.750   90.093    0.213    0.472    5.100
  365.000   91.991    0.203    0.496    5.535
  365.250   92.116    0.222    0.501    5.685
  365.500   90.013    0.258    0.506    5.463
  365.750   86.590    0.284    0.519    5.347
  366.000   83.001    0.296    0.503    5.453
  366.250   80.342    0.307    0.485    5.687
  366.500   78.753    0.313    0.467    6.320
  366.750   79.534    0.318    0.456    6.987
  367.000   80.997    0.292    0.441    7.784
  367.250   79.082    0.250    0.460    8.579
  367.500   69.816    0.201    0.484    8.791
  367.750   54.828    0.063    0.312    8.921
  368.000   54.708    0.102    0.252    9.230
  368.250   62.457    0.207    0.317   10.080
  368.500   75.349    0.250    0.397   10.878
  368.750   88.482    0.259    0.436   10.697
  369.000   88.625    0.268    0.425    9.829
  369.250   85.363    0.274    0.432    9.388
  369.500   84.588    0.276    0.439    8.589
  369.750   85.788    0.263    0.444    7.964
  370.000   85.990    0.256    0.453    7.697
  370.250   84.713    0.254    0.464    7.468
