~VERSION INFORMATION
 VERS.                 2.0:   CWLS LOG ASCII STANDARD -VERSION 2.0
 WRAP.                  NO:   ONE LINE PER DEPTH STEP
~WELL INFORMATION BLOCK
#MNEM.UNIT           DATA                    DESCRIPTION OF MNEMONIC
#---------    -------------------            -------------------------------
# Generated from Intellog Unique Number	CX_WELLS/WELL/2567
WELL.         SIEBENS COWFAR                 : Well_name    - WELL
LOC .         00/06-34-080-03W4/0            : Location     - LOCATION
UWI .         00/06-34-080-03W400            : Uwi          - UNIQUE WELL ID
ENTR.         T                              : Entered      - ENTERED BY
SRVC.         SCHLUMBERGER                   : Scn          - SERVICE COMPANY
STRT.F        300                            : top_depth    - START DEPTH
STOP.F        970.112                        : bot_depth    - STOP DEPTH
STEP.F        0.82                           : increment    - STEP LENGTH
 NULL. -999.2500:NULL Value
~CURVE INFORMATION BLOCK
#MNEM UNIT       ERCB CURVE CODE    CURVE DESCRIPTION
#-----------   ------------------   ----------------------------------
DEPT.F        00 001 00 00         : DEPTH        - DEPTH
GR  .API      00 310 00 00         : GR           - GAMMA RAY
NPHI.V/V      00 330 00 00         : PHIN         - NEUTRON POROSITY (SANDSTONE)
DPHI.V/V      00 890 00 00         : PHID         - DENSITY POROSITY (SANDSTONE)
ILD .OHMM     00 120 00 00         : RESD         - DEEP RESISTIVITY (DIL)
~PARAMETER INFORMATION
#MNEM.UNIT           DATA             DESCRIPTION OF MNEMONIC
#---------         -----------     ------------------------------
GL  .F        1635                 : gl           - GROUND LEVEL ELEVATION
EREF.F        1647                 : kb           - ELEVATION OF DEPTH REFERENCE
DATM.F        1647                 : datum        - DATUM ELEVATION
TDD .F        1018                 : tdd          - TOTAL DEPTH DRILLER
RUN .         ONE                  : Run          - RUN NUMBER
ENG .         BILL                 : Engineer     - RECORDING ENGINEER
WIT .         JIM                  : Witness      - WITNESSED BY
MUD .         GEL                  : Mud_type     - MUD TYPE
MATR.         SANDSTONE            : Logunit      - NEUTRON MATRIX
TMAX.F        71.6                 : BHT          - MAXIMUM RECORDED TEMPERATURE
BHTD.F        1018                 : BHTDEP       - MAXIMUM RECORDED TEMPERATURE
MATR.         1                    : LOGUNIT      - NEUTRON MATRIX
RMT .F        77                   : MDTP         - TEMPERATURE OF MUD
NEUT.         1                    : NEUTRON      - NEUTRON TYPE
RESI.         6.29                 : RESIST       - RESISTIVITY TYPE
RMC .OHMM     7.15                 : RMC          - RESISTIVITY OF MUD CAKE
RMF .OHMM     7.15                 : RMF          - RESISTIVITY OF MUD FILTRATE
SUFT.F        32                   : SUFT         - SURFACE TEMPERATURE
~A  DEPTH       GR     PHIN     PHID     RESD
  300.000   78.083    0.460    0.282   19.604
  300.820   78.643    0.451    0.282   19.570
  301.640   79.197    0.451    0.271   19.542
  302.461   79.732    0.452    0.197   19.887
  303.281   79.719    0.455    0.222   20.612
  304.101   77.954    0.456    0.236   21.763
  304.921   76.772    0.460    0.272   22.971
  305.741   77.904    0.470    0.296   23.808
  306.562   81.350    0.476    0.318   24.220
  307.382   83.639    0.470    0.319   25.102
  308.202   86.506    0.467    0.314   25.067
  309.022   89.945    0.471    0.307   25.014
  309.843   92.806    0.472    0.299   24.083
  310.663   94.529    0.477    0.288   23.606
  311.483   96.812    0.480    0.289   22.712
  312.303   99.095    0.485    0.289   21.427
  313.123  100.233    0.486    0.287   21.017
  313.944  101.944    0.483    0.282   20.601
  314.764  103.063    0.480    0.276   19.442
  315.584  104.195    0.485    0.272   18.712
  316.404  106.490    0.492    0.264   17.340
  317.224  110.515    0.489    0.256   16.382
  318.045  112.803    0.484    0.248   14.627
  318.865  112.773    0.483    0.239   13.818
  319.685  112.754    0.483    0.238   11.664
  320.505  110.410    0.480    0.245   10.617
  321.325  109.228    0.472    0.262    9.480
  322.146  109.197    0.464    0.256    8.791
  322.966  108.016    0.470    0.246    7.994
  323.786  106.256    0.475    0.235    7.691
  324.606  104.490    0.483    0.220    7.541
  325.427  102.152    0.489    0.202    7.528
  326.247  100.398    0.494    0.183    7.799
  327.067   96.312    0.494    0.171    7.940
  327.887   97.451    0.486    0.155    8.381
  328.707   98.564    0.484    0.265    9.353
  329.528   97.401    0.485    0.272   10.642
  330.348   89.851    0.486    0.277   13.283
  331.168   82.886    0.485    0.292   18.202
  331.988   73.607    0.481    0.305   21.891
  332.808   64.900    0.474    0.316   24.440
  333.629   65.448    0.463    0.317   28.299
  334.449   68.321    0.446    0.310   28.810
  335.269   71.767    0.443    0.310   29.849
  336.089   75.212    0.443    0.315   30.936
  336.909   78.073    0.443    0.319   30.892
  337.730   79.206    0.443    0.320   30.269
  338.550   79.181    0.445    0.320   29.670
  339.370   78.578    0.450    0.323   28.546
  340.190   76.812    0.455    0.331   27.465
  341.010   71.003    0.486    0.352   26.921
  341.831   62.303    0.515    0.383   26.378
  342.651   57.072    0.571    0.437   26.835
  343.471   54.143    0.585    0.472   27.823
  344.291   54.112    0.541    0.334   30.468
  345.112   54.100    0.441    0.332   31.589
  345.932   54.069    0.436    0.330   33.956
  346.752   55.786    0.434    0.327   34.557
  347.572   66.751    0.429    0.317   35.168
  348.392   80.608    0.425    0.312   35.105
  349.213   90.415    0.427    0.303   34.422
  350.033   97.904    0.429    0.292   30.734
  350.853  103.663    0.429    0.256   27.441
  351.673  110.579    0.430    0.224   24.978
  352.493  109.976    0.430    0.226   21.099
  353.314  107.059    0.430    0.239   15.071
  354.134  102.401    0.430    0.258   13.456
  354.954   98.906    0.430    0.271   13.442
  355.774   93.676    0.437    0.303   15.289
  356.594   81.505    0.519    0.333   18.042
  357.415   69.328    0.560    0.390   20.913
  358.235   64.098    0.508    0.344   24.688
  359.055   50.185    0.438    0.298   29.144
  359.875   46.100    0.442    0.319   33.136
  360.696   47.232    0.443    0.326   35.657
  361.516   48.376    0.441    0.336   37.649
  362.336   51.237    0.438    0.338   39.006
  363.156   54.105    0.435    0.336   38.951
  363.976   54.658    0.434    0.325   38.896
  364.797   53.471    0.430    0.316   38.813
  365.617   52.289    0.427    0.319   38.058
  366.437   49.366    0.422    0.324   38.017
  367.257   48.763    0.420    0.329   37.251
  368.077   49.895    0.421    0.325   37.172
  368.898   50.455    0.425    0.322   37.119
  369.718   51.009    0.428    0.324   37.080
  370.538   51.557    0.434    0.327   37.041
  371.358   52.098    0.437    0.329   36.962
  372.178   52.664    0.439    0.330   36.910
  372.999   53.218    0.437    0.334   36.870
  373.819   54.337    0.438    0.335   36.818
  374.639   54.897    0.440    0.336   36.753
  375.459   54.294    0.443    0.336   36.701
  376.280   51.956    0.444    0.335   36.649
  377.100   48.455    0.442    0.332   36.584
  377.920   47.267    0.437    0.331   36.558
  378.740   47.236    0.436    0.328   37.166
  379.560   47.218    0.434    0.328   37.113
  380.381   47.193    0.433    0.330   37.060
  381.201   47.168    0.431    0.336   37.689
  382.021   47.131    0.430    0.340   37.662
  382.841   47.697    0.429    0.343   38.315
  383.661   48.251    0.426    0.344   39.710
  384.482   49.956    0.422    0.342   40.384
  385.302   53.407    0.421    0.341   40.312
  386.122   58.588    0.423    0.337   40.255
  386.942   68.975    0.427    0.332   38.717
  387.762   75.884    0.434    0.328   37.977
  388.583   80.487    0.439    0.311   35.205
  389.403   82.776    0.447    0.298   31.422
  390.223   83.908    0.458    0.290   29.675
  391.043   78.671    0.465    0.285   28.025
  391.864   72.863    0.460    0.284   25.970
  392.684   65.891    0.451    0.283   25.943
  393.504   60.083    0.446    0.282   29.518
  394.324   56.594    0.439    0.282   34.191
  395.144   50.773    0.434    0.287   37.469
  395.965   49.591    0.426    0.296   41.818
  396.785   49.560    0.421    0.307   44.170
  397.605   50.127    0.414    0.314   46.637
  398.425   52.988    0.414    0.313   48.319
  399.245   57.012    0.417    0.312   48.250
  400.066   72.591    0.420    0.305   47.311
  400.886   76.049    0.423    0.303   43.858
  401.706   81.809    0.426    0.296   37.716
  402.526   82.356    0.429    0.293   34.319
  403.346   80.018    0.435    0.303   30.642
  404.167   82.885    0.439    0.299   28.959
  404.987   88.644    0.444    0.286   24.436
  405.807   93.819    0.452    0.282   23.085
  406.627   96.692    0.457    0.282   21.810
  407.448  100.126    0.461    0.281   19.107
  408.268  100.113    0.469    0.278   18.051
  409.088  100.667    0.475    0.275   16.414
  409.908   98.895    0.476    0.267   15.803
  410.728   97.713    0.469    0.254   15.781
  411.549   94.791    0.459    0.234   15.759
  412.369   93.622    0.455    0.237   16.020
  413.189   91.856    0.452    0.242   16.304
  414.009   90.096    0.449    0.250   17.209
  414.829   88.336    0.447    0.268   17.835
  415.650   86.570    0.446    0.279   18.491
  416.470   84.798    0.447    0.287   19.891
  417.290   84.201    0.448    0.295   20.615
  418.110   83.598    0.449    0.303   21.366
  418.930   85.308    0.444    0.309   21.313
  419.751   88.754    0.443    0.311   20.906
  420.571   93.356    0.443    0.306   19.737
  421.391  102.586    0.445    0.268   17.622
  422.211  113.551    0.449    0.253   16.654
  423.031  120.460    0.457    0.245   14.596
  423.852  121.014    0.452    0.241   13.032
  424.672  120.996    0.446    0.239   12.307
  425.492  120.380    0.450    0.239   12.059
  426.312  118.627    0.456    0.242   12.038
  427.133  115.125    0.463    0.248   12.251
  427.953  110.473    0.472    0.259   12.467
  428.773  104.093    0.476    0.282   13.159
  429.593   97.115    0.472    0.314   13.643
  430.413   93.620    0.465    0.323   14.140
  431.234   91.866    0.458    0.315   14.655
  432.054   90.100    0.455    0.290   15.759
  432.874   89.491    0.454    0.290   16.338
  433.694   90.045    0.451    0.304   18.235
  434.514   90.592    0.447    0.306   19.601
  435.335   90.580    0.443    0.294   19.947
  436.155   88.808    0.444    0.281   20.293
  436.975   86.469    0.444    0.273   19.525
  437.795   82.974    0.443    0.262   18.439
  438.615   77.750    0.447    0.254   17.735
  439.436   70.779    0.449    0.259   18.732
  440.256   64.970    0.455    0.273   20.143
  441.076   60.318    0.459    0.283   21.667
  441.896   55.660    0.457    0.305   22.878
