~VERSION INFORMATION
 VERS.                 2.0:   CWLS LOG ASCII STANDARD -VERSION 2.0
 WRAP.                  NO:   ONE LINE PER DEPTH STEP
~WELL INFORMATION BLOCK
#MNEM.UNIT           DATA                    DESCRIPTION OF MNEMONIC
#---------    -------------------            -------------------------------
# Generated from Intellog Unique Number	CW_70_72/WELL/288
NULL.         -999.25                        : NULL_VALUE
WELL.         GULF NORCEN MITSUE 04-31       : Well_name    - WELL              
LOC .         04-31-072-03W5                 : Location     - LOCATION          
UWI .         00/04-31-072-03W5/0            : Uwi          - UNIQUE WELL ID    
ENTR.         JAYE                           : Entered      - ENTERED BY        
SRVC.         COMPUTALOG                     : Scn          - SERVICE COMPANY   
DATE.         18 MAR 83                      : Date         - LOG DATE          
STRT.M        380                            : top_depth    - START DEPTH       
STOP.M        585                            : bot_depth    - STOP DEPTH        
STEP.M        0.25                           : increment    - STEP LENGTH       
~CURVE INFORMATION BLOCK
#MNEM UNIT       ERCB CURVE CODE    CURVE DESCRIPTION
#-----------   ------------------   ----------------------------------
DEPT.M        00 001 00 00         : DEPTH        - DEPTH                       
DPHI.V/V      00 890 00 00         : PHID         - DENSITY POROSITY (SANDSTONE)
NPHI.V/V      00 330 00 00         : PHIN         - NEUTRON POROSITY (SANDSTONE)
GR  .API      00 310 00 00         : GR           - GAMMA RAY                   
CALI.MM       00 280 01 00         : CAL          - CALIPER                     
ILD .OHMM     00 120 00 00         : RESD         - DEEP RESISTIVITY (DIL)      
~PARAMETER INFORMATION       
#MNEM.UNIT           DATA             DESCRIPTION OF MNEMONIC
#---------         -----------     ------------------------------
GL  .M        586.75               : gl           - GROUND LEVEL ELEVATION      
EREF.M        591.4                : kb           - ELEVATION OF DEPTH REFERENCE
DATM.M        586.75               : datum        - DATUM ELEVATION             
TDD .M        1610                 : tdd          - TOTAL DEPTH DRILLER         
RUN .         ONE                  : Run          - RUN NUMBER                  
ENG .         MCEWAN               : Engineer     - RECORDING ENGINEER          
WIT .         BELLMAN              : Witness      - WITNESSED BY                
BASE.         EDM                  : Branch       - HOME BASE OF LOGGING UNIT   
MUD .         GEL                  : Mud_type     - MUD TYPE                    
MATR.         SANDSTONE            : Logunit      - NEUTRON MATRIX              
TMAX.C        48                   : BHT          - MAXIMUM RECORDED TEMPERATURE
BHTD.M        1609                 : BHTDEP       - MAXIMUM RECORDED TEMPERATURE
RMT .C        18.3                 : MDTP         - TEMPERATURE OF MUD          
MUDD.KG/M     1070                 : MWT          - MUD DENSITY                 
NEUT.         1                    : NEUTRON      - NEUTRON TYPE                
RESI.         0                    : RESIST       - RESISTIVITY TYPE            
RM  .OHMM     0.9                  : RM           - RESISTIVITY OF MUD          
RMC .OHMM     1.3                  : RMC          - RESISTIVITY OF MUD CAKE     
RMF .OHMM     0.9                  : RMF          - RESISTIVITY OF MUD FILTRATE 
SUFT.C        0                    : SUFT         - SURFACE TEMPERATURE         
~A  DEPTH     PHID     PHIN       GR      CAL     RESD
  380.000    0.246    0.450   84.706  298.948    2.098
  380.250    0.247    0.439   79.393  297.584    2.081
  380.500    0.255    0.436   75.828  296.114    2.084
  380.750    0.265    0.455   75.572  295.271    2.111
  381.000    0.269    0.461   78.124  289.642    2.175
  381.250    0.266    0.479   80.364  284.326    2.319
  381.500    0.266    0.489   82.418  285.251    2.426
  381.750    0.265    0.492   82.785  289.817    2.528
  382.000    0.261    0.484   78.222  291.574    2.585
  382.250    0.254    0.437   69.975  291.770    2.618
  382.500    0.265    0.441   72.841  292.590    2.648
  382.750    0.276    0.449   77.453  294.454    2.686
  383.000    0.276    0.434   80.691  300.268    2.778
  383.250    0.247    0.414   79.437  296.199    2.917
  383.500    0.222    0.445   77.495  287.969    3.105
  383.750    0.220    0.445   74.492  292.120    3.286
  384.000    0.219    0.399   70.116  283.889    3.431
  384.250    0.209    0.370   65.365  269.833    3.562
  384.500    0.193    0.354   60.115  268.885    3.698
  384.750    0.208    0.382   54.116  267.001    3.585
  385.000    0.253    0.388   49.676  264.598    3.482
  385.250    0.267    0.362   48.483  261.986    3.408
  385.500    0.267    0.349   48.477  260.205    3.299
  385.750    0.258    0.330   49.657  259.881    3.253
  386.000    0.242    0.362   51.023  260.184    3.220
  386.250    0.251    0.371   54.137  261.107    3.206
  386.500    0.262    0.377   56.939  262.241    3.210
  386.750    0.260    0.374   53.312  263.270    3.239
  387.000    0.251    0.375   52.369  264.506    3.212
  387.250    0.240    0.384   53.860  265.743    3.150
  387.500    0.223    0.401   56.350  267.500    3.048
  387.750    0.218    0.402   63.959  268.635    2.938
  388.000    0.219    0.365   69.820  269.976    2.700
  388.250    0.218    0.367   70.000  272.150    2.453
  388.500    0.229    0.398   67.622  275.156    2.234
  388.750    0.258    0.447   65.930  280.138    2.203
  389.000    0.284    0.454   65.424  282.520    2.322
  389.250    0.288    0.449   64.168  281.779    2.602
  389.500    0.270    0.407   62.725  280.936    3.081
  389.750    0.247    0.386   61.095  271.978    3.471
  390.000    0.251    0.385   58.842  260.939    3.773
  390.250    0.261    0.395   54.965  257.806    3.822
  390.500    0.241    0.403   51.026  256.336    3.827
  390.750    0.250    0.407   46.025  255.911    3.876
  391.000    0.267    0.402   44.957  255.692    3.971
  391.250    0.268    0.387   49.195  255.888    3.998
  391.500    0.260    0.346   54.245  256.397    3.998
  391.750    0.254    0.358   55.361  256.593    3.934
  392.000    0.249    0.366   56.416  256.477    3.785
  392.250    0.235    0.379   60.217  256.050    3.552
  392.500    0.220    0.397   60.459  255.727    3.372
  392.750    0.242    0.422   60.141  255.299    3.313
  393.000    0.256    0.446   63.443  255.497    3.388
  393.250    0.242    0.415   62.124  255.590    3.444
  393.500    0.211    0.400   57.062  255.579    3.469
  393.750    0.196    0.397   51.687  255.566    3.414
  394.000    0.217    0.392   50.869  256.493    3.298
  394.250    0.234    0.443   60.849  262.099    3.191
  394.500    0.243    0.450   70.205  268.434    3.059
  394.750    0.240    0.419   73.632  273.313    2.942
  395.000    0.232    0.401   69.879  275.278    2.885
  395.250    0.246    0.413   69.811  271.520    2.911
  395.500    0.271    0.428   73.362  269.637    3.028
  395.750    0.278    0.447   76.227  276.389    3.186
  396.000    0.276    0.441   77.093  285.221    3.397
  396.250    0.269    0.388   71.594  279.487    3.756
  396.500    0.257    0.356   64.034  264.390    3.848
  396.750    0.242    0.340   58.846  251.478    3.788
  397.000    0.261    0.328   53.721  248.967    3.756
  397.250    0.268    0.340   51.280  248.751    3.734
  397.500    0.273    0.351   52.085  248.949    3.731
  397.750    0.273    0.362   49.956  250.289    3.722
  398.000    0.256    0.373   49.200  253.816    3.719
  398.250    0.231    0.389   50.753  257.966    3.725
  398.500    0.225    0.395   51.933  258.369    3.702
  398.750    0.247    0.387   51.926  257.214    3.630
  399.000    0.258    0.375   46.239  255.851    3.472
  399.250    0.261    0.361   48.167  253.966    3.327
  399.500    0.273    0.366   49.971  253.018    3.177
  399.750    0.293    0.372   48.216  251.964    3.005
  400.000    0.311    0.371   41.405  251.748    2.935
  400.250    0.315    0.344   34.470  251.527    2.990
  400.500    0.312    0.339   37.022  251.827    3.146
  400.750    0.301    0.365   40.011  252.650    3.342
  401.000    0.291    0.377   40.254  253.784    3.529
  401.250    0.280    0.367   40.122  255.854    3.692
  401.500    0.267    0.347   41.614  258.755    3.893
  401.750    0.258    0.346   45.165  261.446    4.065
  402.000    0.245    0.336   49.216  263.413    4.204
  402.250    0.233    0.322   54.141  266.001    4.299
  402.500    0.223    0.341   59.190  268.383    4.395
  402.750    0.229    0.360   63.989  269.622    4.495
  403.000    0.225    0.333   69.851  270.026    4.492
  403.250    0.216    0.354   67.159  270.120    4.396
  403.500    0.211    0.417   67.090  271.045    4.011
  403.750    0.248    0.431   72.327  273.009    3.728
  404.000    0.267    0.440   76.877  275.184    3.368
  404.250    0.260    0.456   80.740  279.229    3.037
  404.500    0.249    0.473   81.857  284.108    2.894
  404.750    0.275    0.454   81.414  288.152    2.860
  405.000    0.283    0.414   81.281  290.224    2.930
  405.250    0.258    0.359   79.402  289.693    3.094
  405.500    0.230    0.408   76.899  264.089    3.500
  405.750    0.204    0.440   74.894  262.099    4.313
  406.000    0.236    0.412   76.698  266.563    4.206
  406.250    0.282    0.340   71.136  268.320    3.837
  406.500    0.301    0.349   64.762  240.427    3.567
  406.750    0.289    0.343   56.640  233.550    3.347
  407.000    0.275    0.334   50.579  231.872    3.129
  407.250    0.263    0.356   46.140  231.028    3.023
  407.500    0.261    0.370   49.691  231.121    2.998
  407.750    0.271    0.368   53.617  231.733    3.007
  408.000    0.288    0.328   52.986  232.553    3.052
  408.250    0.284    0.341   48.485  232.958    3.145
  408.500    0.271    0.348   47.355  233.364    3.216
  408.750    0.262    0.333   52.092  233.978    3.307
  409.000    0.244    0.323   52.771  234.799    3.461
  409.250    0.221    0.336   57.135  235.930    3.578
  409.500    0.210    0.347   61.372  236.858    3.765
  409.750    0.209    0.342   63.987  237.783    3.924
  410.000    0.208    0.347   67.850  239.956    4.097
  410.250    0.219    0.368   70.778  244.418    4.230
  410.500    0.231    0.391   73.892  248.777    4.227
  410.750    0.224    0.364   78.379  251.888    4.067
  411.000    0.206    0.345   83.241  254.684    3.853
  411.250    0.230    0.412   84.234  257.066    3.326
  411.500    0.265    0.456   80.357  258.096    2.909
  411.750    0.279    0.480   82.098  256.732    2.559
  412.000    0.297    0.489   86.959  254.535    2.290
  412.250    0.307    0.460   92.134  256.188    2.174
  412.500    0.283    0.417   95.685  258.050    2.301
  412.750    0.268    0.392   89.123  259.288    3.048
  413.000    0.247    0.395   84.435  259.900    3.494
  413.250    0.247    0.410   78.124  261.242    3.711
  413.500    0.258    0.419   74.247  262.895    3.738
  413.750    0.256    0.434   79.484  266.108    3.562
  414.000    0.262    0.444   86.656  267.346    3.394
  414.250    0.275    0.392   84.590  263.274    3.406
  414.500    0.279    0.364   73.533  257.336    3.597
  414.750    0.282    0.366   61.043  239.742    3.828
  415.000    0.281    0.374   54.606  231.408    3.834
  415.250    0.264    0.377   52.977  223.803    3.767
  415.500    0.247    0.371   59.025  220.358    3.728
  415.750    0.244    0.360   65.572  220.451    3.712
  416.000    0.262    0.351   69.374  220.855    3.675
  416.250    0.294    0.354   65.184  222.300    3.638
