~VERSION INFORMATION
 VERS.                 2.0:   CWLS LOG ASCII STANDARD -VERSION 2.0
 WRAP.                  NO:   ONE LINE PER DEPTH STEP
~WELL INFORMATION BLOCK
#MNEM.UNIT           DATA                    DESCRIPTION OF MNEMONIC
#---------    -------------------            -------------------------------
# Generated from Intellog Unique Number	CS_73_76/WELL/768
WELL.         MAYNARD EXPLORATION            : Well_name    - WELL
LOC .         00/07-11-073-12W4/0            : Location     - LOCATION
UWI .         00/07-11-073-12W4/0            : Uwi          - UNIQUE WELL ID
ENTR.         SP                             : Entered      - ENTERED BY
SRVC.         SCHLUMBERGER                   : Scn          - SERVICE COMPANY
STRT.M        300                            : top_depth    - START DEPTH
STOP.M        545                            : bot_depth    - STOP DEPTH
STEP.M        0.25                           : increment    - STEP LENGTH
 NULL. -999.2500:NULL Value
~CURVE INFORMATION BLOCK
#MNEM UNIT       ERCB CURVE CODE    CURVE DESCRIPTION
#-----------   ------------------   ----------------------------------
DEPT.M        00 001 00 00         : DEPTH        - DEPTH
ILD .OHMM     00 120 00 00         : RESD         - DEEP RESISTIVITY (DIL)
DPHI.V/V      00 890 00 00         : PHID         - DENSITY POROSITY (LIMESTONE)
NPHI.V/V      00 330 00 00         : PHIN         - NEUTRON POROSITY (LIMESTONE)
GR  .API      00 310 00 00         : GR           - GAMMA RAY
~PARAMETER INFORMATION
#MNEM.UNIT           DATA             DESCRIPTION OF MNEMONIC
#---------         -----------     ------------------------------
GL  .M        661.5                : gl           - GROUND LEVEL ELEVATION
EREF.M        665                  : kb           - ELEVATION OF DEPTH REFERENCE
DATM.M        661.5                : datum        - DATUM ELEVATION
TDD .M        562                  : tdd          - TOTAL DEPTH DRILLER
RUN .         ONE                  : Run          - RUN NUMBER
ENG .         BILL                 : Engineer     - RECORDING ENGINEER
WIT .         JIM                  : Witness      - WITNESSED BY
MUD .         GEL                  : Mud_type     - MUD TYPE
MATR.         LIMESTONE            : Logunit      - NEUTRON MATRIX
TMAX.C        21                   : BHT          - MAXIMUM RECORDED TEMPERATURE
BHTD.M        562                  : BHTDEP       - MAXIMUM RECORDED TEMPERATURE
MATR.         1                    : LOGUNIT      - NEUTRON MATRIX
RMT .C        25                   : MDTP         - TEMPERATURE OF MUD
NEUT.         1                    : NEUTRON      - NEUTRON TYPE
RESI.         0                    : RESIST       - RESISTIVITY TYPE
RMC .OHMM     0.25                 : RMC          - RESISTIVITY OF MUD CAKE
RMF .OHMM     0.25                 : RMF          - RESISTIVITY OF MUD FILTRATE
SUFT.C        15                   : SUFT         - SURFACE TEMPERATURE
~A  DEPTH     RESD     PHID     PHIN       GR
# ...
  517.500   18.135    0.264    0.385   58.959
  517.750   18.683    0.281    0.379   60.130
  518.000   19.231    0.293    0.377   61.300
  518.250   18.054    0.284    0.362   57.749
  518.500   16.799    0.291    0.349   59.508
  518.750   15.307    0.299    0.334   58.317
  519.000   14.130    0.314    0.327   56.535
  519.250   11.698    0.318    0.322   56.528
  519.500    8.952    0.328    0.329   57.109
  519.750    6.990    0.337    0.333   54.145
  520.000    5.186    0.323    0.332   49.413
  520.250    4.479    0.348    0.341   44.681
  520.500    4.007    0.346    0.350   34.629
  520.750    3.928    0.339    0.339   29.897
  521.000    4.005    0.337    0.331   32.839
  521.250    4.005    0.326    0.318   38.141
  521.500    4.004    0.310    0.303   41.087
  521.750    4.003    0.295    0.287   47.569
  522.000    4.002    0.280    0.272   49.926
  522.250    3.844    0.280    0.283   53.460
  522.500    3.530    0.291    0.288   54.039
  522.750    3.215    0.295    0.300   49.894
  523.000    3.058    0.299    0.308   46.340
  523.250    2.900    0.311    0.319   42.787
  523.500    2.821    0.321    0.325   42.189
  523.750    2.898    0.328    0.327   40.999
  524.000    2.897    0.328    0.326   40.396
  524.250    2.975    0.331    0.329   39.799
  524.500    2.974    0.336    0.334   38.607
  524.750    2.973    0.340    0.339   37.415
  525.000    2.972    0.283    0.340   37.405
  525.250    2.893    0.328    0.342   37.396
  525.500    2.892    0.332    0.345   37.388
  525.750    2.813    0.347    0.349   36.785
  526.000    2.655    0.362    0.352   36.779
  526.250    2.497    0.375    0.355   36.769
  526.500    2.339    0.374    0.358   37.351
  526.750    2.339    0.365    0.354   36.155
  527.000    2.259    0.365    0.350   35.558
  527.250    2.337    0.359    0.348   34.958
  527.500    2.493    0.349    0.351   33.173
  527.750    2.727    0.335    0.354   32.576
  528.000    2.962    0.315    0.356   31.977
  528.250    3.039    0.313    0.358   33.738
  528.500    3.038    0.303    0.362   37.269
  528.750    3.116    0.308    0.363   38.443
  529.000    3.115    0.312    0.362   40.794
  529.250    3.036    0.320    0.360   41.376
  529.500    3.035    0.316    0.355   40.773
  529.750    3.034    0.306    0.350   40.172
  530.000    2.876    0.302    0.347   40.755
  530.250    2.876    0.299    0.348   41.338
  530.500    2.639    0.308    0.352   43.097
  530.750    2.560    0.317    0.356   43.680
  531.000    2.402    0.327    0.357   41.307
  531.250    2.401    0.340    0.361   37.161
  531.500    2.322    0.364    0.369   34.200
  531.750    2.400    0.373    0.380   32.422
  532.000    2.477    0.359    0.385   33.000
  532.250    2.554    0.353    0.379   37.120
  532.500    2.632    0.350    0.373   38.884
  532.750    2.631    0.349    0.367   40.058
  533.000    2.631    0.347    0.360   40.640
  533.250    2.551    0.347    0.360   41.220
  533.500    2.472    0.343    0.360   40.618
  533.750    2.471    0.340    0.361   38.834
  534.000    2.470    0.343    0.354   37.648
  534.250    2.391    0.343    0.347   35.863
  534.500    2.390    0.343    0.340   35.267
  534.750    2.389    0.346    0.345   32.892
  535.000    2.310    0.352    0.347   30.520
  535.250    2.309    0.364    0.350   28.736
  535.500    2.230    0.377    0.352   28.141
  535.750    2.229    0.383    0.354   27.538
  536.000    2.150    0.387    0.355   26.941
  536.250    2.070    0.381    0.356   27.516
  536.500    2.070    0.374    0.354   27.507
  536.750    2.069    0.365    0.351   28.091
  537.000    1.989    0.357    0.347   28.077
  537.250    1.988    0.351    0.341   28.072
  537.500    1.988    0.347    0.337   27.473
  537.750    1.987    0.340    0.331   27.457
  538.000    1.986    0.343    0.324   27.450
  538.250    1.985    0.355    0.323   27.441
  538.500    1.984    0.353    0.333   27.434
  538.750    1.905    0.349    0.339   25.653
  539.000    1.904    0.348    0.345   25.052
  539.250    1.903    0.351    0.347   25.041
  539.500    1.902    0.352    0.346   25.620
  539.750    1.902    0.349    0.346   27.383
  540.000    1.901    0.348    0.348   28.556
  540.250    1.900    0.349    0.350   27.363
  540.500    1.899    0.359    0.355   26.175
  540.750    1.977    0.376    0.365   24.389
  541.000    2.289    0.387    0.376   24.384
  541.250    2.759    0.381    0.383   26.735
  541.500    3.464    0.167    0.381   41.490
  541.750    4.404    0.082    0.380   60.965
  542.000    5.502    0.065    0.397   73.947
  542.250    6.599    0.065    0.402   83.977
  542.500    6.441    0.061    0.393   91.055
  542.750    6.126    0.056    0.399   92.226
  543.000    5.968    0.070    0.401   96.345
  543.250    5.811    0.080    0.399   97.521
  543.500    5.653    0.094    0.395   98.101
  543.750    5.574    0.107    0.395   95.729
  544.000    5.573    0.111    0.399   96.900
  544.250    5.650    0.099    0.412   95.118
  544.500    5.728    0.091    0.433   94.519
  544.750    5.727    0.079    0.446   96.281
  545.000    5.726    0.073    0.428   96.272
