~VERSION INFORMATION
 VERS.                 2.0:   CWLS LOG ASCII STANDARD -VERSION 2.0
 WRAP.                  NO:   ONE LINE PER DEPTH STEP
~WELL INFORMATION BLOCK
#MNEM.UNIT           DATA                    DESCRIPTION OF MNEMONIC
#---------    -------------------            -------------------------------
# Generated from Intellog Unique Number	CW_82_90/WELL/3064
WELL.         CHEVRON ET AL WABASCA          : Well_name    - WELL
LOC .         00/07-19-085-24W4/0            : Location     - LOCATION
UWI .         00/07-19-085-24W4/0            : Uwi          - UNIQUE WELL ID
ENTR.         JAYE                           : Entered      - ENTERED BY
SRVC.         SCHLUMBERGER                   : Scn          - SERVICE COMPANY
DATE.         26 FEB 73                      : Date         - LOG DATE
STRT.M        167.64                         : top_depth    - START DEPTH
STOP.M        365.64                         : bot_depth    - STOP DEPTH
STEP.M        0.25                           : increment    - STEP LENGTH
 NULL. -999.2500:NULL Value
~CURVE INFORMATION BLOCK
#MNEM UNIT       ERCB CURVE CODE    CURVE DESCRIPTION
#-----------   ------------------   ----------------------------------
DEPT.M        00 001 00 00         : DEPTH        - DEPTH
DPHI.V/V      00 890 00 00         : PHID         - DENSITY POROSITY (SANDSTONE)
ILD .OHMM     00 120 00 00         : RESD         - DEEP RESISTIVITY (DIL)
CALI.MM       00 280 01 00         : CAL          - CALIPER
GR  .API      00 310 00 00         : GR           - GAMMA RAY
NPHI.V/V      00 330 00 00         : PHIN         - NEUTRON POROSITY (SANDSTONE)
~PARAMETER INFORMATION
#MNEM.UNIT           DATA             DESCRIPTION OF MNEMONIC
#---------         -----------     ------------------------------
GL  .M        543.794              : gl           - GROUND LEVEL ELEVATION
EREF.M        546.08               : kb           - ELEVATION OF DEPTH REFERENCE
DATM.M        543.794              : datum        - DATUM ELEVATION
TDD .M        366.979              : tdd          - TOTAL DEPTH DRILLER
RUN .         ONE                  : Run          - RUN NUMBER
ENG .         SIROIS & SIMPSON     : Engineer     - RECORDING ENGINEER
WIT .         LEWIS                : Witness      - WITNESSED BY
BASE.         EDMONTON             : Branch       - HOME BASE OF LOGGING UNIT
MUD .         FGM                  : Mud_type     - MUD TYPE
MATR.         SANDSTONE            : Logunit      - NEUTRON MATRIX
TMAX.C        18.8889              : BHT          - MAXIMUM RECORDED TEMPERATURE
BHTD.M        366.979              : BHTDEP       - MAXIMUM RECORDED TEMPERATURE
RMT .C        -17.7778             : MDTP         - TEMPERATURE OF MUD
MUDD.KG/M     9400                 : MWT          - MUD DENSITY
NEUT.         1                    : NEUTRON      - NEUTRON TYPE
RESI.         0                    : RESIST       - RESISTIVITY TYPE
RM  .OHMM     0.25                 : RM           - RESISTIVITY OF MUD
RMC .OHMM     0.25                 : RMC          - RESISTIVITY OF MUD CAKE
RMF .OHMM     5.45                 : RMF          - RESISTIVITY OF MUD FILTRATE
SUFT.C        4                    : SUFT         - SURFACE TEMPERATURE
~A  DEPTH     PHID     RESD      CAL       GR     PHIN
# ...
  277.140    0.201   11.067  197.494   79.676    0.416
  277.390    0.191   10.994  198.465   81.822    0.412
  277.640    0.183   11.090  199.645   83.231    0.402
  277.890    0.178   11.147  201.138   82.983    0.400
  278.140    0.176   11.116  202.208   80.034    0.401
  278.390    0.191   11.087  203.282   78.742    0.415
  278.640    0.191   11.246  203.626   79.108    0.409
  278.890    0.185   11.364  201.158   79.228    0.407
  279.140    0.190   11.400  198.793   77.139    0.408
  279.390    0.194   11.416  198.201   76.277    0.413
  279.640    0.185   11.426  198.338   77.379    0.401
  279.890    0.167   11.270  201.805   80.261    0.401
  280.140    0.174   10.500  206.945   87.808    0.405
  280.390    0.200    9.766  206.351   87.130    0.420
  280.640    0.194    9.493  200.337   89.275    0.416
  280.890    0.195    9.489  193.701   91.851    0.433
  281.140    0.218    9.585  191.647   81.107    0.448
  281.390    0.233    9.703  190.638   77.483    0.455
  281.640    0.217    9.345  191.190   80.918    0.440
  281.890    0.215    7.895  191.958   79.013    0.433
  282.140    0.216    7.208  192.919   79.133    0.405
  282.390    0.186    6.714  195.769   79.989    0.382
  282.640    0.140    7.066  198.401   73.665    0.340
  282.890    0.111    7.603  201.983   70.348    0.343
  283.140    0.121    8.180  204.301   73.659    0.383
  283.390    0.151    8.817  200.581   75.191    0.381
  283.640    0.144    9.991  196.136   71.936    0.407
  283.890    0.189   10.592  196.790   74.327    0.414
  284.140    0.194   10.943  199.116   76.288    0.410
  284.390    0.175   10.736  200.092   79.538    0.399
  284.640    0.161   10.398  198.864   81.561    0.382
  284.890    0.163    9.866  196.299   78.060    0.387
  285.140    0.173    9.056  195.386   80.267    0.398
  285.390    0.193    8.208  198.235   79.896    0.413
  285.640    0.182    7.862  204.208   77.746    0.408
  285.890    0.166    7.713  204.549   74.919    0.389
  286.140    0.159    7.651  205.214   78.047    0.380
  286.390    0.153    7.732  206.173   74.362    0.373
  286.640    0.148    7.826  204.747   74.359    0.365
  286.890    0.147    7.922  201.861   80.862    0.379
  287.140    0.155    8.170  201.371   83.867    0.381
  287.390    0.164    8.317  202.658   84.417    0.388
  287.640    0.174    8.437  204.356   88.956    0.398
  287.890    0.173    8.461  206.683   90.672    0.394
  288.140    0.176    8.534  209.315   89.074    0.410
  288.390    0.192    8.688  212.579   86.248    0.403
  288.640    0.180    8.875  214.588   83.851    0.400
  288.890    0.173    9.034  213.994   81.331    0.400
  289.140    0.176    9.181  207.566   80.531    0.391
  289.390    0.162    9.362  203.220   78.503    0.376
  289.640    0.169    9.709  201.066   77.273    0.389
  289.890    0.160   10.085  199.951   76.289    0.372
  290.140    0.156   10.284  199.566   75.734    0.374
  290.390    0.132   10.297  198.873   74.258    0.350
  290.640    0.097   10.066  197.234   67.075    0.252
  290.890   -0.029   10.398  195.073   57.743    0.206
  291.140   -0.020   11.190  193.649   52.339    0.221
  291.390    0.003   11.883  198.473   56.019    0.231
  291.640    0.006   13.891  200.485   59.638    0.223
  291.890    0.005   20.418  200.206   62.151    0.228
  292.140   -0.003   29.354  199.403   60.368    0.222
  292.390    0.054   37.429  198.703   55.640    0.287
  292.640    0.086   34.552  195.090   56.865    0.386
  292.890    0.130   28.496  194.286   61.097    0.434
  293.140    0.195   20.655  195.056   67.293    0.413
  293.390    0.165   16.635  197.370   75.945    0.393
  293.640    0.177   13.591  200.010   82.817    0.401
  293.890    0.183   11.588  199.630   79.990    0.405
  294.140    0.190   10.560  199.241   75.814    0.413
  294.390    0.184    9.985  198.332   72.988    0.402
  294.640    0.148    9.996  197.843   70.960    0.351
  294.890    0.076   10.481  197.875   68.993    0.297
  295.140    0.035   11.257  198.637   67.764    0.250
  295.390    0.029   12.156  198.876   66.288    0.246
  295.640    0.086   13.695  199.118   66.531    0.292
  295.890    0.135   16.401  199.462   71.499    0.349
  296.140    0.159   18.516  199.702   77.757    0.379
  296.390    0.159   18.435  199.942   78.307    0.386
  296.640    0.146   16.984  200.080   75.174    0.363
  296.890    0.134   14.060  199.900   71.673    0.340
  297.140    0.076   13.075  199.515   70.689    0.306
  297.390    0.143   13.138  199.134   72.834    0.321
  297.640    0.132   13.674  197.182   77.373    0.364
  297.890    0.113   14.206  195.023   84.122    0.327
  298.140    0.102   14.704  194.432   84.978    0.328
  298.390    0.101   14.970  194.469   83.257    0.327
  298.640    0.109   14.931  195.224   79.204    0.333
  298.890    0.130   14.784  195.994   78.526    0.354
  299.140    0.131   14.475  196.539   81.102    0.353
  299.390    0.126   14.045  197.402   79.993    0.348
  299.640    0.119   13.653  199.623   79.991    0.333
  299.890    0.106   13.346  201.636   81.032    0.331
  300.140    0.103   13.188  202.921   82.195    0.334
  300.390    0.111   13.109  203.062   79.738    0.333
  300.640    0.109   13.171  203.084   77.280    0.336
  300.890    0.112   13.537  202.809   78.996    0.342
  301.140    0.126   13.675  202.630   81.448    0.343
  301.390    0.119   13.717  202.033   78.377    0.324
  301.640    0.083   13.607  201.962   75.857    0.320
  301.890    0.102   13.204  201.888   80.827    0.311
  302.140    0.064   12.975  201.504   75.607    0.293
  302.390    0.069   13.092  201.329   73.088    0.292
  302.640    0.184   13.273  201.360   76.154    0.408
  302.890    0.183   14.177  201.287   78.975    0.400
  303.140    0.170   15.453  200.695   81.550    0.388
  303.390    0.149   15.791  200.106   83.696    0.383
  303.640    0.131   15.518  199.820   82.404    0.359
  303.890    0.138   14.806  199.225   81.297    0.351
  304.140    0.119   12.954  200.928   80.680    0.336
  304.390    0.104   11.763  201.270   82.764    0.325
  304.640    0.126   11.434  201.717   84.296    0.340
  304.890    0.135   11.425  202.066   83.741    0.352
  305.140    0.127   11.673  201.577   83.554    0.352
  305.390    0.130   11.908  200.564   86.313    0.355
  305.640    0.131   11.987  200.804   86.004    0.351
  305.890    0.115   12.023  199.485   82.012    0.344
  306.140    0.133   12.080  198.472   83.176    0.361
  306.390    0.117   12.051  195.690   82.252    0.344
  306.640    0.128   12.155  195.827   80.531    0.353
  306.890    0.115   12.330  197.105   80.529    0.347
  307.140    0.093   12.342  198.074   80.833    0.322
  307.390    0.096   12.267  196.234   81.383    0.326
  307.640    0.132   12.146  196.887   84.510    0.361
  307.890    0.120   12.093  199.837   86.656    0.346
  308.140    0.116   12.017  202.682   88.310    0.342
  308.390    0.093   11.812  203.975   87.694    0.312
  308.640    0.067   11.358  203.789   77.626    0.289
  308.890    0.045   11.284  198.925   71.731    0.285
  309.140    0.065   11.769  197.080   70.991    0.333
  309.390    0.101   12.291  197.006   75.776    0.343
  309.640    0.161   13.032  199.122   80.438    0.384
  309.890    0.159   13.463  200.718   87.309    0.382
  310.140    0.163   13.560  201.999   92.953    0.381
  310.390    0.157   13.350  202.347   92.521    0.378
  310.640    0.160   12.689  202.479   90.738    0.381
  310.890    0.159   11.822  199.910   89.263    0.379
  311.140    0.148   11.303  200.570   88.585    0.355
  311.390    0.074   11.169  201.741   89.688    0.302
  311.640    0.034   11.144  201.565   88.335    0.270
  311.890    0.057   11.300  200.667   81.764    0.265
  312.140    0.158   11.804  200.480   73.046    0.398
  312.390    0.176   12.561  198.953   76.481    0.398
  312.640    0.172   12.953  198.042   81.020    0.397
  312.890    0.157   13.210  197.558   80.220    0.391
  313.140    0.155   13.277  198.315   79.971    0.378
  313.390    0.141   13.046  199.180   81.011    0.360
