~VERSION INFORMATION
 VERS.                 2.0:   CWLS LOG ASCII STANDARD -VERSION 2.0
 WRAP.                  NO:   ONE LINE PER DEPTH STEP
~WELL INFORMATION BLOCK
#MNEM.UNIT           DATA                    DESCRIPTION OF MNEMONIC
#---------    -------------------            -------------------------------
# Generated from Intellog Unique Number	CS_67_68/WELL/2399
WELL.         CHIEFC0 DOME TWEEDIE           : Well_name    - WELL
LOC .         00/06-23-068-12W4/0            : Location     - LOCATION
UWI .         00/06-23-068-12W4/0            : Uwi          - UNIQUE WELL ID
ENTR.         TIM                            : Entered      - ENTERED BY
SRVC.         COMPUTALOG                     : Scn          - SERVICE COMPANY
STRT.M        275                            : top_depth    - START DEPTH
STOP.M        470                            : bot_depth    - STOP DEPTH
STEP.M        0.25                           : increment    - STEP LENGTH
 NULL. -999.2500:NULL Value
~CURVE INFORMATION BLOCK
#MNEM UNIT       ERCB CURVE CODE    CURVE DESCRIPTION
#-----------   ------------------   ----------------------------------
DEPT.M        00 001 00 00         : DEPTH        - DEPTH
GR  .API      00 310 00 00         : GR           - GAMMA RAY
CALI.MM       00 280 01 00         : CAL          - CALIPER
NPHI.V/V      00 330 00 00         : PHIN         - NEUTRON POROSITY (SANDSTONE)
DPHI.V/V      00 890 00 00         : PHID         - DENSITY POROSITY (SANDSTONE)
ILD .OHMM     00 120 00 00         : RESD         - DEEP RESISTIVITY (DIL)
~PARAMETER INFORMATION
#MNEM.UNIT           DATA             DESCRIPTION OF MNEMONIC
#---------         -----------     ------------------------------
GL  .M        591.38               : gl           - GROUND LEVEL ELEVATION
EREF.M        595.2                : kb           - ELEVATION OF DEPTH REFERENCE
DATM.M        595.2                : datum        - DATUM ELEVATION
TDD .M        471                  : tdd          - TOTAL DEPTH DRILLER
RUN .         ONE                  : Run          - RUN NUMBER
ENG .         BILL                 : Engineer     - RECORDING ENGINEER
WIT .         JIM                  : Witness      - WITNESSED BY
MUD .         GEL                  : Mud_type     - MUD TYPE
MATR.         SANDSTONE            : Logunit      - NEUTRON MATRIX
TMAX.C        26                   : BHT          - MAXIMUM RECORDED TEMPERATURE
BHTD.M        471                  : BHTDEP       - MAXIMUM RECORDED TEMPERATURE
MATR.         1                    : LOGUNIT      - NEUTRON MATRIX
RMT .C        20                   : MDTP         - TEMPERATURE OF MUD
NEUT.         1                    : NEUTRON      - NEUTRON TYPE
RESI.         0                    : RESIST       - RESISTIVITY TYPE
RMC .OHMM     1.6                  : RMC          - RESISTIVITY OF MUD CAKE
RMF .OHMM     1.1                  : RMF          - RESISTIVITY OF MUD FILTRATE
SUFT.C        5                    : SUFT         - SURFACE TEMPERATURE
~A  DEPTH       GR      CAL     PHIN     PHID     RESD
# ...
  384.500   93.070  163.443    0.439    0.213    4.268
  384.750   92.573  163.549    0.445    0.211    4.283
  385.000   93.261  163.762    0.449    0.210    4.294
  385.250   93.970  162.863    0.450    0.208    4.394
  385.500   94.658  162.969    0.454    0.207    4.410
  385.750   97.154  163.181    0.460    0.206    4.429
  386.000   99.048  163.287    0.461    0.206    4.437
  386.250   98.530  162.459    0.458    0.208    4.370
  386.500   96.806  162.566    0.449    0.209    4.394
  386.750   96.288  162.778    0.449    0.211    4.328
  387.000   97.600  162.849    0.449    0.211    4.339
  387.250  100.118  162.021    0.451    0.207    4.274
  387.500  100.763  162.127    0.454    0.205    4.210
  387.750  102.657  162.303    0.456    0.204    3.995
  388.000  105.154  161.405    0.461    0.203    3.721
  388.250  110.707  161.546    0.466    0.201    3.465
  388.500  110.771  161.723    0.461    0.201    3.230
  388.750  104.826  161.865    0.459    0.201    3.118
  389.000  100.670  162.077    0.457    0.203    2.797
  389.250   95.952  162.148    0.452    0.205    2.418
  389.500   95.434  162.324    0.454    0.225    2.170
  389.750   96.143  162.466    0.463    0.241    2.021
  390.000   96.810  162.572    0.471    0.258    1.884
  390.250   98.704  163.718    0.496    0.261    1.889
  390.500  100.597  163.895    0.516    0.249    1.897
  390.750  100.079  164.037    0.533    0.231    1.940
  391.000   98.958  164.214    0.527    0.217    2.097
  391.250   97.837  164.391    0.500    0.205    2.270
  391.500   97.943  164.461    0.484    0.201    2.456
  391.750   98.631  165.608    0.472    0.212    2.557
  392.000   98.113  165.749    0.482    0.218    2.618
  392.250   96.389  165.926    0.492    0.231    2.625
  392.500   93.438  166.067    0.485    0.243    2.625
  392.750   89.303  166.209    0.470    0.261    2.646
  393.000   87.579  166.350    0.453    0.234    2.752
  393.250   91.884  166.527    0.434    0.229    2.816
  393.500   96.814  165.664    0.424    0.222    2.826
  393.750   96.899  165.770    0.433    0.230    2.833
  394.000   92.181  164.907    0.444    0.243    2.791
  394.250   88.627  165.048    0.448    0.259    2.698
  394.500   83.889  164.185    0.443    0.267    2.611
  394.750   83.371  163.321    0.438    0.255    2.569
  395.000   85.868  162.564    0.424    0.249    2.442
  395.250   88.385  161.630    0.418    0.261    2.357
  395.500   89.676  160.731    0.418    0.262    2.237
  395.750   87.349  158.898    0.418    0.232    2.046
  396.000   83.795  158.035    0.419    0.226    2.016
  396.250   80.866  157.172    0.423    0.254    2.021
  396.500   76.730  157.313    0.431    0.291    2.105
  396.750   72.616  157.490    0.435    0.324    2.154
  397.000   69.665  157.596    0.430    0.339    2.246
  397.250   65.529  157.808    0.424    0.317    2.252
  397.500   63.181  158.884    0.418    0.285    2.305
  397.750   65.720  159.061    0.408    0.247    2.268
  398.000   68.195  160.172    0.395    0.222    2.234
  398.250   68.302  160.349    0.392    0.209    2.200
  398.500   67.202  161.530    0.406    0.234    2.053
  398.750   67.847  162.712    0.407    0.290    1.981
  399.000   69.741  162.783    0.403    0.329    1.917
  399.250   69.847  163.929    0.403    0.325    1.888
  399.500   69.953  164.106    0.406    0.325    1.895
  399.750   70.641  164.283    0.413    0.327    1.972
  400.000   68.896  164.389    0.417    0.331    1.805
  400.250   65.363  163.490    0.418    0.331    1.809
  400.500   67.257  162.627    0.419    0.329    1.997
  400.750   69.753  162.804    0.419    0.323    3.020
  401.000   69.838  161.940    0.416    0.297    4.572
  401.250   66.930  161.042    0.405    0.261    5.229
  401.500   62.773  161.218    0.358    0.226    5.984
  401.750   58.034  160.426    0.322    0.139    5.573
  402.000   52.693  159.527    0.270    0.102    4.641
  402.250   49.181  158.699    0.221    0.072    3.935
  402.500   49.266  158.770    0.202    0.055    3.404
  402.750   54.153  158.947    0.238    0.085    3.168
  403.000   60.268  158.048    0.313    0.176    2.950
  403.250   68.212  158.260    0.354    0.266    2.748
  403.500   73.120  158.331    0.399    0.259    2.608
  403.750   77.447  157.503    0.432    0.257    2.770
  404.000   79.341  157.644    0.440    0.255    2.940
  404.250   80.653  157.786    0.427    0.228    3.235
  404.500   82.525  157.927    0.373    0.104    4.068
  404.750   85.667  158.104    0.276    0.054    4.829
  405.000   81.489  158.210    0.209    0.028    5.949
  405.250   68.309  158.352    0.216    0.055    7.201
  405.500   58.726  158.529    0.282    0.085    7.362
  405.750   60.620  158.670    0.309    0.179    6.247
  406.000   69.167  158.812    0.341    0.218    4.561
  406.250   77.132  158.953    0.375    0.220    3.874
  406.500   80.211  159.095    0.382    0.224    3.742
  406.750   80.920  159.236    0.386    0.217    3.554
  407.000   79.799  159.378    0.390    0.212    3.503
  407.250   81.671  159.590    0.395    0.211    3.448
  407.500   84.210  159.731    0.400    0.210    3.457
  407.750   82.486  159.837    0.401    0.209    3.408
  408.000   80.741  160.984    0.400    0.212    3.420
  408.250   81.429  161.125    0.407    0.216    3.432
  408.500   83.947  161.231    0.418    0.217    3.447
  408.750   85.841  161.408    0.421    0.216    3.456
  409.000   86.528  162.555    0.422    0.211    3.472
  409.250   86.592  162.767    0.419    0.204    3.481
  409.500   87.904  163.878    0.417    0.197    3.496
  409.750   87.386  163.984    0.418    0.188    3.505
  410.000   85.662  164.196    0.423    0.189    3.265
  410.250   85.165  164.267    0.427    0.186    3.344
  410.500   85.229  165.449    0.426    0.183    3.350
  410.750   84.711  166.595    0.423    0.186    3.425
  411.000   86.002  166.737    0.422    0.199    3.440
  411.250   87.314  167.918    0.422    0.208    3.514
  411.500   89.810  168.060    0.423    0.211    3.533
  411.750   92.328  168.201    0.425    0.203    3.542
  412.000   93.619  168.378    0.426    0.194    3.558
  412.250   94.307  168.449    0.426    0.186    3.570
  412.500   95.598  168.626    0.424    0.182    3.517
  412.750   96.285  168.732    0.423    0.186    3.532
  413.000   96.973  169.878    0.428    0.195    3.473
  413.250   97.661  170.020    0.427    0.203    3.424
  413.500   98.349  170.197    0.426    0.208    3.310
  413.750   99.058  171.379    0.425    0.211    3.083
  414.000   99.725  171.485    0.428    0.218    2.818
  414.250  101.037  172.666    0.439    0.225    2.579
  414.500  102.951  172.773    0.450    0.234    2.489
  414.750  104.845  172.985    0.467    0.236    2.406
  415.000  106.136  173.091    0.481    0.232    2.285
  415.250  106.824  173.197    0.501    0.231    2.207
  415.500  107.490  173.338    0.513    0.230    2.134
  415.750  110.008  172.510    0.499    0.236    2.063
  416.000  111.299  171.718    0.481    0.251    1.995
  416.250  111.405  170.819    0.498    0.264    1.965
  416.500  111.490  170.961    0.513    0.260    1.901
  416.750  111.575  170.097    0.516    0.251    1.908
  417.000  111.036  169.234    0.509    0.234    1.916
  417.250  108.709  168.370    0.484    0.227    1.920
  417.500  106.382  168.476    0.476    0.215    2.075
  417.750  105.282  167.613    0.464    0.206    2.331
  418.000  104.140  167.790    0.456    0.206    2.474
  418.250  103.019  167.931    0.447    0.206    2.678
  418.500  101.295  167.068    0.443    0.192    2.787
  418.750   99.571  167.174    0.437    0.161    2.960
  419.000   97.847  167.386    0.434    0.154    3.084
  419.250   95.520  167.493    0.434    0.164    3.275
  419.500   92.009  166.629    0.435    0.180    3.409
  419.750   89.661  166.806    0.431    0.191    3.624
  420.000   87.355  166.912    0.426    0.151    3.775
  420.250   89.249  166.084    0.417    0.101    3.856
  420.500   92.349  166.190    0.407    0.129    4.017
  420.750   94.845  166.402    0.407    0.150    4.107
