~VERSION INFORMATION
 VERS.                 2.0:   CWLS LOG ASCII STANDARD -VERSION 2.0
 WRAP.                  NO:   ONE LINE PER DEPTH STEP
~WELL INFORMATION BLOCK
#MNEM.UNIT           DATA                    DESCRIPTION OF MNEMONIC
#---------    -------------------            -------------------------------
# Generated from Intellog Unique Number	CS_67_68/WELL/2168
WELL.         06-13-067-08W4                 : Well_name    - WELL
LOC .         00/06-13-067-08W4/0            : Location     - LOCATION
UWI .         00/06-13-067-08W4/0            : Uwi          - UNIQUE WELL ID
ENTR.         SP                             : Entered      - ENTERED BY
SRVC.         SCHLUMBERGER                   : Scn          - SERVICE COMPANY
STRT.M        335                            : top_depth    - START DEPTH
STOP.M        566                            : bot_depth    - STOP DEPTH
STEP.M        0.25                           : increment    - STEP LENGTH
 NULL. -999.2500:NULL Value
~CURVE INFORMATION BLOCK
#MNEM UNIT       ERCB CURVE CODE    CURVE DESCRIPTION
#-----------   ------------------   ----------------------------------
DEPT.M        00 001 00 00         : DEPTH        - DEPTH
ILD .OHMM     00 120 00 00         : RESD         - DEEP RESISTIVITY (DIL)
DPHI.V/V      00 890 00 00         : PHID         - DENSITY POROSITY (LIMESTONE)
NPHI.V/V      00 330 00 00         : PHIN         - NEUTRON POROSITY (LIMESTONE)
GR  .API      00 310 00 00         : GR           - GAMMA RAY
CALI.MM       00 280 01 00         : CAL          - CALIPER
~PARAMETER INFORMATION
#MNEM.UNIT           DATA             DESCRIPTION OF MNEMONIC
#---------         -----------     ------------------------------
GL  .M        646.93               : gl           - GROUND LEVEL ELEVATION
EREF.M        650.73               : kb           - ELEVATION OF DEPTH REFERENCE
DATM.M        650.73               : datum        - DATUM ELEVATION
TDD .M        570                  : tdd          - TOTAL DEPTH DRILLER
RUN .         ONE                  : Run          - RUN NUMBER
ENG .         BILL                 : Engineer     - RECORDING ENGINEER
WIT .         JIM                  : Witness      - WITNESSED BY
MUD .         GEL                  : Mud_type     - MUD TYPE
MATR.         LIMESTONE            : Logunit      - NEUTRON MATRIX
TMAX.C        21                   : BHT          - MAXIMUM RECORDED TEMPERATURE
BHTD.M        570.5                : BHTDEP       - MAXIMUM RECORDED TEMPERATURE
MATR.         1                    : LOGUNIT      - NEUTRON MATRIX
RMT .C        25                   : MDTP         - TEMPERATURE OF MUD
NEUT.         1                    : NEUTRON      - NEUTRON TYPE
RESI.         0                    : RESIST       - RESISTIVITY TYPE
RMC .OHMM     0.25                 : RMC          - RESISTIVITY OF MUD CAKE
RMF .OHMM     0.25                 : RMF          - RESISTIVITY OF MUD FILTRATE
SUFT.C        15                   : SUFT         - SURFACE TEMPERATURE
~A  DEPTH     RESD     PHID     PHIN       GR      CAL
  335.000    2.665    0.240    0.549   95.875  188.835
  335.250    2.687    0.265    0.545   97.847  188.222
  335.500    2.761    0.260    0.540   98.280  189.046
  335.750    2.842    0.258    0.546   97.420  188.331
  336.000    2.909    0.282    0.552  101.855  185.358
  336.250    3.040    0.265    0.537  105.490  185.258
  336.500    3.207    0.249    0.521  103.522  186.801
  336.750    3.359    0.257    0.511  101.307  187.009
  337.000    3.406    0.264    0.505  100.262  186.396
  337.250    3.440    0.252    0.506   99.586  184.347
  337.500    3.456    0.246    0.499   99.835  182.298
  337.750    3.368    0.237    0.496  101.684  182.198
  338.000    3.251    0.232    0.472  101.809  181.278
  338.250    3.098    0.235    0.475  101.502  179.844
  338.500    2.951    0.249    0.503  102.674  178.513
  338.750    2.828    0.258    0.528  104.031  178.105
  339.000    2.756    0.263    0.552  105.819  180.264
  339.250    2.691    0.268    0.568  101.572  182.319
  339.500    2.693    0.265    0.541  100.219  183.041
  339.750    2.782    0.250    0.520  103.484  184.583
  340.000    2.886    0.235    0.518  105.333  185.407
  340.250    2.927    0.223    0.539  105.212  186.847
  340.500    2.917    0.246    0.528  105.275  189.108
  340.750    2.908    0.236    0.512  106.447  191.779
  341.000    2.878    0.272    0.517  103.186  194.246
  341.250    2.858    0.303    0.541   99.185  199.380
  341.500    2.898    0.239    0.534   95.615  197.125
  341.750    2.916    0.224    0.521   92.846  200.105
  342.000    2.952    0.250    0.524   91.062  208.215
  342.250    3.033    0.271    0.520   90.264  199.906
  342.500    3.064    0.281    0.506   98.763  190.775
  342.750    3.037    0.284    0.494  109.110  191.394
  343.000    3.011    0.268    0.491  119.087  190.986
  343.250    2.940    0.242    0.498  108.005  186.782
  343.500    2.806    0.245    0.522  102.096  184.630
  343.750    2.761    0.290    0.544   98.773  182.477
  344.000    2.799    0.319    0.557  100.868  182.275
  344.250    3.173    0.283    0.543  104.195  168.731
  344.500    3.624    0.266    0.529   99.332  157.856
  344.750    4.023    0.270    0.468   93.484  156.628
  345.000    4.383    0.261    0.436   94.964  155.810
  345.250    4.642    0.254    0.400   82.959  154.787
  345.500    4.680    0.269    0.412   71.938  154.995
  345.750    4.476    0.278    0.402   62.457  155.101
  346.000    4.248    0.271    0.379   58.026  154.899
  346.250    4.109    0.271    0.373   55.195  154.491
  346.500    4.004    0.275    0.369   52.857  154.597
  346.750    3.940    0.274    0.362   50.395  154.497
  347.000    3.898    0.284    0.367   45.594  154.192
  347.250    3.894    0.277    0.355   41.101  153.682
  347.500    3.903    0.281    0.339   51.941  153.583
  347.750    3.958    0.295    0.342   55.452  153.997
  348.000    4.176    0.285    0.363   56.070  154.102
  348.250    4.456    0.265    0.353   68.757  154.721
  348.500    4.675    0.248    0.361   77.872  155.135
  348.750    4.894    0.237    0.392   84.462  155.343
  349.000    5.106    0.228    0.409   90.868  155.552
  349.250    5.246    0.226    0.415   94.318  155.657
  349.500    5.421    0.233    0.416   98.569  155.660
  349.750    5.549    0.223    0.412  101.896  156.485
  350.000    5.605    0.207    0.414  104.546  154.332
  350.250    5.599    0.201    0.424  105.163  158.543
  350.500    5.592    0.228    0.434  105.227  156.699
  350.750    5.513    0.261    0.442  101.473  155.676
  351.000    5.568    0.278    0.433   99.073  155.166
  351.250    5.668    0.270    0.425   99.505  156.400
  351.500    5.747    0.252    0.433  103.202  157.943
  351.750    5.762    0.244    0.430   94.091  158.459
  352.000    5.733    0.241    0.422   89.474  158.154
  352.250    5.662    0.230    0.409   86.028  157.747
  352.500    5.633    0.221    0.411   92.433  157.545
  352.750    5.789    0.217    0.419   93.667  158.061
  353.000    5.858    0.216    0.422   94.469  159.090
  353.250    5.907    0.209    0.417   97.550  160.017
  353.500    5.878    0.210    0.421   92.811  159.405
  353.750    5.793    0.236    0.428   85.854  159.305
  354.000    5.765    0.265    0.408   81.238  159.719
  354.250    5.801    0.258    0.392   86.474  160.748
  354.500    5.861    0.250    0.384   93.496  161.469
  354.750    5.931    0.247    0.395   97.561  162.807
  355.000    6.026    0.277    0.408  102.551  163.631
  355.250    6.098    0.419    0.490  106.801  164.455
  355.500    6.149    0.446    0.493  100.030  165.382
  355.750    6.200    0.352    0.442   91.842  164.461
  356.000    6.192    0.309    0.415   86.610  161.077
  356.250    6.150    0.283    0.397   84.456  158.925
  356.500    6.028    0.260    0.388   81.995  158.107
  356.750    5.830    0.279    0.413   76.209  157.803
  357.000    5.629    0.301    0.425   79.105  157.908
  357.250    5.403    0.293    0.416   79.969  157.501
  357.500    5.266    0.292    0.417   78.801  157.094
  357.750    5.181    0.301    0.425   78.372  157.097
  358.000    5.135    0.288    0.412   83.238  157.100
  358.250    5.188    0.235    0.426   86.750  157.822
  358.500    5.341    0.128    0.445   85.828  158.646
  358.750    5.436    0.213    0.428   83.983  159.367
  359.000    5.596    0.268    0.433   86.694  159.883
  359.250    5.653    0.305    0.491   82.816  158.860
  359.500    5.614    0.311    0.473   67.855  157.734
  359.750    5.359    0.315    0.434   57.143  157.019
  360.000    5.048    0.326    0.438   51.418  156.304
  360.250    4.570    0.339    0.427   54.191  156.307
  360.500    4.777    0.333    0.413   60.165  156.823
  360.750    4.880    0.320    0.397   67.249  157.544
  361.000    5.062    0.306    0.385   71.992  157.753
  361.250    5.351    0.324    0.389   77.105  157.756
  361.500    5.571    0.343    0.440   81.540  158.067
  361.750    5.681    0.342    0.464   76.246  158.070
  362.000    5.505    0.323    0.438   72.492  156.841
  362.250    5.286    0.316    0.435   73.540  155.818
  362.500    5.189    0.323    0.450   77.237  156.027
  362.750    5.048    0.325    0.456   75.145  156.748
  363.000    4.920    0.324    0.422   73.608  156.444
  363.250    4.777    0.308    0.412   75.088  155.728
  363.500    4.655    0.299    0.403   76.690  155.013
  363.750    4.554    0.298    0.408   77.431  155.734
  364.000    4.489    0.301    0.422   77.372  156.764
  364.250    4.535    0.307    0.419   69.060  156.356
  364.500    4.712    0.312    0.414   79.407  155.743
  364.750    4.954    0.301    0.424   86.305  155.644
  365.000    5.051    0.294    0.420   92.527  155.134
  365.250    5.131    0.288    0.417   95.053  154.419
  365.500    5.164    0.282    0.417   95.917  154.114
  365.750    5.110    0.275    0.429   92.163  153.912
  366.000    4.999    0.281    0.430   88.162  154.223
  366.250    4.871    0.298    0.428   84.839  154.636
  366.500    4.765    0.312    0.421   84.594  154.332
  366.750    4.653    0.299    0.411   87.121  153.822
  367.000    4.621    0.294    0.400   85.522  153.517
  367.250    4.572    0.301    0.392   86.509  153.520
  367.500    4.499    0.310    0.382   89.774  153.215
  367.750    4.459    0.319    0.402   84.912  152.603
  368.000    4.496    0.329    0.421   80.234  152.400
  368.250    4.576    0.319    0.433   77.218  152.403
  368.500    4.747    0.311    0.424   77.774  152.304
  368.750    4.970    0.307    0.442   83.380  151.999
  369.000    5.136    0.302    0.455   86.583  151.694
  369.250    5.297    0.295    0.457   83.937  152.416
  369.500    5.422    0.294    0.431   77.720  152.521
  369.750    5.508    0.294    0.401   75.320  153.551
  370.000    5.491    0.286    0.395   74.830  154.478
  370.250    5.413    0.277    0.424   74.031  155.096
  370.500    5.635    0.255    0.420   74.341  155.407
  370.750    6.328    0.218    0.442   77.668  155.821
  371.000    7.079    0.186    0.480   77.362  156.029
  371.250    7.454    0.132    0.509   66.403  156.546
