~VERSION INFORMATION
 VERS.                 2.0:   CWLS LOG ASCII STANDARD -VERSION 2.0
 WRAP.                  NO:   ONE LINE PER DEPTH STEP
~WELL INFORMATION BLOCK
#MNEM.UNIT           DATA                    DESCRIPTION OF MNEMONIC
#---------    -------------------            -------------------------------
# Generated from Intellog Unique Number	CS_73_76/WELL/1075
WELL.         HOME LIESMER                   : Well_name    - WELL
LOC .         00/06-23-075-07W4/0            : Location     - LOCATION
UWI .         00/06-23-075-07W4/0            : Uwi          - UNIQUE WELL ID
ENTR.         SP                             : Entered      - ENTERED BY
SRVC.         SCHLUMBERGER                   : Scn          - SERVICE COMPANY
STRT.M        274.32                         : top_depth    - START DEPTH
STOP.M        499.57                         : bot_depth    - STOP DEPTH
STEP.M        0.25                           : increment    - STEP LENGTH
 NULL. -999.2500:NULL Value
~CURVE INFORMATION BLOCK
#MNEM UNIT       ERCB CURVE CODE    CURVE DESCRIPTION
#-----------   ------------------   ----------------------------------
DEPT.M        00 001 00 00         : DEPTH        - DEPTH
GR  .API      00 310 00 00         : GR           - GAMMA RAY
DPHI.V/V      00 890 00 00         : PHID         - DENSITY POROSITY (SANDSTONE)
NPHI.V/V      00 330 00 00         : PHIN         - NEUTRON POROSITY (SANDSTONE)
ILD .OHMM     00 120 00 00         : RESD         - DEEP RESISTIVITY (DIL)
~PARAMETER INFORMATION
#MNEM.UNIT           DATA             DESCRIPTION OF MNEMONIC
#---------         -----------     ------------------------------
GL  .M        680.874              : gl           - GROUND LEVEL ELEVATION
EREF.M        680.874              : kb           - ELEVATION OF DEPTH REFERENCE
DATM.M        680.874              : datum        - DATUM ELEVATION
TDD .M        505.968              : tdd          - TOTAL DEPTH DRILLER
RUN .         ONE                  : Run          - RUN NUMBER
ENG .         BILL                 : Engineer     - RECORDING ENGINEER
WIT .         JIM                  : Witness      - WITNESSED BY
MUD .         GEL                  : Mud_type     - MUD TYPE
MATR.         SANDSTONE            : Logunit      - NEUTRON MATRIX
TMAX.C        15.5556              : BHT          - MAXIMUM RECORDED TEMPERATURE
BHTD.M        505.968              : BHTDEP       - MAXIMUM RECORDED TEMPERATURE
MATR.         1                    : LOGUNIT      - NEUTRON MATRIX
RMT .C        25                   : MDTP         - TEMPERATURE OF MUD
NEUT.         1                    : NEUTRON      - NEUTRON TYPE
RESI.         0                    : RESIST       - RESISTIVITY TYPE
RMC .OHMM     0.25                 : RMC          - RESISTIVITY OF MUD CAKE
RMF .OHMM     0.25                 : RMF          - RESISTIVITY OF MUD FILTRATE
SUFT.C        15                   : SUFT         - SURFACE TEMPERATURE
~A  DEPTH       GR     PHID     PHIN     RESD
# ...
  448.320   57.563    0.238    0.438   11.287
  448.570   52.086    0.243    0.415   12.816
  448.820   56.127    0.261    0.417   14.634
  449.070   61.438    0.273    0.456   17.602
  449.320   56.093    0.286    0.446   20.111
  449.570   49.359    0.283    0.410   23.050
  449.820   47.666    0.277    0.372   25.046
  450.070   54.388    0.270    0.360   26.583
  450.320   59.284    0.251    0.350   27.870
  450.570   67.100    0.228    0.360   28.073
  450.820   73.050    0.212    0.384   25.171
  451.070   76.149    0.225    0.401   20.426
  451.320   80.500    0.231    0.388   16.986
  451.570   79.272    0.237    0.377   16.132
  451.820   71.876    0.251    0.383   15.943
  452.070   68.581    0.264    0.378   15.742
  452.320   75.472    0.254    0.369   14.768
  452.570   85.752    0.228    0.360   13.567
  452.820   99.963    0.199    0.372   11.418
  453.070  110.368    0.172    0.385    9.965
  453.320  107.050    0.180    0.397    9.258
  453.570   95.048    0.173    0.408    8.838
  453.820   88.825    0.190    0.404    8.967
  454.070   85.180    0.192    0.395    9.184
  454.320   85.389    0.186    0.389    9.370
  454.570   87.500    0.183    0.381    9.636
  454.820   89.232    0.186    0.377   10.148
  455.070   88.264    0.180    0.375   10.644
  455.320   85.518    0.198    0.386   11.286
  455.570   82.907    0.192    0.398   12.284
  455.820   80.595    0.223    0.399   13.891
  456.070   78.918    0.244    0.397   16.283
  456.320   78.768    0.264    0.397   19.150
  456.570   78.802    0.253    0.397   21.549
  456.820   76.192    0.258    0.397   23.379
  457.070   73.360    0.270    0.387   25.877
  457.320   72.488    0.242    0.388   28.311
  457.570   68.311    0.252    0.401   29.636
  457.820   62.683    0.250    0.402   31.581
  458.070   59.060    0.264    0.394   34.215
  458.320   64.429    0.260    0.385   36.425
  458.570   66.315    0.276    0.381   39.980
  458.820   62.400    0.291    0.380   45.435
  459.070   56.887    0.296    0.389   48.358
  459.320   62.861    0.287    0.388   44.832
  459.570   76.320    0.260    0.378   20.303
  459.820   88.291    0.237    0.372   14.463
  460.070  100.711    0.206    0.385   11.457
  460.320  109.175    0.175    0.399    9.779
  460.570  110.782    0.179    0.415    8.585
  460.820  109.970    0.160    0.430    7.951
  461.070  107.552    0.149    0.426    7.523
  461.320  109.008    0.165    0.413    7.458
  461.570  106.001    0.146    0.427    7.432
  461.820  101.374    0.147    0.425    7.790
  462.070  104.036    0.160    0.419    8.161
  462.320  107.316    0.171    0.411    8.434
  462.570  110.402    0.182    0.406    8.501
  462.820  110.852    0.185    0.411    8.265
  463.070  110.104    0.176    0.421    7.675
  463.320  110.057    0.181    0.422    7.308
  463.570  107.676    0.163    0.416    7.061
  463.820  103.848    0.148    0.413    7.223
  464.070  102.465    0.161    0.411    7.362
  464.320  101.132    0.173    0.412    7.584
  464.570  100.290    0.188    0.413    7.787
  464.820  104.152    0.172    0.435    7.782
  465.070  108.269    0.160    0.440    7.554
  465.320  112.587    0.157    0.434    7.325
  465.570  113.929    0.172    0.420    7.362
  465.820  108.886    0.175    0.416    7.451
  466.070  103.783    0.173    0.424    7.545
  466.320   99.513    0.186    0.433    7.923
  466.570   96.172    0.193    0.426    8.161
  466.820  102.244    0.178    0.420    8.412
  467.070  108.031    0.177    0.431    8.690
  467.320  104.675    0.184    0.437    8.763
  467.570  100.127    0.177    0.431    9.050
  467.820   96.152    0.191    0.422    9.311
  468.070   94.028    0.193    0.408    9.818
  468.320   92.581    0.172    0.418   10.091
  468.570   89.598    0.201    0.428   10.618
  468.820   88.834    0.185    0.434   10.921
  469.070   88.493    0.205    0.427   11.475
  469.320   84.663    0.226    0.425   11.696
  469.570   81.482    0.236    0.417   12.194
  469.820   78.721    0.233    0.400   12.603
  470.070   78.772    0.229    0.393   12.727
  470.320   77.643    0.242    0.408   12.880
  470.570   79.064    0.237    0.428   13.155
  470.820   79.054    0.218    0.435   12.810
  471.070   84.019    0.240    0.407   12.431
  471.320   87.757    0.221    0.401   12.297
  471.570   88.194    0.189    0.416   12.239
  471.820   78.956    0.227    0.424   12.880
  472.070   69.704    0.265    0.393   13.141
  472.320   64.905    0.271    0.376   13.682
  472.570   72.235    0.224    0.393   14.133
  472.820   77.712    0.200    0.413   14.177
  473.070   69.938    0.233    0.431   13.880
  473.320   78.245    0.234    0.402   12.896
  473.570   98.090    0.229    0.388   11.723
  473.820  106.697    0.215    0.386   10.384
  474.070  108.337    0.195    0.393    9.155
  474.320  108.425    0.172    0.398    8.652
  474.570  109.001    0.162    0.399    8.194
  474.820  109.394    0.166    0.397    8.279
  475.070  108.366    0.174    0.393    8.560
  475.320  104.141    0.180    0.406    9.274
  475.570  101.522    0.183    0.428   10.026
  475.820   93.721    0.194    0.455   11.082
  476.070   74.259    0.207    0.485   13.389
  476.320   54.220    0.263    0.461   14.663
  476.570   57.726    0.293    0.419   17.518
  476.820   64.764    0.277    0.411   19.035
  477.070   72.279    0.245    0.402   17.502
  477.320   83.425    0.173    0.399   14.310
  477.570   92.630    0.163    0.404   11.867
  477.820  100.525    0.148    0.414   10.075
  478.070  105.813    0.161    0.409    9.247
  478.320  109.209    0.174    0.402    8.529
  478.570  110.886    0.167    0.400    8.095
  478.820  112.491    0.183    0.420    7.707
  479.070  111.257    0.183    0.411    7.622
  479.320  108.255    0.179    0.408    7.545
  479.570  106.969    0.169    0.405    7.441
  479.820  108.662    0.158    0.407    7.463
  480.070  110.890    0.156    0.419    7.550
  480.320  110.705    0.168    0.440    7.554
  480.570  109.742    0.171    0.440    7.557
  480.820  111.369    0.173    0.425    7.559
  481.070  112.627    0.150    0.419    7.548
  481.320  114.222    0.146    0.408    7.719
  481.570  116.630    0.149    0.406    7.700
  481.820  116.642    0.154    0.418    7.945
  482.070  113.535    0.143    0.422    8.014
  482.320  109.083    0.149    0.432    8.270
  482.570  104.910    0.162    0.420    8.464
  482.820   99.995    0.164    0.406    8.633
  483.070   95.012    0.155    0.390    8.916
  483.320   91.688    0.151    0.386    8.991
  483.570   88.351    0.180    0.393    9.287
  483.820   85.793    0.205    0.383    9.594
  484.070   84.090    0.204    0.375    9.682
  484.320   84.157    0.209    0.383    9.829
  484.570   84.895    0.213    0.387    9.810
  484.820   84.136    0.224    0.391   10.026
  485.070   84.176    0.236    0.389   10.165
  485.320   83.929    0.249    0.381   10.473
  485.570   82.855    0.251    0.378   11.044
  485.820   79.602    0.246    0.392   11.511
  486.070   73.254    0.286    0.403   12.749
  486.320   66.853    0.302    0.412   13.485
  486.570   58.428    0.304    0.422   15.227
  486.820   66.039    0.293    0.412   17.163
  487.070   73.888    0.277    0.413   17.735
  487.320   75.922    0.264    0.410   17.898
  487.570   74.839    0.265    0.394   17.112
  487.820   69.993    0.251    0.376   15.236
  488.070   67.160    0.252    0.388   15.840
  488.320   68.429    0.250    0.390   16.049
  488.570   75.319    0.236    0.382   14.919
  488.820   76.500    0.200    0.379   13.528
  489.070   68.203    0.236    0.385   14.504
  489.320   61.905    0.254    0.388   15.545
  489.570   58.864    0.267    0.378   16.667
  489.820   60.827    0.245    0.392   17.732
  490.070   61.837    0.249    0.396   18.674
  490.320   62.760    0.264    0.406   18.770
  490.570   67.046    0.268    0.402   18.471
  490.820   72.392    0.269    0.395   17.219
  491.070   78.835    0.257    0.408   16.496
  491.320   74.996    0.252    0.417   16.197
  491.570   68.832    0.255    0.420   17.688
