~VERSION INFORMATION
 VERS.                 2.0:   CWLS LOG ASCII STANDARD -VERSION 2.0
 WRAP.                  NO:   ONE LINE PER DEPTH STEP
~WELL INFORMATION BLOCK
#MNEM.UNIT           DATA                    DESCRIPTION OF MNEMONIC
#---------    -------------------            -------------------------------
# Generated from Intellog Unique Number	CS_77_79/WELL/843
WELL.         CANADIAN WORLDWIDE ENERGY      : Well_name    - WELL
LOC .         00/03-01-077-05W4/0            : Location     - LOCATION
UWI .         00/03-01-077-05W4/0            : Uwi          - UNIQUE WELL ID
ENTR.         SP                             : Entered      - ENTERED BY
SRVC.         SCHLUMBERGER                   : Scn          - SERVICE COMPANY
STRT.M        150                            : top_depth    - START DEPTH
STOP.M        405                            : bot_depth    - STOP DEPTH
STEP.M        0.25                           : increment    - STEP LENGTH
 NULL. -999.2500:NULL Value
~CURVE INFORMATION BLOCK
#MNEM UNIT       ERCB CURVE CODE    CURVE DESCRIPTION
#-----------   ------------------   ----------------------------------
DEPT.M        00 001 00 00         : DEPTH        - DEPTH
ILD .OHMM     00 120 00 00         : RESD         - DEEP RESISTIVITY (DIL)
DPHI.V/V      00 890 00 00         : PHID         - DENSITY POROSITY (SANDSTONE)
NPHI.V/V      00 330 00 00         : PHIN         - NEUTRON POROSITY (SANDSTONE)
GR  .API      00 310 00 00         : GR           - GAMMA RAY
~PARAMETER INFORMATION
#MNEM.UNIT           DATA             DESCRIPTION OF MNEMONIC
#---------         -----------     ------------------------------
GL  .M        571.1                : gl           - GROUND LEVEL ELEVATION
EREF.M        574.9                : kb           - ELEVATION OF DEPTH REFERENCE
DATM.M        571.1                : datum        - DATUM ELEVATION
TDD .M        405.5                : tdd          - TOTAL DEPTH DRILLER
RUN .         ONE                  : Run          - RUN NUMBER
ENG .         BILL                 : Engineer     - RECORDING ENGINEER
WIT .         JIM                  : Witness      - WITNESSED BY
MUD .         GEL                  : Mud_type     - MUD TYPE
MATR.         SANDSTONE            : Logunit      - NEUTRON MATRIX
TMAX.C        21                   : BHT          - MAXIMUM RECORDED TEMPERATURE
BHTD.M        431                  : BHTDEP       - MAXIMUM RECORDED TEMPERATURE
MATR.         1                    : LOGUNIT      - NEUTRON MATRIX
RMT .C        25                   : MDTP         - TEMPERATURE OF MUD
NEUT.         1                    : NEUTRON      - NEUTRON TYPE
RESI.         0                    : RESIST       - RESISTIVITY TYPE
RMC .OHMM     0.25                 : RMC          - RESISTIVITY OF MUD CAKE
RMF .OHMM     0.25                 : RMF          - RESISTIVITY OF MUD FILTRATE
SUFT.C        15                   : SUFT         - SURFACE TEMPERATURE
~A  DEPTH     RESD     PHID     PHIN       GR
# ...
  324.000   10.845    0.292    0.310   68.783
  324.250   11.270    0.294    0.308   70.673
  324.500   11.943    0.284    0.315   72.553
  324.750   12.178    0.268    0.320   73.184
  325.000   12.185    0.219    0.321   73.200
  325.250   12.426    0.193    0.318   67.614
  325.500   12.672    0.172    0.313   67.005
  325.750   13.172    0.188    0.308   67.646
  326.000   13.432    0.219    0.307   69.528
  326.250   11.336    0.241    0.332   72.650
  326.500    7.341    0.265    0.374   77.644
  326.750    6.195    0.277    0.401   84.510
  327.000    5.535    0.278    0.413   89.501
  327.250    5.863    0.268    0.330   93.250
  327.500    6.572    0.294    0.272   80.817
  327.750    8.904    0.330    0.241   75.232
  328.000   11.836    0.346    0.216   77.112
  328.250   16.967    0.360    0.199   74.641
  328.500   22.557    0.368    0.187   72.785
  328.750   23.888    0.367    0.193   68.444
  329.000   24.363    0.363    0.230   72.819
  329.250   20.183    0.333    0.263   75.323
  329.500   18.720    0.296    0.273   74.089
  329.750   16.726    0.274    0.275   71.613
  330.000   15.519    0.262    0.279   75.984
  330.250   15.530    0.232    0.279   79.734
  330.500   16.138    0.231    0.273   67.923
  330.750   17.419    0.252    0.254   53.002
  331.000   19.905    0.275    0.222   48.035
  331.250   22.738    0.296    0.179   46.804
  331.500   29.101    0.305    0.170   48.686
  331.750   34.535    0.306    0.165   53.065
  332.000   35.883    0.306    0.181   55.566
  332.250   38.009    0.303    0.189   59.322
  332.500   38.044    0.301    0.195   60.581
  332.750   34.638    0.304    0.197   62.461
  333.000   34.003    0.314    0.198   63.094
  333.250   30.967    0.317    0.188   64.357
  333.500   30.403    0.315    0.183   62.497
  333.750   32.208    0.320    0.175   50.689
  334.000   33.466    0.325    0.178   47.590
  334.250   34.131    0.331    0.199   46.358
  334.500   34.805    0.330    0.237   45.131
  334.750   32.910    0.319    0.276   44.529
  335.000   28.855    0.308    0.299   43.918
  335.250   28.327    0.303    0.319   43.933
  335.500   28.352    0.301    0.330   44.568
  335.750   30.607    0.300    0.338   43.962
  336.000   31.802    0.303    0.336   41.483
  336.250   34.331    0.303    0.345   39.008
  336.500   39.222    0.310    0.354   37.784
  336.750   44.811    0.316    0.358   37.798
  337.000   53.184    0.316    0.351   37.812
  337.250   56.312    0.309    0.337   37.826
  337.500   65.568    0.313    0.348   37.838
  337.750   73.526    0.324    0.348   37.857
  338.000   79.372    0.327    0.339   37.873
  338.250   84.061    0.327    0.328   37.881
  338.500   87.346    0.326    0.323   36.653
  338.750   96.103    0.326    0.321   35.426
  339.000  103.747    0.328    0.326   34.822
  339.250  109.898    0.339    0.332   34.212
  339.500  112.037    0.343    0.341   34.224
  339.750  118.681    0.298    0.341   33.613
  340.000  123.352    0.297    0.329   34.259
  340.250  125.794    0.294    0.319   34.268
  340.500  125.918    0.293    0.320   34.911
  340.750  125.975    0.299    0.323   35.542
  341.000  128.539    0.305    0.330   36.800
  341.250  131.074    0.312    0.346   35.569
  341.500  136.237    0.310    0.357   33.718
  341.750  138.932    0.308    0.358   31.864
  342.000  144.375    0.306    0.352   29.395
  342.250  147.214    0.305    0.343   29.405
  342.500  153.039    0.304    0.338   29.429
  342.750  159.087    0.306    0.327   30.065
  343.000  159.163    0.310    0.324   30.081
  343.250  159.273    0.311    0.331   30.097
  343.500  153.478    0.312    0.337   30.736
  343.750  147.872    0.312    0.335   30.749
  344.000  137.197    0.312    0.330   31.381
  344.250  134.772    0.311    0.325   31.391
  344.500  134.873    0.311    0.331   33.274
  344.750  134.965    0.310    0.336   33.910
  345.000  140.250    0.306    0.336   32.683
  345.250  145.748    0.306    0.331   32.079
  345.500  157.342    0.311    0.328   32.089
  345.750  163.489    0.318    0.337   32.100
  346.000  179.840    0.322    0.345   33.361
  346.250  197.851    0.323    0.345   32.133
  346.500  213.569    0.327    0.341   30.280
  346.750  213.788    0.330    0.338   32.784
  347.000  209.899    0.343    0.349   35.909
  347.250  206.107    0.346    0.351   37.169
  347.500  202.421    0.351    0.347   35.939
  347.750  198.768    0.335    0.341   34.093
  348.000  198.880    0.324    0.340   33.478
  348.250  198.996    0.321    0.347   33.500
  348.500  199.164    0.323    0.348   34.131
  348.750  195.609    0.320    0.343   34.769
  349.000  188.481    0.315    0.335   36.031
  349.250  159.094    0.309    0.335   36.048
  349.500  147.554    0.309    0.342   35.439
  349.750  126.923    0.310    0.346   34.828
  350.000  113.452    0.316    0.347   34.376
  350.250  105.261    0.318    0.353   35.641
  350.500  101.384    0.318    0.352   35.667
  350.750   94.072    0.316    0.349   35.677
  351.000   87.265    0.320    0.347   37.574
  351.250   75.059    0.317    0.344   38.209
  351.500   63.341    0.313    0.333   40.104
  351.750   44.248    0.302    0.310   50.122
  352.000   30.902    0.180    0.303   62.013
  352.250   22.845    0.185    0.297   73.277
  352.500   16.888    0.200    0.314   93.919
  352.750   12.252    0.211    0.355   95.816
  353.000   10.145    0.228    0.372   94.582
  353.250    8.563    0.249    0.371   92.723
  353.500    7.796    0.249    0.366   95.866
  353.750    7.234    0.236    0.351  100.879
  354.000    7.236    0.233    0.351  105.272
  354.250    7.384    0.240    0.352  103.414
  354.500    7.251    0.245    0.349  105.306
  354.750    7.253    0.235    0.342  110.949
  355.000    7.257    0.225    0.346  114.088
  355.250    7.400    0.221    0.363  109.734
  355.500    7.549    0.219    0.370  111.636
  355.750    7.699    0.205    0.360  114.148
  356.000    7.850    0.199    0.352  117.284
  356.250    8.004    0.199    0.351  121.053
  356.500    8.163    0.188    0.357  119.191
  356.750    8.483    0.174    0.342   94.208
  357.000    8.985    0.158    0.330   86.101
  357.250    9.699    0.203    0.327   86.748
  357.500   10.080    0.224    0.333   89.888
  357.750   10.086    0.235    0.337   98.655
  358.000    9.184    0.217    0.342  109.298
  358.250    8.683    0.199    0.344  113.061
  358.500    8.365    0.172    0.351  116.830
  358.750    7.909    0.165    0.367  118.093
  359.000    7.765    0.183    0.392  118.737
  359.250    7.771    0.213    0.402  118.759
  359.500    8.878    0.243    0.412  118.769
  359.750    9.227    0.271    0.398  115.663
  360.000    9.773    0.239    0.366  107.554
  360.250    9.966    0.197    0.347   96.320
  360.500    9.974    0.181    0.316   84.463
  360.750   10.171    0.202    0.314   81.984
  361.000   10.177    0.213    0.313   83.874
  361.250   10.382    0.224    0.316   88.894
  361.500   10.787    0.219    0.315   96.406
  361.750   11.210    0.202    0.302  108.297
  362.000   11.655    0.186    0.302  108.316
  362.250   11.883    0.217    0.310  103.959
  362.500   12.117    0.244    0.334   99.599
  362.750   12.124    0.256    0.336   88.990
  363.000   11.907    0.256    0.325   75.884
  363.250   11.472    0.260    0.325   72.151
  363.500   10.443    0.271    0.334   76.543
  363.750    9.330    0.277    0.342   94.060
  364.000    8.819    0.260    0.363  109.701
  364.250    8.030    0.237    0.387  117.218
  364.500    7.310    0.215    0.414  120.987
  364.750    6.912    0.203    0.431  121.626
  365.000    6.785    0.191    0.421  121.646
  365.250    6.923    0.179    0.411  120.411
  365.500    6.924    0.164    0.402  122.928
  365.750    7.762    0.170    0.396  114.822
  366.000    9.210    0.181    0.359   87.963
  366.250   10.325    0.146    0.331   68.603
  366.500   11.145    0.043    0.294   61.120
  366.750   11.582    0.022    0.262   76.140
  367.000   11.591    0.097    0.278   91.159
  367.250   10.959    0.148    0.318   98.048
