~VERSION INFORMATION
 VERS.                 2.0:   CWLS LOG ASCII STANDARD -VERSION 2.0
 WRAP.                  NO:   ONE LINE PER DEPTH STEP
~WELL INFORMATION BLOCK
#MNEM.UNIT           DATA                    DESCRIPTION OF MNEMONIC
#---------    -------------------            -------------------------------
# Generated from Intellog Unique Number	CW_70_72/WELL/620
NULL.         -999.25                        : NULL_VALUE
WELL.         SUNDANCE ET AL CALLS 06-11     : Well_name    - WELL              
LOC .         06-11-071-22W4                 : Location     - LOCATION          
UWI .         00/06-11-071-22W4/0            : Uwi          - UNIQUE WELL ID    
ENTR.         JAYE                           : Entered      - ENTERED BY        
SRVC.         SCHLUMBERGER                   : Scn          - SERVICE COMPANY   
DATE.         4 FEB 71                       : Date         - LOG DATE          
STRT.M        402.336                        : top_depth    - START DEPTH       
STOP.M        647.336                        : bot_depth    - STOP DEPTH        
STEP.M        0.25                           : increment    - STEP LENGTH       
~CURVE INFORMATION BLOCK
#MNEM UNIT       ERCB CURVE CODE    CURVE DESCRIPTION
#-----------   ------------------   ----------------------------------
DEPT.M        00 001 00 00         : DEPTH        - DEPTH                       
DPHI.V/V      00 890 00 00         : PHID         - DENSITY POROSITY (SANDSTONE)
NPHI.V/V      00 330 00 00         : PHIN         - NEUTRON POROSITY (SANDSTONE)
GR  .API      00 310 00 00         : GR           - GAMMA RAY                   
CALI.IN       00 280 01 00         : CAL          - CALIPER                     
ILD .OHMM     00 120 00 00         : RESD         - DEEP RESISTIVITY (DIL)      
~PARAMETER INFORMATION       
#MNEM.UNIT           DATA             DESCRIPTION OF MNEMONIC
#---------         -----------     ------------------------------
GL  .F        2232.5               : gl           - GROUND LEVEL ELEVATION      
EREF.F        2245                 : kb           - ELEVATION OF DEPTH REFERENCE
DATM.F        2232.5               : datum        - DATUM ELEVATION             
TDD .F        2156                 : tdd          - TOTAL DEPTH DRILLER         
RUN .         ONE                  : Run          - RUN NUMBER                  
ENG .         LANGTON/WILLIAMS     : Engineer     - RECORDING ENGINEER          
WIT .         GREENE               : Witness      - WITNESSED BY                
BASE.         EDM                  : Branch       - HOME BASE OF LOGGING UNIT   
MATR.         SANDSTONE            : Logunit      - NEUTRON MATRIX              
TMAX.C        24.4444              : BHT          - MAXIMUM RECORDED TEMPERATURE
BHTD.M        649.224              : BHTDEP       - MAXIMUM RECORDED TEMPERATURE
RMT .C        -17.7778             : MDTP         - TEMPERATURE OF MUD          
MUDD.KG/M     960                  : MWT          - MUD DENSITY                 
NEUT.         1                    : NEUTRON      - NEUTRON TYPE                
RESI.         0                    : RESIST       - RESISTIVITY TYPE            
RM  .OHMM     0                    : RM           - RESISTIVITY OF MUD          
RMC .OHMM     0                    : RMC          - RESISTIVITY OF MUD CAKE     
RMF .OHMM     0                    : RMF          - RESISTIVITY OF MUD FILTRATE 
SUFT.C        0                    : SUFT         - SURFACE TEMPERATURE         
~A  DEPTH     PHID     PHIN       GR      CAL     RESD
# ...
  584.836    0.169    0.410   99.533    6.799    3.800
  585.086    0.173    0.402  101.561    6.805    4.008
  585.336    0.176    0.398   99.757    6.815    4.306
  585.586    0.176    0.398   95.886    6.816    4.576
  585.836    0.172    0.396   94.631    6.817    4.772
  586.086    0.154    0.393   95.444    6.818    5.034
  586.336    0.139    0.389   96.682    6.808    5.262
  586.586    0.166    0.385   99.681    6.809    5.459
  586.836    0.184    0.384   99.338    6.738    5.695
  587.086    0.195    0.397   96.444    6.626    5.878
  587.336    0.202    0.407   94.763    6.595    5.954
  587.586    0.198    0.414   93.810    6.624    5.911
  587.836    0.186    0.428   92.858    6.687    5.766
  588.086    0.177    0.427   92.817    6.773    5.673
  588.336    0.179    0.420   93.269    6.775    5.561
  588.586    0.177    0.411   93.956    6.768    5.473
  588.836    0.174    0.403   94.769    6.782    5.443
  589.086    0.171    0.402   95.336    6.803    5.475
  589.336    0.167    0.412   95.783    6.825    5.598
  589.586    0.161    0.418   96.959    6.839    5.673
  589.836    0.154    0.415   99.110    6.856    5.716
  590.086    0.146    0.409   99.981    6.870    5.749
  590.336    0.138    0.416   98.244    6.871    5.793
  590.586    0.158    0.428   97.108    6.885    5.804
  590.836    0.175    0.439   95.304    6.830    5.786
  591.086    0.187    0.433   93.806    6.697    5.767
  591.336    0.197    0.390   93.948    6.471    5.747
  591.586    0.206    0.387   95.794    6.538    5.747
  591.836    0.207    0.392   97.093    6.576    5.783
  592.086    0.199    0.398   94.926    6.577    5.814
  592.336    0.190    0.411   93.851    6.563    5.859
  592.586    0.183    0.415   95.333    6.540    5.851
  592.836    0.178    0.413   96.815    6.525    5.798
  593.086    0.173    0.412   98.479    6.502    5.664
  593.336    0.170    0.411   99.895    6.475    5.492
  593.586    0.170    0.412  101.803    6.444    5.415
  593.836    0.175    0.412  103.831    6.417    5.427
  594.086    0.169    0.416  105.738    6.414    5.487
  594.336    0.158    0.417  106.124    6.468    5.579
  594.586    0.148    0.398  106.389    6.673    5.706
  594.836    0.142    0.387  103.674    6.783    5.812
  595.086    0.140    0.379   97.553    6.838    5.921
  595.336    0.136    0.375   90.095    6.843    6.056
  595.586    0.131    0.368   83.429    6.873    6.192
  595.836    0.127    0.360   79.253    6.903    6.330
  596.086    0.141    0.348   78.728    6.917    6.543
  596.336    0.148    0.341   75.709    6.918    6.741
  596.586    0.144    0.334   71.535    6.919    6.828
  596.836    0.138    0.328   68.699    6.912    6.919
  597.086    0.128    0.348   65.863    6.906    6.971
  597.336    0.113    0.371   62.600    6.891    7.049
  597.586    0.094    0.327   63.897    6.884    7.001
  597.836    0.089    0.305   72.981    6.878    7.106
  598.086    0.109    0.335   81.575    6.875    7.646
  598.336    0.112    0.370   84.152    6.852    8.822
  598.586    0.107    0.357   80.401    6.850    9.408
  598.836    0.121    0.343   82.613    6.859    9.090
  599.086    0.146    0.331   86.161    6.864    8.375
  599.336    0.164    0.359   91.657    6.858    7.744
  599.586    0.177    0.383   93.683    6.859    7.385
  599.836    0.178    0.390   93.279    6.861    6.881
  600.086    0.164    0.386   90.077    6.874    6.493
  600.336    0.122    0.369   84.627    6.876    6.147
  600.586    0.108    0.350   81.910    6.877    5.831
  600.836    0.117    0.350   82.542    6.879    5.939
  601.086    0.137    0.373   84.570    6.868    6.453
  601.336    0.147    0.390   88.179    6.869    6.995
  601.586    0.142    0.392   91.179    6.859    7.460
  601.836    0.147    0.382   93.087    6.852    7.751
  602.086    0.155    0.373   93.836    6.837    7.570
  602.336    0.165    0.369   93.676    6.830    7.028
  602.586    0.174    0.387   93.454    6.828    6.715
  602.836    0.171    0.397   93.232    6.829    6.488
  603.086    0.132    0.394   92.343    6.831    6.418
  603.336    0.124    0.383   92.183    6.836    6.420
  603.586    0.112    0.371   92.021    6.837    6.457
  603.836    0.100    0.362   91.191    6.847    6.507
  604.086    0.086    0.350   88.900    6.841    6.544
  604.336    0.101    0.325   90.933    6.793    6.630
  604.586    0.117    0.328   93.138    6.819    6.783
  604.836    0.137    0.341   96.444    6.922    6.933
  605.086    0.155    0.354   99.872    6.870    7.260
  605.336    0.163    0.354  102.691    6.868    7.572
  605.586    0.162    0.352  105.145    6.865    7.289
  605.836    0.158    0.360  108.026    6.875    6.817
  606.086    0.152    0.374  107.375    6.872    6.549
  606.336    0.147    0.368  101.984    6.849    6.350
  606.586    0.142    0.362   95.441    6.830    6.492
  606.836    0.133    0.355   91.386    6.804    6.811
  607.086    0.124    0.343   91.409    6.781    7.184
  607.336    0.145    0.336   95.198    6.758    7.384
  607.586    0.143    0.364   97.775    6.743    7.414
  607.836    0.147    0.369   95.425    6.744    7.137
  608.086    0.153    0.378   93.500    6.770    6.859
  608.336    0.164    0.380   93.462    6.824    6.578
  608.586    0.175    0.371   93.786    6.931    6.378
  608.836    0.197    0.358   94.173    6.989    6.310
  609.086    0.237    0.371   94.620    7.031    6.371
  609.336    0.279    0.387   95.799    7.199    6.245
  609.586    0.412    0.444   96.733    7.756    5.945
  609.836    0.460    0.554   96.388    8.373    5.310
  610.086    0.427    0.562   94.645    8.881    4.400
  610.336    0.408    0.548   90.774    9.199    3.521
  610.586    0.354    0.452   87.877    8.868    2.849
  610.836    0.294    0.388   92.157    7.366    2.573
  611.086    0.252    0.360  103.000    6.949    2.749
  611.336    0.151    0.349  109.467    6.850    3.206
  611.586    0.122    0.362  114.353    6.827    3.808
  611.836    0.120    0.367  118.755    6.836    5.048
  612.086    0.133    0.375  121.815    6.906    5.834
  612.336    0.142    0.397  117.458    6.977    6.289
  612.586    0.151    0.413  117.847    7.071    6.363
  612.836    0.160    0.411  115.921    7.146    6.237
  613.086    0.103    0.357  106.820    7.091    5.673
  613.336    0.082    0.315   95.835    6.889    5.179
  613.586    0.062    0.286   84.060    6.802    5.003
  613.836    0.040    0.262   78.305    6.742    5.173
  614.086    0.013    0.250   89.211    6.638    5.505
  614.336    0.046    0.293  108.267    6.688    6.921
  614.586    0.118    0.351  114.309    6.621    9.429
  614.836    0.146    0.385  116.942    6.460   11.875
  615.086    0.150    0.417  110.581    6.482   11.968
  615.336    0.143    0.428  106.893    6.706   11.861
  615.586    0.138    0.419  105.089    6.862   10.137
  615.836    0.145    0.382  105.294    6.563    8.203
  616.086    0.160    0.375  110.057    6.240    6.922
  616.336    0.150    0.396  115.004    5.625    6.319
  616.586    0.175    0.418  114.358    5.732    5.953
  616.836    0.196    0.449  108.115    6.589    5.709
  617.086    0.192    0.478  100.902    6.959    5.454
  617.336    0.185    0.458  102.502    6.912    5.205
  617.586    0.188    0.444  105.322    6.845    5.102
  617.836    0.207    0.437  107.898    6.814    4.975
  618.086    0.218    0.432  108.769    6.835    4.885
  618.336    0.202    0.430  108.670    6.719    4.710
  618.586    0.185    0.435  107.597    6.672    4.578
  618.836    0.178    0.447  106.462    6.588    4.512
  619.086    0.191    0.456  105.451    6.578    4.489
  619.336    0.197    0.471  104.012    6.717    4.481
  619.586    0.197    0.482  102.695    6.901    4.483
  619.836    0.191    0.479  101.745    7.113    4.452
  620.086    0.190    0.471  101.706    7.256    4.430
  620.336    0.195    0.464  101.726    7.116    4.405
  620.586    0.183    0.452  102.418    6.874    4.343
  620.836    0.160    0.439  103.231    6.628    4.281
  621.086    0.168    0.435  105.442    6.488    4.259
