~VERSION INFORMATION
 VERS.                 2.0:   CWLS LOG ASCII STANDARD -VERSION 2.0
 WRAP.                  NO:   ONE LINE PER DEPTH STEP
~WELL INFORMATION BLOCK
#MNEM.UNIT           DATA                    DESCRIPTION OF MNEMONIC
#---------    -------------------            -------------------------------
# Generated from Intellog Unique Number	CW_70_72/WELL/3009
NULL.         -999.25                        : NULL_VALUE
WELL.         BRASCAN AMOCO MEYER 06-22      : Well_name    - WELL              
LOC .         06-22-070-25W4                 : Location     - LOCATION          
UWI .         00/06-22-070-25W4/0            : Uwi          - UNIQUE WELL ID    
ENTR.         J                              : Entered      - ENTERED BY        
SRVC.         SCHLUMBERGER                   : Scn          - SERVICE COMPANY   
DATE.         10 MAR 73                      : Date         - LOG DATE          
STRT.M        478.536                        : top_depth    - START DEPTH       
STOP.M        701.036                        : bot_depth    - STOP DEPTH        
STEP.M        0.25                           : increment    - STEP LENGTH       
~CURVE INFORMATION BLOCK
#MNEM UNIT       ERCB CURVE CODE    CURVE DESCRIPTION
#-----------   ------------------   ----------------------------------
DEPT.M        00 001 00 00         : DEPTH        - DEPTH                       
ILD .OHMM     00 120 00 00         : RESD         - DEEP RESISTIVITY (DIL)      
CALI.MM       00 280 01 00         : CAL          - CALIPER                     
GR  .API      00 310 00 00         : GR           - GAMMA RAY                   
NPHI.V/V      00 330 00 00         : PHIN         - NEUTRON POROSITY (SANDSTONE)
DPHI.V/V      00 890 00 00         : PHID         - DENSITY POROSITY (SANDSTONE)
~PARAMETER INFORMATION       
#MNEM.UNIT           DATA             DESCRIPTION OF MNEMONIC
#---------         -----------     ------------------------------
GL  .M        643.433              : gl           - GROUND LEVEL ELEVATION      
EREF.M        647.243              : kb           - ELEVATION OF DEPTH REFERENCE
DATM.M        643.433              : datum        - DATUM ELEVATION             
TDD .M        729.996              : tdd          - TOTAL DEPTH DRILLER         
RUN .         ONE                  : Run          - RUN NUMBER                  
ENG .         MACIJUK              : Engineer     - RECORDING ENGINEER          
WIT .         JAMES                : Witness      - WITNESSED BY                
BASE.         EDMONTON             : Branch       - HOME BASE OF LOGGING UNIT   
MUD .         GEL                  : Mud_type     - MUD TYPE                    
MATR.         SANDSTONE            : Logunit      - NEUTRON MATRIX              
TMAX.C        27.7778              : BHT          - MAXIMUM RECORDED TEMPERATURE
BHTD.M        729.996              : BHTDEP       - MAXIMUM RECORDED TEMPERATURE
RMT .C        16.6667              : MDTP         - TEMPERATURE OF MUD          
MUDD.KG/M     1104                 : MWT          - MUD DENSITY                 
NEUT.         1                    : NEUTRON      - NEUTRON TYPE                
RESI.         0                    : RESIST       - RESISTIVITY TYPE            
RM  .OHMM     3.38                 : RM           - RESISTIVITY OF MUD          
RMC .OHMM     0                    : RMC          - RESISTIVITY OF MUD CAKE     
RMF .OHMM     0                    : RMF          - RESISTIVITY OF MUD FILTRATE 
SUFT.C        -17.7778             : SUFT         - SURFACE TEMPERATURE         
~A  DEPTH     RESD      CAL       GR     PHIN     PHID
  478.536    2.501  204.606   99.376    0.571    0.145
  478.786    2.439  206.412  100.085    0.584    0.138
  479.036    2.366  209.250   99.692    0.597    0.149
  479.286    2.299  211.056   95.049    0.598    0.167
  479.536    2.275  210.301   91.316    0.597    0.196
  479.786    2.301  208.095   92.568    0.598    0.213
  480.036    2.358  204.038   91.627    0.596    0.246
  480.286    2.461  205.441   90.329    0.581    0.231
  480.536    2.625  209.505   88.540    0.543    0.203
  480.786    2.795  213.792   86.571    0.554    0.201
  481.036    3.020  221.159   81.989    0.564    0.238
  481.286    3.146  214.429   79.289    0.472    0.253
  481.536    2.985  186.481   81.147    0.497    0.179
  481.786    2.736  188.810   86.223    0.539    0.173
  482.036    2.404  191.557   89.786    0.570    0.195
  482.286    2.239  199.232   92.316    0.582    0.208
  482.536    2.257  203.513   82.321    0.516    0.244
  482.786    2.619  199.966   73.545    0.585    0.281
  483.036    2.984  185.828   63.489    0.406    0.193
  483.286    3.547  170.344   65.104    0.376    0.151
  483.536    3.982  164.839   68.365    0.353    0.122
  483.786    4.374  163.663   70.829    0.383    0.102
  484.036    4.700  162.489   70.016    0.419    0.143
  484.286    4.651  163.065   69.562    0.429    0.201
  484.536    4.270  163.225   72.214    0.421    0.096
  484.786    3.829  164.214   79.664    0.456    0.028
  485.036    3.561  168.076   84.683    0.486    0.118
  485.286    3.329  170.621   85.692    0.523    0.173
  485.536    3.218  181.483   87.185    0.550    0.173
  485.786    3.315  190.402   88.134    0.573    0.187
  486.036    3.360  196.841   87.320    0.565    0.162
  486.286    3.282  191.241   81.096    0.540    0.170
  486.536    3.137  182.448   72.617    0.503    0.168
  486.786    2.966  175.404   67.364    0.464    0.203
  487.036    2.861  170.115   61.991    0.442    0.199
  487.286    2.755  165.238   58.201    0.392    0.237
  487.536    2.595  161.276   63.705    0.356    0.227
  487.786    2.458  159.372   77.783    0.393    0.206
  488.036    2.269  159.136   71.985    0.438    0.181
  488.286    2.213  159.404   60.836    0.436    0.238
  488.536    2.318  159.561   52.296    0.429    0.271
  488.786    2.486  159.927   57.319    0.416    0.261
  489.036    2.976  159.994   66.047    0.407    0.257
  489.286    3.245  160.147   75.078    0.408    0.248
  489.536    3.362  160.216   82.286    0.424    0.234
  489.786    3.352  162.233   90.100    0.446    0.228
  490.036    3.251  165.176   89.835    0.464    0.250
  490.286    3.130  169.152   83.243    0.556    0.225
  490.536    3.008  185.474   79.999    0.579    0.221
  490.786    2.988  187.377   82.163    0.586    0.237
  491.036    3.084  186.310   80.069    0.584    0.192
  491.286    3.196  184.317   80.102    0.539    0.179
  491.536    3.214  181.789   81.841    0.497    0.202
  491.786    3.234  180.100   82.059    0.510    0.216
  492.036    3.154  179.444   82.216    0.484    0.229
  492.286    2.993  178.573   82.679    0.487    0.218
  492.536    2.919  178.326   83.864    0.522    0.210
  492.786    2.942  177.869   84.993    0.545    0.197
  493.036    3.020  177.517   86.246    0.568    0.204
  493.286    3.100  177.681   86.469    0.585    0.209
  493.536    3.188  178.261   86.201    0.585    0.226
  493.786    3.231  178.738   88.301    0.588    0.241
  494.036    3.221  178.795   88.583    0.586    0.231
  494.286    3.130  178.765   87.461    0.579    0.232
  494.536    3.025  179.746   89.014    0.573    0.241
  494.786    2.886  179.388   88.626    0.574    0.232
  495.036    2.724  179.343   86.716    0.578    0.230
  495.286    2.613  180.551   82.313    0.585    0.242
  495.536    2.461  182.870   78.160    0.590    0.271
  495.786    2.353  174.905   80.138    0.591    0.280
  496.036    2.278  178.467   78.167    0.571    0.252
  496.286    2.267  182.847   61.002    0.494    0.274
  496.536    2.284  176.419   50.218    0.381    0.310
  496.786    2.366  167.425   52.748    0.361    0.217
  497.036    2.506  162.856   65.548    0.361    0.199
  497.286    2.693  159.508   73.787    0.379    0.184
  497.536    2.852  158.652   78.744    0.379    0.185
  497.786    3.145  159.012   81.214    0.375    0.200
  498.036    3.186  159.699   83.013    0.394    0.161
  498.286    3.307  160.688   86.875    0.386    0.182
  498.536    3.432  163.720   91.651    0.392    0.191
  498.786    3.798  167.293   95.702    0.369    0.199
  499.036    4.006  174.653  100.539    0.389    0.171
  499.286    4.242  176.470  103.007    0.416    0.180
  499.536    4.033  178.068   99.029    0.419    0.176
  499.786    4.033  178.438   94.144    0.395    0.178
  500.036    3.161  178.503   89.012    0.382    0.179
  500.286    2.891  178.357   94.453    0.420    0.184
  500.536    2.513  179.655  100.997    0.555    0.231
  500.786    2.260  192.682   97.748    0.599    0.251
  501.036    2.121  216.417   93.045    0.567    0.311
  501.286    2.271  218.536   98.551    0.549    0.356
  501.536    2.477  203.262   99.010    0.564    0.321
  501.786    2.812  229.871  104.033    0.550    0.364
  502.036    3.060  227.357  108.138    0.492    0.400
  502.286    3.361  199.840  102.034    0.462    0.207
  502.536    3.489  176.842   93.988    0.474    0.222
  502.786    3.317  169.798   81.682    0.490    0.193
  503.036    3.193  167.385   78.316    0.456    0.211
  503.286    3.114  165.487   75.917    0.481    0.195
  503.536    3.150  164.412   75.894    0.430    0.239
  503.786    3.282  163.861   89.668    0.404    0.191
  504.036    3.456  163.515   96.508    0.439    0.219
  504.286    3.626  162.856   94.480    0.448    0.193
  504.536    3.723  161.989   84.670    0.468    0.188
  504.786    3.664  159.885   78.077    0.489    0.189
  505.036    3.541  157.681   75.744    0.506    0.196
  505.286    3.447  155.465   74.623    0.486    0.206
  505.536    3.430  154.809   76.115    0.427    0.250
  505.786    3.483  154.563   77.247    0.409    0.223
  506.036    3.656  155.750   78.681    0.385    0.227
  506.286    3.643  158.182   75.798    0.387    0.202
  506.536    3.495  160.203   70.974    0.451    0.195
  506.786    2.978  162.317   72.100    0.464    0.174
  507.036    2.856  162.488   70.558    0.451    0.189
  507.286    2.627  162.035   64.882    0.476    0.214
  507.536    2.359  161.888   60.113    0.463    0.258
  507.786    2.297  161.632   59.238    0.448    0.270
  508.036    2.393  161.382   62.977    0.464    0.251
  508.286    2.652  161.454   68.425    0.447    0.260
  508.536    2.945  161.507   70.649    0.476    0.241
  508.786    3.154  161.366   66.430    0.470    0.230
  509.036    3.127  160.606   61.602    0.450    0.215
  509.286    2.957  159.328   65.835    0.423    0.212
  509.536    2.862  156.399   71.152    0.423    0.226
  509.786    2.736  154.908   71.984    0.445    0.247
  510.036    2.762  156.210   72.567    0.468    0.260
  510.286    2.872  159.564   74.487    0.479    0.239
  510.536    2.943  161.894   78.654    0.429    0.258
  510.786    2.928  162.878   82.517    0.393    0.255
  511.036    2.851  163.645   80.670    0.468    0.241
  511.286    2.837  163.508   73.836    0.496    0.237
  511.536    2.875  163.780   74.786    0.524    0.253
  511.786    2.995  163.007   80.898    0.537    0.247
  512.036    3.137  162.526   88.776    0.497    0.267
  512.286    3.304  162.818   99.511    0.436    0.205
  512.536    3.404  163.914  104.833    0.425    0.194
  512.786    3.462  167.475  107.241    0.426    0.160
  513.036    3.452  175.559  108.005    0.442    0.145
  513.286    3.379  185.605  102.265    0.496    0.172
  513.536    3.325  184.615   93.791    0.485    0.191
  513.786    3.243  178.829   80.636    0.459    0.215
  514.036    3.151  171.178   74.107    0.446    0.206
  514.286    3.018  160.398   69.827    0.431    0.223
  514.536    2.948  159.873   67.373    0.446    0.251
  514.786    2.886  159.001   72.875    0.451    0.234
