~VERSION INFORMATION
 VERS.                 2.0:   CWLS LOG ASCII STANDARD -VERSION 2.0
 WRAP.                  NO:   ONE LINE PER DEPTH STEP
~WELL INFORMATION BLOCK
#MNEM.UNIT           DATA                    DESCRIPTION OF MNEMONIC
#---------    -------------------            -------------------------------
# Generated from Intellog Unique Number	CW_79_81/WELL/2450
WELL.         06-08-081-22W4                 : Well_name    - WELL
LOC .         00/06-08-081-22W4/0            : Location     - LOCATION
UWI .         00/06-08-081-22W4/0            : Uwi          - UNIQUE WELL ID
ENTR.         MAX                            : Entered      - ENTERED BY
SRVC.         SCHLUMBERGER                   : Scn          - SERVICE COMPANY
STRT.M        225                            : top_depth    - START DEPTH
STOP.M        444.75                         : bot_depth    - STOP DEPTH
STEP.M        0.25                           : increment    - STEP LENGTH
 NULL. -999.2500:NULL Value
~CURVE INFORMATION BLOCK
#MNEM UNIT       ERCB CURVE CODE    CURVE DESCRIPTION
#-----------   ------------------   ----------------------------------
DEPT.M        00 001 00 00         : DEPTH        - DEPTH
ILD .OHMM     00 120 00 00         : RESD         - DEEP RESISTIVITY (DIL)
NPHI.V/V      00 330 00 00         : PHIN         - NEUTRON POROSITY (SANDSTONE)
DPHI.V/V      00 890 00 00         : PHID         - DENSITY POROSITY (SANDSTONE)
GR  .API      00 310 00 00         : GR           - GAMMA RAY
CALI.MM       00 280 01 00         : CAL          - CALIPER
~PARAMETER INFORMATION
#MNEM.UNIT           DATA             DESCRIPTION OF MNEMONIC
#---------         -----------     ------------------------------
GL  .M        597.6                : gl           - GROUND LEVEL ELEVATION
EREF.M        600.9                : kb           - ELEVATION OF DEPTH REFERENCE
DATM.M        597.6                : datum        - DATUM ELEVATION
TDD .M        450                  : tdd          - TOTAL DEPTH DRILLER
RUN .         ONE                  : Run          - RUN NUMBER
ENG .         BILL                 : Engineer     - RECORDING ENGINEER
WIT .         JIM                  : Witness      - WITNESSED BY
MUD .         GEL                  : Mud_type     - MUD TYPE
MATR.         SANDSTONE            : Logunit      - NEUTRON MATRIX
TMAX.C        24                   : BHT          - MAXIMUM RECORDED TEMPERATURE
BHTD.M        450                  : BHTDEP       - MAXIMUM RECORDED TEMPERATURE
MATR.         1                    : LOGUNIT      - NEUTRON MATRIX
RMT .C        16.1                 : MDTP         - TEMPERATURE OF MUD
NEUT.         1                    : NEUTRON      - NEUTRON TYPE
RESI.         0                    : RESIST       - RESISTIVITY TYPE
RMC .OHMM     3.66                 : RMC          - RESISTIVITY OF MUD CAKE
RMF .OHMM     5.1                  : RMF          - RESISTIVITY OF MUD FILTRATE
SUFT.C        -10                  : SUFT         - SURFACE TEMPERATURE
~A  DEPTH     RESD     PHIN     PHID       GR      CAL
# ...
  334.500    5.748    0.472    0.258   73.293  224.290
  334.750    5.746    0.469    0.266   71.853  222.688
  335.000    6.062    0.468    0.271   71.128  221.086
  335.250    6.566    0.471    0.274   70.881  219.682
  335.500    7.109    0.474    0.276   71.112  218.775
  335.750    7.482    0.476    0.273   72.555  218.758
  336.000    7.480    0.481    0.253   75.032  218.743
  336.250    7.476    0.490    0.249   78.124  219.924
  336.500    7.351    0.496    0.248   79.070  222.295
  336.750    7.136    0.491    0.252   78.704  224.467
  337.000    6.929    0.479    0.257   78.099  225.747
  337.250    6.866    0.471    0.256   78.419  226.212
  337.500    6.811    0.471    0.245   77.665  226.614
  337.750    6.709    0.483    0.241   77.895  227.791
  338.000    6.683    0.483    0.248   76.873  228.969
  338.250    6.680    0.474    0.253   76.150  229.751
  338.500    6.690    0.463    0.258   76.261  230.138
  338.750    6.737    0.460    0.271   76.779  230.520
  339.000    6.732    0.469    0.265   77.019  230.504
  339.250    6.831    0.480    0.267   76.057  230.491
  339.500    6.892    0.486    0.275   75.988  230.478
  339.750    6.890    0.487    0.271   76.935  230.465
  340.000    6.850    0.484    0.261   78.061  230.452
  340.250    6.888    0.482    0.264   76.878  230.187
  340.500    7.099    0.477    0.262   73.390  228.932
  340.750    7.468    0.475    0.260   74.335  226.931
  341.000    8.153    0.475    0.255   74.924  225.527
  341.250    9.152    0.475    0.259   74.441  224.122
  341.500   10.689    0.476    0.270   73.061  222.518
  341.750   14.129    0.479    0.273   71.412  220.743
  342.000   16.750    0.482    0.284   69.166  219.902
  342.250   19.742    0.460    0.282   62.719  219.491
  342.500   25.792    0.380    0.270   56.627  219.380
  342.750   34.703    0.288    0.261   53.280  219.367
  343.000   41.583    0.226    0.258   53.869  219.651
  343.250   35.199    0.241    0.262   59.882  220.910
  343.500   25.466    0.281    0.281   67.327  221.308
  343.750   16.709    0.359    0.278   68.990  219.709
  344.000   13.009    0.410    0.288   69.937  216.913
  344.250   11.224    0.435    0.289   70.883  214.912
  344.500   10.387    0.446    0.279   72.186  214.103
  344.750   10.085    0.468    0.269   73.646  213.289
  345.000   10.082    0.479    0.260   72.646  213.274
  345.250   10.152    0.477    0.251   70.491  213.661
  345.500   10.000    0.479    0.245   70.661  214.342
  345.750    9.706    0.481    0.252   71.726  214.727
  346.000    9.372    0.479    0.266   72.493  214.715
  346.250    9.029    0.473    0.267   72.355  214.782
  346.500    8.689    0.465    0.263   74.085  215.184
  346.750    8.373    0.460    0.248   75.270  217.554
  347.000    8.249    0.458    0.238   74.129  219.627
  347.250    8.276    0.459    0.226   72.929  221.004
  347.500    8.381    0.455    0.211   72.862  221.587
  347.750    8.439    0.434    0.199   74.392  221.573
  348.000    8.436    0.417    0.189   76.124  221.557
  348.250    8.433    0.457    0.239   77.069  221.545
  348.500    8.430    0.463    0.256   77.479  221.533
  348.750    8.427    0.459    0.255   76.637  221.320
  349.000    8.440    0.458    0.249   75.138  221.306
  349.250    8.550    0.468    0.245   75.335  222.235
  349.500    8.812    0.480    0.253   77.563  220.980
  349.750    9.070    0.469    0.250   80.418  218.580
  350.000    8.876    0.448    0.240   80.718  218.893
  350.250    8.587    0.440    0.233   80.335  219.720
  350.500    8.364    0.447    0.231   80.122  219.957
  350.750    8.154    0.453    0.231   80.014  219.935
  351.000    7.978    0.450    0.234   80.538  221.626
  351.250    7.811    0.453    0.235   82.455  223.648
  351.500    7.564    0.461    0.241   84.733  225.662
  351.750    7.273    0.471    0.238   86.063  227.477
  352.000    6.982    0.477    0.225   86.087  228.998
  352.250    6.709    0.475    0.212   84.860  230.069
  352.500    6.563    0.471    0.212   82.164  229.287
  352.750    6.521    0.469    0.235   79.574  228.144
  353.000    6.729    0.463    0.250   78.056  227.288
  353.250    7.908    0.461    0.260   76.774  225.348
  353.500   10.805    0.462    0.263   74.838  222.620
  353.750   14.487    0.463    0.253   70.763  221.000
  354.000   15.651    0.459    0.247   68.062  220.633
  354.250   15.893    0.446    0.239   65.237  221.061
  354.500   16.577    0.431    0.224   62.233  220.611
  354.750   17.639    0.390    0.222   58.933  220.453
  355.000   19.762    0.329    0.233   55.929  220.886
  355.250   26.858    0.280    0.236   54.779  221.339
  355.500   32.854    0.238    0.245   56.044  221.364
  355.750   32.167    0.280    0.258   59.152  220.617
  356.000   25.666    0.334    0.253   62.618  220.460
  356.250   18.955    0.383    0.243   65.017  220.894
  356.500   15.048    0.419    0.238   65.871  221.823
  356.750   14.463    0.439    0.243   65.413  223.312
  357.000   14.697    0.440    0.234   64.202  224.578
  357.250   15.034    0.436    0.237   63.986  226.201
  357.500   15.128    0.439    0.234   66.089  227.230
  357.750   14.973    0.443    0.233   68.965  227.668
  358.000   14.581    0.447    0.236   71.305  227.415
  358.250   13.758    0.450    0.242   71.994  226.110
  358.500   12.772    0.455    0.249   71.769  225.323
  358.750   11.616    0.454    0.247   72.510  224.972
  359.000   10.630    0.449    0.246   74.313  225.208
  359.250   10.086    0.452    0.247   76.234  225.048
  359.500    9.949    0.464    0.249   77.445  224.494
  359.750   10.106    0.470    0.247   76.693  224.625
  360.000   10.506    0.458    0.246   73.997  225.074
  360.250   11.382    0.452    0.239   73.784  225.115
  360.500   12.078    0.444    0.233   74.993  224.858
  360.750   12.764    0.434    0.230   76.321  224.702
  361.000   13.353    0.424    0.231   76.700  224.742
  361.250   13.262    0.420    0.230   75.010  224.532
  361.500   12.780    0.420    0.226   73.551  223.342
  361.750   11.713    0.421    0.215   73.096  222.191
  362.000   11.229    0.425    0.210   74.424  221.642
  362.250   10.956    0.439    0.209   76.942  222.472
  362.500   10.729    0.456    0.213   79.163  223.889
  362.750   10.411    0.453    0.233   79.016  222.886
  363.000    9.959    0.438    0.250   80.525  219.630
  363.250    9.750    0.438    0.252   82.923  217.688
  363.500    9.704    0.442    0.239   84.074  217.232
  363.750    9.747    0.446    0.233   84.215  217.668
  364.000    9.862    0.449    0.234   83.231  218.402
  364.250   10.122    0.445    0.224   80.403  218.850
  364.500   10.285    0.442    0.224   79.189  218.892
  364.750   10.292    0.440    0.223   80.635  218.924
  365.000   10.188    0.437    0.230   83.153  218.374
  365.250    9.938    0.437    0.236   83.059  218.019
  365.500    9.628    0.444    0.238   81.121  218.153
  365.750    9.430    0.464    0.241   82.919  218.600
  366.000    9.437    0.467    0.237   84.675  218.638
  366.250    9.582    0.463    0.232   85.414  218.278
  366.500    9.730    0.462    0.221   84.547  218.215
  366.750    9.810    0.461    0.212   83.145  218.847
  367.000    9.818    0.460    0.210   82.338  220.076
  367.250    9.842    0.458    0.214   83.663  221.403
  367.500    9.926    0.457    0.209   85.417  221.857
  367.750    9.860    0.457    0.202   87.103  221.893
  368.000    9.850    0.456    0.205   87.186  222.226
  368.250    9.858    0.453    0.213   86.141  222.658
  368.500    9.866    0.448    0.220   84.917  222.893
  368.750    9.892    0.441    0.216   85.047  222.464
  369.000    9.974    0.446    0.230   85.567  222.097
  369.250   10.201    0.441    0.217   85.114  222.134
  369.500   10.492    0.442    0.205   85.375  222.472
  369.750   10.772    0.445    0.209   85.635  222.708
  370.000   10.960    0.450    0.224   85.004  222.744
  370.250   10.953    0.448    0.223   82.320  222.631
  370.500   10.879    0.441    0.229   81.850  221.849
  370.750   10.809    0.443    0.216   83.778  221.881
