~VERSION INFORMATION
 VERS.                 2.0:   CWLS LOG ASCII STANDARD -VERSION 2.0
 WRAP.                  NO:   ONE LINE PER DEPTH STEP
~WELL INFORMATION BLOCK
#MNEM.UNIT           DATA                    DESCRIPTION OF MNEMONIC
#---------    -------------------            -------------------------------
# Generated from Intellog Unique Number	CX_WELLS/WELL/3092
WELL.         CHEVRON CON-SUP ALGAR          : Well_name    - WELL
LOC .         00/06-32-082-16W4/0            : Location     - LOCATION
UWI .         00/06-32-082-16W400            : Uwi          - UNIQUE WELL ID
ENTR.         TIM                            : Entered      - ENTERED BY
SRVC.         SCHLUMBERGER                   : Scn          - SERVICE COMPANY
STRT.F        350                            : top_depth    - START DEPTH
STOP.F        914.304                        : bot_depth    - STOP DEPTH
STEP.F        0.82                           : increment    - STEP LENGTH
 NULL. -999.2500:NULL Value
~CURVE INFORMATION BLOCK
#MNEM UNIT       ERCB CURVE CODE    CURVE DESCRIPTION
#-----------   ------------------   ----------------------------------
DEPT.F        00 001 00 00         : DEPTH        - DEPTH
GR  .API      00 310 00 00         : GR           - GAMMA RAY
NPHI.V/V      00 330 00 00         : PHIN         - NEUTRON POROSITY (SANDSTONE)
DPHI.V/V      00 890 00 00         : PHID         - DENSITY POROSITY (SANDSTONE)
ILD .OHMM     00 120 00 00         : RESD         - DEEP RESISTIVITY (OTHER)
~PARAMETER INFORMATION
#MNEM.UNIT           DATA             DESCRIPTION OF MNEMONIC
#---------         -----------     ------------------------------
GL  .F        1760.9               : gl           - GROUND LEVEL ELEVATION
EREF.F        1771.5               : kb           - ELEVATION OF DEPTH REFERENCE
DATM.F        1771.5               : datum        - DATUM ELEVATION
TDD .F        925                  : tdd          - TOTAL DEPTH DRILLER
RUN .         ONE                  : Run          - RUN NUMBER
ENG .         BILL                 : Engineer     - RECORDING ENGINEER
WIT .         JIM                  : Witness      - WITNESSED BY
MUD .         GEL                  : Mud_type     - MUD TYPE
MATR.         SANDSTONE            : Logunit      - NEUTRON MATRIX
TMAX.F        71.6                 : BHT          - MAXIMUM RECORDED TEMPERATURE
BHTD.F        925                  : BHTDEP       - MAXIMUM RECORDED TEMPERATURE
MATR.         1                    : LOGUNIT      - NEUTRON MATRIX
RMT .F        77                   : MDTP         - TEMPERATURE OF MUD
NEUT.         1                    : NEUTRON      - NEUTRON TYPE
RESI.         3.07                 : RESIST       - RESISTIVITY TYPE
RMC .OHMM     3.07                 : RMC          - RESISTIVITY OF MUD CAKE
RMF .OHMM     3.07                 : RMF          - RESISTIVITY OF MUD FILTRATE
SUFT.F        32                   : SUFT         - SURFACE TEMPERATURE
~A  DEPTH       GR     PHIN     PHID     RESD
# ...
  492.717   47.959    0.507    0.361   17.248
  493.537   47.004    0.510    0.358   17.343
  494.357   46.005    0.513    0.360   17.118
  495.177   47.359    0.514    0.362   17.212
  495.997   50.524    0.514    0.364   17.012
  496.818   53.055    0.512    0.364   17.129
  497.638   53.866    0.507    0.362   16.884
  498.458   53.955    0.498    0.358   17.000
  499.278   54.221    0.486    0.356   17.047
  500.098   54.354    0.484    0.354   17.164
  500.919   54.576    0.490    0.353   17.282
  501.739   54.710    0.510    0.351   17.329
  502.559   54.887    0.517    0.348   17.472
  503.379   54.477    0.514    0.347   17.592
  504.199   54.110    0.504    0.346   17.664
  505.020   54.288    0.500    0.351   17.785
  505.840   53.289    0.492    0.353   17.834
  506.660   52.245    0.492    0.359   17.603
  507.480   51.290    0.498    0.363   17.056
  508.301   50.247    0.506    0.362   16.835
  509.121   49.880    0.518    0.362   16.663
  509.941   50.647    0.548    0.366   16.708
  510.761   53.222    0.554    0.368   17.161
  511.581   55.754    0.525    0.371   17.578
  512.402   56.520    0.510    0.371   17.980
  513.222   54.344    0.497    0.367   18.761
  514.042   51.535    0.486    0.368   23.589
  514.862   47.593    0.471    0.371   23.283
  515.682   44.196    0.450    0.376   20.593
  516.503   42.608    0.473    0.380   19.228
  517.323   42.786    0.499    0.379   18.606
  518.143   46.039    0.510    0.346   18.052
  518.963   46.717    0.504    0.342   18.151
  519.783   46.306    0.502    0.339   18.251
  520.604   45.306    0.504    0.339   18.015
  521.424   45.573    0.506    0.340   17.757
  522.244   45.662    0.500    0.341   17.575
  523.064   46.472    0.495    0.345   17.323
  523.885   47.916    0.495    0.346   17.076
  524.705   48.593    0.488    0.341   17.216
  525.525   49.948    0.485    0.333   16.704
  526.345   53.789    0.486    0.333   16.443
  527.165   55.643    0.491    0.340   15.976
  527.986   58.219    0.500    0.347   15.726
  528.806   59.618    0.515    0.346   14.978
  529.626   59.796    0.509    0.347   14.247
  530.446   60.562    0.504    0.349   13.767
  531.266   64.270    0.527    0.352   10.881
  532.087   67.435    0.531    0.357    9.249
  532.907   68.201    0.550    0.357    8.489
  533.727   68.379    0.553    0.349    8.536
  534.547   68.556    0.541    0.334    8.731
  535.367   71.088    0.514    0.325    9.467
  536.188   74.885    0.501    0.317   10.062
  537.008   79.182    0.529    0.309   10.306
  537.828   83.478    0.540    0.297    8.949
  538.648   89.041    0.554    0.283    8.180
  539.469   91.028    0.545    0.270    6.835
  540.289   90.662    0.524    0.255    6.264
  541.109   90.751    0.520    0.239    5.959
  541.929   91.561    0.515    0.227    5.781
  542.749   93.549    0.514    0.217    5.699
  543.570   95.447    0.520    0.207    5.529
  544.390   98.612    0.526    0.192    5.357
  545.210  102.409    0.533    0.198    5.288
  546.030  103.131    0.527    0.202    5.220
  546.850  103.897    0.548    0.208    5.145
  547.671  102.897    0.556    0.212    5.187
  548.491  101.898    0.563    0.219    5.113
  549.311  100.355    0.572    0.224    5.141
  550.131  100.444    0.573    0.223    5.068
  550.951  100.622    0.576    0.218    5.095
  551.772  100.255    0.579    0.214    5.123
  552.592   99.844    0.575    0.215    5.166
  553.412   98.301    0.576    0.219    5.298
  554.232   97.213    0.576    0.227    5.313
  555.052   95.626    0.570    0.226    5.559
  555.873   91.684    0.563    0.229    5.574
  556.693   85.344    0.530    0.235    5.941
  557.513   78.461    0.521    0.241    6.323
  558.333   74.519    0.526    0.237    6.703
  559.154   79.405    0.533    0.235    8.585
  559.974   80.804    0.538    0.243   12.305
  560.794   80.937    0.546    0.264   14.368
  561.614   80.570    0.550    0.287   16.144
  562.434   78.394    0.517    0.301   16.868
  563.255   75.585    0.499    0.259   15.750
  564.075   70.467    0.483    0.239   14.981
  564.895   65.304    0.452    0.159   14.007
  565.715   62.540    0.340    0.170   13.788
  566.535   61.630    0.365    0.196   13.114
  567.356   61.763    0.391    0.239   13.204
  568.176   61.308    0.459    0.265   12.794
  568.996   60.986    0.498    0.315   12.864
  569.816   61.075    0.500    0.340   12.680
  570.636   60.753    0.513    0.338   12.533
  571.457   60.841    0.531    0.337   12.637
  572.277   61.019    0.532    0.334   12.439
  573.097   61.197    0.523    0.334   12.507
  573.917   61.374    0.515    0.335   12.576
  574.738   61.641    0.508    0.333   12.662
  575.558   61.863    0.509    0.330   12.749
  576.378   62.585    0.508    0.326   12.801
  577.198   62.718    0.508    0.325   12.854
  578.018   62.984    0.517    0.322   12.740
  578.839   63.118    0.530    0.320   12.792
  579.659   63.251    0.541    0.324   12.845
  580.479   63.562    0.546    0.329   12.915
  581.299   63.651    0.549    0.336   13.004
  582.119   63.917    0.544    0.332   13.075
  582.940   64.051    0.520    0.331   12.924
  583.760   63.595    0.517    0.333   12.959
  584.580   63.773    0.513    0.334   12.809
  585.400   63.407    0.510    0.332   12.643
  586.220   63.584    0.510    0.326   12.284
  587.041   63.718    0.505    0.316   12.108
  587.861   64.528    0.500    0.308   11.967
  588.681   65.294    0.504    0.297   11.796
  589.501   66.693    0.529    0.304   11.445
  590.322   68.048    0.540    0.307   11.282
  591.142   69.991    0.544    0.305   10.916
  591.962   72.567    0.512    0.303   10.775
  592.782   75.098    0.512    0.301   10.088
  593.602   77.630    0.522    0.301    9.582
  594.423   80.206    0.527    0.297    9.445
  595.243   82.737    0.501    0.294    8.831
  596.063   84.136    0.503    0.288    8.545
  596.883   84.902    0.524    0.280    8.280
  597.703   85.124    0.529    0.278    8.023
  598.524   84.669    0.531    0.271    7.908
  599.344   81.904    0.516    0.269    7.673
  600.164   78.507    0.518    0.265    7.573
  600.984   74.566    0.528    0.263    7.475
  601.804   71.257    0.535    0.258    7.527
  602.625   70.213    0.540    0.250    7.419
  603.445   70.391    0.536    0.251    7.470
  604.265   71.157    0.525    0.261    7.521
  605.085   72.012    0.515    0.277    7.542
  605.906   72.734    0.508    0.273    7.594
  606.726   73.500    0.503    0.272    7.625
  607.546   74.899    0.502    0.262    7.821
  608.366   76.254    0.501    0.251    8.010
  609.186   76.431    0.503    0.247    8.227
  610.007   75.477    0.508    0.242    8.416
  610.827   74.977    0.518    0.233    8.608
  611.647   73.389    0.524    0.259    9.175
  612.467   71.213    0.532    0.288    9.385
  613.287   66.683    0.528    0.297    9.792
  614.108   62.109    0.513    0.315   10.044
  614.928   59.933    0.516    0.331   10.127
  615.748   58.934    0.528    0.338   10.154
  616.568   58.567    0.536    0.349   10.210
  617.388   59.333    0.537    0.359   10.280
  618.209   59.467    0.528    0.358   10.322
  619.029   60.910    0.521    0.357   10.203
  619.849   61.632    0.518    0.351   10.245
  620.669   63.031    0.517    0.349   10.140
  621.490   63.164    0.517    0.347   10.195
  622.310   63.386    0.516    0.346   10.237
  623.130   62.975    0.512    0.343   10.293
  623.950   63.153    0.502    0.342   10.188
  624.770   62.698    0.496    0.342   10.230
  625.591   62.287    0.490    0.343   10.111
  626.411   61.965    0.493    0.343   10.139
  627.231   61.554    0.517    0.343   10.194
  628.051   61.688    0.519    0.343   10.076
  628.871   61.954    0.532    0.340   10.173
  629.692   62.087    0.535    0.338   10.215
  630.512   62.854    0.543    0.337   10.243
  631.332   64.252    0.545    0.340   10.124
  632.152   64.974    0.545    0.340   10.180
  632.972   66.329    0.543    0.340   10.236
  633.793   67.728    0.545    0.342    9.918
  634.613   69.082    0.546    0.338    9.610
