~VERSION INFORMATION
 VERS.                 2.0:   CWLS LOG ASCII STANDARD -VERSION 2.0
 WRAP.                  NO:   ONE LINE PER DEPTH STEP
~WELL INFORMATION BLOCK
#MNEM.UNIT           DATA                    DESCRIPTION OF MNEMONIC
#---------    -------------------            -------------------------------
# Generated from Intellog Unique Number	CS_69_70/WELL/855
WELL.         ET AL HEART LAKE               : Well_name    - WELL
LOC .         00/09-09-069-09W4/0            : Location     - LOCATION
UWI .         00/09-09-069-09W4/0            : Uwi          - UNIQUE WELL ID
ENTR.         SP                             : Entered      - ENTERED BY
SRVC.         SCHLUMBERGER                   : Scn          - SERVICE COMPANY
STRT.M        400                            : top_depth    - START DEPTH
STOP.M        635                            : bot_depth    - STOP DEPTH
STEP.M        0.25                           : increment    - STEP LENGTH
 NULL. -999.2500:NULL Value
~CURVE INFORMATION BLOCK
#MNEM UNIT       ERCB CURVE CODE    CURVE DESCRIPTION
#-----------   ------------------   ----------------------------------
DEPT.M        00 001 00 00         : DEPTH        - DEPTH
ILD .OHMM     00 120 00 00         : RESD         - DEEP RESISTIVITY (DIL)
DPHI.V/V      00 890 00 00         : PHID         - DENSITY POROSITY (LIMESTONE)
NPHI.V/V      00 330 00 00         : PHIN         - NEUTRON POROSITY (LIMESTONE)
GR  .API      00 310 00 00         : GR           - GAMMA RAY
~PARAMETER INFORMATION
#MNEM.UNIT           DATA             DESCRIPTION OF MNEMONIC
#---------         -----------     ------------------------------
GL  .M        743.29               : gl           - GROUND LEVEL ELEVATION
EREF.M        746.5                : kb           - ELEVATION OF DEPTH REFERENCE
DATM.M        743.29               : datum        - DATUM ELEVATION
TDD .M        640                  : tdd          - TOTAL DEPTH DRILLER
RUN .         ONE                  : Run          - RUN NUMBER
ENG .         BILL                 : Engineer     - RECORDING ENGINEER
WIT .         JIM                  : Witness      - WITNESSED BY
MUD .         GEL                  : Mud_type     - MUD TYPE
MATR.         LIMESTONE            : Logunit      - NEUTRON MATRIX
TMAX.C        23.3                 : BHT          - MAXIMUM RECORDED TEMPERATURE
BHTD.M        640                  : BHTDEP       - MAXIMUM RECORDED TEMPERATURE
MATR.         1                    : LOGUNIT      - NEUTRON MATRIX
RMT .C        25                   : MDTP         - TEMPERATURE OF MUD
NEUT.         1                    : NEUTRON      - NEUTRON TYPE
RESI.         0                    : RESIST       - RESISTIVITY TYPE
RMC .OHMM     0.25                 : RMC          - RESISTIVITY OF MUD CAKE
RMF .OHMM     0.25                 : RMF          - RESISTIVITY OF MUD FILTRATE
SUFT.C        15                   : SUFT         - SURFACE TEMPERATURE
~A  DEPTH     RESD     PHID     PHIN       GR
# ...
  530.500    4.164    0.332    0.426   69.558
  530.750    4.117    0.318    0.444   74.830
  531.000    4.109    0.318    0.434   80.042
  531.250    4.179    0.313    0.447   86.344
  531.500    4.371    0.310    0.461   85.129
  531.750    4.588    0.302    0.476   80.579
  532.000    4.999    0.275    0.428   78.030
  532.250    5.592    0.203    0.387   78.997
  532.500    6.082    0.168    0.400   79.722
  532.750    6.457    0.137    0.340   73.959
  533.000    6.765    0.114    0.306   75.047
  533.250    6.841    0.159    0.358   80.320
  533.500    6.232    0.164    0.361   86.016
  533.750    5.170    0.156    0.366   89.409
  534.000    4.403    0.203    0.410   92.317
  534.250    3.681    0.235    0.450   94.860
  534.500    3.353    0.254    0.474   96.434
  534.750    3.212    0.265    0.477   96.795
  535.000    3.260    0.276    0.466   98.368
  535.250    3.353    0.271    0.451  101.155
  535.500    3.487    0.245    0.433  102.607
  535.750    3.533    0.225    0.430  100.846
  536.000    3.573    0.225    0.468   93.992
  536.250    3.599    0.231    0.483   88.472
  536.500    3.626    0.227    0.490   90.591
  536.750    3.653    0.224    0.482   95.681
  537.000    3.674    0.221    0.491  101.135
  537.250    3.702    0.236    0.483  101.739
  537.500    3.722    0.250    0.469   97.371
  537.750    3.729    0.248    0.462   96.216
  538.000    3.729    0.237    0.459   96.638
  538.250    3.722    0.238    0.457   95.847
  538.500    3.708    0.251    0.457   95.480
  538.750    3.681    0.253    0.467   96.811
  539.000    3.674    0.246    0.463   97.294
  539.250    3.681    0.240    0.470   94.805
  539.500    3.708    0.233    0.480   91.346
  539.750    3.750    0.228    0.482   94.315
  540.000    3.821    0.231    0.472  101.951
  540.250    3.878    0.248    0.472  102.979
  540.500    3.915    0.239    0.467   99.824
  540.750    3.907    0.232    0.460   96.244
  541.000    3.821    0.229    0.452   98.666
  541.250    3.599    0.220    0.461  100.846
  541.500    3.117    0.222    0.495  102.723
  541.750    2.645    0.250    0.518  104.720
  542.000    2.432    0.267    0.538  106.052
  542.250    2.274    0.247    0.524  108.656
  542.500    2.130    0.228    0.516  111.079
  542.750    2.029    0.220    0.513  112.349
  543.000    1.919    0.260    0.512  111.013
  543.250    1.834    0.282    0.505  109.252
  543.500    1.814    0.280    0.518  108.885
  543.750    1.790    0.268    0.551  110.034
  544.000    1.780    0.264    0.556  112.396
  544.250    1.790    0.256    0.534  113.242
  544.500    1.824    0.245    0.527  110.208
  544.750    1.901    0.237    0.543  108.083
  545.000    1.951    0.230    0.546  107.353
  545.250    2.033    0.239    0.529  107.350
  545.500    2.079    0.258    0.517  107.529
  545.750    2.138    0.268    0.537  107.223
  546.000    2.223    0.256    0.545  105.765
  546.250    2.334    0.250    0.524  103.519
  546.500    2.572    0.268    0.496  101.031
  546.750    2.741    0.279    0.477   97.633
  547.000    2.877    0.267    0.459   95.265
  547.250    3.026    0.251    0.441   93.444
  547.500    3.135    0.244    0.439   92.228
  547.750    3.303    0.233    0.438   93.498
  548.000    3.397    0.218    0.462   95.739
  548.250    3.480    0.207    0.466   99.253
  548.500    3.579    0.211    0.457  101.251
  548.750    3.660    0.218    0.455  100.339
  549.000    3.736    0.221    0.466   98.335
  549.250    3.778    0.222    0.469   92.451
  549.500    3.821    0.227    0.460   91.297
  549.750    3.871    0.229    0.454   92.810
  550.000    3.907    0.228    0.456   94.383
  550.250    3.929    0.226    0.458   94.199
  550.500    3.937    0.219    0.459   92.135
  550.750    3.929    0.210    0.460   93.465
  551.000    3.907    0.211    0.464   95.342
  551.250    3.886    0.224    0.466   93.824
  551.500    3.864    0.233    0.462   89.638
  551.750    3.864    0.231    0.450   88.665
  552.000    3.864    0.224    0.436   90.481
  552.250    3.900    0.201    0.419   92.721
  552.500    3.996    0.188    0.402   95.689
  552.750    4.064    0.201    0.416   97.384
  553.000    4.133    0.217    0.435   97.260
  553.250    4.179    0.225    0.448   94.711
  553.500    4.203    0.227    0.459   92.829
  553.750    4.203    0.225    0.454   93.251
  554.000    3.500    0.226    0.447   96.764
  554.250    3.303    0.235    0.449   99.247
  554.500    3.260    0.232    0.437  100.881
  554.750    3.254    0.233    0.425  100.879
  555.000    3.328    0.244    0.418   99.421
  555.250    3.667    0.234    0.435   96.993
  555.500    4.011    0.214    0.455   89.715
  555.750    4.436    0.189    0.318   84.255
  556.000    4.816    0.145    0.268   80.493
  556.250    5.084    0.087    0.248   81.764
  556.500    4.816    0.158    0.416   89.279
  556.750    4.486    0.205    0.451   95.643
  557.000    4.156    0.237    0.468   98.186
  557.250    3.981    0.248    0.456   99.639
  557.500    3.878    0.241    0.442   99.999
  557.750    3.828    0.247    0.433   97.268
  558.000    3.778    0.247    0.423   96.417
  558.250    3.715    0.233    0.428  105.327
  558.500    3.653    0.215    0.445  113.085
  558.750    3.613    0.205    0.448  100.107
  559.000    3.599    0.207    0.432   88.767
  559.250    3.579    0.163    0.415   85.611
  559.500    3.533    0.207    0.433   88.518
  559.750    3.461    0.245    0.438   92.214
  560.000    3.391    0.252    0.425   95.789
  560.250    3.309    0.235    0.411   98.393
  560.500    3.260    0.219    0.408   99.360
  560.750    3.230    0.216    0.423   99.781
  561.000    3.194    0.223    0.418  100.507
  561.250    3.176    0.230    0.425   95.108
  561.500    3.147    0.232    0.451   90.255
  561.750    3.117    0.229    0.468   87.402
  562.000    3.071    0.223    0.446   88.673
  562.250    3.026    0.231    0.424   96.855
  562.500    2.937    0.243    0.430  101.157
  562.750    2.725    0.252    0.477  102.791
  563.000    2.459    0.257    0.504  102.667
  563.250    2.253    0.252    0.528  101.695
  563.500    2.102    0.249    0.526  101.025
  563.750    1.940    0.246    0.531  102.659
  564.000    1.841    0.252    0.533  104.172
  564.250    1.764    0.252    0.520  103.381
  564.500    1.876    0.246    0.512  106.410
  564.750    2.102    0.240    0.522  108.287
  565.000    2.274    0.243    0.514  107.071
  565.250    2.427    0.238    0.473  103.976
  565.500    2.591    0.227    0.452  101.973
  565.750    2.720    0.221    0.458  100.940
  566.000    2.818    0.219    0.464   99.482
  566.250    2.850    0.220    0.468   97.296
  566.500    2.845    0.230    0.449   96.141
  566.750    2.893    0.239    0.427   96.684
  567.000    3.065    0.241    0.426   98.561
  567.250    3.285    0.229    0.418  101.044
  567.500    3.647    0.163    0.398  101.829
  567.750    4.003    0.135    0.382  101.705
  568.000    4.436    0.134    0.406   92.184
  568.250    4.771    0.139    0.395   87.755
  568.500    4.934    0.061    0.336   83.205
  568.750    4.971    0.079    0.314   88.659
  569.000    4.371    0.108    0.390   95.447
  569.250    3.640    0.146    0.405  101.325
  569.500    2.992    0.210    0.405  105.870
  569.750    2.591    0.207    0.439  110.778
  570.000    2.338    0.205    0.534  114.413
  570.250    2.232    0.201    0.494  116.411
  570.500    2.182    0.205    0.458  117.439
  570.750    2.170    0.203    0.460  118.043
  571.000    2.170    0.200    0.483  118.040
  571.250    2.186    0.201    0.495  115.733
  571.500    2.195    0.206    0.486  118.823
  571.750    2.199    0.210    0.482  123.064
  572.000    2.186    0.212    0.492  125.668
  572.250    2.170    0.210    0.505  122.937
  572.500    2.126    0.217    0.507  123.844
  572.750    2.067    0.222    0.500  125.659
  573.000    2.003    0.220    0.495  126.566
  573.250    2.003    0.217    0.492  127.110
  573.500    2.056    0.218    0.505  126.015
  573.750    2.215    0.219    0.536  123.830
