~VERSION INFORMATION
 VERS.                 2.0:   CWLS LOG ASCII STANDARD -VERSION 2.0
 WRAP.                  NO:   ONE LINE PER DEPTH STEP
~WELL INFORMATION BLOCK
#MNEM.UNIT           DATA                    DESCRIPTION OF MNEMONIC
#---------    -------------------            -------------------------------
# Generated from Intellog Unique Number	CS_73_76/WELL/783
WELL.         SULPETRO BRENDA CLYDE LAKE     : Well_name    - WELL
LOC .         00/08-08-073-09W4/2            : Location     - LOCATION
UWI .         00/08-08-073-09W4/2            : Uwi          - UNIQUE WELL ID
ENTR.         SP                             : Entered      - ENTERED BY
SRVC.         SCHLUMBERGER                   : Scn          - SERVICE COMPANY
STRT.M        290                            : top_depth    - START DEPTH
STOP.M        485                            : bot_depth    - STOP DEPTH
STEP.M        0.25                           : increment    - STEP LENGTH
 NULL. -999.2500:NULL Value
~CURVE INFORMATION BLOCK
#MNEM UNIT       ERCB CURVE CODE    CURVE DESCRIPTION
#-----------   ------------------   ----------------------------------
DEPT.M        00 001 00 00         : DEPTH        - DEPTH
ILD .OHMM     00 120 00 00         : RESD         - DEEP RESISTIVITY (DIL)
DPHI.V/V      00 890 00 00         : PHID         - DENSITY POROSITY (LIMESTONE)
NPHI.V/V      00 330 00 00         : PHIN         - NEUTRON POROSITY (LIMESTONE)
GR  .API      00 310 00 00         : GR           - GAMMA RAY
~PARAMETER INFORMATION
#MNEM.UNIT           DATA             DESCRIPTION OF MNEMONIC
#---------         -----------     ------------------------------
GL  .M        662.52               : gl           - GROUND LEVEL ELEVATION
EREF.M        666.7                : kb           - ELEVATION OF DEPTH REFERENCE
DATM.M        662.52               : datum        - DATUM ELEVATION
TDD .M        497.8                : tdd          - TOTAL DEPTH DRILLER
RUN .         ONE                  : Run          - RUN NUMBER
ENG .         BILL                 : Engineer     - RECORDING ENGINEER
WIT .         JIM                  : Witness      - WITNESSED BY
MUD .         GEL                  : Mud_type     - MUD TYPE
MATR.         LIMESTONE            : Logunit      - NEUTRON MATRIX
TMAX.C        21                   : BHT          - MAXIMUM RECORDED TEMPERATURE
BHTD.M        497.8                : BHTDEP       - MAXIMUM RECORDED TEMPERATURE
MATR.         1                    : LOGUNIT      - NEUTRON MATRIX
RMT .C        25                   : MDTP         - TEMPERATURE OF MUD
NEUT.         1                    : NEUTRON      - NEUTRON TYPE
RESI.         0                    : RESIST       - RESISTIVITY TYPE
RMC .OHMM     0.25                 : RMC          - RESISTIVITY OF MUD CAKE
RMF .OHMM     0.25                 : RMF          - RESISTIVITY OF MUD FILTRATE
SUFT.C        15                   : SUFT         - SURFACE TEMPERATURE
~A  DEPTH     RESD     PHID     PHIN       GR
# ...
  333.500    9.175    0.160    0.311  108.437
  333.750    8.520    0.151    0.310  110.238
  334.000    8.210    0.143    0.311  113.233
  334.250    7.911    0.137    0.326  115.028
  334.500    7.764    0.128    0.342  113.797
  334.750    7.907    0.128    0.356  105.308
  335.000    8.353    0.146    0.368   95.602
  335.250    8.664    0.154    0.342   91.349
  335.500    8.662    0.146    0.330   99.794
  335.750    8.501    0.142    0.328  110.656
  336.000    7.895    0.138    0.329  118.494
  336.250    7.332    0.138    0.353  122.707
  336.500    7.065    0.139    0.363  125.102
  336.750    6.934    0.138    0.377  124.470
  337.000    7.061    0.136    0.381  122.636
  337.250    7.460    0.137    0.424  119.588
  337.500    7.738    0.165    0.461  105.654
  337.750    8.482    0.245    0.432   74.788
  338.000    9.470    0.282    0.421   62.672
  338.250   10.574    0.286    0.376   47.530
  338.500   11.172    0.211    0.341   62.013
  338.750   11.169    0.178    0.368   78.313
  339.000   10.372    0.162    0.385   89.185
  339.250    9.811    0.156    0.399   97.027
  339.500    9.809    0.186    0.421  103.052
  339.750    9.626    0.191    0.406  108.471
  340.000    9.624    0.197    0.391  109.052
  340.250    9.799    0.211    0.386  106.612
  340.500    9.979    0.220    0.384  105.978
  340.750   10.163    0.222    0.386  107.758
  341.000   10.541    0.217    0.389  107.747
  341.250   10.735    0.216    0.393  106.518
  341.500   10.930    0.219    0.382  108.292
  341.750   11.130    0.221    0.384  109.488
  342.000   11.128    0.224    0.371  110.682
  342.250   11.332    0.227    0.354  111.259
  342.500   11.538    0.214    0.361  110.634
  342.750   11.749    0.215    0.349  106.375
  343.000   11.966    0.231    0.351  100.308
  343.250   12.184    0.244    0.357   95.444
  343.500   12.407    0.249    0.366   97.232
  343.750   12.869    0.229    0.360   98.420
  344.000   13.348    0.225    0.353   99.002
  344.250   13.344    0.227    0.359   99.586
  344.500   13.589    0.228    0.380   99.564
  344.750   13.092    0.224    0.396   97.721
  345.000   12.850    0.222    0.417   95.881
  345.250   12.613    0.221    0.397   95.261
  345.500   11.499    0.216    0.384   95.228
  345.750   10.485    0.212    0.375   95.207
  346.000    8.559    0.203    0.363   95.794
  346.250    7.662    0.194    0.361  100.002
  346.500    6.733    0.185    0.387  110.261
  346.750    5.809    0.182    0.382  119.310
  347.000    5.495    0.182    0.404  122.918
  347.250    6.483    0.195    0.390  105.955
  347.500    7.374    0.210    0.370   95.656
  347.750    8.701    0.226    0.362   87.769
  348.000   10.080    0.233    0.359   84.119
  348.250   11.254    0.236    0.375   87.720
  348.500   11.891    0.236    0.401   89.508
  348.750   12.561    0.230    0.419   89.489
  349.000   12.792    0.217    0.422   90.668
  349.250   12.789    0.217    0.434   91.258
  349.500   12.784    0.226    0.419   90.021
  349.750   12.782    0.241    0.389   87.583
  350.000   12.777    0.247    0.377   88.168
  350.250   12.774    0.212    0.366   90.561
  350.500   12.768    0.200    0.375   92.350
  350.750   13.003    0.199    0.371   89.305
  351.000   13.000    0.215    0.373   86.252
  351.250   13.239    0.224    0.337   86.238
  351.500   13.480    0.227    0.329   87.417
  351.750   13.728    0.222    0.323   87.392
  352.000   13.979    0.229    0.323   85.556
  352.250   14.235    0.239    0.337   84.929
  352.500   14.494    0.241    0.349   85.513
  352.750   14.492    0.229    0.359   88.516
  353.000   14.486    0.221    0.366   92.122
  353.250   14.220    0.217    0.369   97.534
  353.500   13.701    0.215    0.372   98.121
  353.750   12.723    0.209    0.377   93.248
  354.000   12.488    0.210    0.378   92.633
  354.250   12.257    0.226    0.373   98.653
  354.500   12.028    0.219    0.361  107.692
  354.750   11.806    0.200    0.359  111.908
  355.000   11.377    0.183    0.366  116.120
  355.250   10.566    0.173    0.390  114.283
  355.500   10.370    0.183    0.404  111.243
  355.750   10.366    0.215    0.411  103.952
  356.000   10.557    0.237    0.415   99.091
  356.250   11.571    0.253    0.403   95.446
  356.500   12.226    0.265    0.409   88.161
  356.750   12.916    0.277    0.418   82.701
  357.000   13.397    0.281    0.428   70.579
  357.250   13.393    0.276    0.433   68.748
  357.500   13.389    0.270    0.428   66.303
  357.750   13.387    0.275    0.432   65.073
  358.000   13.632    0.279    0.438   65.648
  358.250   14.401    0.288    0.418   63.811
  358.500   14.939    0.291    0.407   63.782
  358.750   15.781    0.286    0.392   64.368
  359.000   16.071    0.280    0.385   68.576
  359.250   16.365    0.273    0.385   75.803
  359.500   16.666    0.275    0.382   80.623
  359.750   17.285    0.280    0.378   82.425
  360.000   16.965    0.283    0.377   84.819
  360.250   16.648    0.278    0.377   84.793
  360.500   16.339    0.275    0.391   85.379
  360.750   16.038    0.280    0.453   87.169
  361.000   16.036    0.312    0.483   75.049
  361.250   16.325    0.337    0.465   58.092
  361.500   16.935    0.330    0.430   48.996
  361.750   18.563    0.311    0.396   45.347
  362.000   19.257    0.293    0.401   47.732
  362.250   20.345    0.299    0.406   48.927
  362.500   21.100    0.300    0.392   51.917
  362.750   21.885    0.301    0.371   51.909
  363.000   22.284    0.300    0.362   53.697
  363.250   22.280    0.298    0.357   56.086
  363.500   21.870    0.299    0.365   56.676
  363.750   20.688    0.304    0.375   54.233
  364.000   20.304    0.300    0.393   52.392
  364.250   19.562    0.294    0.402   52.969
  364.500   19.559    0.293    0.403   55.361
  364.750   19.195    0.297    0.396   55.953
  365.000   19.192    0.301    0.395   57.135
  365.250   19.184    0.299    0.422   57.105
  365.500   19.538    0.308    0.450   57.693
  365.750   19.895    0.328    0.467   58.280
  366.000   20.257    0.349    0.465   59.463
  366.250   20.252    0.341    0.440   59.445
  366.500   19.876    0.321    0.412   55.784
  366.750   19.871    0.308    0.403   53.347
  367.000   20.236    0.302    0.388   51.512
  367.250   20.990    0.292    0.391   53.305
  367.500   20.984    0.301    0.398   58.116
  367.750   19.850    0.316    0.408   62.324
  368.000   18.776    0.326    0.445   64.725
  368.250   18.427    0.333    0.473   62.272
  368.500   18.422    0.322    0.442   61.654
  368.750   18.418    0.317    0.423   60.414
  369.000   18.078    0.318    0.403   60.398
  369.250   17.739    0.322    0.381   61.579
  369.500   17.412    0.311    0.399   62.768
  369.750   17.409    0.303    0.405   63.944
  370.000   17.086    0.309    0.408   64.538
  370.250   16.770    0.315    0.404   61.489
  370.500   16.156    0.318    0.402   60.863
  370.750   15.859    0.320    0.395   62.046
  371.000   15.280    0.321    0.415   63.238
  371.250   14.997    0.316    0.421   62.609
  371.500   14.720    0.310    0.425   61.368
  371.750   14.716    0.310    0.419   60.748
  372.000   14.711    0.315    0.403   61.926
  372.250   14.437    0.315    0.383   62.516
  372.500   14.171    0.310    0.376   65.509
  372.750   14.168    0.314    0.382   66.704
  373.000   13.903    0.310    0.400   69.093
  373.250   13.900    0.300    0.408   70.284
  373.500   13.896    0.295    0.417   70.853
  373.750   13.892    0.293    0.431   71.439
  374.000   13.636    0.301    0.440   72.030
  374.250   13.630    0.306    0.452   72.609
  374.500   13.882    0.308    0.456   72.587
  374.750   14.135    0.307    0.442   73.163
  375.000   14.130    0.308    0.434   73.147
  375.250   14.390    0.319    0.428   73.713
  375.500   14.386    0.335    0.451   74.301
  375.750   14.648    0.340    0.473   74.285
  376.000   14.644    0.339    0.472   74.255
  376.250   14.373    0.332    0.409   74.229
  376.500   14.107    0.326    0.402   74.218
  376.750   13.846    0.321    0.401   75.400
