~VERSION INFORMATION
 VERS.                 2.0:   CWLS LOG ASCII STANDARD -VERSION 2.0
 WRAP.                  NO:   ONE LINE PER DEPTH STEP
~WELL INFORMATION BLOCK
#MNEM.UNIT           DATA                    DESCRIPTION OF MNEMONIC
#---------    -------------------            -------------------------------
# Generated from Intellog Unique Number	CW_79_81/WELL/2455
WELL.         06-29-080-24W4                 : Well_name    - WELL
LOC .         00/06-29-080-24W4/0            : Location     - LOCATION
UWI .         00/06-29-080-24W4/0            : Uwi          - UNIQUE WELL ID
ENTR.         MAX                            : Entered      - ENTERED BY
SRVC.         WESTERN ATLAS                  : Scn          - SERVICE COMPANY
STRT.M        198.12                         : top_depth    - START DEPTH
STOP.M        426.37                         : bot_depth    - STOP DEPTH
STEP.M        0.25                           : increment    - STEP LENGTH
 NULL. -999.2500:NULL Value
~CURVE INFORMATION BLOCK
#MNEM UNIT       ERCB CURVE CODE    CURVE DESCRIPTION
#-----------   ------------------   ----------------------------------
DEPT.M        00 001 00 00         : DEPTH        - DEPTH
ILD .OHMM     00 120 00 00         : RESD         - DEEP RESISTIVITY (DIL)
NPHI.V/V      00 330 00 00         : PHIN         - NEUTRON POROSITY (SANDSTONE)
DPHI.V/V      00 890 00 00         : PHID         - DENSITY POROSITY (SANDSTONE)
GR  .API      00 310 00 00         : GR           - GAMMA RAY
CALI.MM       00 280 01 00         : CAL          - CALIPER
~PARAMETER INFORMATION
#MNEM.UNIT           DATA             DESCRIPTION OF MNEMONIC
#---------         -----------     ------------------------------
GL  .M        546.811              : gl           - GROUND LEVEL ELEVATION
EREF.M        552.907              : kb           - ELEVATION OF DEPTH REFERENCE
DATM.M        546.811              : datum        - DATUM ELEVATION
TDD .M        426.72               : tdd          - TOTAL DEPTH DRILLER
RUN .         ONE                  : Run          - RUN NUMBER
ENG .         BILL                 : Engineer     - RECORDING ENGINEER
WIT .         JIM                  : Witness      - WITNESSED BY
MUD .         GEL                  : Mud_type     - MUD TYPE
MATR.         SANDSTONE            : Logunit      - NEUTRON MATRIX
TMAX.C        26.6667              : BHT          - MAXIMUM RECORDED TEMPERATURE
BHTD.M        426.72               : BHTDEP       - MAXIMUM RECORDED TEMPERATURE
MATR.         1                    : LOGUNIT      - NEUTRON MATRIX
RMT .C        16.6667              : MDTP         - TEMPERATURE OF MUD
NEUT.         1                    : NEUTRON      - NEUTRON TYPE
RESI.         0                    : RESIST       - RESISTIVITY TYPE
RMC .OHMM     1                    : RMC          - RESISTIVITY OF MUD CAKE
RMF .OHMM     1.2                  : RMF          - RESISTIVITY OF MUD FILTRATE
SUFT.C        -20.5556             : SUFT         - SURFACE TEMPERATURE
~A  DEPTH     RESD     PHIN     PHID       GR      CAL
# ...
  307.620   15.062    0.401    0.182   71.531  301.159
  307.870   13.617    0.387    0.182   72.070  302.073
  308.120   12.887    0.381    0.182   74.199  302.671
  308.370   12.635    0.387    0.181   74.849  302.168
  308.620   12.559    0.398    0.174   73.961  300.665
  308.870   12.170    0.401    0.153   74.748  298.247
  309.120   11.916    0.399    0.157   76.046  293.745
  309.370   11.179    0.386    0.181   77.060  290.217
  309.620   10.608    0.385    0.176   78.956  289.719
  309.870   10.024    0.391    0.163   81.504  289.432
  310.120    9.409    0.396    0.155   85.064  288.735
  310.370    8.784    0.384    0.159   91.438  288.893
  310.620    8.538    0.372    0.155   95.715  287.322
  310.870    8.438    0.381    0.166   95.537  287.020
  311.120    8.373    0.392    0.192   94.465  283.409
  311.370    8.321    0.399    0.208   92.618  281.097
  311.620    8.288    0.399    0.202   91.130  281.187
  311.870    8.314    0.387    0.169   91.113  282.135
  312.120    8.389    0.386    0.137   85.981  286.426
  312.370    8.524    0.368    0.137   83.667  287.340
  312.620    8.942    0.340    0.158   85.620  290.349
  312.870    9.909    0.325    0.154   85.798  292.459
  313.120   11.673    0.322    0.113   82.357  292.061
  313.370   14.464    0.308    0.051   76.680  289.124
  313.620   15.506    0.285    0.052   71.796  290.065
  313.870   18.395    0.270    0.045   71.618  291.381
  314.120   21.010    0.270    0.042   69.846  292.387
  314.370   23.542    0.273    0.045   68.006  293.286
  314.620   25.947    0.281    0.047   66.394  294.185
  314.870   26.108    0.306    0.032   63.746  295.452
  315.120   21.284    0.322    0.015   62.076  297.221
  315.370   18.128    0.321    0.050   64.034  298.526
  315.620   13.544    0.340    0.086   68.658  300.744
  315.870   11.097    0.369    0.114   77.738  301.447
  316.120    9.989    0.391    0.140   88.602  299.427
  316.370    9.056    0.385    0.188   93.399  293.960
  316.620    8.480    0.386    0.207   89.757  290.296
  316.870    8.014    0.384    0.198   87.200  285.161
  317.120    7.702    0.381    0.181   85.353  282.745
  317.370    7.572    0.378    0.153   85.884  282.076
  317.620    7.591    0.374    0.119   87.842  282.219
  317.870    7.648    0.364    0.099   87.677  282.297
  318.120    7.546    0.356    0.116   87.745  282.391
  318.370    7.504    0.352    0.133   88.047  282.079
  318.620    7.502    0.363    0.146   88.340  282.076
  318.870    7.567    0.371    0.153   89.105  284.386
  319.120    7.715    0.374    0.150   90.288  289.005
  319.370    7.994    0.383    0.134   90.666  294.526
  319.620    8.188    0.409    0.141   87.513  297.561
  319.870    8.382    0.398    0.143   85.198  299.288
  320.120    8.256    0.400    0.147   89.060  297.582
  320.370    8.026    0.406    0.150   90.850  293.571
  320.620    7.759    0.409    0.148   89.216  289.301
  320.870    7.339    0.408    0.130   89.378  286.492
  321.120    7.126    0.404    0.133   87.677  280.262
  321.370    6.928    0.402    0.127   86.995  277.910
  321.620    6.847    0.394    0.120   87.917  277.356
  321.870    6.779    0.392    0.123   89.135  276.801
  322.120    6.700    0.395    0.135   90.292  275.342
  322.370    6.648    0.389    0.148   91.990  272.398
  322.620    6.605    0.384    0.160   92.017  269.513
  322.870    6.709    0.374    0.164   90.626  270.373
  323.120    6.887    0.378    0.162   91.192  270.324
  323.370    7.174    0.386    0.155   90.746  271.585
  323.620    7.571    0.392    0.145   88.219  274.055
  323.870    8.213    0.392    0.138   84.999  274.901
  324.120    9.226    0.391    0.160   87.751  272.849
  324.370    9.998    0.377    0.180   88.021  271.693
  324.620   10.896    0.378    0.181   89.177  272.346
  324.870   11.781    0.387    0.175   88.018  271.997
  325.120   12.398    0.399    0.164   84.250  269.838
  325.370   12.299    0.399    0.143   79.846  266.577
  325.620   11.764    0.394    0.147   76.659  264.117
  325.870   11.774    0.391    0.125   71.465  258.935
  326.120   11.915    0.367    0.117   68.764  255.574
  326.370   11.617    0.342    0.128   72.117  255.222
  326.620   10.892    0.336    0.149   79.805  257.074
  326.870   10.202    0.369    0.156   84.880  257.924
  327.120   10.135    0.382    0.160   85.161  255.893
  327.370    9.708    0.385    0.159   86.372  256.737
  327.620    8.939    0.388    0.158   89.902  253.971
  327.870    8.422    0.395    0.152   90.410  251.609
  328.120    8.247    0.402    0.142   87.950  251.961
  328.370    8.225    0.397    0.137   87.785  255.561
  328.620    8.119    0.401    0.134   86.827  255.189
  328.870    8.008    0.398    0.138   85.429  257.656
  329.120    7.943    0.399    0.144   86.704  261.021
  329.370    7.923    0.393    0.147   87.329  267.706
  329.620    7.915    0.379    0.144   87.122  274.800
  329.870    7.878    0.365    0.134   88.214  275.810
  330.120    7.948    0.382    0.135   84.041  284.656
  330.370    8.013    0.370    0.139   86.207  277.069
  330.620    8.038    0.359    0.144   88.197  270.386
  330.870    8.017    0.364    0.148   89.889  266.613
  331.120    7.963    0.382    0.149   90.569  264.449
  331.370    7.914    0.389    0.149   89.240  258.870
  331.620    7.922    0.388    0.147   90.754  256.828
  331.870    7.871    0.387    0.143   90.316  257.280
  332.120    7.822    0.386    0.141   88.267  254.115
  332.370    7.744    0.387    0.134   87.108  250.342
  332.620    7.596    0.388    0.125   87.019  246.971
  332.870    7.255    0.384    0.126   86.460  242.258
  333.120    6.889    0.385    0.136   89.456  238.541
  333.370    6.550    0.386    0.136   89.486  238.591
  333.620    6.298    0.393    0.139   89.340  240.148
  333.870    6.101    0.396    0.144   90.796  245.022
  334.120    5.954    0.394    0.148   92.727  252.209
  334.370    5.893    0.395    0.153   91.197  257.817
  334.620    5.988    0.396    0.161   91.722  257.461
  334.870    6.171    0.394    0.158   86.051  257.914
  335.120    6.635    0.384    0.166   84.126  258.362
  335.370    7.445    0.372    0.177   84.511  257.402
  335.620    8.523    0.362    0.177   85.249  254.736
  335.870    9.649    0.355    0.143   83.811  250.675
  336.120   11.720    0.349    0.154   83.598  248.214
  336.370   14.409    0.353    0.168   80.538  250.676
  336.620   16.397    0.351    0.159   78.015  255.249
  336.870   17.240    0.344    0.144   74.721  258.117
  337.120   16.797    0.340    0.127   71.545  258.073
  337.370   14.393    0.347    0.098   72.177  256.281
  337.620   11.369    0.349    0.097   75.176  255.061
  337.870   10.264    0.362    0.113   77.814  254.312
  338.120    9.646    0.370    0.123   74.224  254.762
  338.370    9.384    0.371    0.106   69.743  257.626
  338.620    9.345    0.369    0.075   68.171  262.002
  338.870    9.446    0.367    0.082   70.978  265.212
  339.120    9.976    0.337    0.108   67.048  266.939
  339.370   11.847    0.322    0.135   64.226  264.181
  339.620   14.100    0.288    0.146   61.584  260.212
  339.870   16.493    0.253    0.149   59.714  257.443
  340.120   18.568    0.229    0.147   59.446  257.183
  340.370   20.040    0.229    0.142   62.351  260.160
  340.620   21.002    0.260    0.145   64.859  262.730
  340.870   18.956    0.284    0.150   67.975  267.605
  341.120   15.207    0.311    0.151   72.337  274.288
  341.370   12.335    0.345    0.150   76.287  282.785
  341.620   10.592    0.376    0.150   78.276  289.571
  341.870    9.557    0.382    0.155   77.281  286.611
  342.120    8.805    0.373    0.155   79.290  281.638
  342.370    8.068    0.394    0.171   79.797  274.451
  342.620    7.566    0.396    0.170   81.547  267.575
  342.870    7.279    0.387    0.162   82.881  262.400
  343.120    7.142    0.371    0.153   82.554  259.128
  343.370    7.024    0.347    0.147   79.247  256.432
  343.620    6.926    0.344    0.141   76.808  254.814
  343.870    6.983    0.361    0.138   77.075  255.669
