~VERSION INFORMATION
 VERS.                 2.0:   CWLS LOG ASCII STANDARD -VERSION 2.0
 WRAP.                  NO:   ONE LINE PER DEPTH STEP
~WELL INFORMATION BLOCK
#MNEM.UNIT           DATA                    DESCRIPTION OF MNEMONIC
#---------    -------------------            -------------------------------
# Generated from Intellog Unique Number	CC_80_83/WELL/1044
NULL.         -999.25                        : NULL_VALUE
LOC .         01-27-080-14W4                 : Location     - LOCATION          
UWI .         00/01-27-080-14W4/0            : Uwi          - UNIQUE WELL ID    
ENTR.         DW                             : Entered      - ENTERED BY        
SRVC.         SCHLUMBERGER                   : Scn          - SERVICE COMPANY   
STRT.M        240                            : top_depth    - START DEPTH       
STOP.M        474.75                         : bot_depth    - STOP DEPTH        
STEP.M        0.25                           : increment    - STEP LENGTH       
~CURVE INFORMATION BLOCK
#MNEM UNIT       ERCB CURVE CODE    CURVE DESCRIPTION
#-----------   ------------------   ----------------------------------
DEPT.M        00 001 00 00         : DEPTH        - DEPTH                       
GR  .API      00 310 00 00         : GR           - GAMMA RAY                   
DPHI.V/V      00 890 00 00         : PHID         - DENSITY POROSITY (SANDSTONE)
NPHI.V/V      00 330 00 00         : PHIN         - NEUTRON POROSITY (SANDSTONE)
ILD .OHMM     00 120 00 00         : RESD         - DEEP RESISTIVITY (DIL)      
~PARAMETER INFORMATION       
#MNEM.UNIT           DATA             DESCRIPTION OF MNEMONIC
#---------         -----------     ------------------------------
GL  .M        663.1                : gl           - GROUND LEVEL ELEVATION      
EREF.M        667.1                : kb           - ELEVATION OF DEPTH REFERENCE
DATM.M        667.1                : datum        - DATUM ELEVATION             
TDD .M        477                  : tdd          - TOTAL DEPTH DRILLER         
RUN .         ONE                  : Run          - RUN NUMBER                  
ENG .         BILL                 : Engineer     - RECORDING ENGINEER          
WIT .         JIM                  : Witness      - WITNESSED BY                
MUD .         GEL                  : Mud_type     - MUD TYPE                    
MATR.         SANDSTONE            : Logunit      - NEUTRON MATRIX              
TMAX.C        21.1                 : BHT          - MAXIMUM RECORDED TEMPERATURE
BHTD.M        477                  : BHTDEP       - MAXIMUM RECORDED TEMPERATURE
MATR.         1                    : LOGUNIT      - NEUTRON MATRIX              
RMT .C        25                   : MDTP         - TEMPERATURE OF MUD          
NEUT.         1                    : NEUTRON      - NEUTRON TYPE                
RESI.         0                    : RESIST       - RESISTIVITY TYPE            
RMC .OHMM     0.25                 : RMC          - RESISTIVITY OF MUD CAKE     
RMF .OHMM     0.25                 : RMF          - RESISTIVITY OF MUD FILTRATE 
SUFT.C        15                   : SUFT         - SURFACE TEMPERATURE         
~A  DEPTH       GR     PHID     PHIN     RESD
# ...
  414.000   87.548    0.244    0.425    4.042
  414.250   93.106    0.255    0.422    4.391
  414.500   99.049    0.259    0.475    4.575
  414.750   98.489    0.250    0.489    4.627
  415.000   95.133    0.237    0.460    4.327
  415.250   97.279    0.235    0.458    3.889
  415.500  103.071    0.246    0.487    3.796
  415.750  102.550    0.253    0.498    3.611
  416.000   96.950    0.219    0.511    3.553
  416.250   96.032    0.183    0.473    3.674
  416.500  101.092    0.192    0.426    3.897
  416.750  104.383    0.219    0.434    4.149
  417.000  102.987    0.215    0.464    4.338
  417.250  103.934    0.224    0.484    4.410
  417.500  105.353    0.234    0.494    4.441
  417.750  105.529    0.232    0.486    4.299
  418.000  110.328    0.213    0.474    4.097
  418.250  100.685    0.181    0.458    4.118
  418.500   64.568    0.173    0.415    4.419
  418.750   56.262    0.231    0.362    4.858
  419.000   58.535    0.255    0.344    5.410
  419.250   73.507    0.255    0.349    6.152
  419.500   88.904    0.260    0.388    7.572
  419.750   82.789    0.271    0.445    9.276
  420.000   64.916    0.281    0.449   10.479
  420.250   65.267    0.270    0.400   11.953
  420.500   72.364    0.251    0.384   12.801
  420.750   79.695    0.230    0.397   12.745
  421.000   81.597    0.215    0.397   11.376
  421.250   78.259    0.206    0.393    9.508
  421.500   76.992    0.201    0.415    8.752
  421.750   77.103    0.229    0.426    8.563
  422.000   81.853    0.229    0.382    9.009
  422.250   79.602    0.188    0.337    9.773
  422.500   67.348    0.181    0.375   11.055
  422.750   51.724    0.232    0.403   12.715
  423.000   40.962    0.270    0.316   14.771
  423.250   42.304    0.284    0.318   18.800
  423.500   38.316    0.291    0.372   24.333
  423.750   37.772    0.279    0.365   37.410
  424.000   47.342    0.253    0.326   42.016
  424.250   61.955    0.234    0.316   30.738
  424.500   79.489    0.231    0.326   21.317
  424.750   99.448    0.233    0.370   16.550
  425.000  106.752    0.247    0.404   15.481
  425.250  106.265    0.267    0.420   18.047
  425.500  101.560    0.267    0.441   21.547
  425.750   89.938    0.229    0.433   29.037
  426.000   74.849    0.204    0.370   41.989
  426.250   65.895    0.278    0.357   45.176
  426.500   66.312    0.302    0.382   43.726
  426.750   73.245    0.276    0.387   39.477
  427.000   80.281    0.257    0.376   32.790
  427.250   82.814    0.256    0.375   26.881
  427.500   81.382    0.255    0.374   24.388
  427.750   78.860    0.240    0.370   23.913
  428.000   75.485    0.228    0.363   24.533
  428.250   71.541    0.224    0.350   25.646
  428.500   70.449    0.223    0.344   28.364
  428.750   70.528    0.234    0.346   33.102
  429.000   65.781    0.265    0.337   41.289
  429.250   59.391    0.298    0.331   55.736
  429.500   56.197    0.312    0.355   62.502
  429.750   56.904    0.310    0.374   59.760
  430.000   61.863    0.294    0.383   48.940
  430.250   70.653    0.266    0.388   36.432
  430.500   77.848    0.240    0.373   31.244
  430.750   75.335    0.243    0.356   29.685
  431.000   66.458    0.253    0.376   29.033
  431.250   60.725    0.219    0.371   26.728
  431.500   59.708    0.171    0.330   23.741
  431.750   68.433    0.168    0.310   21.101
  432.000   88.144    0.207    0.330   18.271
  432.250   94.791    0.232    0.357   17.293
  432.500   89.992    0.228    0.379   17.769
  432.750   82.848    0.214    0.391   18.081
  433.000   82.892    0.195    0.374   17.874
  433.250   85.696    0.207    0.342   17.564
  433.500   80.761    0.257    0.325   17.304
  433.750   76.996    0.239    0.302   17.518
  434.000   75.689    0.225    0.296   18.575
  434.250   79.870    0.241    0.326   19.714
  434.500   78.406    0.263    0.348   20.413
  434.750   72.663    0.286    0.334   20.515
  435.000   76.680    0.293    0.313   20.164
  435.250   76.825    0.239    0.301   20.156
  435.500   76.196    0.252    0.352   20.316
  435.750   78.240    0.266    0.368   21.350
  436.000   81.991    0.256    0.354   22.720
  436.250   87.469    0.257    0.362   23.740
  436.500   94.106    0.261    0.370   24.934
  436.750   93.539    0.268    0.375   26.552
  437.000   80.690    0.288    0.354   28.456
  437.250   69.683    0.311    0.288   29.600
  437.500   70.069    0.295    0.254   30.790
  437.750   73.715    0.270    0.280   32.101
  438.000   69.623    0.296    0.297   31.905
  438.250   63.869    0.310    0.314   30.534
  438.500   66.487    0.313    0.320   27.820
  438.750   71.101    0.270    0.329   25.873
  439.000   72.725    0.234    0.347   25.098
  439.250   74.046    0.248    0.359   24.949
  439.500   78.044    0.265    0.359   25.383
  439.750   84.232    0.277    0.364   25.682
  440.000   89.858    0.275    0.368   27.745
  440.250   91.054    0.265    0.369   31.887
  440.500   91.369    0.273    0.360   41.738
  440.750   83.306    0.300    0.340   53.578
  441.000   59.983    0.334    0.299   57.825
  441.250   49.018    0.377    0.221   56.607
  441.500   52.636    0.356    0.246   46.796
  441.750   63.556    0.314    0.298   29.679
  442.000   78.630    0.267    0.343   18.342
  442.250   89.731    0.243    0.370   19.086
  442.500   86.377    0.294    0.313   27.810
  442.750   73.896    0.338    0.232   47.122
  443.000   57.880    0.352    0.211   62.757
  443.250   54.533    0.377    0.200   62.016
  443.500   60.609    0.326    0.245   44.599
  443.750   63.141    0.241    0.333   29.927
  444.000   59.798    0.285    0.326   34.005
  444.250   53.221    0.321    0.275   40.975
  444.500   52.648    0.352    0.247   51.853
  444.750   55.933    0.346    0.244   59.643
  445.000   58.186    0.322    0.270   61.673
  445.250   58.873    0.316    0.303   64.985
  445.500   57.364    0.312    0.293   77.574
  445.750   49.762    0.313    0.263   97.847
  446.000   42.017    0.348    0.237  108.058
  446.250   44.687    0.350    0.218  106.117
  446.500   54.166    0.314    0.253   84.137
  446.750   63.466    0.302    0.325   59.296
  447.000   70.662    0.335    0.321   61.417
  447.250   68.267    0.367    0.238   69.400
  447.500   57.212    0.383    0.196   84.398
  447.750   48.855    0.385    0.183  106.551
  448.000   46.259    0.392    0.173  161.457
  448.250   45.746    0.407    0.172  220.406
  448.500   46.434    0.416    0.174  220.024
  448.750   48.878    0.407    0.178  202.480
  449.000   53.050    0.391    0.189  189.826
  449.250   56.254    0.369    0.189  128.139
  449.500   60.156    0.345    0.207   70.515
  449.750   55.783    0.340    0.263   66.398
  450.000   39.198    0.369    0.293   79.455
  450.250   38.367    0.393    0.237  128.911
  450.500   39.423    0.398    0.194  199.805
  450.750   37.445    0.417    0.166  316.929
  451.000   36.038    0.443    0.150  326.288
  451.250   36.550    0.444    0.176  437.429
  451.500   37.583    0.426    0.232  885.327
  451.750   38.125    0.406    0.259  991.488
  452.000   38.526    0.374    0.289  879.797
  452.250   42.203    0.334    0.305  666.693
  452.500   46.129    0.325    0.360  498.808
  452.750   46.639    0.341    0.422  434.312
  453.000   44.078    0.339    0.392  383.002
  453.250   37.733    0.341    0.371  360.113
  453.500   34.173    0.348    0.364  326.885
  453.750   33.301    0.352    0.385  314.962
  454.000   34.695    0.343    0.397  329.732
  454.250   42.561    0.306    0.373  261.096
  454.500   57.567    0.253    0.351   93.269
  454.750   67.810    0.244    0.363   62.264
  455.000   62.946    0.313    0.425   60.532
  455.250   47.330    0.355    0.413   56.562
  455.500   47.586    0.348    0.360   55.580
  455.750   67.785    0.298    0.340   50.087
  456.000   80.647    0.213    0.338   42.215
  456.250   79.098    0.222    0.388   31.835
  456.500   64.221    0.290    0.432   29.854
  456.750   50.291    0.334    0.429   33.296
  457.000   41.813    0.349    0.399   52.680
  457.250   35.055    0.353    0.390   93.605
