~VERSION INFORMATION
 VERS.                 2.0:   CWLS LOG ASCII STANDARD -VERSION 2.0
 WRAP.                  NO:   ONE LINE PER DEPTH STEP
~WELL INFORMATION BLOCK
#MNEM.UNIT           DATA                    DESCRIPTION OF MNEMONIC
#---------    -------------------            -------------------------------
# Generated from Intellog Unique Number	CW_79_81/WELL/2459
WELL.         07-20-081-22W4                 : Well_name    - WELL
LOC .         00/07-20-081-22W4/0            : Location     - LOCATION
UWI .         00/07-20-081-22W4/0            : Uwi          - UNIQUE WELL ID
ENTR.         MAX                            : Entered      - ENTERED BY
SRVC.         SCHLUMBERGER                   : Scn          - SERVICE COMPANY
STRT.M        225                            : top_depth    - START DEPTH
STOP.M        439.75                         : bot_depth    - STOP DEPTH
STEP.M        0.25                           : increment    - STEP LENGTH
 NULL. -999.2500:NULL Value
~CURVE INFORMATION BLOCK
#MNEM UNIT       ERCB CURVE CODE    CURVE DESCRIPTION
#-----------   ------------------   ----------------------------------
DEPT.M        00 001 00 00         : DEPTH        - DEPTH
ILD .OHMM     00 120 00 00         : RESD         - DEEP RESISTIVITY (DIL)
NPHI.V/V      00 330 00 00         : PHIN         - NEUTRON POROSITY (SANDSTONE)
DPHI.V/V      00 890 00 00         : PHID         - DENSITY POROSITY (SANDSTONE)
GR  .API      00 310 00 00         : GR           - GAMMA RAY
CALI.MM       00 280 01 00         : CAL          - CALIPER
~PARAMETER INFORMATION
#MNEM.UNIT           DATA             DESCRIPTION OF MNEMONIC
#---------         -----------     ------------------------------
GL  .M        606.19               : gl           - GROUND LEVEL ELEVATION
EREF.M        609.8                : kb           - ELEVATION OF DEPTH REFERENCE
DATM.M        606.19               : datum        - DATUM ELEVATION
TDD .M        449                  : tdd          - TOTAL DEPTH DRILLER
RUN .         ONE                  : Run          - RUN NUMBER
ENG .         BILL                 : Engineer     - RECORDING ENGINEER
WIT .         JIM                  : Witness      - WITNESSED BY
MUD .         GEL                  : Mud_type     - MUD TYPE
MATR.         SANDSTONE            : Logunit      - NEUTRON MATRIX
TMAX.C        28                   : BHT          - MAXIMUM RECORDED TEMPERATURE
BHTD.M        449                  : BHTDEP       - MAXIMUM RECORDED TEMPERATURE
MATR.         1                    : LOGUNIT      - NEUTRON MATRIX
RMT .C        16                   : MDTP         - TEMPERATURE OF MUD
NEUT.         1                    : NEUTRON      - NEUTRON TYPE
RESI.         0                    : RESIST       - RESISTIVITY TYPE
RMC .OHMM     5                    : RMC          - RESISTIVITY OF MUD CAKE
RMF .OHMM     5                    : RMF          - RESISTIVITY OF MUD FILTRATE
SUFT.C        -20                  : SUFT         - SURFACE TEMPERATURE
~A  DEPTH     RESD     PHIN     PHID       GR      CAL
# ...
  371.000   16.239    0.315    0.114   71.445  160.232
  371.250   19.041    0.314    0.130   73.547  160.817
  371.500   20.691    0.343    0.204   77.574  161.110
  371.750   19.959    0.374    0.252   82.555  160.950
  372.000   17.444    0.405    0.278   86.447  160.141
  372.250   14.702    0.435    0.294   87.615  158.586
  372.500   13.155    0.437    0.275   88.608  158.782
  372.750   12.155    0.434    0.253   88.609  159.172
  373.000   11.586    0.435    0.237   88.259  159.854
  373.250   11.610    0.439    0.213   89.369  162.580
  373.500   11.704    0.430    0.213   87.911  162.581
  373.750   11.625    0.431    0.249   88.846  162.193
  374.000   11.419    0.437    0.249   91.356  161.806
  374.250   11.218    0.445    0.239   94.041  161.612
  374.500   11.121    0.452    0.235   95.851  161.614
  374.750   11.192    0.454    0.238   95.794  161.615
  375.000   11.114    0.453    0.238   94.336  161.617
  375.250   10.878    0.450    0.230   92.936  161.618
  375.500   10.765    0.449    0.221   92.061  161.912
  375.750   10.808    0.454    0.223   91.012  162.497
  376.000   11.012    0.454    0.227   89.495  162.984
  376.250   11.416    0.414    0.202   86.948  162.030
  376.500   11.776    0.373    0.193   83.544  159.194
  376.750   11.867    0.408    0.202   84.712  160.362
  377.000   11.960    0.432    0.217   85.180  161.239
  377.250   11.966    0.447    0.222   85.648  162.602
  377.500   11.885    0.454    0.216   86.582  164.063
  377.750   11.788    0.446    0.211   88.655  164.064
  378.000   11.703    0.437    0.217   90.845  164.066
  378.250   11.623    0.440    0.217   90.145  164.067
  378.500   11.608    0.445    0.214   90.146  164.068
  378.750   11.615    0.450    0.215   91.547  163.875
  379.000   11.622    0.453    0.220   93.766  163.585
  379.250   11.643    0.449    0.223   94.545  163.587
  379.500   11.739    0.449    0.228   92.600  163.588
  379.750   11.659    0.427    0.227   91.434  163.589
  380.000   11.580    0.422    0.221   92.894  163.591
  380.250   11.543    0.427    0.217   95.579  163.981
  380.500   11.549    0.436    0.217   97.739  164.566
  380.750   11.521    0.448    0.216   96.593  164.162
  381.000   11.352    0.463    0.207   93.189  162.138
  381.250   11.275    0.462    0.203   92.256  161.750
  381.500   11.259    0.459    0.211   90.973  164.864
  381.750   11.265    0.455    0.221   90.157  166.421
  382.000   11.250    0.449    0.226   90.333  165.256
  382.250   11.158    0.439    0.232   91.686  164.171
  382.500   11.078    0.441    0.236   91.444  164.578
  382.750   11.083    0.456    0.238   92.144  164.968
  383.000   11.089    0.454    0.232   91.095  165.067
  383.250   11.095    0.448    0.226   90.512  165.068
  383.500   11.080    0.450    0.231   91.330  165.167
  383.750   10.972    0.467    0.259   93.150  165.720
  384.000   10.811    0.463    0.269   92.908  166.532
  384.250   10.503    0.462    0.257   92.675  165.366
  384.500   10.377    0.458    0.245   93.318  156.614
  384.750   10.381    0.450    0.230   94.719  151.168
  385.000   10.385    0.453    0.225   96.121  153.892
  385.250   10.105    0.500    0.260   95.538  164.593
  385.500    9.807    0.499    0.274   92.621  169.458
  385.750    9.741    0.470    0.292   91.922  169.459
  386.000    9.727    0.477    0.266   93.323  170.336
  386.250    9.732    0.480    0.269   94.141  173.839
  386.500    9.719    0.461    0.304   93.150  177.731
  386.750    9.740    0.427    0.291   89.951  174.005
  387.000   10.203    0.414    0.242   86.790  165.090
  387.250   11.292    0.420    0.230   84.690  163.535
  387.500   13.292    0.426    0.246   84.166  162.855
  387.750   16.487    0.425    0.259   83.816  162.078
  388.000   20.764    0.418    0.246   82.300  161.010
  388.250   24.450    0.402    0.186   77.554  160.153
  388.500   27.460    0.390    0.172   73.664  159.749
  388.750   29.961    0.395    0.209   69.930  159.750
  389.000   33.052    0.401    0.223   66.371  160.043
  389.250   36.635    0.398    0.222   65.322  160.628
  389.500   39.729    0.378    0.205   66.548  161.505
  389.750   39.735    0.339    0.164   67.735  162.917
  390.000   38.273    0.346    0.152   70.168  164.134
  390.250   31.527    0.373    0.201   73.437  164.136
  390.500   24.334    0.396    0.220   75.831  164.137
  390.750   18.973    0.420    0.231   76.182  164.138
  391.000   16.005    0.433    0.245   74.549  163.945
  391.250   15.832    0.399    0.260   71.631  163.007
  391.500   16.711    0.368    0.236   68.714  162.198
  391.750   18.364    0.342    0.196   66.614  162.199
  392.000   21.574    0.319    0.123   65.389  162.200
  392.250   26.192    0.302    0.088   64.340  162.202
  392.500   31.613    0.302    0.100   63.465  162.203
  392.750   35.681    0.332    0.106   64.098  162.124
  393.000   32.365    0.349    0.118   67.260  161.720
  393.250   24.880    0.381    0.159   72.863  161.332
  393.500   20.755    0.399    0.193   78.292  160.944
  393.750   18.039    0.407    0.217   82.144  160.751
  394.000   16.085    0.412    0.232   83.371  160.655
  394.250   14.562    0.419    0.239   81.368  160.349
  394.500   14.132    0.419    0.242   81.855  160.756
  394.750   13.831    0.415    0.250   80.689  160.757
  395.000   13.689    0.407    0.255   77.947  160.758
  395.250   13.646    0.385    0.233   72.345  160.565
  395.500   13.823    0.349    0.177   65.635  160.275
  395.750   14.819    0.316    0.109   63.282  160.277
  396.000   16.258    0.346    0.150   66.687  160.278
  396.250   17.362    0.377    0.198   68.555  159.501
  396.500   17.283    0.393    0.226   70.599  159.891
  396.750   16.161    0.399    0.244   73.051  160.282
  397.000   14.664    0.401    0.251   76.028  160.283
  397.250   13.371    0.405    0.240   79.628  160.285
  397.500   12.976    0.413    0.240   80.115  160.286
  397.750   12.701    0.425    0.243   78.715  160.288
  398.000   12.638    0.425    0.235   78.016  160.289
  398.250   12.736    0.417    0.227   75.915  160.291
  398.500   12.999    0.406    0.224   73.057  160.389
  398.750   13.576    0.399    0.221   72.970  160.861
  399.000   14.004    0.397    0.216   73.700  161.268
  399.250   14.319    0.406    0.211   74.868  161.658
  399.500   14.803    0.397    0.204   75.686  161.757
  399.750   15.579    0.379    0.187   76.387  161.953
  400.000   16.594    0.369    0.163   77.030  162.343
  400.250   17.482    0.391    0.151   77.498  162.815
  400.500   17.489    0.417    0.176   77.499  163.221
  400.750   17.370    0.412    0.188   77.500  164.001
  401.000   17.064    0.403    0.185   77.851  164.197
  401.250   16.640    0.400    0.190   78.785  162.642
  401.500   16.169    0.401    0.203   80.245  160.309
  401.750   15.566    0.395    0.202   82.318  160.392
  402.000   14.883    0.387    0.186   84.507  160.798
  402.250   14.460    0.408    0.200   86.375  160.411
  402.500   14.126    0.424    0.211   88.244  160.315
  402.750   13.517    0.433    0.214   89.529  160.316
  403.000   12.740    0.436    0.212   90.405  160.317
  403.250   12.147    0.435    0.212   92.293  160.400
  403.500   11.878    0.433    0.214   94.725  160.807
  403.750   11.797    0.432    0.216   94.493  161.197
  404.000   11.847    0.423    0.218   92.684  161.588
  404.250   12.069    0.417    0.215   89.650  161.978
  404.500   12.389    0.418    0.203   86.967  162.271
  404.750   12.560    0.424    0.173   88.115  162.192
  405.000   12.471    0.410    0.157   91.520  161.788
  405.250   12.028    0.400    0.159   95.256  161.790
  405.500   11.408    0.397    0.161   96.541  161.499
  405.750   10.969    0.406    0.167   97.709  161.500
  406.000   10.756    0.422    0.176   99.811  161.794
  406.250   10.540    0.431    0.189  102.953  162.038
  406.500   10.231    0.436    0.215  104.656  163.256
  406.750   10.013    0.424    0.239  105.824  166.369
  407.000    9.855    0.407    0.236  106.117  166.565
  407.250    9.752    0.400    0.222  106.118  166.956
