~VERSION INFORMATION
 VERS.                 2.0:   CWLS LOG ASCII STANDARD -VERSION 2.0
 WRAP.                  NO:   ONE LINE PER DEPTH STEP
~WELL INFORMATION BLOCK
#MNEM.UNIT           DATA                    DESCRIPTION OF MNEMONIC
#---------    -------------------            -------------------------------
# Generated from Intellog Unique Number	CS_67_68/WELL/2177
WELL.         07-23-067-06W4                 : Well_name    - WELL
LOC .         00/07-23-067-06W4/0            : Location     - LOCATION
UWI .         00/07-23-067-06W4/0            : Uwi          - UNIQUE WELL ID
ENTR.         SP                             : Entered      - ENTERED BY
SRVC.         SCHLUMBERGER                   : Scn          - SERVICE COMPANY
STRT.M        325                            : top_depth    - START DEPTH
STOP.M        536                            : bot_depth    - STOP DEPTH
STEP.M        0.25                           : increment    - STEP LENGTH
 NULL. -999.2500:NULL Value
~CURVE INFORMATION BLOCK
#MNEM UNIT       ERCB CURVE CODE    CURVE DESCRIPTION
#-----------   ------------------   ----------------------------------
DEPT.M        00 001 00 00         : DEPTH        - DEPTH
ILD .OHMM     00 120 00 00         : RESD         - DEEP RESISTIVITY (DIL)
DPHI.V/V      00 890 00 00         : PHID         - DENSITY POROSITY (LIMESTONE)
NPHI.V/V      00 330 00 00         : PHIN         - NEUTRON POROSITY (LIMESTONE)
GR  .API      00 310 00 00         : GR           - GAMMA RAY
CALI.MM       00 280 01 00         : CAL          - CALIPER
~PARAMETER INFORMATION
#MNEM.UNIT           DATA             DESCRIPTION OF MNEMONIC
#---------         -----------     ------------------------------
GL  .M        653.7                : gl           - GROUND LEVEL ELEVATION
EREF.M        657                  : kb           - ELEVATION OF DEPTH REFERENCE
DATM.M        657                  : datum        - DATUM ELEVATION
TDD .M        545                  : tdd          - TOTAL DEPTH DRILLER
RUN .         ONE                  : Run          - RUN NUMBER
ENG .         BILL                 : Engineer     - RECORDING ENGINEER
WIT .         JIM                  : Witness      - WITNESSED BY
MUD .         GEL                  : Mud_type     - MUD TYPE
MATR.         LIMESTONE            : Logunit      - NEUTRON MATRIX
TMAX.C        23                   : BHT          - MAXIMUM RECORDED TEMPERATURE
BHTD.M        545                  : BHTDEP       - MAXIMUM RECORDED TEMPERATURE
MATR.         1                    : LOGUNIT      - NEUTRON MATRIX
RMT .C        25                   : MDTP         - TEMPERATURE OF MUD
NEUT.         1                    : NEUTRON      - NEUTRON TYPE
RESI.         0                    : RESIST       - RESISTIVITY TYPE
RMC .OHMM     0.25                 : RMC          - RESISTIVITY OF MUD CAKE
RMF .OHMM     0.25                 : RMF          - RESISTIVITY OF MUD FILTRATE
SUFT.C        15                   : SUFT         - SURFACE TEMPERATURE
~A  DEPTH     RESD     PHID     PHIN       GR      CAL
# ...
  361.500    4.800    0.263    0.433   94.392  154.310
  361.750    5.088    0.235    0.456   94.081  153.794
  362.000    5.039    0.260    0.462   93.895  153.482
  362.250    5.056    0.272    0.456   95.115  153.068
  362.500    5.112    0.264    0.454   96.764  152.960
  362.750    5.139    0.260    0.455   97.556  153.974
  363.000    5.167    0.247    0.457   98.776  155.906
  363.250    5.205    0.248    0.464   99.997  158.246
  363.500    5.223    0.254    0.463  101.707  160.586
  363.750    5.241    0.252    0.453  103.233  162.313
  364.000    5.239    0.254    0.450  104.576  163.226
  364.250    5.228    0.262    0.458  105.796  163.526
  364.500    5.226    0.258    0.466  107.323  164.132
  364.750    5.156    0.236    0.470  108.787  165.451
  365.000    4.992    0.235    0.475  109.396  166.669
  365.250    4.944    0.229    0.481  109.637  166.561
  365.500    4.905    0.238    0.480  109.756  165.535
  365.750    4.857    0.261    0.459  108.895  164.407
  366.000    4.865    0.269    0.442  106.016  162.769
  366.250    4.901    0.273    0.455   99.586  161.436
  366.500    4.964    0.276    0.439   96.216  160.820
  366.750    5.028    0.274    0.416   97.681  159.997
  367.000    5.103    0.268    0.407  102.757  159.991
  367.250    5.150    0.263    0.403  105.324  160.392
  367.500    5.110    0.270    0.403  105.749  160.490
  367.750    5.051    0.264    0.406  100.666  160.789
  368.000    4.909    0.260    0.409   94.420  160.681
  368.250    4.806    0.264    0.431   90.744  159.961
  368.500    4.769    0.275    0.441   91.353  158.935
  368.750    4.758    0.281    0.438   91.594  157.398
  369.000    4.784    0.302    0.441   84.858  156.373
  369.250    5.042    0.320    0.450   78.490  155.143
  369.500    5.253    0.322    0.456   75.855  154.525
  369.750    5.526    0.317    0.449   74.015  154.416
  370.000    5.769    0.309    0.435   72.543  154.615
  370.250    5.866    0.278    0.405   71.009  155.221
  370.500    5.831    0.271    0.386   70.026  156.337
  370.750    5.678    0.316    0.404   70.635  156.739
  371.000    5.364    0.316    0.421   72.650  157.243
  371.250    5.547    0.303    0.444   77.788  157.644
  371.500    5.879    0.293    0.455   86.658  158.250
  371.750    5.279    0.284    0.463   89.470  158.755
  372.000    5.188    0.293    0.457   87.752  158.952
  372.250    5.325    0.306    0.443   88.483  159.559
  372.500    5.425    0.291    0.434   91.111  159.756
  372.750    5.495    0.274    0.433   89.945  159.648
  373.000    5.546    0.276    0.444   88.411  159.641
  373.250    5.534    0.279    0.465   92.875  159.738
  373.500    5.490    0.272    0.478   94.340  159.833
  373.750    5.541    0.275    0.462   95.071  159.828
  374.000    5.385    0.268    0.455   94.333  159.823
  374.250    5.403    0.259    0.471   93.595  159.918
  374.500    5.381    0.264    0.470   94.387  159.810
  374.750    5.410    0.265    0.456   95.669  159.498
  375.000    5.408    0.267    0.448   96.032  159.493
  375.250    5.356    0.271    0.445   95.661  159.792
  375.500    5.364    0.276    0.445   94.923  160.092
  375.750    5.455    0.269    0.442   96.694  160.288
  376.000    5.422    0.246    0.449   98.404  160.386
  376.250    5.249    0.239    0.459   99.196  160.379
  376.500    5.140    0.241    0.459   98.153  160.373
  376.750    5.081    0.269    0.453   91.723  160.266
  377.000    5.022    0.281    0.426   79.908  160.362
  377.250    4.983    0.288    0.407   77.517  160.254
  377.500    4.935    0.272    0.400   82.409  160.553
  377.750    4.860    0.263    0.404   84.426  160.955
  378.000    4.876    0.266    0.422   84.055  161.766
  378.250    4.874    0.276    0.456   94.883  163.188
  378.500    4.873    0.249    0.473  101.917  164.508
  378.750    4.854    0.231    0.478  105.647  165.522
  379.000    4.825    0.233    0.482  105.889  165.312
  379.250    4.823    0.242    0.488  101.111  163.775
  379.500    4.813    0.236    0.495  103.678  162.648
  379.750    4.811    0.220    0.482  106.856  162.232
  380.000    4.846    0.222    0.474  108.628  162.228
  380.250    4.909    0.228    0.475  107.951  163.343
  380.500    4.963    0.226    0.480  106.234  164.867
  380.750    5.028    0.219    0.481  104.394  165.882
  381.000    5.112    0.217    0.480  102.739  166.283
  381.250    5.140    0.223    0.487  101.694  166.277
  381.500    5.157    0.229    0.486   99.732  165.455
  381.750    5.165    0.224    0.477   96.118  164.429
  382.000    5.174    0.219    0.467   96.481  164.729
  382.250    5.192    0.214    0.458   96.294  165.539
  382.500    5.329    0.215    0.468   94.210  166.247
  382.750    5.616    0.221    0.473   93.778  166.649
  383.000    5.852    0.219    0.476   95.610  166.949
  383.250    6.040    0.220    0.481   94.444  166.025
  383.500    6.165    0.223    0.480   91.992  163.876
  383.750    6.071    0.231    0.455   89.173  161.932
  384.000    5.945    0.256    0.434   86.110  160.397
  384.250    5.810    0.245    0.406   82.924  160.187
  384.500    5.732    0.232    0.372   80.411  160.689
  384.750    5.709    0.235    0.408   86.344  161.399
  385.000    5.729    0.225    0.449   91.970  162.820
  385.250    5.858    0.225    0.464   91.416  164.242
  385.500    6.013    0.227    0.470   89.147  165.562
  385.750    6.137    0.219    0.474   87.553  166.475
  386.000    6.251    0.211    0.470   85.407  166.673
  386.250    6.357    0.248    0.434   81.365  165.443
  386.500    6.427    0.245    0.406   78.056  163.294
  386.750    6.449    0.233    0.387   74.931  161.554
  387.000    6.363    0.225    0.395   74.255  160.630
  387.250    6.373    0.234    0.419   75.720  159.909
  387.500    6.395    0.241    0.399   75.471  159.598
  387.750    6.345    0.243    0.390   75.590  159.184
  388.000    6.260    0.243    0.387   78.341  158.668
  388.250    6.176    0.244    0.384   80.846  158.048
  388.500    6.139    0.234    0.386   77.293  157.941
  388.750    6.103    0.226    0.391   73.250  157.732
  389.000    6.010    0.234    0.395   70.248  157.928
  389.250    5.963    0.246    0.395   68.592  158.127
  389.500    5.927    0.264    0.394   67.732  158.734
  389.750    5.936    0.261    0.394   68.585  159.238
  390.000    5.968    0.251    0.398   69.866  159.843
  390.250    5.989    0.267    0.401   70.475  160.246
  390.500    6.010    0.276    0.394   70.654  160.342
  390.750    6.042    0.265    0.398   70.835  160.539
  391.000    6.109    0.257    0.402   70.953  160.636
  391.250    6.130    0.272    0.403   70.950  160.528
  391.500    6.151    0.285    0.399   70.334  160.216
  391.750    6.150    0.288    0.395   69.473  159.903
  392.000    6.056    0.289    0.397   69.164  159.694
  392.250    5.863    0.286    0.387   69.222  159.380
  392.500    5.581    0.272    0.379   69.769  159.171
  392.750    5.272    0.260    0.388   70.928  158.757
  393.000    5.191    0.259    0.402   72.271  158.343
  393.250    5.122    0.271    0.405   72.084  158.338
  393.500    5.006    0.288    0.404   68.285  158.229
  393.750    4.874    0.302    0.404   64.243  158.018
  394.000    4.845    0.299    0.392   61.608  158.216
  394.250    4.908    0.285    0.383   60.625  158.107
  394.500    4.944    0.274    0.382   65.089  158.307
  394.750    4.914    0.266    0.383   67.043  158.403
  395.000    4.876    0.276    0.388   68.019  158.602
  395.250    4.838    0.287    0.412   67.587  158.595
  395.500    4.809    0.293    0.404   66.359  158.283
  395.750    4.808    0.295    0.410   62.623  157.766
  396.000    4.815    0.312    0.417   59.437  157.659
  396.250    4.832    0.328    0.416   60.167  157.653
  396.500    4.849    0.315    0.412   60.347  157.851
  396.750    4.865    0.303    0.410   61.261  158.151
  397.000    4.892    0.295    0.405   62.176  158.552
  397.250    4.927    0.297    0.393   61.438  159.159
  397.500    4.963    0.301    0.399   59.782  160.070
  397.750    5.009    0.309    0.413   58.738  160.574
