~VERSION INFORMATION
 VERS.                 2.0:   CWLS LOG ASCII STANDARD -VERSION 2.0
 WRAP.                  NO:   ONE LINE PER DEPTH STEP
~WELL INFORMATION BLOCK
#MNEM.UNIT           DATA                    DESCRIPTION OF MNEMONIC
#---------    -------------------            -------------------------------
# Generated from Intellog Unique Number	CN_91_93/WELL/3046
WELL.         PARAMOUNT RESOURCES LTD.       : Well_name    - WELL
LOC .         00/05-36-092-20W4/0            : Location     - LOCATION
UWI .         00/05-36-092-20W4/0            : Uwi          - UNIQUE WELL ID
ENTR.         JOETTE                         : Entered      - ENTERED BY
SRVC.         COMPUTALOG                     : Scn          - SERVICE COMPANY
DATE.         04/09/92                       : Date         - LOG DATE
STRT.M        105                            : top_depth    - START DEPTH
STOP.M        255                            : bot_depth    - STOP DEPTH
STEP.M        0.25                           : increment    - STEP LENGTH
 NULL. -999.2500:NULL Value
~CURVE INFORMATION BLOCK
#MNEM UNIT       ERCB CURVE CODE    CURVE DESCRIPTION
#-----------   ------------------   ----------------------------------
DEPT.M        00 001 00 00         : DEPTH        - DEPTH
CALI.MM       00 280 01 00         : CAL          - CALIPER
GR  .API      00 310 00 00         : GR           - GAMMA RAY
NPHI.V/V      00 330 00 00         : PHIN         - NEUTRON POROSITY (SANDSTONE)
DPHI.V/V      00 890 00 00         : PHID         - DENSITY POROSITY (SANDSTONE)
ILD .OHMM     00 120 00 00         : RESD         - DEEP RESISTIVITY (DIL)
~PARAMETER INFORMATION
#MNEM.UNIT           DATA             DESCRIPTION OF MNEMONIC
#---------         -----------     ------------------------------
GL  .M        527.9                : gl           - GROUND LEVEL ELEVATION
EREF.M        531.3                : kb           - ELEVATION OF DEPTH REFERENCE
DATM.M        531.3                : datum        - DATUM ELEVATION
TDD .M        259                  : tdd          - TOTAL DEPTH DRILLER
RUN .         ONE                  : Run          - RUN NUMBER
ENG .         BILL                 : Engineer     - RECORDING ENGINEER
WIT .         JIM                  : Witness      - WITNESSED BY
MUD .         GEL                  : Mud_type     - MUD TYPE
MATR.         SANDSTONE            : Logunit      - NEUTRON MATRIX
TMAX.C        17                   : BHT          - MAXIMUM RECORDED TEMPERATURE
BHTD.M        259                  : BHTDEP       - MAXIMUM RECORDED TEMPERATURE
RMT .C        15.6                 : MDTP         - TEMPERATURE OF MUD
MUDD.KG/M     1190                 : MWT          - MUD DENSITY
NEUT.         1                    : NEUTRON      - NEUTRON TYPE
RESI.         0                    : RESIST       - RESISTIVITY TYPE
RM  .OHMM     1.9                  : RM           - RESISTIVITY OF MUD
RMC .OHMM     1.9                  : RMC          - RESISTIVITY OF MUD CAKE
RMF .OHMM     1.6                  : RMF          - RESISTIVITY OF MUD FILTRATE
SUFT.C        -20                  : SUFT         - SURFACE TEMPERATURE
~A  DEPTH      CAL       GR     PHIN     PHID     RESD
  105.000  182.613   90.357    0.440   -0.279    7.860
  105.250  184.657   93.400    0.478   -0.168    7.569
  105.500  184.679   98.264    0.494    0.262    7.288
  105.750  184.693  101.307    0.505    0.261    6.629
  106.000  184.706  103.137    0.509    0.251    6.262
  106.250  184.720  104.970    0.501    0.243    5.695
  106.500  183.727  104.975    0.485    0.243    5.484
  106.750  183.749  104.380    0.479    0.243    5.485
  107.000  184.778  102.571    0.485    0.247    6.033
  107.250  185.802  100.154    0.489    0.247    6.764
  107.500  188.861   93.494    0.480    0.243    7.730
  107.750  188.870   85.015    0.433    0.211    8.503
  108.000  187.877   78.962    0.406    0.168    9.177
  108.250  183.853   70.480    0.374    0.125    9.906
  108.500  181.849   74.129    0.369    0.155    9.908
  108.750  183.889   85.662    0.386    0.206    9.540
  109.000  187.949   92.950    0.407    0.238    9.185
  109.250  189.993   95.992    0.423    0.241    8.196
  109.500  190.002  100.248    0.444    0.253    7.455
  109.750  189.009   99.652    0.435    0.269    7.316
  110.000  190.042  101.482    0.407    0.258    7.180
  110.250  191.062  105.132    0.390    0.234    7.320
  110.500  192.100  108.174    0.396    0.213    7.321
  110.750  193.124  110.004    0.409    0.205    7.323
  111.000  193.142  111.837    0.439    0.202    7.324
  111.250  193.160  112.449    0.448    0.202    7.326
  111.500  194.188  113.066    0.446    0.205    7.190
  111.750  194.206  111.864    0.435    0.207    7.191
  112.000  194.224  110.662    0.424    0.207    7.193
  112.250  194.233  110.673    0.427    0.212    7.194
  112.500  194.256  111.902    0.430    0.217    7.196
  112.750  194.274  112.513    0.441    0.217    7.062
  113.000  193.281  113.742    0.450    0.213    7.064
  113.250  192.284  114.354    0.452    0.206    6.933
  113.500  191.291  114.971    0.454    0.202    6.803
  113.750  190.298  115.586    0.459    0.206    6.677
  114.000  191.327  114.384    0.461    0.213    6.678
  114.250  192.356  111.969    0.467    0.212    6.431
  114.500  193.380  116.227    0.473    0.203    6.432
  114.750  192.387  114.416    0.479    0.205    6.312
  115.000  190.388  108.972    0.479    0.215    6.435
  115.250  187.379  109.587    0.445    0.219    6.560
  115.500  187.388  105.956    0.426    0.183    6.948
  115.750  187.410  101.116    0.418    0.178    7.218
  116.000  187.428  101.129    0.420    0.228    7.500
  116.250  186.435  101.140    0.430    0.236    7.645
  116.500  184.423   98.116    0.430    0.249    7.794
  116.750  182.424   88.424    0.431    0.258    7.945
  117.000  183.457   89.648    0.427    0.268    7.947
  117.250  183.471   93.901    0.394    0.273    7.949
  117.500  184.499   97.550    0.394    0.264    8.104
  117.750  183.507   95.742    0.399    0.251    8.420
  118.000  178.467   86.656    0.398    0.246    8.916
  118.250  172.430   77.571    0.261    0.205    9.623
  118.500  169.411   61.818    0.221    0.132   10.190
  118.750  167.403   56.975    0.195    0.052   11.424
  119.000  166.406   49.706    0.199    0.061   12.808
  119.250  166.438   45.472    0.251    0.113   14.917
  119.500  167.462   48.515    0.279    0.159   16.410
  119.750  169.497   56.409    0.307    0.251   17.050
  120.000  172.542   72.186    0.341    0.280   14.370
  120.250  177.622   86.144    0.384    0.216   11.440
  120.500  179.653   94.645    0.412    0.226    9.461
  120.750  182.707  101.932    0.418    0.243    8.604
  121.000  182.716  109.826    0.427    0.241    7.678
  121.250  183.745  109.840    0.464    0.241    6.596
  121.500  182.752  106.210    0.473    0.251    5.999
  121.750  181.759  102.579    0.459    0.262    5.353
  122.000  180.771   99.558    0.465    0.264    5.253
  122.250  177.757   98.356    0.470    0.264    5.155
  122.500  173.732   90.484    0.469    0.250    5.256
  122.750  172.731   82.007    0.456    0.134    5.782
  123.000  177.807   84.441    0.437    0.058    6.007
  123.250  183.893   93.548    0.419    0.210    6.608
  123.500  184.913  101.442    0.426    0.232    6.998
  123.750  187.967  105.698    0.453    0.222    7.271
  124.000  188.991  105.706    0.477    0.228    7.555
  124.250  190.024  104.504    0.490    0.231    7.556
  124.500  191.049  103.304    0.497    0.223    7.703
  124.750  192.077  103.315    0.485    0.211    7.704
  125.000  193.106  103.932    0.456    0.217    7.280
  125.250  193.119  104.547    0.454    0.224    7.009
  125.500  194.148  105.773    0.465    0.230    6.749
  125.750  194.170  106.387    0.482    0.235    6.623
  126.000  194.188  107.611    0.489    0.240    6.377
  126.250  194.202  106.409    0.488    0.241    6.259
  126.500  194.220  103.994    0.470    0.239    6.260
  126.750  194.238  102.186    0.454    0.222    6.381
  127.000  195.271  102.197    0.455    0.186    6.505
  127.250  195.280  103.420    0.452    0.193    6.759
  127.500  195.302  104.037    0.457    0.210    6.892
  127.750  195.316  106.471    0.452    0.224    7.025
  128.000  195.338  110.732    0.450    0.233    7.026
  128.250  195.356  110.735    0.455    0.236    7.028
  128.500  195.374  106.501    0.456    0.236    7.164
  128.750  195.388   97.418    0.458    0.236    7.304
  129.000  195.415  102.280    0.445    0.239    7.306
  129.250  195.428  102.288    0.437    0.239    7.449
  129.500  195.442   96.235    0.453    0.240    7.450
  129.750  195.455   93.216    0.452    0.246    7.451
  130.000  195.478   96.257    0.466    0.242    7.596
  130.250  195.491   98.696    0.461    0.235    7.597
  130.500  193.497   98.094    0.438    0.227    7.600
  130.750  192.499   98.105    0.437    0.218    7.458
  131.000  191.502  102.364    0.440    0.195    7.459
  131.250  190.510  102.981    0.454    0.163    7.183
  131.500  189.521  106.630    0.473    0.155    6.916
  131.750  188.524  112.096    0.500    0.219    6.534
  132.000  187.527  110.894    0.519    0.242    6.057
  132.250  187.545  105.447    0.532    0.253    5.722
  132.500  187.563  103.638    0.527    0.246    5.304
  132.750  186.570  106.681    0.472    0.240    5.011
  133.000  187.599  109.115    0.456    0.236    4.734
  133.250  188.636  109.735    0.455    0.236    4.646
  133.500  188.650  105.503    0.469    0.232    4.559
  133.750  188.663  105.509    0.475    0.228    4.648
  134.000  188.681  107.945    0.467    0.232    4.649
  134.250  187.689  107.956    0.473    0.232    4.739
  134.500  187.702  103.722    0.475    0.200    5.019
  134.750  184.688  102.520    0.457    0.158    5.116
  135.000  182.689  107.986    0.449    0.125    5.316
  135.250  182.707  112.848    0.487    0.188    5.317
  135.500  184.746  116.497    0.505    0.218    5.218
  135.750  184.755  110.444    0.518    0.244    5.121
  136.000  185.784  103.784    0.533    0.255    5.122
  136.250  186.817   98.946    0.506    0.245    5.222
  136.500  186.831  101.380    0.438    0.229    5.425
  136.750  185.842  103.814    0.430    0.219    5.857
  137.000  185.856  106.253    0.443    0.227    6.085
  137.250  185.874  108.083    0.461    0.223    6.203
  137.500  186.912  107.487    0.458    0.219    6.323
  137.750  187.931  107.498    0.456    0.224    6.205
  138.000  188.960  109.328    0.474    0.230    6.207
  138.250  189.989  111.764    0.498    0.230    5.977
  138.500  191.017  110.562    0.504    0.230    5.978
  138.750  191.031  106.932    0.510    0.235    5.979
  139.000  191.058  102.089    0.515    0.241    6.096
  139.250  191.071   97.855    0.503    0.253    6.334
  139.500  190.083   94.230    0.489    0.256    6.456
  139.750  189.086   96.060    0.455    0.224    6.837
  140.000  188.088  100.313    0.440    0.195    7.240
  140.250  188.102   99.111    0.417    0.211    7.523
  140.500  188.124   93.664    0.405    0.230    7.816
  140.750  189.149   94.281    0.408    0.235    8.121
  141.000  190.177   97.927    0.414    0.243    8.279
  141.250  190.200  103.396    0.421    0.245    8.281
