~VERSION INFORMATION
 VERS.                 2.0:   CWLS LOG ASCII STANDARD -VERSION 2.0
 WRAP.                  NO:   ONE LINE PER DEPTH STEP
~WELL INFORMATION BLOCK
#MNEM.UNIT           DATA                    DESCRIPTION OF MNEMONIC
#---------    -------------------            -------------------------------
# Generated from Intellog Unique Number	CS_77_79/WELL/834
WELL.         CANOXY WINIFRED                : Well_name    - WELL
LOC .         00/01-28-078-02W4/0            : Location     - LOCATION
UWI .         00/01-28-078-02W4/0            : Uwi          - UNIQUE WELL ID
ENTR.         JHS                            : Entered      - ENTERED BY
SRVC.         SCHLUMBERGER                   : Scn          - SERVICE COMPANY
STRT.M        158.496                        : top_depth    - START DEPTH
STOP.M        426.496                        : bot_depth    - STOP DEPTH
STEP.M        0.25                           : increment    - STEP LENGTH
 NULL. -999.2500:NULL Value
~CURVE INFORMATION BLOCK
#MNEM UNIT       ERCB CURVE CODE    CURVE DESCRIPTION
#-----------   ------------------   ----------------------------------
DEPT.M        00 001 00 00         : DEPTH        - DEPTH
GR  .API      00 310 00 00         : GR           - GAMMA RAY
DPHI.V/V      00 890 00 00         : PHID         - DENSITY POROSITY (SANDSTONE)
NPHI.V/V      00 330 00 00         : PHIN         - NEUTRON POROSITY (SANDSTONE)
ILD .OHMM     00 120 00 00         : RESD         - DEEP RESISTIVITY (DIL)
~PARAMETER INFORMATION
#MNEM.UNIT           DATA             DESCRIPTION OF MNEMONIC
#---------         -----------     ------------------------------
GL  .M        570.89               : gl           - GROUND LEVEL ELEVATION
EREF.M        574.243              : kb           - ELEVATION OF DEPTH REFERENCE
DATM.M        574.243              : datum        - DATUM ELEVATION
TDD .M        434.34               : tdd          - TOTAL DEPTH DRILLER
RUN .         ONE                  : Run          - RUN NUMBER
ENG .         BILL                 : Engineer     - RECORDING ENGINEER
WIT .         JIM                  : Witness      - WITNESSED BY
MUD .         GEL                  : Mud_type     - MUD TYPE
MATR.         SANDSTONE            : Logunit      - NEUTRON MATRIX
TMAX.C        21.1111              : BHT          - MAXIMUM RECORDED TEMPERATURE
BHTD.M        434.34               : BHTDEP       - MAXIMUM RECORDED TEMPERATURE
MATR.         1                    : LOGUNIT      - NEUTRON MATRIX
RMT .C        25                   : MDTP         - TEMPERATURE OF MUD
NEUT.         1                    : NEUTRON      - NEUTRON TYPE
RESI.         0                    : RESIST       - RESISTIVITY TYPE
RMC .OHMM     0.25                 : RMC          - RESISTIVITY OF MUD CAKE
RMF .OHMM     0.25                 : RMF          - RESISTIVITY OF MUD FILTRATE
SUFT.C        15                   : SUFT         - SURFACE TEMPERATURE
~A  DEPTH       GR     PHID     PHIN     RESD
# ...
  375.996  101.345    0.249    0.374    3.873
  376.246  103.756    0.244    0.366    3.892
  376.496  106.068    0.236    0.368    3.797
  376.746  104.583    0.228    0.378    3.724
  376.996  100.788    0.259    0.378    3.843
  377.246   98.954    0.259    0.380    3.959
  377.496  101.107    0.244    0.392    4.079
  377.746  105.172    0.242    0.397    4.200
  377.996  109.586    0.242    0.386    4.306
  378.246  109.941    0.232    0.387    4.163
  378.496  102.794    0.221    0.398    3.786
  378.746   92.522    0.225    0.418    3.175
  378.996   76.043    0.269    0.427    2.342
  379.246   62.256    0.321    0.416    2.049
  379.496   49.044    0.344    0.396    1.979
  379.746   54.754    0.338    0.382    1.835
  379.996   53.213    0.321    0.382    1.726
  380.246   51.196    0.327    0.394    1.710
  380.496   52.939    0.358    0.398    1.726
  380.746   50.361    0.361    0.401    1.835
  380.996   53.930    0.351    0.399    1.977
  381.246   62.136    0.340    0.391    2.019
  381.496   75.332    0.322    0.386    2.014
  381.746   82.416    0.310    0.391    1.916
  381.996   72.400    0.318    0.392    1.839
  382.246   48.170    0.339    0.382    1.764
  382.496   42.889    0.340    0.391    1.706
  382.746   37.595    0.348    0.402    1.658
  382.996   33.477    0.374    0.397    1.643
  383.246   30.599    0.383    0.378    1.608
  383.496   34.143    0.361    0.373    1.644
  383.746   39.010    0.340    0.375    1.673
  383.996   43.701    0.342    0.383    1.669
  384.246   47.051    0.365    0.391    1.708
  384.496   52.123    0.369    0.395    1.702
  384.746   57.242    0.352    0.399    1.737
  384.996   57.168    0.345    0.395    1.730
  385.246   44.180    0.342    0.377    1.707
  385.496   41.143    0.344    0.375    1.637
  385.746   45.026    0.351    0.383    1.609
  385.996   46.838    0.348    0.390    1.611
  386.246   43.740    0.343    0.396    1.618
  386.496   40.722    0.351    0.402    1.670
  386.746   41.856    0.353    0.380    1.735
  386.996   44.860    0.335    0.374    1.938
  387.246   45.655    0.316    0.357    2.044
  387.496   45.408    0.303    0.344    2.048
  387.746   43.530    0.316    0.335    2.005
  387.996   41.584    0.313    0.358    1.976
  388.246   41.699    0.325    0.374    1.915
  388.496   40.257    0.332    0.381    1.857
  388.746   40.892    0.334    0.392    1.827
  388.996   38.891    0.346    0.370    1.824
  389.246   37.057    0.345    0.366    1.862
  389.496   41.230    0.333    0.366    1.887
  389.746   45.691    0.327    0.362    1.906
  389.996   46.663    0.329    0.362    1.930
  390.246   46.470    0.324    0.362    1.968
  390.496   43.807    0.333    0.357    1.958
  390.746   41.941    0.335    0.348    1.929
  390.996   43.744    0.321    0.343    1.929
  391.246   42.304    0.307    0.350    1.930
  391.496   40.286    0.316    0.367    1.898
  391.746   41.145    0.331    0.372    1.893
  391.996   43.604    0.319    0.352    1.889
  392.246   45.205    0.317    0.339    1.855
  392.496   45.777    0.325    0.336    1.856
  392.746   44.044    0.322    0.342    1.856
  392.996   42.151    0.315    0.361    1.856
  393.246   40.455    0.316    0.374    1.856
  393.496   40.590    0.330    0.378    1.855
  393.746   42.182    0.320    0.367    1.859
  393.996   45.087    0.308    0.362    1.819
  394.246   45.621    0.314    0.371    1.790
  394.496   41.692    0.333    0.372    1.771
  394.746   40.839    0.340    0.367    1.754
  394.996   42.519    0.333    0.364    1.753
  395.246   41.141    0.328    0.365    1.750
  395.496   40.346    0.333    0.376    1.787
  395.746   43.478    0.351    0.395    1.883
  395.996   46.806    0.383    0.441    2.106
  396.246   54.163    0.436    0.499    2.484
  396.496   65.154    0.541    0.619    3.567
  396.746   79.860    0.491    0.568    4.519
  396.996   99.897    0.444    0.500    5.123
  397.246  105.999    0.389    0.415    4.695
  397.496  102.773    0.238    0.347    4.084
  397.746  106.937    0.198    0.325    3.729
  397.996  119.496    0.177    0.325    3.718
  398.246  126.766    0.209    0.441    3.886
  398.496  127.694    0.238    0.451    4.133
  398.746  126.947    0.247    0.451    4.276
  398.996  124.172    0.237    0.439    4.319
  399.246  123.983    0.242    0.471    4.328
  399.496  126.428    0.234    0.500    4.231
  399.746  132.011    0.220    0.489    4.236
  399.996  133.188    0.216    0.484    4.368
  400.246  130.581    0.234    0.508    4.518
  400.496  129.907    0.232    0.519    4.649
  400.746  127.590    0.245    0.498    4.654
  400.996  128.502    0.237    0.495    4.552
  401.246  134.298    0.221    0.513    4.561
  401.496  134.761    0.211    0.515    4.597
  401.746  131.729    0.206    0.505    4.649
  401.996  131.195    0.199    0.477    4.826
  402.246  132.147    0.226    0.456    4.819
  402.496  132.525    0.214    0.445    4.724
  402.746  132.504    0.208    0.447    4.638
  402.996  133.259    0.206    0.456    4.519
  403.246  136.586    0.204    0.468    4.469
  403.496  140.146    0.209    0.463    4.385
  403.746  139.683    0.212    0.467    4.294
  403.996  137.747    0.205    0.469    4.309
  404.246  136.010    0.191    0.461    4.216
  404.496  135.830    0.183    0.460    4.227
  404.746  136.152    0.197    0.460    4.360
  404.996  139.741    0.212    0.471    4.467
  405.246  141.977    0.217    0.479    4.460
  405.496  140.301    0.205    0.483    4.446
  405.746  138.855    0.192    0.469    4.509
  405.996  137.890    0.179    0.472    4.223
  406.246  134.894    0.189    0.487    3.859
  406.496  133.751    0.182    0.498    3.546
  406.746  132.756    0.192    0.517    3.390
  406.996  129.913    0.218    0.529    3.312
  407.246  126.284    0.219    0.532    3.320
  407.496  123.889    0.226    0.527    3.421
  407.746  121.866    0.225    0.493    3.626
  407.996  116.754    0.208    0.474    3.848
  408.246  107.248    0.206    0.436    3.913
  408.496   86.446    0.198    0.343    3.931
  408.746   83.147    0.177    0.317    4.056
  408.996   95.178    0.167    0.308    4.307
  409.246  103.921    0.186    0.321    4.548
  409.496  105.096    0.180    0.381    4.378
  409.746   78.588    0.186    0.357    3.996
  409.996   62.894    0.193    0.331    3.645
  410.246   65.103    0.226    0.317    3.160
  410.496   74.003    0.239    0.335    3.071
  410.746   78.998    0.247    0.356    3.073
  410.996   83.841    0.254    0.356    3.200
  411.246   97.018    0.240    0.356    3.541
  411.496  113.451    0.215    0.371    4.385
  411.746  125.460    0.195    0.414    4.830
  411.996  132.064    0.181    0.427    4.887
  412.246  136.917    0.172    0.430    4.956
  412.496  140.396    0.174    0.457    4.857
  412.746  138.767    0.219    0.474    4.877
  412.996  134.391    0.234    0.447    5.034
  413.246  130.201    0.230    0.422    5.180
  413.496  129.748    0.216    0.404    5.469
  413.746  127.498    0.203    0.383    5.715
  413.996  117.639    0.180    0.353    5.793
  414.246  108.042    0.153    0.336    5.707
  414.496  102.126    0.135    0.340    5.243
  414.746   97.797    0.122    0.337    5.001
  414.996   99.029    0.148    0.340    4.672
  415.246  107.422    0.155    0.416    4.364
  415.496  117.294    0.144    0.437    3.771
  415.746  116.796    0.139    0.422    3.310
  415.996  104.124    0.162    0.364    2.765
  416.246   92.131    0.188    0.339    2.357
  416.496   85.304    0.201    0.328    2.028
  416.746   77.971    0.232    0.349    1.816
  416.996   66.823    0.261    0.367    1.753
  417.246   60.954    0.262    0.337    1.754
  417.496   62.853    0.267    0.320    1.742
  417.746   60.962    0.249    0.322    1.687
  417.996   57.599    0.247    0.336    1.583
  418.246   53.536    0.260    0.351    1.465
  418.496   48.629    0.272    0.368    1.354
  418.746   41.165    0.280    0.379    1.205
  418.996   31.757    0.300    0.380    1.189
  419.246   29.396    0.315    0.357    1.333
