~VERSION INFORMATION
 VERS.                 2.0:   CWLS LOG ASCII STANDARD -VERSION 2.0
 WRAP.                  NO:   ONE LINE PER DEPTH STEP
~WELL INFORMATION BLOCK
#MNEM.UNIT           DATA                    DESCRIPTION OF MNEMONIC
#---------    -------------------            -------------------------------
# Generated from Intellog Unique Number	CW_82_90/WELL/3415
WELL.         CDN SUP SIMON                  : Well_name    - WELL
LOC .         00/03-34-088-20W4/0            : Location     - LOCATION
UWI .         00/03-34-088-20W4/0            : Uwi          - UNIQUE WELL ID
ENTR.         MAX                            : Entered      - ENTERED BY
SRVC.         SCHLUMBERGER                   : Scn          - SERVICE COMPANY
STRT.M        60.96                          : top_depth    - START DEPTH
STOP.M        237.71                         : bot_depth    - STOP DEPTH
STEP.M        0.25                           : increment    - STEP LENGTH
 NULL. -999.2500:NULL Value
~CURVE INFORMATION BLOCK
#MNEM UNIT       ERCB CURVE CODE    CURVE DESCRIPTION
#-----------   ------------------   ----------------------------------
DEPT.M        00 001 00 00         : DEPTH        - DEPTH
GR  .API      00 310 00 00         : GR           - GAMMA RAY
CALI.MM       00 280 01 00         : CAL          - CALIPER
DPHI.V/V      00 890 00 00         : PHID         - DENSITY POROSITY (SANDSTONE)
NPHI.V/V      00 330 00 00         : PHIN         - NEUTRON POROSITY (SANDSTONE)
ILD .OHMM     00 120 00 00         : RESD         - DEEP RESISTIVITY (DIL)
~PARAMETER INFORMATION
#MNEM.UNIT           DATA             DESCRIPTION OF MNEMONIC
#---------         -----------     ------------------------------
GL  .M        517.55               : gl           - GROUND LEVEL ELEVATION
EREF.M        521.513              : kb           - ELEVATION OF DEPTH REFERENCE
DATM.M        517.55               : datum        - DATUM ELEVATION
TDD .M        259.08               : tdd          - TOTAL DEPTH DRILLER
RUN .         ONE                  : Run          - RUN NUMBER
ENG .         BILL                 : Engineer     - RECORDING ENGINEER
WIT .         JIM                  : Witness      - WITNESSED BY
MUD .         GEL                  : Mud_type     - MUD TYPE
MATR.         SANDSTONE            : Logunit      - NEUTRON MATRIX
TMAX.C        24.4444              : BHT          - MAXIMUM RECORDED TEMPERATURE
BHTD.M        259.08               : BHTDEP       - MAXIMUM RECORDED TEMPERATURE
MATR.         1                    : LOGUNIT      - NEUTRON MATRIX
RMT .C        20                   : MDTP         - TEMPERATURE OF MUD
NEUT.         1                    : NEUTRON      - NEUTRON TYPE
RESI.         0                    : RESIST       - RESISTIVITY TYPE
RMC .OHMM     4.3                  : RMC          - RESISTIVITY OF MUD CAKE
RMF .OHMM     4.67                 : RMF          - RESISTIVITY OF MUD FILTRATE
SUFT.C        -20.5556             : SUFT         - SURFACE TEMPERATURE
~A  DEPTH       GR      CAL     PHID     PHIN     RESD
# ...
  133.960   93.827  230.005    0.263    0.509    5.227
  134.210   92.948  230.012    0.270    0.507    5.622
  134.460   91.776  230.023    0.274    0.505    6.214
  134.710   90.307  229.035    0.281    0.491    6.685
  134.960   87.073  227.547    0.281    0.478    6.999
  135.210   85.311  226.059    0.286    0.479    7.197
  135.460   84.136  225.071    0.289    0.492    7.402
  135.710   82.080  224.582    0.267    0.485    7.610
  135.960   77.666  224.092    0.261    0.477    7.896
  136.210   75.314  224.101    0.239    0.467    8.341
  136.460   77.972  224.110    0.185    0.436    8.735
  136.710   81.807  224.620    0.217    0.451    8.431
  136.960   88.000  224.627    0.248    0.474    7.848
  137.210   99.201  225.636    0.235    0.500    6.325
  137.460  109.224  226.142    0.213    0.496    5.429
  137.710  113.648  227.651    0.178    0.507    4.832
  137.960  118.073  228.157    0.227    0.530    4.621
  138.210  121.615  228.167    0.209    0.539    4.461
  138.460  120.735  228.176    0.204    0.543    4.306
  138.710  119.563  228.187    0.215    0.551    4.194
  138.960  118.979  228.196    0.229    0.567    4.086
  139.210  116.922  227.706    0.232    0.577    3.944
  139.460  115.455  227.714    0.238    0.560    3.807
  139.710  114.577  227.225    0.250    0.548    3.642
  139.960  114.288  226.737    0.274    0.553    3.452
  140.210  115.766  226.247    0.286    0.565    3.273
  140.460  115.477  225.757    0.290    0.570    3.130
  140.710  111.063  225.765    0.293    0.575    2.915
  140.960  107.827  226.275    0.294    0.567    2.865
  141.210  105.476  226.284    0.297    0.565    2.841
  141.460  102.831  226.792    0.298    0.571    2.844
  141.710  101.951  226.802    0.299    0.572    2.871
  141.960  101.663  226.810    0.302    0.565    2.953
  142.210  100.490  226.820    0.305    0.548    3.091
  142.460   96.371  226.329    0.298    0.533    3.296
  142.710   95.198  226.340    0.288    0.524    3.545
  142.960   93.730  226.847    0.275    0.516    3.954
  143.210   92.263  227.854    0.266    0.506    4.450
  143.460   91.973  227.865    0.262    0.496    5.240
  143.710   91.390  227.874    0.272    0.481    5.897
  143.960   91.101  227.883    0.274    0.472    6.576
  144.210   91.106  228.391    0.274    0.462    7.269
  144.460   91.112  228.898    0.274    0.458    7.819
  144.710   90.234  229.907    0.277    0.453    8.336
  144.960   88.765  229.915    0.278    0.449    8.728
  145.210   87.594  229.427    0.277    0.447    9.220
  145.460   86.715  229.436    0.274    0.446    9.396
  145.710   86.131  229.444    0.263    0.446    9.152
  145.960   84.958  229.454    0.237    0.445    8.598
  146.210   84.374  228.964    0.224    0.445    7.935
  146.460   83.791  228.474    0.225    0.447    6.997
  146.710   86.153  227.486    0.251    0.456    6.340
  146.960   88.809  226.998    0.274    0.482    5.643
  147.210   89.994  226.508    0.259    0.496    5.447
  147.460   89.410  226.018    0.273    0.481    5.550
  147.710   88.237  225.528    0.285    0.475    5.707
  147.960   86.475  225.539    0.298    0.485    5.868
  148.210   84.419  225.049    0.297    0.491    6.144
  148.460   82.362  224.559    0.297    0.487    6.551
  148.710   81.777  224.070    0.292    0.479    6.921
  148.960   81.488  223.579    0.270    0.469    7.115
  149.210   81.789  223.590    0.258    0.475    7.451
  149.460   81.795  223.599    0.262    0.491    7.660
  149.710   82.684  224.105    0.272    0.495    8.020
  149.960   85.930  225.612    0.279    0.496    8.321
  150.210   89.765  227.117    0.273    0.480    8.405
  150.460   93.011  227.626    0.255    0.471    8.259
  150.710   95.079  228.134    0.254    0.463    7.973
  150.960   95.379  228.642    0.244    0.478    7.627
  151.210   94.501  228.652    0.235    0.501    7.231
  151.460   92.740  229.161    0.232    0.509    6.979
  151.710   92.155  229.170    0.240    0.507    7.114
  151.960   90.983  229.678    0.235    0.471    7.313
  152.210   89.515  229.686    0.227    0.454    7.726
  152.460   88.637  228.701    0.221    0.454    8.387
  152.710   89.525  228.708    0.223    0.475    8.244
  152.960   92.183  228.718    0.229    0.489    7.469
  153.210  102.205  228.228    0.233    0.504    6.354
  153.460  106.336  228.238    0.236    0.514    5.503
  153.710  105.752  228.247    0.240    0.521    4.724
  153.960  105.464  228.258    0.243    0.529    4.359
  154.210  105.469  228.265    0.245    0.541    4.095
  154.460  104.590  228.275    0.246    0.551    3.883
  154.710  103.417  228.784    0.246    0.540    3.885
  154.960   96.351  228.794    0.244    0.518    4.105
  155.210   89.286  228.803    0.244    0.502    4.455
  155.460   89.588  228.811    0.250    0.485    5.198
  155.710   90.181  228.323    0.255    0.480    6.345
  155.960   85.178  227.831    0.252    0.477    7.404
  156.210   81.354  226.843    0.258    0.473    7.683
  156.460   78.413  225.856    0.265    0.467    8.044
  156.710   76.651  223.370    0.269    0.455    8.653
  156.960   74.300  221.383    0.231    0.423    9.564
  157.210   71.064  221.393    0.210    0.394   11.160
  157.460   69.596  222.401    0.167    0.363   15.320
  157.710   67.835  224.904    0.147    0.277   17.874
  157.960   66.662  225.911    0.124    0.276   22.018
  158.210   66.667  225.921    0.135    0.301   21.445
  158.460   68.734  225.929    0.162    0.370   14.040
  158.710   74.338  223.945    0.231    0.412    8.787
  158.960   83.771  224.453    0.290    0.453    7.474
  159.210   90.848  224.961    0.314    0.476    5.705
  159.460   89.970  224.473    0.305    0.514    5.359
  159.710   84.966  223.981    0.294    0.533    5.977
  159.960   76.722  223.491    0.286    0.517    6.975
  160.210   70.246  223.500    0.284    0.469    7.779
  160.460   68.779  223.511    0.279    0.443    9.159
  160.710   69.079  223.519    0.291    0.430   11.079
  160.960   70.557  223.529    0.297    0.426   14.149
  161.210   75.866  223.538    0.291    0.434   12.821
  161.460   78.524  223.548    0.274    0.439    8.471
  161.710   83.537  223.557    0.268    0.447    7.271
  161.960   88.257  223.567    0.242    0.461    6.241
  162.210   93.271  222.578    0.249    0.477    5.504
  162.460   95.633  223.087    0.270    0.494    5.171
  162.710   94.460  225.090    0.272    0.506    5.129
  162.960   92.109  225.599    0.265    0.509    5.273
  163.210   90.936  224.612    0.253    0.482    5.777
  163.460   90.058  224.120    0.232    0.478    6.327
  163.710   88.885  224.630    0.218    0.483    7.186
  163.960   87.711  224.638    0.213    0.490    8.013
  164.210   86.245  224.647    0.218    0.487    9.607
  164.460   83.303  224.657    0.223    0.443   12.159
  164.710   78.889  224.667    0.216    0.407   15.810
  164.960   73.003  224.678    0.189    0.384   19.829
  165.210   70.652  224.685    0.165    0.353   22.724
  165.460   70.362  224.196    0.128    0.332   23.579
  165.710   69.484  223.706    0.121    0.324   24.245
  165.960   68.900  223.715    0.130    0.344   24.485
  166.210   69.496  223.725    0.137    0.352   24.501
  166.460   69.500  224.233    0.133    0.370   24.521
  166.710   69.211  224.244    0.129    0.370   24.539
  166.960   68.040  224.253    0.125    0.355   24.782
  167.210   67.455  224.262    0.124    0.330   24.803
  167.460   68.049  223.772    0.130    0.345   24.156
  167.710   76.305  223.782    0.145    0.384   22.493
  167.960   81.023  223.292    0.206    0.419   20.017
  168.210   86.627  223.300    0.237    0.441   17.493
  168.460   87.810  225.804    0.262    0.449   12.879
  168.710   88.111  226.313    0.239    0.465    9.831
  168.960   90.473  226.324    0.229    0.473    8.213
  169.210   93.719  226.332    0.227    0.486    7.113
  169.460   95.787  226.340    0.223    0.495    6.217
  169.710   96.087  226.349    0.220    0.485    5.737
  169.960   96.094  225.859    0.228    0.469    5.689
  170.210   95.804  224.374    0.229    0.455    5.904
