~VERSION INFORMATION
 VERS.                 2.0:   CWLS LOG ASCII STANDARD -VERSION 2.0
 WRAP.                  NO:   ONE LINE PER DEPTH STEP
~WELL INFORMATION BLOCK
#MNEM.UNIT           DATA                    DESCRIPTION OF MNEMONIC
#---------    -------------------            -------------------------------
# Generated from Intellog Unique Number	CS_67_68/WELL/623
WELL.         INNER-CITY GAS LTD             : Well_name    - WELL
LOC .         00/03-18-068-12W4/0            : Location     - LOCATION
UWI .         00/03-18-068-12W4/0            : Uwi          - UNIQUE WELL ID
ENTR.         SP                             : Entered      - ENTERED BY
SRVC.         SCHLUMBERGER                   : Scn          - SERVICE COMPANY
STRT.M        300                            : top_depth    - START DEPTH
STOP.M        480                            : bot_depth    - STOP DEPTH
STEP.M        0.25                           : increment    - STEP LENGTH
 NULL. -999.2500:NULL Value
~CURVE INFORMATION BLOCK
#MNEM UNIT       ERCB CURVE CODE    CURVE DESCRIPTION
#-----------   ------------------   ----------------------------------
DEPT.M        00 001 00 00         : DEPTH        - DEPTH
ILD .OHMM     00 120 00 00         : RESD         - DEEP RESISTIVITY (DIL)
DPHI.V/V      00 890 00 00         : PHID         - DENSITY POROSITY (LIMESTONE)
NPHI.V/V      00 330 00 00         : PHIN         - NEUTRON POROSITY (LIMESTONE)
GR  .API      00 310 00 00         : GR           - GAMMA RAY
~PARAMETER INFORMATION
#MNEM.UNIT           DATA             DESCRIPTION OF MNEMONIC
#---------         -----------     ------------------------------
GL  .M        599                  : gl           - GROUND LEVEL ELEVATION
EREF.M        602.55               : kb           - ELEVATION OF DEPTH REFERENCE
DATM.M        599                  : datum        - DATUM ELEVATION
TDD .M        482                  : tdd          - TOTAL DEPTH DRILLER
RUN .         ONE                  : Run          - RUN NUMBER
ENG .         BILL                 : Engineer     - RECORDING ENGINEER
WIT .         JIM                  : Witness      - WITNESSED BY
MUD .         GEL                  : Mud_type     - MUD TYPE
MATR.         LIMESTONE            : Logunit      - NEUTRON MATRIX
TMAX.C        35                   : BHT          - MAXIMUM RECORDED TEMPERATURE
BHTD.M        482                  : BHTDEP       - MAXIMUM RECORDED TEMPERATURE
MATR.         1                    : LOGUNIT      - NEUTRON MATRIX
RMT .C        25                   : MDTP         - TEMPERATURE OF MUD
NEUT.         1                    : NEUTRON      - NEUTRON TYPE
RESI.         0                    : RESIST       - RESISTIVITY TYPE
RMC .OHMM     0.25                 : RMC          - RESISTIVITY OF MUD CAKE
RMF .OHMM     0.25                 : RMF          - RESISTIVITY OF MUD FILTRATE
SUFT.C        15                   : SUFT         - SURFACE TEMPERATURE
~A  DEPTH     RESD     PHID     PHIN       GR
  300.000    2.819    0.205    0.557  128.740
  300.250    2.788    0.211    0.564  128.879
  300.500    2.783    0.225    0.573  128.601
  300.750    2.768    0.239    0.584  128.440
  301.000    2.768    0.247    0.505  128.401
  301.250    2.826    0.230    0.491  127.941
  301.500    2.831    0.221    0.486  127.542
  301.750    2.869    0.214    0.492  127.988
  302.000    2.934    0.223    0.513  129.884
  302.250    2.939    0.224    0.480  130.571
  302.500    2.934    0.215    0.450  128.176
  302.750    2.902    0.231    0.428  132.008
  303.000    2.892    0.243    0.491  135.660
  303.250    2.887    0.252    0.514  134.839
  303.500    2.893    0.238    0.539  132.863
  303.750    2.904    0.221    0.553  132.584
  304.000    2.915    0.227    0.522  128.677
  304.250    2.867    0.236    0.533  124.589
  304.500    2.836    0.229    0.546  128.661
  304.750    2.585    0.211    0.509  134.067
  305.000    2.581    0.207    0.535  136.024
  305.250    2.694    0.226    0.573  130.907
  305.500    2.848    0.250    0.528  127.001
  305.750    3.044    0.103    0.471  112.449
  306.000    3.212    0.086    0.399  100.561
  306.250    3.415    0.215    0.372   93.269
  306.500    3.571    0.244    0.348   92.383
  306.750    3.651    0.232    0.389  102.807
  307.000    3.693    0.215    0.428  117.283
  307.250    3.625    0.207    0.423  124.439
  307.500    3.653    0.219    0.408  129.903
  307.750    3.898    0.201    0.397  134.885
  308.000    4.128    0.189    0.416  139.443
  308.250    4.230    0.185    0.429  136.745
  308.500    4.214    0.196    0.440  140.039
  308.750    4.161    0.199    0.459  141.990
  309.000    4.100    0.199    0.473  144.916
  309.250    4.040    0.192    0.492  143.608
  309.500    4.101    0.193    0.434  131.839
  309.750    4.248    0.250    0.354  113.541
  310.000    4.409    0.300    0.297   96.210
  310.250    4.273    0.367    0.300   85.048
  310.500    4.050    0.354    0.347   76.365
  310.750    3.579    0.342    0.377   69.915
  311.000    2.824    0.333    0.416   62.804
  311.250    2.180    0.321    0.426   59.258
  311.500    1.962    0.313    0.415   59.887
  311.750    1.860    0.315    0.400   59.670
  312.000    1.888    0.303    0.391   66.103
  312.250    2.048    0.283    0.390   73.439
  312.500    2.198    0.257    0.391   82.230
  312.750    2.397    0.236    0.375   90.536
  313.000    2.577    0.225    0.347  100.294
  313.250    2.725    0.226    0.337  106.969
  313.500    2.802    0.252    0.345  104.270
  313.750    2.823    0.272    0.367   96.435
  314.000    2.834    0.274    0.376   92.041
  314.250    2.834    0.263    0.360   96.480
  314.500    2.845    0.252    0.398  105.633
  314.750    2.997    0.238    0.428  114.244
  315.000    3.198    0.232    0.442  119.645
  315.250    3.431    0.217    0.417  124.869
  315.500    3.661    0.197    0.374  125.315
  315.750    3.807    0.180    0.361  125.520
  316.000    3.751    0.131    0.415  129.471
  316.250    3.589    0.100    0.457  131.069
  316.500    3.358    0.180    0.470  135.685
  316.750    2.967    0.191    0.553  145.564
  317.000    2.675    0.216    0.547  151.454
  317.250    2.462    0.250    0.399  154.195
  317.500    2.716    0.271    0.362  154.520
  317.750    2.941    0.291    0.365  137.915
  318.000    3.208    0.315    0.400  119.315
  318.250    3.540    0.277    0.429  105.552
  318.500    3.756    0.270    0.429  107.327
  318.750    3.798    0.274    0.398  101.304
  319.000    3.634    0.262    0.390   94.860
  319.250    3.369    0.254    0.412   99.056
  319.500    3.140    0.255    0.429  101.131
  319.750    3.106    0.262    0.451  101.698
  320.000    3.206    0.266    0.447  106.135
  320.250    3.346    0.251    0.436  112.327
  320.500    3.459    0.232    0.413  114.706
  320.750    3.570    0.222    0.392  116.906
  321.000    3.685    0.224    0.379  121.831
  321.250    3.775    0.218    0.390  125.843
  321.500    3.860    0.201    0.378  129.189
  321.750    3.933    0.175    0.391  129.998
  322.000    3.934    0.165    0.394  129.658
  322.250    3.841    0.209    0.424  134.036
  322.500    3.620    0.214    0.442  135.145
  322.750    3.438    0.202    0.440  134.744
  323.000    3.313    0.194    0.444  142.026
  323.250    3.426    0.200    0.433  149.303
  323.500    3.549    0.211    0.419  154.228
  323.750    3.530    0.221    0.407  157.211
  324.000    3.466    0.216    0.397  159.835
  324.250    3.160    0.252    0.394  154.113
  324.500    2.710    0.280    0.400  142.766
  324.750    2.480    0.306    0.407  126.704
  325.000    2.308    0.323    0.407  108.950
  325.250    2.151    0.316    0.400   94.280
  325.500    2.085    0.306    0.403   92.974
  325.750    2.176    0.293    0.403   99.286
  326.000    2.396    0.278    0.410  105.595
  326.250    2.614    0.268    0.466  111.726
  326.500    2.769    0.268    0.467  118.341
  326.750    2.826    0.272    0.438  113.101
  327.000    2.863    0.273    0.417  116.753
  327.250    2.832    0.252    0.406  107.223
  327.500    2.832    0.237    0.418  111.661
  327.750    2.864    0.235    0.436  117.245
  328.000    2.886    0.252    0.455  121.378
  328.250    2.924    0.265    0.467  120.677
  328.500    2.919    0.274    0.492  120.396
  328.750    2.882    0.279    0.550  127.554
  329.000    2.845    0.286    0.529  136.710
  329.250    2.830    0.290    0.481  142.476
  329.500    2.830    0.288    0.449  147.458
  329.750    2.846    0.287    0.453  151.953
  330.000    2.889    0.293    0.466  150.947
  330.250    2.922    0.293    0.455  148.617
  330.500    2.927    0.285    0.458  148.636
  330.750    2.939    0.285    0.443  150.172
  331.000    2.944    0.283    0.466  151.888
  331.250    2.967    0.287    0.444  153.546
  331.500    3.102    0.271    0.453  154.229
  331.750    3.341    0.249    0.404  147.360
  332.000    3.638    0.229    0.337  141.518
  332.250    3.686    0.194    0.317  135.856
  332.500    3.776    0.253    0.380  129.288
  332.750    3.680    0.278    0.449  138.505
  333.000    3.337    0.289    0.475  146.875
  333.250    3.210    0.283    0.492  150.822
  333.500    3.042    0.281    0.473  154.593
  333.750    2.836    0.287    0.470  171.063
  334.000    2.800    0.279    0.464  178.101
  334.250    2.759    0.271    0.462  183.202
  334.500    2.724    0.270    0.495  192.355
  334.750    2.730    0.279    0.518  198.727
  335.000    2.725    0.285    0.510  195.246
  335.250    2.725    0.287    0.481  192.001
  335.500    2.736    0.267    0.463  188.880
  335.750    2.756    0.253    0.450  186.242
  336.000    2.777    0.245    0.440  180.158
  336.250    2.798    0.241    0.443  187.982
  336.500    2.819    0.250    0.461  196.590
  336.750    2.846    0.251    0.460  203.205
  337.000    2.867    0.243    0.477  207.338
  337.250    2.820    0.239    0.510  211.234
  337.500    2.644    0.248    0.536  185.798
  337.750    2.515    0.255    0.569  161.513
  338.000    2.506    0.261    0.525  145.634
  338.250    2.539    0.274    0.447  133.079
  338.500    2.587    0.276    0.426  120.163
  338.750    2.660    0.291    0.408  114.259
  339.000    2.741    0.310    0.436  109.810
  339.250    2.751    0.297    0.449  107.533
  339.500    2.681    0.285    0.481  105.683
  339.750    2.608    0.291    0.525  106.612
  340.000    2.523    0.306    0.494  105.666
  340.250    2.468    0.312    0.463   99.040
  340.500    2.409    0.317    0.439   94.103
  340.750    2.379    0.307    0.438   93.161
  341.000    2.357    0.300    0.444   93.485
  341.250    2.349    0.308    0.449   91.452
  341.500    2.332    0.320    0.459   87.906
  341.750    2.311    0.325    0.444   87.204
  342.000    2.307    0.318    0.438   91.400
  342.250    2.311    0.314    0.459   93.780
  342.500    2.333    0.311    0.472   93.319
  342.750    2.351    0.309    0.459   90.741
  343.000    2.381    0.306    0.426   89.195
  343.250    2.426    0.297    0.403   89.033
