~VERSION INFORMATION
 VERS.                 2.0:   CWLS LOG ASCII STANDARD -VERSION 2.0
 WRAP.                  NO:   ONE LINE PER DEPTH STEP
~WELL INFORMATION BLOCK
#MNEM.UNIT           DATA                    DESCRIPTION OF MNEMONIC
#---------    -------------------            -------------------------------
# Generated from Intellog Unique Number	CS_69_70/WELL/783
WELL.         PARAMOUNT RESOURCES            : Well_name    - WELL
LOC .         00/06-30-069-17W4/0            : Location     - LOCATION
UWI .         00/06-30-069-17W4/0            : Uwi          - UNIQUE WELL ID
ENTR.         SP                             : Entered      - ENTERED BY
SRVC.         SCHLUMBERGER                   : Scn          - SERVICE COMPANY
STRT.M        300                            : top_depth    - START DEPTH
STOP.M        495                            : bot_depth    - STOP DEPTH
STEP.M        0.25                           : increment    - STEP LENGTH
 NULL. -999.2500:NULL Value
~CURVE INFORMATION BLOCK
#MNEM UNIT       ERCB CURVE CODE    CURVE DESCRIPTION
#-----------   ------------------   ----------------------------------
DEPT.M        00 001 00 00         : DEPTH        - DEPTH
ILD .OHMM     00 120 00 00         : RESD         - DEEP RESISTIVITY (DIL)
DPHI.V/V      00 890 00 00         : PHID         - DENSITY POROSITY (LIMESTONE)
NPHI.V/V      00 330 00 00         : PHIN         - NEUTRON POROSITY (LIMESTONE)
GR  .API      00 310 00 00         : GR           - GAMMA RAY
~PARAMETER INFORMATION
#MNEM.UNIT           DATA             DESCRIPTION OF MNEMONIC
#---------         -----------     ------------------------------
GL  .M        564.5                : gl           - GROUND LEVEL ELEVATION
EREF.M        567.5                : kb           - ELEVATION OF DEPTH REFERENCE
DATM.M        564.5                : datum        - DATUM ELEVATION
TDD .M        497                  : tdd          - TOTAL DEPTH DRILLER
RUN .         ONE                  : Run          - RUN NUMBER
ENG .         BILL                 : Engineer     - RECORDING ENGINEER
WIT .         JIM                  : Witness      - WITNESSED BY
MUD .         GEL                  : Mud_type     - MUD TYPE
MATR.         LIMESTONE            : Logunit      - NEUTRON MATRIX
TMAX.C        28                   : BHT          - MAXIMUM RECORDED TEMPERATURE
BHTD.M        597                  : BHTDEP       - MAXIMUM RECORDED TEMPERATURE
MATR.         1                    : LOGUNIT      - NEUTRON MATRIX
RMT .C        25                   : MDTP         - TEMPERATURE OF MUD
NEUT.         1                    : NEUTRON      - NEUTRON TYPE
RESI.         0                    : RESIST       - RESISTIVITY TYPE
RMC .OHMM     0.25                 : RMC          - RESISTIVITY OF MUD CAKE
RMF .OHMM     0.25                 : RMF          - RESISTIVITY OF MUD FILTRATE
SUFT.C        15                   : SUFT         - SURFACE TEMPERATURE
~A  DEPTH     RESD     PHID     PHIN       GR
# ...
  430.500    2.554    0.254    0.343   83.201
  430.750    2.644    0.222    0.362   85.046
  431.000    2.772    0.243    0.376   79.971
  431.250    2.924    0.260    0.367   82.061
  431.500    2.998    0.270    0.352   87.916
  431.750    3.091    0.228    0.338   85.634
  432.000    3.176    0.191    0.340   79.105
  432.250    3.281    0.194    0.342   77.795
  432.500    3.479    0.223    0.347   74.784
  432.750    3.548    0.244    0.356   72.928
  433.000    3.693    0.231    0.367   75.144
  433.250    4.005    0.166    0.339   74.679
  433.500    4.271    0.053    0.304   69.485
  433.750    4.487    0.056    0.253   60.465
  434.000    4.635    0.115    0.229   64.739
  434.250    5.093    0.167    0.349   80.004
  434.500    5.754    0.194    0.276   79.060
  434.750    6.322    0.006    0.184   66.215
  435.000    6.677   -0.006    0.136   55.738
  435.250    6.597    0.002    0.121   47.507
  435.500    5.938    0.116    0.131   49.961
  435.750    5.197    0.186    0.229   53.144
  436.000    4.703    0.212    0.272   60.398
  436.250    4.265    0.228    0.296   64.487
  436.500    4.037    0.215    0.316   66.334
  436.750    3.973    0.202    0.343   74.191
  437.000    3.925    0.189    0.351   78.771
  437.250    3.922    0.178    0.342   76.005
  437.500    3.925    0.167    0.338   76.395
  437.750    3.929    0.175    0.345   71.807
  438.000    3.947    0.180    0.338   76.873
  438.250    4.018    0.179    0.329   80.600
  438.500    4.081    0.174    0.320   81.722
  438.750    4.138    0.164    0.317   80.290
  439.000    4.197    0.147    0.315   76.065
  439.250    4.256    0.136    0.318   71.964
  439.500    4.308    0.149    0.336   77.150
  439.750    3.958    0.158    0.340   87.920
  440.000    3.990    0.155    0.343   93.834
  440.250    4.024    0.156    0.353   80.686
  440.500    4.050    0.161    0.337   72.456
  440.750    4.084    0.168    0.325   73.456
  441.000    4.103    0.174    0.314   78.092
  441.250    4.107    0.172    0.305   80.062
  441.500    4.065    0.168    0.322   81.182
  441.750    4.016    0.169    0.337   86.246
  442.000    3.960    0.172    0.345   85.116
  442.250    3.920    0.175    0.368   90.425
  442.500    3.894    0.176    0.383   92.150
  442.750    3.875    0.166    0.365   79.309
  443.000    3.843    0.139    0.343   71.924
  443.250    3.769    0.165    0.337   79.237
  443.500    3.725    0.171    0.360   85.514
  443.750    3.706    0.154    0.346   73.156
  444.000    3.688    0.180    0.345   67.416
  444.250    3.672    0.207    0.333   69.084
  444.500    3.675    0.196    0.321   71.412
  444.750    3.671    0.190    0.326   76.721
  445.000    3.688    0.181    0.330   74.013
  445.250    3.705    0.161    0.323   72.704
  445.500    3.750    0.178    0.320   68.602
  445.750    3.782    0.189    0.325   74.517
  446.000    3.800    0.192    0.329   77.031
  446.250    3.754    0.196    0.318   75.296
  446.500    3.599    0.202    0.304   77.270
  446.750    3.215    0.215    0.297   80.084
  447.000    2.803    0.237    0.321   77.802
  447.250    2.505    0.249    0.350   73.093
  447.500    2.301    0.241    0.382   77.795
  447.750    2.417    0.226    0.389   82.194
  448.000    2.971    0.205    0.412   80.941
  448.250    3.490    0.182    0.357   66.275
  448.500    3.994    0.182    0.322   63.873
  448.750    4.521    0.189    0.311   67.604
  449.000    4.741    0.128    0.311   71.695
  449.250    4.405    0.099    0.312   68.564
  449.500    4.069    0.128    0.328   69.443
  449.750    3.801    0.200    0.337   74.146
  450.000    3.652    0.247    0.344   77.080
  450.250    3.823    0.251    0.297   73.890
  450.500    4.153    0.217    0.342   71.608
  450.750    4.478    0.201    0.368   74.610
  451.000    4.784    0.192    0.349   68.992
  451.250    5.008    0.189    0.339   65.311
  451.500    4.919    0.207    0.332   70.072
  451.750    4.708    0.219    0.335   76.108
  452.000    4.600    0.215    0.332   72.916
  452.250    4.631    0.199    0.325   71.730
  452.500    4.819    0.189    0.345   71.268
  452.750    5.053    0.160    0.325   68.502
  453.000    5.182    0.132    0.261   70.227
  453.250    5.187    0.164    0.233   78.027
  453.500    5.048    0.203    0.327   82.178
  453.750    5.091    0.249    0.344   83.966
  454.000    5.916    0.289    0.347   83.080
  454.250    6.402    0.248    0.357   71.329
  454.500    6.981    0.254    0.359   62.307
  454.750    6.987    0.244    0.337   46.185
  455.000    6.104    0.231    0.317   45.363
  455.250    5.205    0.225    0.310   74.528
  455.500    4.480    0.233    0.323   90.459
  455.750    3.994    0.271    0.331   78.953
  456.000    3.732    0.268    0.341   80.314
  456.250    3.592    0.235    0.343   87.865
  456.500    3.496    0.220    0.344   85.706
  456.750    3.460    0.234    0.344   84.640
  457.000    3.450    0.223    0.347   85.696
  457.250    3.460    0.206    0.343   79.956
  457.500    3.477    0.192    0.340   79.013
  457.750    3.486    0.201    0.338   83.710
  458.000    3.482    0.207    0.345   82.401
  458.250    3.473    0.208    0.358   81.153
  458.500    3.443    0.200    0.364   76.624
  458.750    3.403    0.218    0.360   75.134
  459.000    3.399    0.233    0.359   76.254
  459.250    3.389    0.247    0.379   76.340
  459.500    3.330    0.265    0.386   76.666
  459.750    3.265    0.267    0.391   80.760
  460.000    3.166    0.253    0.378   88.497
  460.250    3.019    0.244    0.363   87.005
  460.500    2.906    0.238    0.348   92.984
  460.750    2.887    0.225    0.347   93.978
  461.000    2.971    0.218    0.366   85.989
  461.250    3.133    0.223    0.387   92.757
  461.500    3.255    0.192    0.350   82.156
  461.750    3.370    0.154    0.317   76.353
  462.000    3.298    0.188    0.300   79.115
  462.250    3.018    0.218    0.320   85.695
  462.500    2.810    0.229    0.344   94.766
  462.750    2.704    0.222    0.345   97.281
  463.000    2.647    0.218    0.345   84.072
  463.250    2.639    0.221    0.354   89.258
  463.500    2.701    0.219    0.370   94.869
  463.750    2.864    0.213    0.387   89.433
  464.000    3.297    0.211    0.390   93.039
  464.250    3.781    0.178    0.374   98.225
  464.500    4.417    0.144    0.358   88.416
  464.750    5.170    0.124    0.340   79.457
  465.000    6.306    0.109    0.314   77.849
  465.250    7.790    0.133    0.309   76.169
  465.500    9.572    0.198    0.302   50.939
  465.750   10.400    0.227    0.306   54.184
  466.000   10.925    0.234    0.313   53.844
  466.250   11.037    0.228    0.315   59.218
  466.500   10.565    0.220    0.318   56.447
  466.750   10.150    0.210    0.318   53.196
  467.000    9.714    0.201    0.314   52.005
  467.250    9.350    0.197    0.309   54.099
  467.500    9.101    0.195    0.303   56.063
  467.750    8.973    0.192    0.303   57.911
  468.000    8.914    0.190    0.306   59.335
  468.250    8.856    0.185    0.310   57.966
  468.500    8.783    0.179    0.307   56.411
  468.750    8.614    0.173    0.310   55.587
  469.000    8.492    0.168    0.314   55.552
  469.250    8.296    0.173    0.300   53.877
  469.500    7.985    0.176    0.283   57.121
  469.750    7.432    0.165    0.265   62.733
  470.000    6.729    0.161    0.251   68.040
  470.250    6.297    0.213    0.284   61.874
  470.500    5.925    0.248    0.348   59.777
  470.750    5.484    0.254    0.310   70.727
  471.000    5.059    0.227    0.281   80.893
  471.250    4.814    0.196    0.265   90.148
  471.500    4.539    0.160    0.285   98.611
  471.750    4.345    0.161    0.305  107.257
  472.000    4.268    0.150    0.321  114.690
  472.250    4.256    0.139    0.316  109.375
  472.500    4.430    0.212    0.333   90.094
  472.750    4.585    0.251    0.393   78.889
  473.000    4.710    0.247    0.357   77.822
  473.250    4.803    0.205    0.329   83.797
  473.500    4.926    0.185    0.307   90.318
  473.750    5.069    0.189    0.312   97.022
