~VERSION INFORMATION
 VERS.                 2.0:   CWLS LOG ASCII STANDARD -VERSION 2.0
 WRAP.                  NO:   ONE LINE PER DEPTH STEP
~WELL INFORMATION BLOCK
#MNEM.UNIT           DATA                    DESCRIPTION OF MNEMONIC
#---------    -------------------            -------------------------------
# Generated from Intellog Unique Number	CS_77_79/WELL/3272
WELL.         ALLIED ROXANA MINERALS LTD.    : Well_name    - WELL
LOC .         00/06-03-078-16W4/0            : Location     - LOCATION
UWI .         00/06-03-078-16W4/0            : Uwi          - UNIQUE WELL ID
ENTR.         JOETTE                         : Entered      - ENTERED BY
SRVC.         SCHLUMBERGER                   : Scn          - SERVICE COMPANY
DATE.         08-24-92                       : Date         - LOG DATE
STRT.M        243.84                         : top_depth    - START DEPTH
STOP.M        467.84                         : bot_depth    - STOP DEPTH
STEP.M        0.25                           : increment    - STEP LENGTH
 NULL. -999.2500:NULL Value
~CURVE INFORMATION BLOCK
#MNEM UNIT       ERCB CURVE CODE    CURVE DESCRIPTION
#-----------   ------------------   ----------------------------------
DEPT.M        00 001 00 00         : DEPTH        - DEPTH
ILD .OHMM     00 120 00 00         : RESD         - DEEP RESISTIVITY (DIL)
NPHI.V/V      00 330 00 00         : PHIN         - NEUTRON POROSITY (SANDSTONE)
GR  .API      00 310 00 00         : GR           - GAMMA RAY
~PARAMETER INFORMATION
#MNEM.UNIT           DATA             DESCRIPTION OF MNEMONIC
#---------         -----------     ------------------------------
GL  .M        631.85               : gl           - GROUND LEVEL ELEVATION
EREF.M        634.898              : kb           - ELEVATION OF DEPTH REFERENCE
DATM.M        634.898              : datum        - DATUM ELEVATION
TDD .M        472.135              : tdd          - TOTAL DEPTH DRILLER
RUN .         ONE                  : Run          - RUN NUMBER
ENG .         BILL                 : Engineer     - RECORDING ENGINEER
WIT .         JIM                  : Witness      - WITNESSED BY
MUD .         GEL                  : Mud_type     - MUD TYPE
MATR.         SANDSTONE            : Logunit      - NEUTRON MATRIX
TMAX.C        17.7778              : BHT          - MAXIMUM RECORDED TEMPERATURE
BHTD.M        472.135              : BHTDEP       - MAXIMUM RECORDED TEMPERATURE
MATR.         1                    : LOGUNIT      - NEUTRON MATRIX
RMT .C        17.7778              : MDTP         - TEMPERATURE OF MUD
NEUT.         1                    : NEUTRON      - NEUTRON TYPE
RESI.         0                    : RESIST       - RESISTIVITY TYPE
RMC .OHMM     1.93                 : RMC          - RESISTIVITY OF MUD CAKE
RMF .OHMM     1.93                 : RMF          - RESISTIVITY OF MUD FILTRATE
SUFT.C        15                   : SUFT         - SURFACE TEMPERATURE
~A  DEPTH     RESD     PHIN       GR
# ...
  298.090   11.114    0.554   90.638
  298.340   10.902    0.572   93.043
  298.590   10.681    0.565   93.019
  298.840   10.261    0.572   92.376
  299.090    9.014    0.594   93.558
  299.340    8.389    0.626   94.748
  299.590    8.780    0.645   94.105
  299.840    8.770    0.630   92.240
  300.090    8.344    0.614   90.359
  300.340    8.129    0.597   91.565
  300.590    7.911    0.585   93.961
  300.840    8.306    0.569   93.945
  301.090    8.912    0.557   89.636
  301.340    9.304    0.576   85.929
  301.590    9.294    0.592   85.286
  301.840    8.865    0.598   85.865
  302.090    8.650    0.641   86.445
  302.340    8.022    0.687   87.024
  302.590    7.804    0.739   85.769
  302.840    8.198    0.681   82.682
  303.090    9.215    0.663   80.817
  303.340    9.616    0.672   85.055
  303.590   10.216    0.652   85.022
  303.840   10.203    0.652   82.546
  304.090    9.571    0.656   78.848
  304.340    9.353    0.647   68.428
  304.590    9.549    0.653   67.174
  304.840   10.563    0.606   67.745
  305.090   11.371    0.574   68.935
  305.340   11.974    0.556   70.125
  305.590   11.958    0.553   69.482
  305.840   11.535    0.546   65.173
  306.090   11.320    0.534   67.585
  306.340   10.685    0.534   66.942
  306.590   10.676    0.545   63.236
  306.840   10.660    0.552   66.267
  307.090   10.853    0.542   64.402
  307.340   11.250    0.542   59.465
  307.590   11.651    0.547   57.608
  307.840   12.453    0.556   55.743
  308.090   12.447    0.543   54.481
  308.340   12.223    0.515   56.901
  308.590   11.803    0.509   61.750
  308.840   11.379    0.508   66.003
  309.090   10.748    0.522   67.804
  309.340   10.530    0.528   68.383
  309.590   10.315    0.554   67.732
  309.840   10.505    0.535   65.867
  310.090   10.697    0.517   65.835
  310.340   10.886    0.526   63.970
  310.590   11.284    0.555   57.217
  310.840   11.477    0.524   57.184
  311.090   11.878    0.518   58.986
  311.340   12.067    0.523   59.565
  311.590   11.849    0.526   60.747
  311.840   11.836    0.530   61.326
  312.090   11.619    0.544   61.897
  312.340   11.609    0.561   61.873
  312.590   11.799    0.538   61.841
  312.840   12.190    0.516   59.976
  313.090   12.184    0.536   58.722
  313.340   12.370    0.537   61.126
  313.590   12.363    0.507   59.261
  313.840   12.351    0.485   54.952
  314.090   12.338    0.488   50.031
  314.340   12.316    0.504   48.777
  314.590   12.306    0.534   52.411
  314.840   12.092    0.530   51.752
  315.090   12.076    0.540   51.125
  315.340   11.858    0.600   49.260
  315.590   11.848    0.587   48.609
  315.840   11.832    0.555   50.410
  316.090   12.025    0.491   55.259
  316.340   12.015    0.497   56.449
  316.590   12.000    0.509   55.195
  316.840   12.189    0.510   53.941
  317.090   12.173    0.514   55.131
  317.340   12.167    0.510   56.321
  317.590   12.154    0.513   56.289
  317.840   12.141    0.503   54.424
  318.090   12.126    0.491   53.781
  318.340   12.321    0.478   54.360
  318.590   12.302    0.468   57.986
  318.840   12.290    0.501   57.343
  319.090   12.277    0.519   56.089
  319.340   12.267    0.539   56.049
  319.590   12.255    0.527   57.255
  319.840   12.034    0.500   59.057
  320.090   12.229    0.507   57.794
  320.340   12.011    0.533   55.310
  320.590   11.995    0.529   55.889
  320.840   11.983    0.556   56.477
  321.090   11.967    0.525   54.611
  321.340   11.957    0.529   54.579
  321.590   11.945    0.545   56.381
  321.840   11.932    0.563   56.952
  322.090   11.913    0.560   55.706
  322.340   11.903    0.527   54.435
  322.590   12.096    0.524   54.404
  322.840   12.292    0.533   53.760
  323.090   12.888    0.542   53.728
  323.340   13.084    0.488   53.697
  323.590   13.479    0.418   53.045
  323.840   14.085    0.381   52.418
  324.090   15.509    0.390   51.156
  324.340   17.343    0.297   49.902
  324.590   18.353    0.274   52.925
  324.840   17.933    0.331   56.560
  325.090   16.276    0.365   58.964
  325.340   15.035    0.534   60.154
  325.590   12.964    0.539   60.741
  325.840   11.922    0.518   60.701
  326.090   11.707    0.525   59.447
  326.340   11.492    0.535   58.812
  326.590   11.473    0.536   58.169
  326.840   11.666    0.562   58.732
  327.090   11.656    0.588   59.311
  327.340   11.640    0.597   60.502
  327.590   11.419    0.612   61.700
  327.840   11.410    0.583   63.493
  328.090   11.195    0.567   65.905
  328.340   10.765    0.537   67.714
  328.590   10.554    0.541   71.952
  328.840    9.922    0.535   76.205
  329.090    9.291    0.537   82.284
  329.340    8.457    0.541   82.863
  329.590    8.034    0.565   82.220
  329.840    8.230    0.583   78.514
  330.090    9.442    0.605   77.260
  330.340    9.843    0.594   78.450
  330.590   10.039    0.569   80.854
  330.840   10.023    0.550   83.274
  331.090    9.805    0.552   81.409
  331.340    9.379    0.551   78.314
  331.590    9.161    0.528   80.726
  331.840    8.943    0.527   83.757
  332.090    8.933    0.489   86.773
  332.340    8.715    0.449   87.352
  332.590    8.902    0.457   87.320
  332.840    8.892    0.518   87.288
  333.090    8.883    0.535   89.692
  333.340    8.867    0.537   91.501
  333.590    8.851    0.564   90.858
  333.840    8.841    0.572   90.215
  334.090    8.617    0.601   92.016
  334.340    8.611    0.638   90.754
  334.590    8.598    0.636   87.659
  334.840    8.371    0.623   87.016
  335.090    8.364    0.625   88.214
  335.340    8.143    0.604   90.015
  335.590    7.925    0.598   91.808
  335.840    7.502    0.599   90.554
  336.090    7.287    0.595   88.078
  336.340    6.653    0.609   86.221
  336.590    6.233    0.616   87.395
  336.840    6.018    0.598   88.585
  337.090    5.592    0.611   87.331
  337.340    5.370    0.605   88.521
  337.590    5.156    0.589   89.108
  337.840    5.143    0.572   86.013
  338.090    5.127    0.549   86.592
  338.340    5.323    0.600   85.949
  338.590    5.721    0.604   85.306
  338.840    5.913    0.593   88.948
  339.090    6.513    0.580   92.559
  339.340    7.318    0.609   92.543
  339.590    7.713    0.604   93.733
  339.840    7.703    0.602   95.534
  340.090    7.482    0.609   97.939
  340.340    7.271    0.642   94.859
  340.590    6.847    0.625   88.106
  340.840    6.219    0.602   81.344
  341.090    5.584    0.580   78.860
  341.340    5.982    0.574   78.828
  341.590    6.175    0.574   80.018
  341.840    5.957    0.575   81.811
  342.090    5.120    0.584   82.406
  342.340    4.703    0.619   82.374
  342.590    4.072    0.661   81.120
  342.840    3.642    0.699   78.017
  343.090    3.633    0.735   79.207
  343.340    3.617    0.756   84.683
  343.590    3.607    0.757   87.095
  343.840    4.204    0.757   85.833
  344.090    4.403    0.758   87.031
  344.340    4.595    0.744   90.657
  344.590    4.996    0.691   91.236
  344.840    5.189    0.675   88.752
  345.090    5.378    0.626   88.125
  345.340    5.571    0.648   86.252
  345.590    5.558    0.646   87.434
  345.840    5.747    0.657   89.243
  346.090    5.735    0.669   91.037
  346.340    5.722    0.643   90.394
  346.590    5.712    0.590   87.314
  346.840    5.700    0.545   79.942
  347.090    6.303    0.532   74.410
  347.340    7.929    0.544   68.878
  347.590    8.532    0.481   65.180
  347.840    8.721    0.468   60.260
  348.090    8.917    0.461   60.831
  348.340    8.898    0.466   63.862
  348.590    8.891    0.467   65.663
  348.840    8.670    0.460   65.623
  349.090    8.452    0.466   64.980
  349.340    8.443    0.475   64.948
  349.590    8.430    0.484   66.749
  349.840    8.414    0.483   70.995
  350.090    8.399    0.490   77.066
  350.340    8.591    0.493   78.875
  350.590    8.578    0.483   77.613
  350.840    8.771    0.497   73.914
  351.090    8.963    0.499   72.652
  351.340    9.156    0.474   74.461
  351.590    9.557    0.439   76.263
  351.840   10.157    0.387   74.397
  352.090   10.965    0.336   68.255
