~VERSION INFORMATION
 VERS.                 2.0:   CWLS LOG ASCII STANDARD -VERSION 2.0
 WRAP.                  NO:   ONE LINE PER DEPTH STEP
~WELL INFORMATION BLOCK
#MNEM.UNIT           DATA                    DESCRIPTION OF MNEMONIC
#---------    -------------------            -------------------------------
# Generated from Intellog Unique Number	CW_82_90/WELL/2586
WELL.         06-01-082-01W5                 : Well_name    - WELL
LOC .         00/06-01-082-01W5/0            : Location     - LOCATION
UWI .         00/06-01-082-01W5/0            : Uwi          - UNIQUE WELL ID
ENTR.         JJ                             : Entered      - ENTERED BY
SRVC.         SCHLUMBERGER                   : Scn          - SERVICE COMPANY
DATE.         25 NOV 73                      : Date         - LOG DATE
STRT.M        304.8                          : top_depth    - START DEPTH
STOP.M        432.8                          : bot_depth    - STOP DEPTH
STEP.M        0.25                           : increment    - STEP LENGTH
 NULL. -999.2500:NULL Value
~CURVE INFORMATION BLOCK
#MNEM UNIT       ERCB CURVE CODE    CURVE DESCRIPTION
#-----------   ------------------   ----------------------------------
DEPT.M        00 001 00 00         : DEPTH        - DEPTH
ILD .OHMM     00 120 00 00         : RESD         - DEEP RESISTIVITY (DIL)
GR  .API      00 310 00 00         : GR           - GAMMA RAY
DELT.US/F     00 520 00 00         : DELT         - SONIC TRAVEL TIME
~PARAMETER INFORMATION
#MNEM.UNIT           DATA             DESCRIPTION OF MNEMONIC
#---------         -----------     ------------------------------
GL  .M        562.051              : gl           - GROUND LEVEL ELEVATION
EREF.M        565.404              : kb           - ELEVATION OF DEPTH REFERENCE
DATM.M        565.404              : datum        - DATUM ELEVATION
TDD .M        435.864              : tdd          - TOTAL DEPTH DRILLER
RUN .         ONE                  : Run          - RUN NUMBER
ENG .         CHAUDHARY            : Engineer     - RECORDING ENGINEER
WIT .         DAVIS                : Witness      - WITNESSED BY
BASE.         EDM                  : Branch       - HOME BASE OF LOGGING UNIT
MUD .         GEL                  : Mud_type     - MUD TYPE
MATR.         SANDSTONE            : Logunit      - NEUTRON MATRIX
TMAX.C        24.4444              : BHT          - MAXIMUM RECORDED TEMPERATURE
BHTD.M        435.864              : BHTDEP       - MAXIMUM RECORDED TEMPERATURE
RMT .C        11.1111              : MDTP         - TEMPERATURE OF MUD
MUDD.KG/M     1152                 : MWT          - MUD DENSITY
NEUT.         1                    : NEUTRON      - NEUTRON TYPE
RESI.         0                    : RESIST       - RESISTIVITY TYPE
RM  .OHMM     2.01                 : RM           - RESISTIVITY OF MUD
RMC .OHMM     1.445                : RMC          - RESISTIVITY OF MUD CAKE
RMF .OHMM     1.96                 : RMF          - RESISTIVITY OF MUD FILTRATE
SUFT.C        5                    : SUFT         - SURFACE TEMPERATURE
~A  DEPTH     RESD       GR     DELT
  304.800   23.802   44.160  424.635
  305.050   20.173   44.047  426.284
  305.300   16.229   41.810  422.623
  305.550   13.485   40.223  423.484
  305.800   11.495   44.756  427.494
  306.050   10.096   50.392  427.307
  306.300    9.202   52.602  422.727
  306.550    9.063   50.028  421.425
  306.800    9.362   47.753  420.781
  307.050    9.971   49.686  419.544
  307.300   10.467   54.297  417.915
  307.550   10.247   58.445  415.762
  307.800    9.019   61.734  414.526
  308.050    7.894   66.276  413.027
  308.300    7.713   71.672  405.234
  308.550    7.211   78.622  412.325
  308.800    6.479   84.135  426.891
  309.050    6.057   85.615  407.493
  309.300    6.596   82.103  392.752
  309.550    7.205   79.662  376.829
  309.800    6.922   79.499  406.671
  310.050    6.598   81.079  427.924
  310.300    6.495   84.098  432.785
  310.550    6.652   88.757  423.747
  310.800    6.692   89.653  415.168
  311.050    6.535   85.248  414.916
  311.300    6.682   83.194  423.448
  311.550    7.483   82.302  432.178
  311.800    8.658   76.897  313.452
  312.050    9.739   72.227  312.741
  312.300   10.162   73.089  364.349
  312.550   10.064   75.229  399.764
  312.800    9.584   74.210  420.952
  313.050    8.777   73.715  414.077
  313.300    8.034   76.765  403.924
  313.550    7.670   77.276  392.919
  313.800    7.833   74.893  377.587
  314.050    7.967   75.540  390.775
  314.300    7.653   76.955  412.224
  314.550    7.116   76.729  421.348
  314.800    6.579   78.113  424.243
  315.050    6.043   81.714  426.416
  315.300    5.549   79.597  431.081
  315.550    5.064   77.430  431.813
  315.800    5.012   78.301  427.497
  316.050    5.327   81.085  425.603
  316.300    5.721   83.260  422.793
  316.550    6.135   82.878  418.543
  316.800    6.636   84.626  419.208
  317.050    7.077   87.124  422.364
  317.300    7.245   85.858  421.784
  317.550    7.218   84.145  415.369
  317.800    7.155   83.296  413.872
  318.050    7.091   85.755  415.128
  318.300    7.160   84.419  414.351
  318.550    7.173   79.494  412.261
  318.800    7.205   75.997  408.600
  319.050    7.375   72.624  404.806
  319.300    7.774   68.336  395.113
  319.550    8.368   63.603  383.780
  319.800    9.130   60.992  385.561
  320.050    9.819   61.812  394.750
  320.300   10.040   66.526  401.971
  320.550    9.379   67.003  400.148
  320.800    8.627   68.039  397.009
  321.050    8.007   71.879  392.100
  321.300    7.392   73.156  397.159
  321.550    6.783   69.995  406.872
  321.800    6.329   66.136  408.325
  322.050    6.046   67.962  409.579
  322.300    5.839   73.058  407.360
  322.550    5.737   72.237  418.188
  322.800    5.885   68.783  413.609
  323.050    6.453   71.398  423.126
  323.300    7.145   79.594  392.123
  323.550    7.710   85.289  395.871
  323.800    7.981   87.915  408.993
  324.050    8.172   81.495  419.036
  324.300    8.254   77.992  420.225
  324.550    7.870   82.231  421.416
  324.800    7.544   86.414  423.260
  325.050    7.469   86.259  425.435
  325.300    7.506   82.481  424.395
  325.550    7.662   77.193  417.914
  325.800    7.939   77.165  408.809
  326.050    8.303   81.110  402.721
  326.300    8.725   80.787  401.684
  326.550    9.166   80.025  402.874
  326.800    9.237   81.649  405.702
  327.050    8.832   85.207  407.943
  327.300    8.455   85.148  408.082
  327.550    8.338   80.159  407.175
  327.800    8.404   81.522  406.069
  328.050    8.572   83.627  405.161
  328.300    8.779   84.529  404.122
  328.550    8.945   83.978  402.233
  328.800    9.041   82.394  400.078
  329.050    9.090   82.299  397.595
  329.300    9.078   81.801  407.374
  329.550    8.914   85.928  418.334
  329.800    9.195   85.851  420.703
  330.050    9.900   80.587  418.682
  330.300   11.048   72.885  412.922
  330.550   12.232   65.483  407.620
  330.800   13.475   68.820  406.451
  331.050   14.131   71.854  407.378
  331.300   13.483   74.948  402.011
  331.550   12.661   73.709  395.464
  331.800   12.124   71.191  392.854
  332.050   12.290   67.880  390.831
  332.300   13.475   61.641  383.103
  332.550   14.832   60.464  383.113
  332.800   16.145   63.557  385.154
  333.050   16.436   61.098  384.378
  333.300   16.290   60.837  379.865
  333.550   15.847   65.577  379.743
  333.800   15.311   67.755  382.705
  334.050   14.973   64.931  383.106
  334.300   14.864   61.377  380.821
  334.550   15.196   54.649  378.339
  334.800   15.567   57.193  380.513
  335.050   14.973   61.872  385.048
  335.300   14.820   66.674  390.173
  335.550   15.640   68.697  393.720
  335.800   17.005   70.499  396.091
  336.050   15.925   71.027  395.840
  336.300   13.665   70.605  395.193
  336.550   11.613   71.398  394.221
  336.800    9.839   76.375  395.017
  337.050    8.613   82.159  399.025
  337.300    7.853   82.674  404.609
  337.550    7.670   80.537  407.371
  337.800    7.708   80.990  404.825
  338.050    7.839   78.809  399.720
  338.300    8.111   75.786  392.255
  338.550    8.576   78.466  380.268
  338.800    9.273   85.174  379.753
  339.050   10.639   91.174  389.597
  339.300   12.848   92.015  394.983
  339.550   15.356   81.133  332.708
  339.800   16.639   69.886  316.130
  340.050   15.759   65.649  344.332
  340.300   15.331   70.605  377.320
  340.550   15.465   73.136  406.309
  340.800   14.095   72.739  386.061
  341.050   12.982   72.735  366.663
  341.300   12.599   75.318  344.118
  341.550   12.484   76.589  376.255
  341.800   12.872   76.460  398.819
  342.050   13.270   78.726  405.057
  342.300   12.172   82.051  403.691
  342.550   10.959   80.509  398.848
  342.800   11.985   81.240  384.173
  343.050   12.455   77.489  379.789
  343.300   12.297   73.387  391.404
  343.550   11.761   74.457  401.120
  343.800   10.979   78.101  403.227
  344.050   10.204   80.990  403.956
  344.300    9.594   83.497  402.460
  344.550    9.024   79.635  398.863
  344.800    8.638   81.553  398.612
  345.050    8.603   78.561  400.127
  345.300    9.114   74.630  384.008
  345.550   11.069   72.167  360.874
  345.800   13.073   71.329  337.543
  346.050   13.352   72.799  371.712
  346.300   12.726   77.390  388.769
  346.550   11.768   83.089  399.203
  346.800   10.670   80.238  403.475
  347.050    9.546   76.937  397.978
  347.300    8.755   78.407  397.399
  347.550    8.308   80.849  404.620
  347.800    8.142   82.847  413.218
  348.050    8.077   82.671  419.325
  348.300    7.942   80.717  417.434
  348.550    7.787   78.952  411.607
  348.800    7.394   80.202  407.553
  349.050    6.870   84.101  408.808
  349.300    6.509   86.025  410.784
  349.550    7.023   83.387  413.679
  349.800    7.899   80.828  406.478
  350.050    8.938   76.650  393.374
  350.300   10.933   71.101  399.024
  350.550   14.914   67.296  386.969
  350.800   18.721   65.518  363.638
  351.050   21.695   66.258  353.289
  351.300   23.286   67.465  351.791
  351.550   23.854   70.471  360.914
  351.800   23.667   72.691  373.840
  352.050   22.647   69.121  328.153
  352.300   22.676   68.820  317.147
  352.550   23.947   67.384  274.736
  352.800   25.714   60.604  244.129
  353.050   27.225   56.081  261.972
  353.300   28.554   57.030  293.714
  353.550   28.909   56.318  291.233
  353.800   28.274   56.677  278.785
  354.050   26.950   59.437  270.863
  354.300   26.391   62.644  260.316
  354.550   25.554   66.693  273.504
  354.800   23.491   71.835  317.901
  355.050   20.242   78.794  335.482
  355.300   18.111   82.610  375.354
  355.550   15.758   82.249  380.609
  355.800   14.020   78.390  374.130
  356.050   12.786   74.899  368.500
  356.300   11.974   71.958  377.952
  356.550   11.630   75.999  388.188
  356.800   11.583   81.528  385.446
  357.050   11.885   84.605  362.114
  357.300   12.600   80.088  333.080
  357.550   14.529   73.020  305.749
  357.800   17.969   68.463  315.004
  358.050   22.233   65.701  268.594
  358.300   27.328   65.688  255.753
  358.550   30.746   69.775  317.722
  358.800   24.885   73.728  373.001
