~VERSION INFORMATION
 VERS.                 2.0:   CWLS LOG ASCII STANDARD -VERSION 2.0
 WRAP.                  NO:   ONE LINE PER DEPTH STEP
~WELL INFORMATION BLOCK
#MNEM.UNIT           DATA                    DESCRIPTION OF MNEMONIC
#---------    -------------------            -------------------------------
# Generated from Intellog Unique Number	CS_73_76/WELL/2181
WELL.         DOME PETROLEUM LIMITED         : Well_name    - WELL
LOC .         00/09-34-074-10W4/0            : Location     - LOCATION
UWI .         00/09-34-074-10W4/0            : Uwi          - UNIQUE WELL ID
ENTR.         SP                             : Entered      - ENTERED BY
SRVC.         SCHLUMBERGER                   : Scn          - SERVICE COMPANY
STRT.M        295                            : top_depth    - START DEPTH
STOP.M        495                            : bot_depth    - STOP DEPTH
STEP.M        0.25                           : increment    - STEP LENGTH
 NULL. -999.2500:NULL Value
~CURVE INFORMATION BLOCK
#MNEM UNIT       ERCB CURVE CODE    CURVE DESCRIPTION
#-----------   ------------------   ----------------------------------
DEPT.M        00 001 00 00         : DEPTH        - DEPTH
ILD .OHMM     00 120 00 00         : RESD         - DEEP RESISTIVITY (DIL)
DPHI.V/V      00 890 00 00         : PHID         - DENSITY POROSITY (LIMESTONE)
NPHI.V/V      00 330 00 00         : PHIN         - NEUTRON POROSITY (LIMESTONE)
GR  .API      00 310 00 00         : GR           - GAMMA RAY
~PARAMETER INFORMATION
#MNEM.UNIT           DATA             DESCRIPTION OF MNEMONIC
#---------         -----------     ------------------------------
GL  .M        675.02               : gl           - GROUND LEVEL ELEVATION
EREF.M        679                  : kb           - ELEVATION OF DEPTH REFERENCE
DATM.M        675.02               : datum        - DATUM ELEVATION
TDD .M        501                  : tdd          - TOTAL DEPTH DRILLER
RUN .         ONE                  : Run          - RUN NUMBER
ENG .         BILL                 : Engineer     - RECORDING ENGINEER
WIT .         JIM                  : Witness      - WITNESSED BY
MUD .         GEL                  : Mud_type     - MUD TYPE
MATR.         LIMESTONE            : Logunit      - NEUTRON MATRIX
TMAX.C        17                   : BHT          - MAXIMUM RECORDED TEMPERATURE
BHTD.M        501                  : BHTDEP       - MAXIMUM RECORDED TEMPERATURE
MATR.         1                    : LOGUNIT      - NEUTRON MATRIX
RMT .C        25                   : MDTP         - TEMPERATURE OF MUD
NEUT.         1                    : NEUTRON      - NEUTRON TYPE
RESI.         0                    : RESIST       - RESISTIVITY TYPE
RMC .OHMM     0.25                 : RMC          - RESISTIVITY OF MUD CAKE
RMF .OHMM     0.25                 : RMF          - RESISTIVITY OF MUD FILTRATE
SUFT.C        15                   : SUFT         - SURFACE TEMPERATURE
~A  DEPTH     RESD     PHID     PHIN       GR
# ...
  382.000    5.703    0.315    0.480   66.718
  382.250    5.286    0.317    0.487   67.346
  382.500    5.188    0.317    0.484   69.797
  382.750    5.188    0.305    0.455   71.634
  383.000    5.493    0.286    0.438   75.300
  383.250    5.706    0.285    0.454   74.107
  383.500    5.816    0.303    0.469   72.297
  383.750    6.041    0.307    0.477   70.498
  384.000    6.396    0.312    0.479   71.126
  384.250    6.644    0.308    0.487   72.355
  384.500    6.644    0.300    0.483   74.195
  384.750    6.902    0.301    0.474   74.216
  385.000    7.035    0.297    0.457   74.239
  385.250    7.035    0.284    0.446   76.077
  385.500    6.774    0.279    0.442   76.702
  385.750    6.280    0.285    0.446   73.691
  386.000    6.046    0.286    0.449   73.094
  386.250    5.822    0.283    0.447   75.546
  386.500    5.713    0.278    0.449   76.175
  386.750    5.823    0.277    0.453   75.581
  387.000    6.048    0.276    0.454   73.783
  387.250    6.283    0.272    0.452   72.589
  387.500    6.652    0.264    0.443   71.994
  387.750    6.909    0.267    0.438   70.798
  388.000    7.598    0.278    0.436   70.213
  388.250    7.893    0.292    0.445   69.632
  388.500    8.199    0.297    0.450   69.640
  388.750    8.200    0.302    0.458   70.268
  389.000    8.046    0.308    0.461   72.118
  389.250    7.318    0.303    0.461   72.735
  389.500    5.829    0.304    0.460   75.181
  389.750    4.914    0.304    0.455   82.496
  390.000    4.222    0.296    0.445   87.375
  390.250    3.914    0.283    0.433   89.207
  390.500    3.768    0.266    0.430   92.261
  390.750    3.769    0.257    0.468   92.892
  391.000    4.066    0.254    0.514   88.667
  391.250    4.824    0.250    0.548   88.068
  391.500    5.205    0.246    0.479   88.696
  391.750    5.616    0.241    0.460   88.713
  392.000    6.176    0.235    0.449   86.914
  392.250    6.664    0.241    0.441   84.507
  392.500    7.190    0.244    0.440   83.913
  392.750    7.469    0.233    0.440   82.126
  393.000    7.758    0.236    0.441   82.735
  393.250    7.908    0.254    0.440   80.933
  393.500    8.060    0.281    0.446   80.950
  393.750    8.061    0.274    0.452   80.970
  394.000    7.910    0.270    0.456   79.779
  394.250    7.911    0.265    0.447   79.187
  394.500    7.911    0.259    0.456   79.815
  394.750    8.218    0.259    0.456   79.837
  395.000    8.701    0.270    0.451   79.245
  395.250    9.387    0.255    0.438   78.048
  395.500   10.521    0.259    0.426   78.679
  395.750   11.791    0.259    0.439   76.873
  396.000   12.482    0.246    0.447   71.433
  396.250   13.215    0.141    0.430   69.016
  396.500   12.485    0.073    0.281   64.786
  396.750   10.727    0.082    0.236   62.979
  397.000    9.217    0.139    0.265   70.895
  397.250    8.384    0.193    0.322   75.167
  397.500    7.920    0.242    0.401   77.616
  397.750    7.626    0.262    0.422   79.459
  398.000    7.483    0.271    0.421   80.077
  398.250    7.343    0.271    0.434   81.924
  398.500    7.344    0.258    0.424   82.544
  398.750    7.345    0.245    0.433   83.176
  399.000    7.487    0.240    0.439   83.803
  399.250    7.487    0.241    0.439   84.429
  399.500    7.488    0.243    0.444   85.051
  399.750    7.489    0.248    0.459   85.678
  400.000    7.490    0.246    0.470   86.914
  400.250    7.490    0.242    0.479   86.929
  400.500    7.491    0.240    0.477   86.351
  400.750    7.492    0.235    0.462   86.362
  401.000    7.351    0.231    0.463   86.994
  401.250    7.352    0.233    0.471   87.005
  401.500    7.353    0.228    0.478   87.026
  401.750    7.215    0.239    0.458   87.648
  402.000    6.816    0.244    0.446   88.278
  402.250    6.817    0.237    0.456   88.910
  402.500    6.949    0.228    0.468   88.920
  402.750    7.082    0.238    0.463   89.548
  403.000    7.219    0.229    0.459   89.567
  403.250    6.950    0.224    0.458   87.769
  403.500    5.972    0.222    0.447   85.355
  403.750    4.940    0.237    0.431   83.550
  404.000    3.934    0.253    0.424   86.613
  404.250    2.960    0.234    0.433   90.882
  404.500    2.642    0.227    0.475   94.547
  404.750    2.496    0.248    0.505   95.773
  405.000    2.403    0.270    0.522   98.225
  405.250    2.314    0.293    0.545   98.845
  405.500    2.449    0.278    0.566   98.260
  405.750    2.962    0.277    0.582   95.245
  406.000    3.650    0.274    0.561   92.227
  406.250    3.864    0.270    0.526   89.209
  406.500    4.330    0.268    0.512   87.402
  406.750    4.853    0.255    0.492   85.602
  407.000    5.336    0.242    0.477   85.010
  407.250    5.868    0.246    0.472   84.425
  407.500    5.981    0.253    0.465   82.628
  407.750    5.982    0.253    0.454   80.822
  408.000    5.982    0.253    0.455   79.018
  408.250    5.983    0.263    0.451   76.603
  408.500    5.871    0.266    0.440   70.557
  408.750    5.871    0.285    0.439   65.717
  409.000    5.872    0.313    0.435   62.692
  409.250    5.654    0.329    0.418   58.464
  409.500    5.654    0.328    0.418   56.657
  409.750    5.655    0.331    0.420   56.076
  410.000    5.655    0.338    0.415   56.091
  410.250    5.549    0.345    0.412   55.508
  410.500    5.656    0.339    0.423   55.521
  410.750    5.657    0.337    0.435   54.931
  411.000    5.657    0.334    0.437   54.962
  411.250    5.658    0.334    0.427   54.373
  411.500    5.659    0.335    0.414   54.387
  411.750    5.768    0.345    0.408   53.804
  412.000    5.768    0.346    0.425   53.813
  412.250    5.769    0.347    0.430   54.440
  412.500    5.769    0.351    0.427   55.070
  412.750    5.880    0.358    0.422   55.086
  413.000    5.881    0.352    0.420   55.708
  413.250    5.881    0.347    0.419   58.161
  413.500    5.882    0.345    0.425   58.787
  413.750    5.882    0.342    0.433   59.410
  414.000    5.883    0.343    0.439   60.042
  414.250    5.996    0.345    0.439   60.058
  414.500    5.997    0.345    0.431   61.290
  414.750    5.997    0.346    0.420   63.134
  415.000    6.113    0.353    0.415   64.368
  415.250    6.113    0.349    0.416   66.208
  415.500    6.114    0.335    0.421   68.657
  415.750    6.114    0.326    0.424   70.492
  416.000    6.115    0.327    0.435   71.730
  416.250    6.116    0.312    0.439   72.353
  416.500    6.117    0.303    0.428   72.983
  416.750    6.117    0.299    0.438   73.002
  417.000    6.118    0.298    0.448   72.408
  417.250    6.236    0.290    0.451   71.821
  417.500    6.236    0.279    0.439   73.055
  417.750    6.237    0.269    0.436   74.290
  418.000    6.237    0.278    0.449   73.699
  418.250    6.238    0.290    0.444   68.866
  418.500    6.238    0.292    0.436   67.064
  418.750    6.239    0.296    0.425   65.865
  419.000    6.240    0.301    0.423   64.057
  419.250    6.240    0.292    0.429   62.254
  419.500    6.360    0.303    0.435   62.882
  419.750    6.994    0.327    0.441   65.329
  420.000    8.456    0.330    0.442   67.780
  420.250   10.823    0.314    0.451   66.589
  420.500   13.592    0.314    0.461   64.783
  420.750   16.749    0.291    0.467   62.370
  421.000   18.418    0.279    0.387   57.539
  421.250   19.133    0.250    0.346   55.124
  421.500   14.124    0.207    0.290   51.503
  421.750    9.129    0.057    0.228   50.302
  422.000    7.134    0.047    0.207   51.532
  422.250    6.613    0.085    0.315   57.626
  422.500    6.248    0.174    0.416   61.287
  422.750    6.131    0.229    0.431   64.342
  423.000    6.016    0.270    0.431   65.577
  423.250    6.017    0.318    0.436   64.999
  423.500    5.904    0.318    0.444   64.406
  423.750    5.905    0.321    0.444   65.031
  424.000    6.018    0.315    0.448   66.266
  424.250    6.019    0.315    0.454   66.891
  424.500    6.135    0.323    0.454   67.516
  424.750    6.135    0.326    0.448   68.143
  425.000    6.136    0.316    0.441   69.379
  425.250    6.254    0.309    0.445   69.997
