~VERSION INFORMATION
 VERS.                 2.0:   CWLS LOG ASCII STANDARD -VERSION 2.0
 WRAP.                  NO:   ONE LINE PER DEPTH STEP
~WELL INFORMATION BLOCK
#MNEM.UNIT           DATA                    DESCRIPTION OF MNEMONIC
#---------    -------------------            -------------------------------
# Generated from Intellog Unique Number	CC_84_87/WELL/1076
NULL.         -999.25                        : NULL_VALUE
WELL.         BP SALESKI                     : Well_name    - WELL              
LOC .         07-08-085-18W4                 : Location     - LOCATION          
UWI .         00/07-08-085-18W400            : Uwi          - UNIQUE WELL ID    
ENTR.         DW                             : Entered      - ENTERED BY        
SRVC.         SCHLUMBERGER                   : Scn          - SERVICE COMPANY   
DATE.         05 FEB 81                      : Date         - LOG DATE
STRT.M        80                             : top_depth    - START DEPTH       
STOP.M        295.1                          : bot_depth    - STOP DEPTH        
STEP.M        0.3                            : increment    - STEP LENGTH       
~CURVE INFORMATION BLOCK
#MNEM UNIT       ERCB CURVE CODE    CURVE DESCRIPTION
#-----------   ------------------   ----------------------------------
DEPT.M        00 001 00 00         : DEPTH        - DEPTH                       
DPHI.V/V      00 890 00 00         : PHID         - DENSITY POROSITY (LIMESTONE)
NPHI.V/V      00 330 00 00         : PHIN         - NEUTRON POROSITY (LIMESTONE)
GR  .API      00 310 00 00         : GR           - GAMMA RAY                   
ILD .OHMM     00 120 00 00         : RESD         - DEEP RESISTIVITY (DIL)      
~PARAMETER INFORMATION       
#MNEM.UNIT           DATA             DESCRIPTION OF MNEMONIC
#---------         -----------     ------------------------------
GL  .M        566.3                : gl           - GROUND LEVEL ELEVATION      
EREF.M        570                  : kb           - ELEVATION OF DEPTH REFERENCE
DATM.M        570                  : datum        - DATUM ELEVATION             
TDD .M        295                  : tdd          - TOTAL DEPTH DRILLER         
RUN .         ONE                  : Run          - RUN NUMBER                  
ENG .         BILL                 : Engineer     - RECORDING ENGINEER          
WIT .         JIM                  : Witness      - WITNESSED BY                
MUD .         GEL                  : Mud_type     - MUD TYPE                    
MATR.         LIMESTONE            : Logunit      - NEUTRON MATRIX              
TMAX.C        31                   : BHT          - MAXIMUM RECORDED TEMPERATURE
BHTD.M        295                  : BHTDEP       - MAXIMUM RECORDED TEMPERATURE
MATR.         1                    : LOGUNIT      - NEUTRON MATRIX              
RMT .C        25                   : MDTP         - TEMPERATURE OF MUD          
NEUT.         1                    : NEUTRON      - NEUTRON TYPE                
RESI.         0                    : RESIST       - RESISTIVITY TYPE            
RMC .OHMM     0.25                 : RMC          - RESISTIVITY OF MUD CAKE     
RMF .OHMM     0.25                 : RMF          - RESISTIVITY OF MUD FILTRATE 
SUFT.C        4                    : SUFT         - SURFACE TEMPERATURE         
~A  DEPTH     PHID     PHIN       GR     RESD
# ...
  236.602    0.245    0.439   65.952    9.906
  236.902    0.218    0.411   61.659   10.079
  237.202    0.164    0.349   62.859   13.935
  237.502    0.177    0.360   64.062   22.034
  237.802    0.125    0.329   65.265   23.292
  238.102    0.144    0.337   70.124   20.722
  238.402    0.174    0.390   70.108   17.072
  238.702    0.228    0.428   64.596   14.899
  239.002    0.229    0.416   59.686   13.769
  239.302    0.201    0.412   59.058   14.845
  239.602    0.107    0.373   60.264   17.609
  239.902    0.113    0.296   65.125   18.975
  240.202    0.223    0.369   70.597   17.542
  240.502    0.237    0.405   73.632   15.605
  240.802    0.226    0.436   77.884   13.880
  241.102    0.209    0.453   79.698   13.076
  241.402    0.191    0.446   78.457   12.569
  241.702    0.182    0.430   74.165   12.530
  242.002    0.243    0.424   75.362   12.512
  242.302    0.219    0.430   77.179   12.739
  242.602    0.189    0.446   76.542   12.472
  242.902    0.197    0.457   77.138   11.749
  243.202    0.226    0.446   74.066   11.283
  243.502    0.232    0.434   72.823   11.057
  243.802    0.232    0.441   73.412   11.249
  244.102    0.228    0.446   73.397   11.224
  244.402    0.212    0.442   72.155   10.783
  244.702    0.197    0.434   61.761   10.554
  245.002    0.166    0.403   57.466   10.746
  245.302    0.075    0.330   56.834   17.654
  245.602    0.107    0.310   58.037   18.311
  245.902    0.220    0.377   68.394   16.928
  246.202    0.248    0.412   69.588   14.493
  246.502    0.240    0.446   69.571   11.491
  246.802    0.229    0.453   68.336   10.614
  247.102    0.214    0.444   67.706   10.598
  247.402    0.205    0.432   65.246   10.990
  247.702    0.193    0.440   65.220   11.396
  248.002    0.189    0.418   67.034   11.605
  248.302    0.232    0.431   68.847   11.799
  248.602    0.239    0.470   70.661   11.776
  248.902    0.205    0.469   72.472   11.099
  249.202    0.200    0.467   73.671   10.662
  249.502    0.217    0.474   75.480   10.042
  249.802    0.233    0.483   75.466    9.835
  250.102    0.243    0.489   75.443    9.637
  250.402    0.237    0.484   74.205    9.617
  250.702    0.242    0.461   73.566    9.780
  251.002    0.233    0.463   73.549    9.580
  251.302    0.216    0.461   74.147    9.382
  251.602    0.208    0.455   76.567    9.012
  251.902    0.226    0.451   80.820    8.659
  252.202    0.220    0.437   80.189    8.004
  252.502    0.225    0.440   76.505    7.685
  252.802    0.224    0.428   74.046    7.674
  253.102    0.221    0.431   70.976    7.807
  253.402    0.214    0.431   68.514    8.412
  253.702    0.188    0.391   68.492    9.979
  254.002    0.161    0.380   70.913   10.963
  254.302    0.215    0.398   72.727   10.939
  254.602    0.218    0.428   75.151   10.714
  254.902    0.224    0.420   77.569   10.288
  255.202    0.215    0.423   77.549   10.268
  255.502    0.211    0.419   76.312   10.247
  255.802    0.201    0.423   72.629   10.430
  256.102    0.188    0.406   67.116   10.613
  256.402    0.153    0.349   62.214   12.108
  256.702    0.074    0.270   57.922   20.684
  257.002    0.074    0.250   60.954   22.720
  257.302    0.117    0.290   70.091   20.996
  257.602    0.169    0.386   78.615   17.643
  257.902    0.223    0.417   76.763   13.202
  258.202    0.227    0.422   75.520   12.445
  258.502    0.244    0.418   74.894   11.951
  258.802    0.253    0.411   74.265   12.392
  259.102    0.236    0.398   74.856   13.100
  259.402    0.256    0.400   75.444   13.589
  259.702    0.248    0.414   73.592   13.313
  260.002    0.258    0.446   73.575   12.545
  260.302    0.250    0.456   75.387   11.590
  260.602    0.224    0.469   78.420   10.719
  260.902    0.214    0.468   83.282    9.538
  261.202    0.208    0.490   83.256    7.858
  261.502    0.204    0.497   81.414    6.729
  261.802    0.216    0.470   75.896    6.219
  262.102    0.213    0.441   74.049    6.091
  262.402    0.244    0.421   75.247    6.690
  262.702    0.260    0.423   77.060    8.246
  263.001    0.246    0.430   78.874   12.075
  263.301    0.239    0.443   80.684   11.825
  263.601    0.219    0.449   81.882   10.521
  263.901    0.203    0.466   81.256    7.726
  264.201    0.187    0.488   79.404    6.737
  264.501    0.218    0.491   78.161    6.602
  264.801    0.212    0.475   77.531    6.715
  265.101    0.177    0.453   79.345    7.379
  265.401    0.184    0.439   83.597    7.953
  265.701    0.229    0.454   86.632    7.938
  266.001    0.211    0.480   89.052    7.621
  266.301    0.215    0.476   90.862    7.466
  266.601    0.217    0.465   92.063    6.897
  266.901    0.208    0.463   87.771    6.498
  267.201    0.213    0.465   86.531    6.244
  267.501    0.215    0.469   87.729    6.118
  267.801    0.214    0.457   88.936    5.986
  268.101    0.215    0.465   84.032    5.972
  268.401    0.207    0.452   78.512    5.967
  268.701    0.184    0.414   78.495    6.309
  269.001    0.174    0.400   80.917    9.240
  269.301    0.205    0.393   84.561   11.608
  269.601    0.219    0.389   85.155   12.745
  269.901    0.224    0.390   84.525   12.719
  270.201    0.215    0.392   82.061   12.217
  270.501    0.230    0.407   80.208   11.964
  270.801    0.219    0.413   78.360   11.715
  271.101    0.220    0.413   77.120   11.699
  271.401    0.242    0.407   77.100   11.900
  271.701    0.256    0.375   74.638   12.824
  272.001    0.249    0.354   72.788   14.085
  272.301    0.270    0.364   70.936   15.184
  272.601    0.286    0.371   70.914   16.362
  272.901    0.291    0.371   69.677   17.628
  273.201    0.280    0.360   67.826   17.942
  273.501    0.276    0.356   66.586   17.557
  273.801    0.271    0.380   65.346   16.867
  274.101    0.261    0.398   62.273   16.211
  274.401    0.243    0.397   59.203   15.865
  274.701    0.224    0.381   57.350   16.150
  275.001    0.191    0.369   56.721   17.740
  275.301    0.173    0.350   57.312   19.862
  275.601    0.158    0.329   59.121   22.678
  275.901    0.136    0.329   60.324   26.896
  276.201    0.153    0.342   60.914   26.836
  276.501    0.167    0.362   62.725   24.812
  276.801    0.184    0.374   63.927   21.652
  277.101    0.202    0.385   65.126   19.640
  277.401    0.186    0.399   65.110   17.806
  277.701    0.214    0.414   66.309   16.778
  278.001    0.221    0.424   67.508   16.433
  278.301    0.213    0.422   68.101   15.787
  278.601    0.216    0.400   68.694   15.458
  278.901    0.226    0.388   69.895   14.286
  279.201    0.234    0.395   71.096   13.211
  279.501    0.237    0.414   71.077   12.691
  279.801    0.241    0.428   71.664   12.188
  280.101    0.245    0.425   74.087   11.705
  280.401    0.246    0.424   76.512   10.822
  280.701    0.231    0.438   78.932   10.004
  281.001    0.204    0.466   79.521    8.901
  281.301    0.214    0.485   79.504    8.390
  281.601    0.225    0.481   77.041    8.694
  281.901    0.235    0.461   75.192    9.020
  282.201    0.224    0.442   74.558    9.358
  282.501    0.195    0.444   74.542   10.082
  282.801    0.177    0.458   77.575   10.062
  283.101    0.224    0.458   81.215    8.951
  283.401    0.213    0.454   85.471    7.967
  283.701    0.211    0.445   87.275    6.821
  284.001    0.211    0.433   87.874    6.065
  284.301    0.217    0.437   87.239    5.500
  284.601    0.222    0.450   86.003    5.183
  284.901    0.204    0.463   87.813    4.886
  285.201    0.196    0.476   90.847    4.605
  285.501    0.209    0.474   96.321    4.423
  285.801    0.202    0.483   96.296    4.500
  286.101    0.193    0.493   95.061    5.234
  286.401    0.188    0.475   90.158    5.753
  286.701    0.170    0.446   87.697    6.200
  287.001    0.141    0.421   88.898    7.641
  287.301    0.167    0.394  105.359    9.784
  287.600    0.213    0.409  103.508   10.955
  287.900    0.224    0.416   86.397   10.525
  288.200    0.236    0.418   69.895   10.306
  288.500    0.255    0.420   64.992   11.321
