~VERSION INFORMATION
 VERS.                 2.0:   CWLS LOG ASCII STANDARD -VERSION 2.0
 WRAP.                  NO:   ONE LINE PER DEPTH STEP
~WELL INFORMATION BLOCK
#MNEM.UNIT           DATA                    DESCRIPTION OF MNEMONIC
#---------    -------------------            -------------------------------
# Generated from Intellog Unique Number	CW_73_75/WELL/528
LOC .         00/06-04-075-24W4/0            : Location     - LOCATION
UWI .         00/06-04-075-24W4/0            : Uwi          - UNIQUE WELL ID
ENTR.         JAYE                           : Entered      - ENTERED BY
SRVC.         SCHLUMBERGER                   : Scn          - SERVICE COMPANY
DATE.         26 FEB 75                      : Date         - LOG DATE
STRT.M        438.912                        : top_depth    - START DEPTH
STOP.M        640.162                        : bot_depth    - STOP DEPTH
STEP.M        0.25                           : increment    - STEP LENGTH
 NULL. -999.2500:NULL Value
~CURVE INFORMATION BLOCK
#MNEM UNIT       ERCB CURVE CODE    CURVE DESCRIPTION
#-----------   ------------------   ----------------------------------
DEPT.M        00 001 00 00         : DEPTH        - DEPTH
ILD .OHMM     00 120 00 00         : RESD         - DEEP RESISTIVITY (DIL)
NPHI.V/V      00 330 00 00         : PHIN         - NEUTRON POROSITY (SANDSTONE)
DPHI.V/V      00 890 00 00         : PHID         - DENSITY POROSITY (SANDSTONE)
GR  .API      00 310 00 00         : GR           - GAMMA RAY
CALI.MM       00 280 01 00         : CAL          - CALIPER
~PARAMETER INFORMATION
#MNEM.UNIT           DATA             DESCRIPTION OF MNEMONIC
#---------         -----------     ------------------------------
GL  .M        718.322              : gl           - GROUND LEVEL ELEVATION
EREF.M        723.199              : kb           - ELEVATION OF DEPTH REFERENCE
DATM.M        718.322              : datum        - DATUM ELEVATION
TDD .M        640.385              : tdd          - TOTAL DEPTH DRILLER
RUN .         ONE                  : Run          - RUN NUMBER
ENG .         FETTERLEY            : Engineer     - RECORDING ENGINEER
WIT .         HARDMAN              : Witness      - WITNESSED BY
BASE.         EDM                  : Branch       - HOME BASE OF LOGGING UNIT
MUD .         GEL CHEM             : Mud_type     - MUD TYPE
MATR.         SANDSTONE            : Logunit      - NEUTRON MATRIX
TMAX.C        26.6667              : BHT          - MAXIMUM RECORDED TEMPERATURE
BHTD.M        641.604              : BHTDEP       - MAXIMUM RECORDED TEMPERATURE
RMT .C        15.5556              : MDTP         - TEMPERATURE OF MUD
MUDD.KG/M     1020                 : MWT          - MUD DENSITY
NEUT.         1                    : NEUTRON      - NEUTRON TYPE
RESI.         0                    : RESIST       - RESISTIVITY TYPE
RM  .OHMM     7.78                 : RM           - RESISTIVITY OF MUD
RMC .OHMM     0                    : RMC          - RESISTIVITY OF MUD CAKE
RMF .OHMM     5.63                 : RMF          - RESISTIVITY OF MUD FILTRATE
SUFT.C        -17.7778             : SUFT         - SURFACE TEMPERATURE
~A  DEPTH     RESD     PHIN     PHID       GR      CAL
# ...
  475.412    4.240    0.480    0.350   81.894  228.940
  475.662    3.779    0.505    0.433   79.691  230.307
  475.912    3.387    0.562    0.514   77.607  235.251
  476.162    3.155    0.610    0.518   80.466  246.930
  476.412    3.100    0.611    0.477   85.980  294.832
  476.662    3.131    0.560    0.434   87.452  321.407
  476.912    3.225    0.533    0.392   87.478  267.576
  477.162    3.411    0.533    0.359   86.965  231.909
  477.412    3.593    0.515    0.336   87.712  227.360
  477.662    3.798    0.492    0.282   88.704  222.511
  477.912    4.038    0.473    0.265   87.043  217.964
  478.162    4.168    0.456    0.259   85.261  212.804
  478.412    4.264    0.464    0.249   84.021  209.084
  478.662    4.298    0.480    0.263   82.486  209.120
  478.912    4.349    0.491    0.278   80.038  207.436
  479.162    4.391    0.482    0.291   76.933  204.517
  479.412    4.435    0.470    0.253   79.132  203.849
  479.662    4.438    0.462    0.232   82.831  210.018
  479.912    4.440    0.456    0.240   84.303  223.223
  480.162    4.362    0.459    0.259   83.788  226.745
  480.412    4.293    0.459    0.245   83.275  226.582
  480.662    4.210    0.452    0.244   84.083  227.140
  480.912    4.182    0.458    0.263   87.363  228.420
  481.162    4.200    0.462    0.279   86.368  228.767
  481.412    4.265    0.478    0.261   84.586  228.908
  481.662    4.419    0.517    0.275   82.083  228.540
  481.912    4.724    0.465    0.292   77.769  227.267
  482.162    5.258    0.398    0.236   69.419  227.001
  482.412    6.082    0.357    0.192   65.952  226.330
  482.662    7.179    0.349    0.156   67.064  225.566
  482.912    7.717    0.382    0.161   71.368  223.671
  483.162    7.609    0.414    0.176   77.602  222.690
  483.412    6.946    0.447    0.224   84.138  222.956
  483.662    5.817    0.461    0.247   90.011  224.316
  483.912    4.916    0.480    0.243   94.194  227.322
  484.162    4.170    0.505    0.232   90.845  230.225
  484.412    3.878    0.515    0.297   85.629  232.004
  484.662    3.816    0.491    0.290   88.971  233.372
  484.912    3.825    0.475    0.286   86.950  233.315
  485.162    3.863    0.488    0.289   82.578  232.547
  485.412    3.713    0.519    0.317   79.773  234.630
  485.662    3.529    0.550    0.345   81.125  245.797
  485.912    3.429    0.508    0.309   82.898  247.986
  486.162    3.521    0.499    0.312   82.684  239.051
  486.412    3.749    0.516    0.311   79.336  244.103
  486.662    4.127    0.522    0.258   81.112  235.777
  486.912    4.510    0.505    0.279   81.499  227.871
  487.162    4.831    0.490    0.309   76.343  224.544
  487.412    4.887    0.506    0.315   74.383  224.182
  487.662    4.810    0.521    0.309   74.049  224.426
  487.912    4.598    0.528    0.260   72.629  224.687
  488.162    4.508    0.488    0.283   68.979  224.928
  488.412    4.544    0.444    0.308   61.413  224.767
  488.662    4.770    0.456    0.337   59.932  222.977
  488.912    5.052    0.470    0.318   62.731  222.005
  489.162    5.215    0.484    0.294   65.352  222.356
  489.412    5.153    0.485    0.277   66.641  222.096
  489.662    5.043    0.495    0.282   67.034  220.513
  489.912    4.909    0.481    0.295   66.033  218.511
  490.162    4.787    0.472    0.300   65.880  217.437
  490.412    4.721    0.460    0.310   67.655  216.666
  490.662    4.706    0.446    0.299   72.380  216.502
  490.912    4.710    0.442    0.278   76.444  216.760
  491.162    4.738    0.443    0.271   77.736  217.414
  491.412    4.811    0.454    0.272   75.716  218.890
  491.662    4.967    0.464    0.267   73.755  221.079
  491.912    5.241    0.436    0.277   71.911  222.749
  492.162    5.696    0.426    0.296   69.047  224.632
  492.412    6.283    0.433    0.287   66.059  225.708
  492.662    7.553    0.435    0.287   64.338  226.157
  492.912    8.802    0.424    0.289   64.124  226.301
  493.162    9.120    0.432    0.296   63.612  226.344
  493.412    9.415    0.443    0.257   62.976  226.505
  493.662    9.936    0.427    0.227   63.361  226.848
  493.912   11.410    0.365    0.188   63.268  226.592
  494.162   13.717    0.243    0.120   62.212  226.533
  494.412   16.370    0.235    0.097   58.445  224.848
  494.662   20.046    0.224    0.092   55.638  224.278
  494.912   24.012    0.192    0.083   51.684  222.999
  495.162   27.573    0.173    0.066   50.266  222.120
  495.412   23.605    0.212    0.047   54.692  221.450
  495.662   16.665    0.262    0.062   60.505  220.781
  495.912   12.944    0.312    0.102   65.290  220.520
  496.162   10.487    0.434    0.170   69.174  220.053
  496.412    8.056    0.426    0.207   69.744  220.098
  496.662    6.796    0.409    0.184   70.011  219.940
  496.912    5.915    0.425    0.181   72.087  219.779
  497.162    5.540    0.464    0.216   73.620  219.727
  497.412    5.393    0.440    0.248   73.707  220.896
  497.662    5.568    0.423    0.243   74.639  222.578
  497.912    5.758    0.403    0.221   76.110  225.375
  498.162    5.977    0.379    0.201   78.125  228.374
  498.412    6.182    0.385    0.176   79.178  230.973
  498.662    6.074    0.458    0.177   81.677  233.158
  498.912    5.837    0.469    0.189   85.557  233.613
  499.162    5.589    0.436    0.208   85.827  223.966
  499.412    5.361    0.419    0.225   86.576  221.460
  499.662    5.152    0.407    0.214   88.534  223.863
  499.912    5.034    0.421    0.199   90.067  225.937
  500.162    4.954    0.432    0.176   91.054  228.330
  500.412    4.948    0.437    0.173   92.169  230.630
  500.662    4.951    0.440    0.185   92.194  231.481
  500.912    4.982    0.449    0.192   92.885  231.424
  501.162    5.012    0.435    0.213   93.755  231.474
  501.412    5.026    0.427    0.195   90.707  232.236
  501.662    5.047    0.428    0.180   88.925  232.688
  501.912    5.050    0.432    0.211   88.652  234.055
  502.162    5.035    0.442    0.205   90.368  232.876
  502.412    5.038    0.453    0.165   93.044  232.011
  502.662    5.031    0.456    0.147   98.195  232.865
  502.912    5.007    0.441    0.156  101.414  234.042
  503.162    4.983    0.444    0.174  100.657  234.393
  503.412    4.931    0.458    0.193   96.527  234.737
  503.662    4.889    0.471    0.196   94.627  234.782
  503.912    4.883    0.484    0.184   95.496  234.419
  504.162    4.995    0.480    0.186   96.908  234.160
  504.412    5.195    0.461    0.186   94.947  232.879
  504.662    5.402    0.433    0.179   96.059  225.576
  504.912    5.893    0.406    0.187  100.545  223.071
  505.162    6.219    0.384    0.240  103.221  223.116
  505.412    6.188    0.402    0.218   92.945  223.977
  505.662    5.937    0.431    0.198   86.282  226.177
  505.912    5.758    0.442    0.205   87.996  227.647
  506.162    5.615    0.442    0.214   90.071  229.327
  506.412    5.506    0.447    0.205   89.919  229.977
  506.662    5.410    0.459    0.215   89.281  230.842
  506.912    5.363    0.446    0.200   82.440  231.187
  507.162    5.299    0.430    0.200   81.380  231.437
  507.412    5.263    0.432    0.201   87.193  231.383
  507.662    5.209    0.442    0.196   92.462  231.535
  507.912    5.173    0.445    0.189   93.272  230.975
  508.162    5.177    0.460    0.185   91.613  230.912
  508.412    5.237    0.444    0.180   94.953  229.832
  508.662    5.538    0.451    0.185   93.233  227.933
  508.912    5.985    0.439    0.211   88.198  224.819
  509.162    6.735    0.388    0.236   82.682  222.316
  509.412    7.663    0.374    0.258   77.888  221.649
  509.662    8.882    0.369    0.293   74.419  221.585
  509.912   10.200    0.372    0.320   72.156  221.640
  510.162   11.165    0.374    0.306   69.954  221.784
  510.412   12.157    0.374    0.303   67.931  222.237
  510.662   13.360    0.367    0.304   66.090  222.283
  510.912   14.123    0.348    0.308   63.343  222.326
  511.162   15.098    0.338    0.314   60.840  222.063
  511.412   16.080    0.335    0.323   58.820  221.920
  511.662   17.222    0.334    0.326   59.568  221.851
