~VERSION INFORMATION
 VERS.                 2.0:   CWLS LOG ASCII STANDARD -VERSION 2.0
 WRAP.                  NO:   ONE LINE PER DEPTH STEP
~WELL INFORMATION BLOCK
#MNEM.UNIT           DATA                    DESCRIPTION OF MNEMONIC
#---------    -------------------            -------------------------------
# Generated from Intellog Unique Number	CS_73_76/WELL/2390
WELL.         07-24-076-07W4                 : Well_name    - WELL
LOC .         00/07-24-076-07W4/0            : Location     - LOCATION
UWI .         00/07-24-076-07W4/0            : Uwi          - UNIQUE WELL ID
ENTR.         SP                             : Entered      - ENTERED BY
SRVC.         SCHLUMBERGER                   : Scn          - SERVICE COMPANY
STRT.M        150                            : top_depth    - START DEPTH
STOP.M        375                            : bot_depth    - STOP DEPTH
STEP.M        0.25                           : increment    - STEP LENGTH
 NULL. -999.2500:NULL Value
~CURVE INFORMATION BLOCK
#MNEM UNIT       ERCB CURVE CODE    CURVE DESCRIPTION
#-----------   ------------------   ----------------------------------
DEPT.M        00 001 00 00         : DEPTH        - DEPTH
ILD .OHMM     00 120 00 00         : RESD         - DEEP RESISTIVITY (DIL)
GR  .API      00 310 00 00         : GR           - GAMMA RAY
DPHI.V/V      00 890 00 00         : PHID         - DENSITY POROSITY (LIMESTONE)
NPHI.V/V      00 330 00 00         : PHIN         - NEUTRON POROSITY (LIMESTONE)
~PARAMETER INFORMATION
#MNEM.UNIT           DATA             DESCRIPTION OF MNEMONIC
#---------         -----------     ------------------------------
GL  .M        572.32               : gl           - GROUND LEVEL ELEVATION
EREF.M        575.82               : kb           - ELEVATION OF DEPTH REFERENCE
DATM.M        572.32               : datum        - DATUM ELEVATION
TDD .M        377                  : tdd          - TOTAL DEPTH DRILLER
RUN .         ONE                  : Run          - RUN NUMBER
ENG .         BILL                 : Engineer     - RECORDING ENGINEER
WIT .         JIM                  : Witness      - WITNESSED BY
MUD .         GEL                  : Mud_type     - MUD TYPE
MATR.         LIMESTONE            : Logunit      - NEUTRON MATRIX
TMAX.C        23                   : BHT          - MAXIMUM RECORDED TEMPERATURE
BHTD.M        377                  : BHTDEP       - MAXIMUM RECORDED TEMPERATURE
MATR.         1                    : LOGUNIT      - NEUTRON MATRIX
RMT .C        25                   : MDTP         - TEMPERATURE OF MUD
NEUT.         1                    : NEUTRON      - NEUTRON TYPE
RESI.         0                    : RESIST       - RESISTIVITY TYPE
RMC .OHMM     0.25                 : RMC          - RESISTIVITY OF MUD CAKE
RMF .OHMM     0.25                 : RMF          - RESISTIVITY OF MUD FILTRATE
SUFT.C        15                   : SUFT         - SURFACE TEMPERATURE
~A  DEPTH     RESD       GR     PHID     PHIN
# ...
  193.500   14.161   99.154    0.251    0.327
  193.750   13.391  108.909    0.234    0.308
  194.000   12.663  115.614    0.206    0.304
  194.250   12.430  116.832    0.198    0.346
  194.500   11.976  116.221    0.172    0.392
  194.750   11.977  115.000    0.194    0.406
  195.000   12.204  113.780    0.217    0.373
  195.250   12.435  117.437    0.216    0.357
  195.500   12.909  123.533    0.211    0.389
  195.750   13.912  117.434    0.225    0.400
  196.000   14.715  111.945    0.245    0.398
  196.250   14.177  104.627    0.239    0.377
  196.500   13.659  104.625    0.227    0.372
  196.750   13.159  109.502    0.218    0.351
  197.000   12.444  115.598    0.209    0.308
  197.250   11.768  125.963    0.200    0.355
  197.500   11.128  132.059    0.214    0.384
  197.750   10.923  133.277    0.227    0.413
  198.000   10.722  128.397    0.211    0.438
  198.250   10.925  123.518    0.216    0.456
  198.500   11.996  119.248    0.233    0.472
  198.750   12.688  114.979    0.239    0.440
  199.000   13.673  110.100    0.240    0.427
  199.250   14.462  105.220    0.237    0.415
  199.500   15.585  106.438    0.236    0.427
  199.750   16.179  108.876    0.239    0.413
  200.000   16.797  113.753    0.250    0.387
  200.250   17.767  118.629    0.255    0.350
  200.500   18.103  111.921    0.253    0.324
  200.750   18.105  106.432    0.266    0.327
  201.000   17.772  107.650    0.258    0.341
  201.250   17.122  110.697    0.258    0.354
  201.500   16.496  110.086    0.259    0.352
  201.750   16.193  112.524    0.246    0.338
  202.000   15.313  112.522    0.231    0.324
  202.250   15.315  110.692    0.231    0.336
  202.500   15.316  113.739    0.228    0.354
  202.750   16.816  113.128    0.224    0.395
  203.000   20.652  110.688    0.218    0.406
  203.250   24.893  110.686    0.230    0.421
  203.500   30.006  108.856    0.247    0.450
  203.750   34.199   93.001    0.273    0.471
  204.000   35.505   80.195    0.296    0.445
  204.250   34.850   76.535    0.285    0.423
  204.500   32.956   67.387    0.267    0.358
  204.750   30.588   60.679    0.275    0.371
  205.000   27.864   65.555    0.295    0.375
  205.250   24.453   66.774    0.290    0.368
  205.500   21.063   71.040    0.273    0.333
  205.750   19.918   76.527    0.254    0.317
  206.000   19.919   86.891    0.239    0.338
  206.250   21.069   95.426    0.254    0.389
  206.500   24.013   87.498    0.265    0.350
  206.750   25.399   82.619    0.243    0.307
  207.000   25.402   81.398    0.239    0.368
  207.250   22.292   77.129    0.252    0.397
  207.500   18.846   74.078    0.285    0.418
  207.750   17.822   74.687    0.296    0.402
  208.000   17.494   80.783    0.272    0.383
  208.250   18.852   98.465    0.241    0.393
  208.500   21.891   99.683    0.242    0.421
  208.750   27.392   95.413    0.253    0.418
  209.000   31.807   86.265    0.261    0.427
  209.250   34.923   78.947    0.275    0.397
  209.500   36.938   73.458    0.313    0.396
  209.750   39.070   66.749    0.327    0.380
  210.000   40.561   61.260    0.297    0.335
  210.250   41.330   61.868    0.268    0.336
  210.500   42.907   60.648    0.274    0.327
  210.750   46.238   61.866    0.290    0.320
  211.000   49.829   63.084    0.306    0.357
  211.250   51.729   62.473    0.308    0.389
  211.500   53.704   60.642    0.307    0.411
  211.750   53.711   64.299    0.314    0.407
  212.000   54.727   65.518    0.318    0.399
  212.250   54.735   61.248    0.317    0.386
  212.500   54.739   64.905    0.324    0.408
  212.750   54.748   63.074    0.324    0.372
  213.000   54.752   60.025    0.318    0.353
  213.250   53.743   61.852    0.315    0.334
  213.500   53.748   63.071    0.326    0.345
  213.750   52.760   63.069    0.334    0.363
  214.000   52.766   65.507    0.334    0.377
  214.250   51.796   67.335    0.333    0.391
  214.500   51.800   66.723    0.331    0.357
  214.750   51.806   63.674    0.329    0.363
  215.000   51.812   63.062    0.325    0.397
  215.250   51.818   66.110    0.324    0.414
  215.500   51.821   60.621    0.322    0.390
  215.750   50.868   62.448    0.323    0.369
  216.000   49.934   61.838    0.336    0.379
  216.250   49.015   58.178    0.335    0.414
  216.500   48.112   58.176    0.330    0.425
  216.750   47.227   60.614    0.328    0.411
  217.000   46.359   61.222    0.326    0.394
  217.250   45.507   60.611    0.326    0.403
  217.500   44.671   58.781    0.329    0.390
  217.750   44.673   60.608    0.329    0.396
  218.000   44.677   62.436    0.330    0.397
  218.250   44.682   64.874    0.335    0.392
  218.500   44.688   65.483    0.334    0.385
  218.750   44.691   62.432    0.331    0.378
  219.000   43.870   59.992    0.332    0.363
  219.250   42.267   60.600    0.336    0.348
  219.500   42.272   63.648    0.340    0.363
  219.750   41.492   62.427    0.342    0.379
  220.000   41.497   63.035    0.345    0.409
  220.250   41.503   67.302    0.342    0.428
  220.500   41.508   65.472    0.335    0.447
  220.750   41.511   64.250    0.331    0.464
  221.000   41.514   62.420    0.331    0.419
  221.250   41.520   63.029    0.334    0.394
  221.500   41.522   63.027    0.335    0.391
  221.750   40.760   61.806    0.342    0.407
  222.000   40.764   59.976    0.337    0.390
  222.250   40.768   63.023    0.337    0.376
  222.500   40.772   64.241    0.351    0.369
  222.750   40.776   61.191    0.341    0.352
  223.000   40.780   60.580    0.350    0.340
  223.250   40.785   59.359    0.358    0.347
  223.500   40.789   58.138    0.357    0.365
  223.750   41.562   60.576    0.343    0.380
  224.000   41.566   64.233    0.347    0.398
  224.250   43.153   67.890    0.350    0.415
  224.500   43.971   70.328    0.336    0.415
  224.750   44.803   69.717    0.324    0.398
  225.000   45.652   65.447    0.323    0.378
  225.250   44.813   61.787    0.324    0.371
  225.500   43.989   60.566    0.326    0.402
  225.750   43.992   61.784    0.334    0.423
  226.000   43.184   61.783    0.336    0.435
  226.250   44.003   61.172    0.337    0.428
  226.500   44.835   61.780    0.338    0.371
  226.750   44.841   61.779    0.332    0.353
  227.000   44.844   59.949    0.321    0.336
  227.250   44.849   59.338    0.315    0.343
  227.500   43.210   61.165    0.319    0.347
  227.750   41.631   61.774    0.334    0.359
  228.000   40.865   58.724    0.330    0.381
  228.250   39.371   59.332    0.329    0.373
  228.500   37.932   60.550    0.336    0.359
  228.750   37.235   61.159    0.345    0.404
  229.000   36.550   59.938    0.346    0.429
  229.250   35.877   61.766    0.336    0.445
  229.500   35.881   64.203    0.334    0.472
  229.750   35.221   64.202    0.341    0.461
  230.000   34.573   61.762    0.340    0.442
  230.250   33.309   60.541    0.332    0.440
  230.500   31.498   63.588    0.326    0.489
  230.750   27.642   63.587    0.334    0.516
  231.000   20.506   61.147    0.336    0.412
  231.250   14.931   60.535    0.336    0.382
  231.500   12.389   63.583    0.332    0.369
  231.750   11.078   66.630    0.325    0.379
  232.000   10.282   69.678    0.310    0.349
  232.250    9.723   76.993    0.264    0.343
  232.500    9.544   88.577    0.255    0.399
  232.750    9.369   93.454    0.239    0.450
  233.000    9.369   98.940    0.241    0.459
  233.250    9.197  101.988    0.237    0.417
  233.500    9.198   99.547    0.230    0.381
  233.750    9.029  100.156    0.232    0.354
  234.000    8.863  100.154    0.232    0.327
  234.250    8.700  100.153    0.226    0.329
  234.500    8.539  100.761    0.223    0.344
  234.750    8.383  106.248    0.216    0.404
  235.000    8.383  103.198    0.225    0.418
  235.250    8.384  106.855    0.220    0.385
  235.500    8.385  105.634    0.223    0.396
  235.750    8.386  105.023    0.231    0.404
  236.000    8.079  108.680    0.223    0.415
  236.250    7.360  109.288    0.206    0.420
  236.500    6.831  106.848    0.212    0.424
  236.750    6.460  106.237    0.225    0.413
