~VERSION INFORMATION
 VERS.                 2.0:   CWLS LOG ASCII STANDARD -VERSION 2.0
 WRAP.                  NO:   ONE LINE PER DEPTH STEP
~WELL INFORMATION BLOCK
#MNEM.UNIT           DATA                    DESCRIPTION OF MNEMONIC
#---------    -------------------            -------------------------------
# Generated from Intellog Unique Number	CX_WELLS/WELL/2704
WELL.         05-15-080-11W4                 : Well_name    - WELL
LOC .         00/05-15-080-11W4/0            : Location     - LOCATION
UWI .         00/05-15-080-11W400            : Uwi          - UNIQUE WELL ID
ENTR.         T                              : Entered      - ENTERED BY
SRVC.         SCHLUMBERGER                   : Scn          - SERVICE COMPANY
STRT.M        250                            : top_depth    - START DEPTH
STOP.M        480                            : bot_depth    - STOP DEPTH
STEP.M        0.25                           : increment    - STEP LENGTH
 NULL. -999.2500:NULL Value
~CURVE INFORMATION BLOCK
#MNEM UNIT       ERCB CURVE CODE    CURVE DESCRIPTION
#-----------   ------------------   ----------------------------------
DEPT.M        00 001 00 00         : DEPTH        - DEPTH
GR  .API      00 310 00 00         : GR           - GAMMA RAY
NPHI.V/V      00 330 00 00         : PHIN         - NEUTRON POROSITY (SANDSTONE)
DPHI.V/V      00 890 00 00         : PHID         - DENSITY POROSITY (SANDSTONE)
ILD .OHMM     00 120 00 00         : RESD         - DEEP RESISTIVITY (DIL)
~PARAMETER INFORMATION
#MNEM.UNIT           DATA             DESCRIPTION OF MNEMONIC
#---------         -----------     ------------------------------
GL  .M        684                  : gl           - GROUND LEVEL ELEVATION
EREF.M        687                  : kb           - ELEVATION OF DEPTH REFERENCE
DATM.M        687                  : datum        - DATUM ELEVATION
TDD .M        486                  : tdd          - TOTAL DEPTH DRILLER
RUN .         ONE                  : Run          - RUN NUMBER
ENG .         BILL                 : Engineer     - RECORDING ENGINEER
WIT .         JIM                  : Witness      - WITNESSED BY
MUD .         GEL                  : Mud_type     - MUD TYPE
MATR.         SANDSTONE            : Logunit      - NEUTRON MATRIX
TMAX.C        25                   : BHT          - MAXIMUM RECORDED TEMPERATURE
BHTD.M        486                  : BHTDEP       - MAXIMUM RECORDED TEMPERATURE
MATR.         1                    : LOGUNIT      - NEUTRON MATRIX
RMT .C        17                   : MDTP         - TEMPERATURE OF MUD
NEUT.         1                    : NEUTRON      - NEUTRON TYPE
RESI.         6.7                  : RESIST       - RESISTIVITY TYPE
RMC .OHMM     6.3                  : RMC          - RESISTIVITY OF MUD CAKE
RMF .OHMM     6.3                  : RMF          - RESISTIVITY OF MUD FILTRATE
SUFT.C        4                    : SUFT         - SURFACE TEMPERATURE
~A  DEPTH       GR     PHIN     PHID     RESD
# ...
  293.500   88.279    0.466    0.310   15.633
  293.750   88.314    0.467    0.305   15.646
  294.000   88.350    0.467    0.305   15.367
  294.250   88.988    0.470    0.306   15.092
  294.500   89.636    0.472    0.307   15.105
  294.750   90.283    0.474    0.307   15.121
  295.000   90.939    0.475    0.306   15.143
  295.250   90.363    0.468    0.305   14.869
  295.500   92.855    0.466    0.304   14.601
  295.750   95.940    0.470    0.306   14.069
  296.000   98.423    0.480    0.305   13.063
  296.250   98.459    0.498    0.301   12.585
  296.500  100.330    0.503    0.295   11.686
  296.750  101.589    0.505    0.292   11.258
  297.000   99.177    0.501    0.292   10.449
  297.250   94.318    0.487    0.298    9.519
  297.500   90.682    0.466    0.305    9.001
  297.750   90.115    0.468    0.313    8.355
  298.000   87.703    0.474    0.314    8.362
  298.250   75.493    0.473    0.318    8.855
  298.500   69.410    0.451    0.321    9.928
  298.750   63.327    0.432    0.325   11.126
  299.000   57.244    0.432    0.330   11.781
  299.250   51.782    0.443    0.333   13.454
  299.500   48.758    0.452    0.346   15.364
  299.750   48.182    0.446    0.351   17.218
  300.000   49.441    0.432    0.354   19.668
  300.250   50.700    0.429    0.353   20.829
  300.500   52.580    0.425    0.353   21.647
  300.750   53.210    0.427    0.359   22.082
  301.000   54.478    0.435    0.367   22.101
  301.250   55.125    0.446    0.374   22.123
  301.500   55.764    0.456    0.384   22.137
  301.750   55.196    0.440    0.392   22.151
  302.000   54.629    0.434    0.388   22.174
  302.250   54.655    0.430    0.386   22.188
  302.500   54.079    0.438    0.387   22.206
  302.750   54.114    0.449    0.390   22.229
  303.000   55.365    0.457    0.392   22.253
  303.250   56.039    0.471    0.393   22.276
  303.500   56.056    0.484    0.391   22.285
  303.750   56.092    0.494    0.390   22.733
  304.000   56.127    0.488    0.391   22.747
  304.250   53.716    0.481    0.391   22.766
  304.500   50.701    0.475    0.391   22.794
  304.750   51.357    0.470    0.390   22.813
  305.000   52.607    0.464    0.388   22.837
  305.250   53.875    0.464    0.388   22.851
  305.500   53.290    0.461    0.388   22.865
  305.750   49.655    0.460    0.388   22.879
  306.000   46.631    0.457    0.388   23.788
  306.250   47.899    0.457    0.388   24.722
  306.500   48.529    0.456    0.388   24.753
  306.750   51.038    0.456    0.387   24.764
  307.000   51.668    0.456    0.387   24.784
  307.250   51.703    0.456    0.387   24.815
  307.500   49.912    0.454    0.385   24.825
  307.750   49.930    0.451    0.384   24.841
  308.000   50.577    0.448    0.383   25.340
  308.250   49.398    0.448    0.383   25.361
  308.500   47.598    0.451    0.384   25.865
  308.750   48.263    0.453    0.385   25.897
  309.000   49.513    0.453    0.385   25.908
  309.250   50.160    0.448    0.381   25.940
  309.500   50.187    0.447    0.380   25.956
  309.750   50.240    0.445    0.377   25.973
  310.000   49.655    0.446    0.376   26.000
  310.250   49.691    0.448    0.376   26.016
  310.500   50.347    0.448    0.377   26.544
  310.750   50.365    0.445    0.377   26.560
  311.000   49.806    0.441    0.378   26.582
  311.250   49.212    0.440    0.382   27.116
  311.500   48.041    0.439    0.385   27.139
  311.750   48.059    0.439    0.386   27.167
  312.000   48.724    0.439    0.386   27.178
  312.250   48.760    0.439    0.386   27.212
  312.500   48.786    0.438    0.386   27.229
  312.750   48.813    0.438    0.387   27.246
  313.000   48.237    0.438    0.387   27.280
  313.250   47.057    0.441    0.385   27.297
  313.500   45.869    0.442    0.382   26.815
  313.750   45.293    0.443    0.381   26.832
  314.000   44.717    0.444    0.381   26.849
  314.250   44.761    0.451    0.387   26.882
  314.500   44.185    0.459    0.390   26.402
  314.750   44.220    0.464    0.391   26.424
  315.000   43.635    0.460    0.388   26.446
  315.250   42.464    0.448    0.383   26.468
  315.500   41.870    0.441    0.383   26.485
  315.750   41.303    0.440    0.384   26.512
  316.000   40.115    0.440    0.384   26.534
  316.250   39.547    0.440    0.380   26.556
  316.500   38.953    0.438    0.383   26.573
  316.750   37.774    0.436    0.385   26.600
  317.000   36.577    0.435    0.384   26.617
  317.250   36.000    0.430    0.380   26.650
  317.500   35.433    0.427    0.371   26.672
  317.750   35.460    0.427    0.365   26.694
  318.000   37.942    0.425    0.364   26.716
  318.250   41.037    0.425    0.366   27.247
  318.500   41.702    0.423    0.368   27.789
  318.750   41.747    0.423    0.371   27.812
  319.000   41.764    0.424    0.374   27.841
  319.250   41.800    0.424    0.377   27.858
  319.500   41.232    0.424    0.380   27.887
  319.750   39.441    0.424    0.384   27.899
  320.000   38.235    0.428    0.385   27.922
  320.250   36.444    0.436    0.387   27.951
  320.500   35.859    0.444    0.389   27.458
  320.750   35.894    0.444    0.390   27.486
  321.000   37.163    0.438    0.389   26.984
  321.250   38.413    0.428    0.387   27.007
  321.500   40.284    0.422    0.385   26.530
  321.750   39.716    0.423    0.385   26.552
  322.000   38.528    0.426    0.384   26.072
  322.250   38.572    0.430    0.383   26.094
  322.500   37.978    0.435    0.381   26.121
  322.750   38.014    0.441    0.379   25.655
  323.000   38.670    0.435    0.377   25.671
  323.250   39.929    0.427    0.375   25.703
  323.500   40.586    0.551    0.375   25.724
  323.750   40.009    0.529    0.375   25.751
  324.000   40.036    0.413    0.376   25.767
  324.250   40.089    0.412    0.376   25.783
  324.500   40.728    0.423    0.376   25.815
  324.750   40.772    0.442    0.376   25.826
  325.000   40.178    0.455    0.377   25.852
  325.250   40.231    0.461    0.377   25.879
  325.500   40.249    0.454    0.377   25.890
  325.750   40.293    0.451    0.376   25.917
  326.000   39.726    0.441    0.372   25.933
  326.250   39.141    0.430    0.371   25.960
  326.500   39.176    0.434    0.367   25.992
  326.750   39.212    0.442    0.365   26.009
  327.000   39.850    0.444    0.366   26.025
  327.250   41.739    0.441    0.367   26.052
  327.500   41.757    0.437    0.370   25.592
  327.750   40.595    0.435    0.377   25.608
  328.000   40.613    0.437    0.382   25.624
  328.250   40.036    0.440    0.384   25.650
  328.500   41.907    0.457    0.377   26.166
  328.750   42.555    0.446    0.357   26.675
  329.000   42.590    0.348    0.239   29.906
  329.250   40.790    0.142   -0.019   33.508
  329.500   37.775    0.125   -0.003   55.789
  329.750   38.423    0.164   -0.006  100.180
  330.000   41.517    0.218    0.005  130.543
  330.250   44.000    0.273    0.118  116.680
  330.500   47.086    0.301    0.249   89.690
  330.750   47.742    0.360    0.294   56.033
  331.000   48.398    0.375    0.331   43.072
  331.250   49.028    0.398    0.362   37.073
  331.500   49.684    0.424    0.370   31.314
  331.750   50.332    0.438    0.374   27.460
  332.000   50.988    0.436    0.375   25.016
  332.250   51.014    0.441    0.376   22.364
  332.500   51.050    0.449    0.377   21.550
  332.750   51.086    0.458    0.376   20.774
  333.000   51.751    0.466    0.374   20.404
  333.250   52.380    0.476    0.376   20.416
  333.500   53.028    0.476    0.375   20.433
  333.750   54.287    0.468    0.377   20.454
  334.000   54.943    0.462    0.376   20.471
  334.250   54.978    0.450    0.374   20.488
  334.500   55.005    0.443    0.372   20.510
  334.750   55.049    0.439    0.371   20.522
  335.000   55.076    0.442    0.371   20.535
  335.250   55.129    0.440    0.371   20.177
  335.500   54.544    0.444    0.370   19.812
  335.750   53.383    0.447    0.370   19.829
  336.000   52.788    0.449    0.369   19.475
  336.250   52.221    0.454    0.369   19.495
  336.500   52.239    0.458    0.367   19.147
  336.750   52.283    0.469    0.367   18.805
