~VERSION INFORMATION
 VERS.                 2.0:   CWLS LOG ASCII STANDARD -VERSION 2.0
 WRAP.                  NO:   ONE LINE PER DEPTH STEP
~WELL INFORMATION BLOCK
#MNEM.UNIT           DATA                    DESCRIPTION OF MNEMONIC
#---------    -------------------            -------------------------------
# Generated from Intellog Unique Number	CW_73_75/WELL/554
WELL.         GULF POC DROWNED 06-26         : Well_name    - WELL
LOC .         00/06-26-075-21W4/0            : Location     - LOCATION
UWI .         00/06-26-075-21W4/0            : Uwi          - UNIQUE WELL ID
ENTR.         JAYE                           : Entered      - ENTERED BY
SRVC.         SCHLUMBERGER                   : Scn          - SERVICE COMPANY
DATE.         2 MAR 78                       : Date         - LOG DATE
STRT.M        393.192                        : top_depth    - START DEPTH
STOP.M        594.442                        : bot_depth    - STOP DEPTH
STEP.M        0.25                           : increment    - STEP LENGTH
 NULL. -999.2500:NULL Value
~CURVE INFORMATION BLOCK
#MNEM UNIT       ERCB CURVE CODE    CURVE DESCRIPTION
#-----------   ------------------   ----------------------------------
DEPT.M        00 001 00 00         : DEPTH        - DEPTH
ILD .OHMM     00 120 00 00         : RESD         - DEEP RESISTIVITY (DIL)
NPHI.V/V      00 330 00 00         : PHIN         - NEUTRON POROSITY (SANDSTONE)
DPHI.V/V      00 890 00 00         : PHID         - DENSITY POROSITY (SANDSTONE)
GR  .API      00 310 00 00         : GR           - GAMMA RAY
CALI.MM       00 280 01 00         : CAL          - CALIPER
~PARAMETER INFORMATION
#MNEM.UNIT           DATA             DESCRIPTION OF MNEMONIC
#---------         -----------     ------------------------------
GL  .M        698.297              : gl           - GROUND LEVEL ELEVATION
EREF.M        702.412              : kb           - ELEVATION OF DEPTH REFERENCE
DATM.M        698.297              : datum        - DATUM ELEVATION
TDD .M        595.884              : tdd          - TOTAL DEPTH DRILLER
RUN .         ONE                  : Run          - RUN NUMBER
ENG .         VERRAIRES            : Engineer     - RECORDING ENGINEER
WIT .         BRINKMAN             : Witness      - WITNESSED BY
BASE.         EDM                  : Branch       - HOME BASE OF LOGGING UNIT
MUD .         GEL CHEM             : Mud_type     - MUD TYPE
MATR.         SANDSTONE            : Logunit      - NEUTRON MATRIX
TMAX.C        28.3333              : BHT          - MAXIMUM RECORDED TEMPERATURE
BHTD.M        590.702              : BHTDEP       - MAXIMUM RECORDED TEMPERATURE
RMT .C        15.5556              : MDTP         - TEMPERATURE OF MUD
MUDD.KG/M     1104                 : MWT          - MUD DENSITY
NEUT.         1                    : NEUTRON      - NEUTRON TYPE
RESI.         0                    : RESIST       - RESISTIVITY TYPE
RM  .OHMM     3.39                 : RM           - RESISTIVITY OF MUD
RMC .OHMM     0                    : RMC          - RESISTIVITY OF MUD CAKE
RMF .OHMM     4.56                 : RMF          - RESISTIVITY OF MUD FILTRATE
SUFT.C        -17.7778             : SUFT         - SURFACE TEMPERATURE
~A  DEPTH     RESD     PHIN     PHID       GR      CAL
# ...
  539.192    7.170    0.430    0.190   98.206  167.123
  539.442    7.250    0.419    0.188   97.792  167.365
  539.692    7.249    0.408    0.182   98.306  167.610
  539.942    7.195    0.400    0.173   98.695  167.635
  540.192    7.168    0.399    0.172   99.267  167.774
  540.442    7.154    0.414    0.185   99.408  167.698
  540.692    7.075    0.423    0.201  101.216  167.726
  540.942    6.957    0.427    0.209  106.976  168.071
  541.192    6.893    0.436    0.200  106.500  168.835
  541.442    6.766    0.431    0.190  104.481  169.806
  541.692    6.605    0.436    0.184  103.264  171.510
  541.942    6.483    0.449    0.182   99.887  173.107
  542.192    6.447    0.450    0.181   98.980  174.601
  542.442    6.422    0.447    0.183  100.417  175.469
  542.692    6.470    0.449    0.173  103.769  175.500
  542.942    6.554    0.451    0.165   99.652  175.423
  543.192    6.738    0.438    0.165   96.521  174.832
  543.442    6.863    0.425    0.172   94.379  173.923
  543.692    7.004    0.416    0.190   95.384  172.489
  543.942    7.174    0.411    0.200   98.983  170.849
  544.192    7.335    0.409    0.203   98.816  169.725
  544.442    7.431    0.407    0.198   93.957  168.291
  544.692    7.513    0.402    0.201   94.654  167.069
  544.942    7.485    0.393    0.199   99.056  166.158
  545.192    7.457    0.392    0.183   99.384  165.566
  545.442    7.415    0.424    0.167  100.451  165.699
  545.692    7.373    0.439    0.148  105.531  167.086
  545.942    7.373    0.444    0.169  112.153  169.523
  546.192    7.482    0.438    0.178  113.468  171.749
  546.442    7.678    0.423    0.180  108.178  174.496
  546.692    7.968    0.410    0.187  102.518  174.841
  546.942    8.314    0.399    0.173   97.473  169.540
  547.192    8.611    0.389    0.161   95.085  164.764
  547.442    8.707    0.373    0.152   96.336  162.184
  547.692    8.531    0.372    0.171   97.961  160.747
  547.942    7.877    0.381    0.183   95.755  159.219
  548.192    7.465    0.387    0.180   98.736  158.933
  548.442    7.368    0.391    0.159  100.915  158.545
  548.692    7.789    0.380    0.147   98.526  158.571
  548.942    8.559    0.365    0.144  101.631  158.606
  549.192    9.690    0.358    0.137   97.206  159.155
  549.442   10.928    0.359    0.128   94.136  159.606
  549.692   11.988    0.368    0.115   89.832  159.948
  549.942   11.445    0.333    0.097   83.677  160.291
  550.192   10.947    0.284    0.080   81.659  160.637
  550.442    9.849    0.291    0.077   87.603  161.193
  550.692    8.699    0.313    0.105   95.028  161.851
  550.942    7.974    0.362    0.135  101.715  162.616
  551.192    7.500    0.410    0.162  106.362  163.376
  551.442    7.227    0.411    0.176  109.530  164.553
  551.692    7.134    0.414    0.160  106.583  166.151
  551.942    7.107    0.437    0.145  102.959  167.545
  552.192    7.067    0.438    0.141   97.175  167.991
  552.442    6.989    0.433    0.148   98.613  168.127
  552.692    6.911    0.425    0.151  102.396  167.639
  552.942    6.898    0.417    0.146  100.562  167.247
  553.192    6.910    0.411    0.143  100.395  166.859
  553.442    6.935    0.407    0.144  101.526  166.159
  553.692    7.051    0.404    0.152  103.025  165.981
  553.942    7.209    0.413    0.157  105.389  166.846
  554.192    7.316    0.424    0.156  105.592  165.316
  554.442    7.384    0.429    0.150  104.561  164.413
  554.692    7.466    0.429    0.144  104.827  164.235
  554.942    7.633    0.413    0.139  105.709  164.047
  555.192    7.921    0.395    0.133  103.381  163.765
  555.442    8.311    0.379    0.124  103.400  163.180
  555.692    8.576    0.359    0.114   92.799  162.887
  555.942    8.560    0.322    0.088   85.348  162.493
  556.192    8.294    0.305    0.071   80.674  162.421
  556.442    8.022    0.342    0.137   90.137  163.085
  556.692    7.602    0.360    0.163  105.403  163.953
  556.942    7.072    0.369    0.173  108.508  164.183
  557.192    6.154    0.379    0.171  106.551  164.532
  557.442    4.882    0.389    0.168  106.508  164.560
  557.692    3.975    0.403    0.167  106.155  165.010
  557.942    3.408    0.441    0.194  104.941  165.353
  558.192    2.874    0.497    0.217  104.031  166.852
  558.442    2.397    0.507    0.250  101.518  169.701
  558.692    2.121    0.505    0.241   99.561  170.464
  558.942    2.055    0.502    0.224   98.962  166.942
  559.192    2.254    0.529    0.228  103.363  162.475
  559.442    2.533    0.522    0.218  106.963  158.955
  559.692    3.048    0.496    0.203  107.227  157.311
  559.942    4.107    0.456    0.185  103.726  157.973
  560.192    5.176    0.403    0.156  102.633  159.984
  560.442    5.969    0.378    0.125   99.565  163.151
  560.692    6.512    0.388    0.097   97.607  165.275
  560.942    6.584    0.403    0.100  100.403  166.872
  561.192    6.487    0.412    0.159  102.150  168.162
  561.442    6.391    0.407    0.154   99.945  168.815
  561.692    6.273    0.382    0.144   95.951  169.164
  561.942    6.169    0.372    0.124   94.798  169.191
  562.192    6.078    0.366    0.116   93.766  168.809
  562.442    5.900    0.379    0.146   94.030  168.729
  562.692    5.675    0.407    0.158   95.655  168.553
  562.942    5.560    0.417    0.157   97.092  168.378
  563.192    5.632    0.424    0.149   98.406  168.196
  563.442    5.791    0.414    0.144   95.461  167.812
  563.692    5.899    0.377    0.129   88.566  167.524
  563.942    6.098    0.346    0.124   86.855  167.349
  564.192    6.269    0.363    0.148   94.528  167.167
  564.442    6.351    0.387    0.151   97.879  166.892
  564.692    6.280    0.415    0.141   97.530  166.500
  564.942    6.142    0.425    0.143  100.200  166.426
  565.192    5.973    0.420    0.187  104.972  166.456
  565.442    6.096    0.403    0.174  102.026  166.380
  565.692    6.824    0.395    0.144   96.922  166.309
  565.942    7.928    0.370    0.135   93.791  166.028
  566.192    8.778    0.350    0.117   90.105  165.643
  566.442    9.313    0.335    0.095   86.297  165.461
  566.692    9.881    0.325    0.069   90.512  165.383
  566.942   10.349    0.324    0.091  100.038  165.418
  567.192    9.789    0.351    0.126  106.351  165.762
  567.442    8.710    0.373    0.135  112.481  167.673
  567.692    7.566    0.391    0.131  114.351  170.315
  567.942    6.846    0.384    0.167  115.792  172.125
  568.192    6.263    0.379    0.146  114.449  171.530
  568.442    5.805    0.399    0.170  115.703  169.991
  568.692    5.719    0.427    0.181  118.498  167.723
  568.942    5.956    0.431    0.151  113.765  165.667
  569.192    6.644    0.410    0.142  110.386  164.752
  569.442    7.906    0.377    0.146  106.456  163.945
  569.692    8.373    0.358    0.134  104.620  163.978
  569.942    8.326    0.351    0.117  105.316  165.678
  570.192    8.097    0.359    0.116  109.967  168.012
  570.442    7.832    0.369    0.127  113.133  169.298
  570.692    7.687    0.374    0.130  115.310  169.961
  570.942    7.616    0.383    0.136  117.491  170.192
  571.192    7.658    0.395    0.141  120.284  170.433
  571.442    7.772    0.411    0.151  124.626  170.776
  571.692    7.887    0.423    0.159  128.593  171.022
  571.942    7.975    0.460    0.156  135.155  171.258
  572.192    8.034    0.523    0.145  144.865  171.399
  572.442    7.974    0.519    0.134  152.540  171.424
  572.692    7.627    0.508    0.135  153.359  171.245
  572.942    7.417    0.508    0.146  149.180  171.276
  573.192    7.541    0.545    0.142  146.483  170.470
  573.442    8.334    0.554    0.161  142.116  168.408
  573.692    9.142    0.540    0.191  136.765  166.874
  573.942   10.028    0.516    0.219  130.609  166.069
  574.192   10.919    0.508    0.243  124.887  165.368
  574.442   12.225    0.502    0.257  113.977  164.562
  574.692   13.736    0.498    0.216  101.032  163.964
  574.942   14.874    0.490    0.206   84.320  163.368
  575.192   17.089    0.348    0.231   48.348  162.563
  575.442   18.642    0.307    0.260   39.106  161.234
