~VERSION INFORMATION
 VERS.                 2.0:   CWLS LOG ASCII STANDARD -VERSION 2.0
 WRAP.                  NO:   ONE LINE PER DEPTH STEP
~WELL INFORMATION BLOCK
#MNEM.UNIT           DATA                    DESCRIPTION OF MNEMONIC
#---------    -------------------            -------------------------------
# Generated from Intellog Unique Number	CC_84_87/WELL/2551
WELL.         GULF AOSTRA RESDELN            : Well_name    - WELL
LOC .         00/06-05-084-06W4/0            : Location     - LOCATION
UWI .         00/06-05-084-06W400            : Uwi          - UNIQUE WELL ID
ENTR.         JHS                            : Entered      - ENTERED BY
SRVC.         SCHLUMBERGER                   : Scn          - SERVICE COMPANY
STRT.M        150                            : top_depth    - START DEPTH
STOP.M        409.75                         : bot_depth    - STOP DEPTH
STEP.M        0.25                           : increment    - STEP LENGTH
 NULL. -999.2500:NULL Value
~CURVE INFORMATION BLOCK
#MNEM UNIT       ERCB CURVE CODE    CURVE DESCRIPTION
#-----------   ------------------   ----------------------------------
DEPT.M        00 001 00 00         : DEPTH        - DEPTH
GR  .API      00 310 00 00         : GR           - GAMMA RAY
DPHI.V/V      00 890 00 00         : PHID         - DENSITY POROSITY (SANDSTONE)
NPHI.V/V      00 330 00 00         : PHIN         - NEUTRON POROSITY (SANDSTONE)
ILD .OHMM     00 120 00 00         : RESD         - DEEP RESISTIVITY (DIL)
~PARAMETER INFORMATION
#MNEM.UNIT           DATA             DESCRIPTION OF MNEMONIC
#---------         -----------     ------------------------------
GL  .M        571                  : gl           - GROUND LEVEL ELEVATION
EREF.M        574.68               : kb           - ELEVATION OF DEPTH REFERENCE
DATM.M        574.68               : datum        - DATUM ELEVATION
TDD .M        420                  : tdd          - TOTAL DEPTH DRILLER
RUN .         ONE                  : Run          - RUN NUMBER
ENG .         BILL                 : Engineer     - RECORDING ENGINEER
WIT .         JIM                  : Witness      - WITNESSED BY
MUD .         GEL                  : Mud_type     - MUD TYPE
MATR.         SANDSTONE            : Logunit      - NEUTRON MATRIX
TMAX.C        21                   : BHT          - MAXIMUM RECORDED TEMPERATURE
BHTD.M        420                  : BHTDEP       - MAXIMUM RECORDED TEMPERATURE
MATR.         1                    : LOGUNIT      - NEUTRON MATRIX
RMT .C        25                   : MDTP         - TEMPERATURE OF MUD
NEUT.         1                    : NEUTRON      - NEUTRON TYPE
RESI.         0                    : RESIST       - RESISTIVITY TYPE
RMC .OHMM     0.25                 : RMC          - RESISTIVITY OF MUD CAKE
RMF .OHMM     0.25                 : RMF          - RESISTIVITY OF MUD FILTRATE
SUFT.C        15                   : SUFT         - SURFACE TEMPERATURE
~A  DEPTH       GR     PHID     PHIN     RESD
# ...
  193.500   47.032    0.342    0.392   26.515
  193.750   47.241    0.334    0.404   26.514
  194.000   46.071    0.338    0.412   26.516
  194.250   46.317    0.334    0.413   26.499
  194.500   48.961    0.331    0.427   26.543
  194.750   50.762    0.338    0.437   26.448
  195.000   48.948    0.333    0.407   26.017
  195.250   47.761    0.344    0.402   25.968
  195.500   48.372    0.350    0.414   26.334
  195.750   50.028    0.339    0.431   26.659
  196.000   51.023    0.330    0.432   26.145
  196.250   50.760    0.335    0.412   24.768
  196.500   51.470    0.339    0.399   23.254
  196.750   55.160    0.341    0.413   21.514
  197.000   56.882    0.343    0.424   19.945
  197.250   59.732    0.333    0.431   18.200
  197.500   60.989    0.320    0.443   16.846
  197.750   58.452    0.320    0.453   16.655
  198.000   57.657    0.325    0.451   17.244
  198.250   57.193    0.328    0.459   18.072
  198.500   56.369    0.337    0.464   18.895
  198.750   54.917    0.339    0.446   20.009
  199.000   53.702    0.334    0.433   21.251
  199.250   54.432    0.334    0.455   22.095
  199.500   55.916    0.335    0.482   22.389
  199.750   53.422    0.329    0.484   22.395
  200.000   52.110    0.331    0.456   22.380
  200.250   52.781    0.328    0.430   22.400
  200.500   52.547    0.329    0.424   22.353
  200.750   51.728    0.342    0.436   22.443
  201.000   52.944    0.343    0.451   22.804
  201.250   54.096    0.341    0.438   22.785
  201.500   53.971    0.345    0.436   23.092
  201.750   52.900    0.348    0.445   23.274
  202.000   52.363    0.346    0.449   23.226
  202.250   53.301    0.346    0.447   23.216
  202.500   54.259    0.351    0.452   23.227
  202.750   53.158    0.346    0.455   23.615
  203.000   53.810    0.338    0.433   23.647
  203.250   54.437    0.339    0.418   23.875
  203.500   54.342    0.347    0.428   24.149
  203.750   54.203    0.346    0.439   24.111
  204.000   53.129    0.335    0.436   24.106
  204.250   52.191    0.340    0.427   23.720
  204.500   50.580    0.338    0.438   23.626
  204.750   50.059    0.335    0.452   23.659
  205.000   49.871    0.339    0.457   23.674
  205.250   48.718    0.344    0.449   23.612
  205.500   48.934    0.344    0.431   23.217
  205.750   51.996    0.339    0.438   22.829
  206.000   54.290    0.337    0.439   22.631
  206.250   56.520    0.341    0.437   21.566
  206.500   57.504    0.341    0.453   20.477
  206.750   55.983    0.340    0.467   20.361
  207.000   54.520    0.350    0.452   20.365
  207.250   53.953    0.348    0.435   20.645
  207.500   53.958    0.341    0.425   21.265
  207.750   53.753    0.343    0.424   21.845
  208.000   52.985    0.348    0.428   21.830
  208.250   51.959    0.342    0.434   20.869
  208.500   51.553    0.332    0.444   19.257
  208.750   52.206    0.322    0.457   18.018
  209.000   51.103    0.318    0.461   17.582
  209.250   49.677    0.323    0.450   17.473
  209.500   50.384    0.327    0.435   17.696
  209.750   52.662    0.326    0.422   18.321
  210.000   54.079    0.330    0.408   18.887
  210.250   53.798    0.327    0.408   19.466
  210.500   51.771    0.333    0.417   20.178
  210.750   50.778    0.339    0.422   20.357
  211.000   51.356    0.338    0.421   20.491
  211.250   50.719    0.336    0.424   20.690
  211.500   47.474    0.328    0.432   19.975
  211.750   44.370    0.304    0.436   19.323
  212.000   41.985    0.276    0.412   19.126
  212.250   41.180    0.270    0.382   19.607
  212.500   43.233    0.289    0.384   20.060
  212.750   46.980    0.309    0.412   19.921
  213.000   49.974    0.322    0.428   19.599
  213.250   52.437    0.334    0.442   19.242
  213.500   50.309    0.336    0.437   19.468
  213.750   47.212    0.320    0.428   19.622
  214.000   46.150    0.313    0.422   19.625
  214.250   45.598    0.322    0.415   19.514
  214.500   42.775    0.316    0.409   18.530
  214.750   36.879    0.305    0.391   16.689
  215.000   35.587    0.309    0.397   14.542
  215.250   36.759    0.304    0.395   12.747
  215.500   40.869    0.291    0.387   11.812
  215.750   45.584    0.280    0.394   11.937
  216.000   44.066    0.271    0.396   12.745
  216.250   44.607    0.292    0.391   13.374
  216.500   49.901    0.312    0.404   13.719
  216.750   59.145    0.312    0.425   12.431
  217.000   70.931    0.298    0.421    9.547
  217.250   81.930    0.281    0.440    6.643
  217.500   88.038    0.267    0.524    4.744
  217.750   89.788    0.269    0.547    3.822
  218.000   90.119    0.266    0.555    3.457
  218.250   89.012    0.266    0.566    3.311
  218.500   86.288    0.273    0.566    3.240
  218.750   83.359    0.282    0.554    3.287
  219.000   82.041    0.283    0.537    3.513
  219.250   82.988    0.270    0.522    3.795
  219.500   84.016    0.257    0.520    4.089
  219.750   82.950    0.255    0.534    4.140
  220.000   80.557    0.268    0.554    3.867
  220.250   79.794    0.278    0.573    3.525
  220.500   82.116    0.262    0.597    3.322
  220.750   84.916    0.258    0.607    3.079
  221.000   85.165    0.261    0.605    2.829
  221.250   86.041    0.271    0.604    2.695
  221.500   85.753    0.280    0.599    2.620
  221.750   83.025    0.286    0.581    2.550
  222.000   82.218    0.297    0.557    2.557
  222.250   81.311    0.295    0.533    2.591
  222.500   79.661    0.283    0.521    2.690
  222.750   79.187    0.290    0.523    2.876
  223.000   80.440    0.301    0.525    3.132
  223.250   80.901    0.293    0.522    3.450
  223.500   78.654    0.294    0.531    3.782
  223.750   76.489    0.317    0.546    4.106
  224.000   75.400    0.320    0.545    4.981
  224.250   71.511    0.309    0.527    5.955
  224.500   65.341    0.299    0.512    7.901
  224.750   61.052    0.292    0.490   12.202
  225.000   58.014    0.273    0.435   18.123
  225.250   51.811    0.202    0.376   22.971
  225.500   48.432    0.137    0.316   24.308
  225.750   48.813    0.177    0.377   23.188
  226.000   51.273    0.282    0.474   21.813
  226.250   53.359    0.339    0.487   20.880
  226.500   52.601    0.337    0.490   19.920
  226.750   51.033    0.336    0.487   19.252
  227.000   50.266    0.323    0.489   19.150
  227.250   50.257    0.328    0.491   19.194
  227.500   51.551    0.334    0.504   19.186
  227.750   52.598    0.327    0.517   19.170
  228.000   50.858    0.338    0.506   19.180
  228.250   49.713    0.346    0.501   19.494
  228.500   49.724    0.356    0.485   19.557
  228.750   49.165    0.352    0.467   19.566
  229.000   48.109    0.339    0.469   19.433
  229.250   47.933    0.333    0.486   19.148
  229.500   48.500    0.332    0.496   19.175
  229.750   48.889    0.333    0.489   19.184
  230.000   50.596    0.332    0.467   19.140
  230.250   50.430    0.335    0.456   19.331
  230.500   49.965    0.336    0.469   19.644
  230.750   51.143    0.345    0.484   19.993
  231.000   51.026    0.352    0.478   20.654
  231.250   50.625    0.299    0.454   21.595
  231.500   48.862    0.265    0.417   23.116
  231.750   44.413    0.134    0.411   25.613
  232.000   39.809    0.007    0.308   29.709
  232.250   39.209   -0.001    0.144   36.406
  232.500   41.955   -0.000    0.161   45.202
  232.750   42.526    0.053    0.207   52.363
  233.000   43.240    0.099    0.256   56.828
  233.250   42.167    0.126    0.277   57.690
  233.500   40.307    0.100    0.227   55.398
  233.750   41.265    0.041    0.179   50.226
  234.000   44.480    0.044    0.235   42.004
  234.250   47.419    0.107    0.294   33.748
  234.500   51.684    0.273    0.416   27.770
  234.750   53.769    0.348    0.478   23.129
  235.000   53.722    0.333    0.470   20.236
  235.250   54.569    0.344    0.472   19.393
  235.500   56.158    0.341    0.465   18.802
  235.750   57.336    0.325    0.458   18.479
  236.000   56.872    0.329    0.465   18.436
  236.250   54.911    0.334    0.468   18.458
  236.500   53.391    0.328    0.466   18.438
  236.750   53.159    0.327    0.473   18.463
