~VERSION INFORMATION
 VERS.                 2.0:   CWLS LOG ASCII STANDARD -VERSION 2.0
 WRAP.                  NO:   ONE LINE PER DEPTH STEP
~WELL INFORMATION BLOCK
#MNEM.UNIT           DATA                    DESCRIPTION OF MNEMONIC
#---------    -------------------            -------------------------------
# Generated from Intellog Unique Number	CC_84_87/WELL/1065
NULL.         -999.25                        : NULL_VALUE
WELL.         SUNCOR NEWBY                   : Well_name    - WELL              
LOC .         06-08-084-04W4                 : Location     - LOCATION          
UWI .         00/06-08-084-04W4/0            : Uwi          - UNIQUE WELL ID    
ENTR.         JHS                            : Entered      - ENTERED BY        
SRVC.         SCHLUMBERGER                   : Scn          - SERVICE COMPANY   
DATE.         16 FEB 85                      : Date         - LOG DATE
STRT.M        85                             : top_depth    - START DEPTH       
STOP.M        229.901                        : bot_depth    - STOP DEPTH        
STEP.M        0.3                            : increment    - STEP LENGTH       
~CURVE INFORMATION BLOCK
#MNEM UNIT       ERCB CURVE CODE    CURVE DESCRIPTION
#-----------   ------------------   ----------------------------------
DEPT.M        00 001 00 00         : DEPTH        - DEPTH                       
DPHI.V/V      00 890 00 00         : PHID         - DENSITY POROSITY (LIMESTONE)
NPHI.V/V      00 330 00 00         : PHIN         - NEUTRON POROSITY (LIMESTONE)
GR  .API      00 310 00 00         : GR           - GAMMA RAY                   
ILD .OHMM     00 120 00 00         : RESD         - DEEP RESISTIVITY (DIL)      
~PARAMETER INFORMATION       
#MNEM.UNIT           DATA             DESCRIPTION OF MNEMONIC
#---------         -----------     ------------------------------
GL  .M        461.6                : gl           - GROUND LEVEL ELEVATION      
EREF.M        464.6                : kb           - ELEVATION OF DEPTH REFERENCE
DATM.M        464.6                : datum        - DATUM ELEVATION             
TDD .M        240                  : tdd          - TOTAL DEPTH DRILLER         
RUN .         ONE                  : Run          - RUN NUMBER                  
ENG .         BILL                 : Engineer     - RECORDING ENGINEER          
WIT .         JIM                  : Witness      - WITNESSED BY                
MUD .         GEL                  : Mud_type     - MUD TYPE                    
MATR.         LIMESTONE            : Logunit      - NEUTRON MATRIX              
TMAX.C        25                   : BHT          - MAXIMUM RECORDED TEMPERATURE
BHTD.M        240                  : BHTDEP       - MAXIMUM RECORDED TEMPERATURE
MATR.         1                    : LOGUNIT      - NEUTRON MATRIX              
RMT .C        25                   : MDTP         - TEMPERATURE OF MUD          
NEUT.         1                    : NEUTRON      - NEUTRON TYPE                
RESI.         0                    : RESIST       - RESISTIVITY TYPE            
RMC .OHMM     0.25                 : RMC          - RESISTIVITY OF MUD CAKE     
RMF .OHMM     0.25                 : RMF          - RESISTIVITY OF MUD FILTRATE 
SUFT.C        15                   : SUFT         - SURFACE TEMPERATURE         
~A  DEPTH     PHID     PHIN       GR     RESD
# ...
  137.201    0.298    0.440   98.929    4.328
  137.501    0.300    0.481  107.672    3.525
  137.801    0.296    0.515  106.392    3.331
  138.101    0.299    0.540   98.202    3.330
  138.401    0.297    0.525   96.289    3.328
  138.701    0.295    0.502   98.761    3.390
  139.001    0.300    0.519   98.101    3.583
  139.301    0.296    0.503   90.537    4.156
  139.601    0.298    0.485   86.115    4.232
  139.901    0.313    0.469   89.839    4.076
  140.201    0.313    0.438   93.572    3.643
  140.501    0.313    0.463   96.050    3.080
  140.801    0.321    0.467  101.666    2.702
  141.101    0.322    0.474  106.022    2.803
  141.401    0.312    0.486  101.598    3.075
  141.701    0.301    0.489   95.919    3.568
  142.001    0.282    0.446   95.880    4.377
  142.301    0.273    0.425   95.221    4.713
  142.601    0.265    0.439   88.287    4.624
  142.901    0.223    0.460   77.586    4.453
  143.201    0.309    0.468   78.182    4.209
  143.501    0.342    0.476   81.911    4.053
  143.801    0.350    0.472   83.131    4.128
  144.101    0.334    0.423   83.098    4.528
  144.401    0.308    0.398   82.439    4.698
  144.701    0.315    0.414   79.891    4.524
  145.001    0.336    0.427   77.980    4.357
  145.301    0.350    0.464   74.177    4.118
  145.601    0.348    0.469   73.514    3.966
  145.901    0.341    0.431   74.110    3.890
  146.201    0.334    0.434   78.465    3.962
  146.501    0.328    0.434   79.694    4.110
  146.801    0.328    0.448   75.267    4.426
  147.101    0.322    0.456   73.978    4.592
  147.401    0.258    0.448   80.840    4.676
  147.701    0.169    0.457   85.202    4.587
  148.001    0.239    0.467   90.193    4.586
  148.301    0.267    0.454   90.787    4.499
  148.601    0.279    0.452   90.750    4.497
  148.901    0.281    0.473   95.105    4.495
  149.201    0.273    0.467   98.214    4.577
  149.501    0.271    0.446  101.942    4.749
  149.801    0.269    0.445  105.050    4.926
  150.101    0.270    0.465  102.502    4.925
  150.401    0.281    0.467   98.081    4.922
  150.701    0.277    0.443   94.906    4.740
  151.001    0.280    0.422   95.504    4.237
  151.301    0.293    0.436   97.350    3.516
  151.601    0.313    0.462   96.063    2.863
  151.901    0.330    0.493   93.520    2.332
  152.201    0.347    0.514   88.465    2.163
  152.501    0.357    0.508   85.916    2.163
  152.801    0.351    0.506   88.398    2.372
  153.101    0.331    0.519   86.481    2.651
  153.401    0.308    0.491   80.172    2.909
  153.701    0.290    0.475   82.652    3.313
  154.001    0.283    0.471   81.358    3.567
  154.301    0.290    0.478   83.210    3.770
  154.601    0.289    0.477   86.316    3.911
  154.901    0.278    0.465   85.028    4.058
  155.201    0.270    0.451   88.129    3.981
  155.501    0.276    0.442   87.462    3.694
  155.801    0.281    0.450   88.057    3.364
  156.101    0.276    0.447   98.695    3.180
  156.401    0.266    0.471  102.425    3.119
  156.701    0.271    0.492   99.252    3.060
  157.001    0.304    0.491   94.828    3.002
  157.301    0.305    0.479   92.916    2.946
  157.601    0.301    0.485   94.764    2.945
  157.901    0.295    0.473   95.358    2.888
  158.201    0.301    0.468   95.319    2.942
  158.501    0.312    0.486   94.030    2.996
  158.801    0.302    0.489   94.002    3.050
  159.101    0.308    0.498   97.097    3.107
  159.401    0.316    0.511   97.693    3.105
  159.701    0.310    0.511   95.774    3.046
  160.001    0.306    0.497   93.867    2.989
  160.301    0.307    0.507   95.712    2.932
  160.601    0.300    0.523  100.071    2.931
  160.901    0.295    0.527   99.413    3.215
  161.201    0.292    0.515   94.355    3.594
  161.501    0.275    0.475   91.813    3.870
  161.801    0.255    0.469   89.269    3.941
  162.101    0.226    0.473   87.982    3.867
  162.401    0.248    0.453   89.204    3.794
  162.701    0.285    0.443   94.814    3.863
  163.001    0.285    0.441   97.294    3.933
  163.301    0.268    0.451   96.634    4.005
  163.601    0.273    0.443  100.365    4.155
  163.901    0.269    0.425   94.052    4.232
  164.201    0.269    0.396   87.122    4.642
  164.501    0.307    0.367   77.675    5.590
  164.801    0.353    0.327   65.092    8.261
  165.101    0.408    0.177   54.393   19.085
  165.401    0.445    0.111   46.201   34.614
  165.701    0.456    0.104   44.287   51.152
  166.001    0.454    0.107   42.999   62.748
  166.301    0.457    0.095   41.075   62.720
  166.601    0.463    0.074   40.414   61.531
  166.901    0.457    0.070   39.758   61.498
  167.201    0.446    0.077   38.460   62.632
  167.501    0.444    0.094   36.550   63.772
  167.801    0.422    0.098   34.011   63.744
  168.101    0.404    0.077   31.469   64.918
  168.401    0.421    0.060   30.804   63.694
  168.701    0.430    0.054   32.028   61.336
  169.001    0.425    0.064   33.872   57.979
  169.301    0.421    0.081   38.235   49.010
  169.601    0.429    0.103   47.612   36.366
  169.901    0.424    0.122   51.342   28.536
  170.201    0.422    0.129   48.793   24.576
  170.501    0.430    0.139   49.394   18.926
  170.801    0.439    0.156   49.362   13.786
  171.101    0.439    0.188   47.442    8.980
  171.401    0.424    0.212   49.292    5.849
  171.701    0.412    0.232   46.743    4.260
  172.001    0.387    0.251   42.327    3.669
  172.301    0.357    0.304   34.134    2.933
  172.601    0.337    0.333   36.609    2.824
  172.901    0.306    0.353   64.812    2.876
  173.201    0.255    0.371   90.504    3.275
  173.501    0.239    0.373   96.747    4.018
  173.801    0.236    0.392  102.356    4.661
  174.101    0.255    0.436   93.537    4.835
  174.401    0.269    0.426   91.618    4.744
  174.701    0.260    0.421   95.981    4.402
  175.001    0.263    0.419   89.047    3.862
  175.301    0.282    0.402   77.094    3.583
  175.601    0.301    0.381   75.803    3.387
  175.901    0.303    0.367   66.986    3.261
  176.201    0.306    0.372   70.712    3.200
  176.501    0.275    0.391   83.862    3.258
  176.801    0.256    0.412   95.748    3.444
  177.101    0.252    0.427   98.224    3.922
  177.401    0.260    0.434   90.659    4.068
  177.701    0.272    0.429   87.489    3.992
  178.001    0.287    0.404   80.554    3.704
  178.301    0.285    0.395   89.933    3.634
  178.601    0.240    0.414  104.958    3.770
  178.901    0.228    0.436   96.137    3.984
  179.201    0.245    0.417   91.084    4.057
  179.501    0.264    0.402   99.835    4.131
  179.801    0.242    0.431  102.939    4.207
  180.101    0.230    0.427   97.880    4.128
  180.401    0.238    0.400   92.208    4.203
  180.701    0.246    0.424   92.801    4.280
  181.001    0.235    0.443   99.670    4.278
  181.301    0.237    0.438   97.118    4.357
  181.601    0.248    0.429   93.326    4.355
  181.901    0.259    0.434   92.662    4.273
  182.201    0.261    0.420   92.005    4.192
  182.501    0.246    0.398   86.320    4.112
  182.801    0.236    0.388   86.919    4.035
  183.101    0.247    0.406   95.671    4.033
  183.401    0.251    0.433  106.300    4.107
  183.701    0.246    0.450  105.007    4.105
  184.001    0.242    0.457   97.449    3.953
  184.301    0.254    0.443   82.983    3.600
  184.601    0.282    0.431   79.189    3.340
  184.901    0.297    0.408   80.403    3.157
  185.201    0.280    0.399   89.786    3.156
  185.501    0.263    0.413   94.772    3.398
  185.801    0.258    0.426   97.247    3.659
  186.101    0.259    0.439  102.236    3.796
  186.401    0.249    0.443  109.725    3.794
  186.701    0.251    0.453  107.186    3.654
  187.001    0.275    0.460   92.095    3.519
  187.301    0.293    0.439   83.269    3.205
  187.601    0.284    0.408   84.491    2.973
  187.901    0.278    0.414   90.111    2.917
  188.201    0.280    0.427   89.450    2.915
  188.501    0.273    0.424   88.160    2.861
  188.801    0.273    0.421   84.366    2.859
  189.101    0.277    0.402   79.940    2.912
