~VERSION INFORMATION
 VERS.                 2.0:   CWLS LOG ASCII STANDARD -VERSION 2.0
 WRAP.                  NO:   ONE LINE PER DEPTH STEP
~WELL INFORMATION BLOCK
#MNEM.UNIT           DATA                    DESCRIPTION OF MNEMONIC
#---------    -------------------            -------------------------------
# Generated from Intellog Unique Number	CS_73_76/WELL/2813
WELL.         TEXACO WINEFRED LAKE 7-17      : Well_name    - WELL
LOC .         07-17-075-03W4                   : Location     - LOCATION
UWI .         00/07-17-075-03W4/0             : Uwi          - UNIQUE WELL ID
ENTR.         ANDERSEN                       : Entered      - ENTERED BY
SRVC.         COMPUTALOG                     : Scn          - SERVICE COMPANY
STRT.M        260                            : top_depth    - START DEPTH
STOP.M        510                            : bot_depth    - STOP DEPTH
STEP.M        0.25                           : increment    - STEP LENGTH
 NULL. -999.2500:NULL Value
~CURVE INFORMATION BLOCK
#MNEM UNIT       ERCB CURVE CODE    CURVE DESCRIPTION
#-----------   ------------------   ----------------------------------
DEPT.M        00 001 00 00         : DEPTH        - DEPTH
GR  .API      00 310 00 00         : GR           - GAMMA RAY
CALI.MM       00 280 01 00         : CAL          - CALIPER
NPHI.V/V      00 330 00 00         : PHIN         - NEUTRON POROSITY (SANDSTONE)
DPHI.V/V      00 890 00 00         : PHID         - DENSITY POROSITY (SANDSTONE)
ILD .OHMM     00 120 00 00         : RESD         - DEEP RESISTIVITY (DIL)
~PARAMETER INFORMATION
#MNEM.UNIT           DATA             DESCRIPTION OF MNEMONIC
#---------         -----------     ------------------------------
GL  .M        624.1                : gl           - GROUND LEVEL ELEVATION
EREF.M        627.7                : kb           - ELEVATION OF DEPTH REFERENCE
DATM.M        627.7                : datum        - DATUM ELEVATION
TDD .M        526                  : tdd          - TOTAL DEPTH DRILLER
RUN .         ONE                  : Run          - RUN NUMBER
ENG .         BILL                 : Engineer     - RECORDING ENGINEER
WIT .         JIM                  : Witness      - WITNESSED BY
MUD .         GEL                  : Mud_type     - MUD TYPE
MATR.         SANDSTONE            : Logunit      - NEUTRON MATRIX
TMAX.C        20                   : BHT          - MAXIMUM RECORDED TEMPERATURE
BHTD.M        526                  : BHTDEP       - MAXIMUM RECORDED TEMPERATURE
RMT .C        18                   : MDTP         - TEMPERATURE OF MUD
MUDD.KG/M     1100                 : MWT          - MUD DENSITY
NEUT.         1                    : NEUTRON      - NEUTRON TYPE
RESI.         0                    : RESIST       - RESISTIVITY TYPE
RM  .OHMM     4.7                  : RM           - RESISTIVITY OF MUD
RMC .OHMM     3.3                  : RMC          - RESISTIVITY OF MUD CAKE
RMF .OHMM     7.3                  : RMF          - RESISTIVITY OF MUD FILTRATE
SUFT.C        15                   : SUFT         - SURFACE TEMPERATURE
~A  DEPTH       GR      CAL     PHIN     PHID     RESD
# ...
  406.000   83.639  209.027    0.494    0.264    2.781
  406.250   84.850  208.035    0.476    0.262    2.895
  406.500   86.062  207.040    0.483    0.263    3.011
  406.750   84.861  206.048    0.489    0.264    3.073
  407.000   81.251  206.055    0.489    0.266    3.200
  407.250   78.845  206.070    0.482    0.271    3.268
  407.500   75.236  205.073    0.463    0.272    3.277
  407.750   72.829  205.080    0.445    0.250    3.287
  408.000   70.424  205.090    0.432    0.228    3.292
  408.250   72.841  204.095    0.450    0.247    3.298
  408.500   77.670  204.104    0.470    0.272    3.188
  408.750   80.690  204.114    0.472    0.277    3.134
  409.000   79.490  204.126    0.469    0.264    3.140
  409.250   81.303  204.134    0.471    0.257    3.091
  409.500   88.543  204.146    0.463    0.261    3.042
  409.750   71.069  204.156    0.451    0.286    3.046
  410.000   71.075  204.165    0.457    0.303    2.998
  410.250   76.505  206.184    0.466    0.294    3.005
  410.500   80.731  209.208    0.472    0.279    2.956
  410.750   80.736  210.227    0.477    0.266    2.908
  411.000   81.345  210.234    0.482    0.249    2.808
  411.250   82.556  210.244    0.500    0.234    2.661
  411.500   84.370  210.254    0.502    0.232    2.521
  411.750   80.159  211.266    0.509    0.240    2.434
  412.000   76.548  210.271    0.526    0.251    2.307
  412.250   77.156  208.271    0.544    0.272    2.269
  412.500   78.971  206.272    0.567    0.297    2.233
  412.750   80.180  206.282    0.584    0.299    2.239
  413.000   80.186  206.291    0.578    0.288    2.243
  413.250   80.796  205.297    0.570    0.279    2.249
  413.500   81.405  204.302    0.556    0.284    2.252
  413.750   77.193  203.307    0.539    0.289    2.301
  414.000   74.786  203.319    0.528    0.291    2.350
  414.250   76.600  203.334    0.532    0.292    2.447
  414.500   82.634  203.341    0.530    0.286    2.546
  414.750   84.448  203.351    0.540    0.279    2.750
  415.000   85.058  204.365    0.546    0.274    2.971
  415.250   83.857  204.375    0.532    0.277    3.089
  415.500   80.248  205.389    0.508    0.277    3.404
  415.750   79.048  206.401    0.478    0.273    3.542
  416.000   78.451  207.418    0.443    0.265    3.686
  416.250   78.457  207.428    0.417    0.253    3.764
  416.500   79.668  208.444    0.405    0.240    3.846
  416.750   81.481  208.452    0.408    0.242    3.851
  417.000   82.091  207.454    0.417    0.247    3.859
  417.250   81.494  206.462    0.434    0.256    3.871
  417.500   79.693  206.474    0.445    0.253    3.877
  417.750   79.699  206.486    0.440    0.246    3.886
  418.000   80.308  206.491    0.435    0.240    3.974
  418.250   77.902  206.503    0.436    0.230    3.981
  418.500   75.496  205.508    0.443    0.225    3.920
  418.750   76.104  205.518    0.449    0.234    3.927
  419.000   78.521  205.526    0.446    0.243    3.861
  419.250   81.541  204.538    0.434    0.242    3.734
  419.500   79.739  204.543    0.424    0.244    3.604
  419.750   78.540  204.550    0.454    0.253    3.543
  420.000   80.956  205.565    0.468    0.261    3.357
  420.250   84.578  206.579    0.478    0.260    3.183
  420.500   90.010  209.602    0.491    0.257    3.128
  420.750   91.824  211.621    0.498    0.260    3.024
  421.000   90.022  210.629    0.486    0.259    2.971
  421.250   83.399  207.627    0.478    0.251    2.978
  421.500   85.814  204.621    0.477    0.242    2.931
  421.750   91.847  202.624    0.485    0.247    2.936
  422.000   95.470  201.627    0.497    0.255    3.004
  422.250   94.873  200.634    0.504    0.256    3.009
  422.500   96.688  200.642    0.511    0.254    3.071
  422.750   94.282  200.654    0.497    0.247    3.198
  423.000   90.070  199.656    0.485    0.247    3.262
  423.250   88.870  199.671    0.469    0.250    3.664
  423.500   85.258  199.676    0.450    0.250    3.808
  423.750   78.634  199.688    0.423    0.256    4.037
  424.000   73.818  199.698    0.390    0.261    4.364
  424.250   68.399  199.710    0.376    0.263    4.714
  424.500   69.612  199.717    0.368    0.266    5.095
  424.750   72.030  199.727    0.367    0.262    5.506
  425.000   72.036  200.744    0.367    0.255    5.723
  425.250   70.233  200.754    0.363    0.247    6.182
  425.500   69.032  200.763    0.363    0.243    6.558
  425.750   67.833  200.775    0.363    0.238    6.693
  426.000   67.838  200.780    0.360    0.232    6.968
  426.250   63.024  200.793    0.355    0.229    7.116
  426.500   59.412  200.802    0.381    0.239    7.133
  426.750   52.185  200.812    0.392    0.263    6.630
  427.000   55.204  200.819    0.389    0.281    5.512
  427.250   64.251  201.836    0.389    0.285    4.671
  427.500   63.052  201.846    0.405    0.296    4.342
  427.750   63.057  201.856    0.441    0.280    4.039
  428.000   72.707  201.863    0.457    0.275    3.975
  428.250   78.742  201.873    0.404    0.293    4.458
  428.500   68.501  201.882    0.393    0.323    4.996
  428.750   61.276  202.899    0.389    0.332    6.041
  429.000   60.074  202.909    0.377    0.336    7.305
  429.250   61.286  202.919    0.374    0.335    8.191
  429.500   63.703  202.928    0.388    0.330    8.523
  429.750   68.532  202.941    0.392    0.321    8.086
  430.000   69.743  202.953    0.390    0.300    7.798
  430.250   71.557  202.958    0.382    0.287    7.257
  430.500   73.974  202.970    0.368    0.276    7.135
  430.750   76.994  201.975    0.361    0.258    7.156
  431.000   79.409  201.982    0.356    0.240    7.177
  431.250   81.826  201.992    0.358    0.221    7.189
  431.500   86.052  200.997    0.359    0.218    7.202
  431.750   88.468  201.009    0.359    0.222    7.231
  432.000   87.872  202.024    0.359    0.232    7.235
  432.250   86.070  202.033    0.356    0.258    7.117
  432.500   82.459  203.048    0.346    0.277    7.138
  432.750   72.823  203.057    0.340    0.237    7.022
  433.000   71.621  203.067    0.337    0.227    6.904
  433.250   71.025  203.077    0.330    0.220    6.792
  433.500   74.044  204.091    0.326    0.212    6.685
  433.750   80.079  204.103    0.340    0.202    6.455
  434.000   83.700  204.111    0.357    0.179    6.350
  434.250   96.966  204.123    0.371    0.169    6.131
  434.500  105.412  204.133    0.382    0.176    6.031
  434.750  105.418  204.142    0.389    0.185    6.045
  435.000  105.424  204.157    0.396    0.182    5.947
  435.250  107.840  204.164    0.405    0.187    5.964
  435.500  109.654  204.169    0.413    0.181    5.975
  435.750  109.059  204.184    0.422    0.184    5.992
  436.000  110.270  204.191    0.430    0.187    6.006
  436.250  112.686  204.198    0.437    0.186    6.020
  436.500  111.486  204.211    0.421    0.185    6.034
  436.750  106.067  204.220    0.412    0.185    6.044
  437.000  100.648  204.230    0.408    0.189    6.297
  437.250   93.421  203.238    0.403    0.195    6.308
  437.500   86.194  203.245    0.395    0.208    6.563
  437.750   78.967  203.255    0.379    0.223    6.707
  438.000   91.028  203.269    0.371    0.232    6.841
  438.250  101.883  203.274    0.362    0.223    6.987
  438.500  100.683  202.282    0.352    0.213    7.143
  438.750   95.867  202.294    0.358    0.219    7.160
  439.000   89.846  202.299    0.361    0.225    7.172
  439.250   84.427  202.311    0.359    0.233    7.056
  439.500   78.405  202.323    0.345    0.241    7.076
  439.750   76.604  202.328    0.347    0.249    6.340
  440.000   71.790  202.338    0.347    0.258    6.233
  440.250   76.616  202.350    0.344    0.257    6.251
  440.500   79.033  202.362    0.347    0.247    6.153
  440.750   74.217  202.370    0.354    0.247    6.164
  441.000   70.606  202.382    0.353    0.254    6.182
  441.250   74.831  202.389    0.340    0.260    6.196
  441.500   78.453  202.401    0.341    0.247    6.088
  441.750   76.651  201.409    0.348    0.243    6.102
  442.000   62.191  201.416    0.357    0.266    6.007
  442.250   54.361  201.423    0.351    0.283    6.021
