~VERSION INFORMATION
 VERS.                 2.0:   CWLS LOG ASCII STANDARD -VERSION 2.0
 WRAP.                  NO:   ONE LINE PER DEPTH STEP
~WELL INFORMATION BLOCK
#MNEM.UNIT           DATA                    DESCRIPTION OF MNEMONIC
#---------    -------------------            -------------------------------
# Generated from Intellog Unique Number	CW_73_75/WELL/619
WELL.         HB AMOCO MARTIN HILLS 06-33    : Well_name    - WELL
LOC .         00/06-33-074-26W4/0            : Location     - LOCATION
UWI .         00/06-33-074-26W4/0            : Uwi          - UNIQUE WELL ID
ENTR.         JAYE                           : Entered      - ENTERED BY
SRVC.         SCHLUMBERGER                   : Scn          - SERVICE COMPANY
DATE.         9 FEB 77                       : Date         - LOG DATE
STRT.M        554.736                        : top_depth    - START DEPTH
STOP.M        771.236                        : bot_depth    - STOP DEPTH
STEP.M        0.25                           : increment    - STEP LENGTH
 NULL. -999.2500:NULL Value
~CURVE INFORMATION BLOCK
#MNEM UNIT       ERCB CURVE CODE    CURVE DESCRIPTION
#-----------   ------------------   ----------------------------------
DEPT.M        00 001 00 00         : DEPTH        - DEPTH
ILD .OHMM     00 120 00 00         : RESD         - DEEP RESISTIVITY (DIL)
NPHI.V/V      00 330 00 00         : PHIN         - NEUTRON POROSITY (SANDSTONE)
DPHI.V/V      00 890 00 00         : PHID         - DENSITY POROSITY (SANDSTONE)
GR  .API      00 310 00 00         : GR           - GAMMA RAY
CALI.MM       00 280 01 00         : CAL          - CALIPER
~PARAMETER INFORMATION
#MNEM.UNIT           DATA             DESCRIPTION OF MNEMONIC
#---------         -----------     ------------------------------
GL  .M        817.778              : gl           - GROUND LEVEL ELEVATION
EREF.M        820.826              : kb           - ELEVATION OF DEPTH REFERENCE
DATM.M        817.778              : datum        - DATUM ELEVATION
TDD .M        745.236              : tdd          - TOTAL DEPTH DRILLER
RUN .         ONE                  : Run          - RUN NUMBER
ENG .         PRICE                : Engineer     - RECORDING ENGINEER
WIT .         MAQUE                : Witness      - WITNESSED BY
BASE.         EDM                  : Branch       - HOME BASE OF LOGGING UNIT
MUD .         GEL CHEM             : Mud_type     - MUD TYPE
MATR.         SANDSTONE            : Logunit      - NEUTRON MATRIX
TMAX.C        25.5556              : BHT          - MAXIMUM RECORDED TEMPERATURE
BHTD.M        746.15               : BHTDEP       - MAXIMUM RECORDED TEMPERATURE
RMT .C        18.8889              : MDTP         - TEMPERATURE OF MUD
MUDD.KG/M     1170                 : MWT          - MUD DENSITY
NEUT.         1                    : NEUTRON      - NEUTRON TYPE
RESI.         0                    : RESIST       - RESISTIVITY TYPE
RM  .OHMM     4.49                 : RM           - RESISTIVITY OF MUD
RMC .OHMM     0                    : RMC          - RESISTIVITY OF MUD CAKE
RMF .OHMM     4.59                 : RMF          - RESISTIVITY OF MUD FILTRATE
SUFT.C        -17.7778             : SUFT         - SURFACE TEMPERATURE
~A  DEPTH     RESD     PHIN     PHID       GR      CAL
# ...
  700.736   12.070    0.315    0.152   67.341  137.803
  700.986   14.273    0.245    0.116   64.373  138.587
  701.236   14.990    0.196    0.018   59.136  139.890
  701.486   14.848    0.199    0.004   54.942  141.816
  701.736   13.326    0.216    0.012   58.833  142.697
  701.986   11.384    0.269    0.056   63.462  141.822
  702.236    9.977    0.353    0.193   66.435  141.769
  702.486    9.053    0.395    0.218   64.998  141.830
  702.736    8.022    0.405    0.206   64.113  141.882
  702.986    7.440    0.410    0.198   65.249  141.942
  703.236    7.343    0.401    0.203   68.038  141.687
  703.486    7.655    0.388    0.203   70.521  141.742
  703.736    8.202    0.404    0.216   71.842  141.597
  703.986    8.741    0.423    0.207   72.242  141.535
  704.236    9.096    0.413    0.191   72.027  141.182
  704.486    9.092    0.400    0.170   71.699  140.610
  704.736    8.990    0.391    0.148   71.235  139.524
  704.986    8.633    0.391    0.147   71.943  138.336
  705.236    8.051    0.405    0.158   75.406  137.257
  705.486    8.317    0.428    0.196   75.685  136.590
  705.736    9.728    0.417    0.220   71.612  136.227
  705.986   11.610    0.349    0.191   68.093  136.172
  706.236   12.669    0.282    0.167   67.147  136.539
  706.486   12.389    0.313    0.128   67.483  138.563
  706.736   11.491    0.385    0.081   68.316  139.974
  706.986   10.276    0.393    0.152   69.080  140.130
  707.236    9.138    0.394    0.209   70.344  140.501
  707.486    8.353    0.397    0.213   71.111  140.666
  707.736    7.790    0.398    0.214   73.100  140.719
  707.986    7.251    0.400    0.217   73.561  140.457
  708.236    6.950    0.410    0.221   72.614  140.304
  708.486    6.686    0.400    0.228   73.875  140.152
  708.736    6.420    0.396    0.231   76.297  139.593
  708.986    6.290    0.402    0.204   77.675  139.327
  709.236    6.475    0.413    0.206   78.567  138.872
  709.486    6.849    0.420    0.219   79.028  138.506
  709.736    7.339    0.414    0.213   79.306  138.565
  709.986    8.414    0.401    0.202   78.665  138.828
  710.236   10.078    0.361    0.186   77.227  139.610
  710.486   11.303    0.290    0.170   73.339  140.076
  710.736   11.094    0.261    0.120   67.001  139.406
  710.986   10.441    0.295    0.102   67.341  138.529
  711.236    9.388    0.328    0.121   67.372  138.069
  711.486    8.534    0.385    0.184   67.098  137.916
  711.736    7.944    0.389    0.204   67.380  138.279
  711.986    7.741    0.385    0.208   69.860  138.861
  712.236    7.625    0.391    0.213   71.118  139.121
  712.486    7.526    0.392    0.208   71.274  139.901
  712.736    7.803    0.390    0.199   70.940  140.586
  712.986    7.900    0.389    0.208   70.726  140.955
  713.236    7.941    0.390    0.221   73.458  141.119
  713.486    7.881    0.389    0.221   72.999  140.959
  713.736    7.721    0.387    0.212   70.274  140.696
  713.986    7.509    0.409    0.197   71.357  140.450
  714.236    7.264    0.416    0.184   72.117  140.706
  714.486    7.065    0.407    0.184   74.172  140.865
  714.736    6.759    0.399    0.192   76.900  140.921
  714.986    6.419    0.394    0.189   77.607  140.766
  715.236    5.954    0.392    0.197   82.423  139.169
  715.486    5.363    0.399    0.205   82.757  137.668
  715.736    5.122    0.411    0.217   82.117  137.210
  715.986    5.120    0.442    0.232   83.376  136.844
  716.236    5.222    0.459    0.243   86.716  137.106
  716.486    5.385    0.459    0.228   79.521  137.677
  716.736    5.563    0.446    0.217   80.102  138.461
  716.986    5.853    0.432    0.218   81.183  138.723
  717.236    6.101    0.411    0.211   79.802  137.644
  717.486    6.268    0.417    0.206   78.180  136.656
  717.736    6.393    0.420    0.211   76.317  135.887
  717.986    6.473    0.416    0.209   74.876  135.421
  718.236    6.401    0.414    0.205   73.441  136.510
  718.486    6.259    0.403    0.200   72.676  138.854
  718.736    6.000    0.396    0.195   72.832  136.939
  718.986    5.740    0.396    0.190   75.747  135.227
  719.236    5.665    0.424    0.193   81.105  134.457
  719.486    6.026    0.429    0.202   79.425  134.509
  719.736    6.709    0.421    0.220   77.618  134.564
  719.986    7.891    0.422    0.224   79.737  133.996
  720.236    8.980    0.431    0.220   81.790  132.185
  720.486    9.853    0.415    0.226   80.413  127.989
  720.736   10.366    0.390    0.210   78.425  128.458
  720.986   10.710    0.361    0.174   72.881  132.454
  721.236   10.764    0.335    0.135   69.729  135.937
  721.486   11.140    0.298    0.067   69.089  137.855
  721.736   12.157    0.295    0.044   69.921  138.952
  721.986   12.467    0.311    0.048   70.562  136.930
  722.236   11.189    0.331    0.072   71.086  136.471
  722.486    9.951    0.342    0.093   70.753  138.505
  722.736    9.128    0.337    0.090   69.928  138.863
  722.986    8.654    0.321    0.071   70.818  139.331
  723.236    8.160    0.326    0.051   74.404  139.491
  723.486    7.836    0.345    0.056   75.909  139.448
  723.736    7.510    0.364    0.076   76.183  139.084
  723.986    7.159    0.378    0.124   76.220  138.312
  724.236    6.824    0.397    0.147   76.498  137.748
  724.486    6.601    0.380    0.126   77.262  136.655
  724.736    6.224    0.367    0.127   78.644  136.306
  724.986    5.847    0.371    0.145   82.048  136.457
  725.236    5.677    0.384    0.156   87.101  134.644
  725.486    5.461    0.390    0.163   94.669  132.211
  725.736    5.321    0.389    0.167   97.092  132.161
  725.986    5.128    0.392    0.175   97.431  133.262
  726.236    4.969    0.407    0.164   97.649  134.458
  726.486    4.869    0.415    0.147   98.663  135.859
  726.736    4.831    0.418    0.130  100.654  137.060
  726.986    4.829    0.419    0.132   98.790  138.047
  727.236    4.845    0.411    0.140   98.334  138.725
  727.486    4.835    0.400    0.132   99.102  138.889
  727.736    4.815    0.396    0.114  101.643  138.420
  727.986    4.814    0.402    0.109  110.377  136.816
  728.236    4.838    0.421    0.133  117.209  138.528
  728.486    4.890    0.432    0.137  123.555  141.696
  728.736    4.924    0.419    0.130  128.916  144.352
  728.986    5.050    0.402    0.130  138.016  145.649
  729.236    5.160    0.404    0.142  143.624  146.752
  729.486    5.340    0.398    0.147  137.838  147.003
  729.736    5.557    0.401    0.129  132.846  146.960
  729.986    5.911    0.407    0.119  130.306  146.391
  730.236    6.533    0.405    0.122  131.014  145.718
  730.486    7.039    0.394    0.134  132.947  145.358
  730.736    7.752    0.398    0.113  134.018  145.000
  730.986    8.336    0.399    0.142  127.496  144.229
  731.236    8.137    0.385    0.159  113.683  143.242
  731.486    7.958    0.381    0.177  112.921  142.260
  731.736    7.796    0.402    0.161  114.428  142.214
  731.986    7.680    0.409    0.172  116.907  141.855
  732.236    7.664    0.399    0.163  121.719  140.976
  732.486    7.675    0.377    0.157  129.104  140.312
  732.736    8.002    0.369    0.151  135.141  140.259
  732.986    8.480    0.373    0.146  132.109  140.622
  733.236    8.987    0.378    0.140  132.878  140.884
  733.486    9.700    0.376    0.140  126.170  139.801
  733.736   10.132    0.367    0.143  116.034  137.574
  733.986   10.296    0.358    0.134   98.483  137.213
  734.236   10.050    0.343    0.102   89.570  137.482
  734.486    9.475    0.316    0.081   92.361  137.948
  734.736    9.033    0.348    0.085  102.379  138.633
  734.986    8.378    0.373    0.122  104.927  139.512
  735.236    7.871    0.361    0.130  105.141  139.369
  735.486    7.367    0.337    0.114  106.278  138.170
  735.736    7.126    0.339    0.081  108.087  138.121
  735.986    6.943    0.356    0.122  110.021  138.799
  736.236    6.840    0.374    0.127  114.462  139.481
  736.486    6.800    0.384    0.110  123.256  140.160
  736.736    6.798    0.388    0.100  116.305  140.316
  736.986    6.733    0.372    0.101  106.473  140.579
