~VERSION INFORMATION
 VERS.                 2.0:   CWLS LOG ASCII STANDARD -VERSION 2.0
 WRAP.                  NO:   ONE LINE PER DEPTH STEP
~WELL INFORMATION BLOCK
#MNEM.UNIT           DATA                    DESCRIPTION OF MNEMONIC
#---------    -------------------            -------------------------------
# Generated from Intellog Unique Number	CS_73_76/WELL/2162
WELL.         HOUSTON OILS LIMITED           : Well_name    - WELL
LOC .         00/06-08-074-14W4/0            : Location     - LOCATION
UWI .         00/06-08-074-14W4/0            : Uwi          - UNIQUE WELL ID
ENTR.         SP                             : Entered      - ENTERED BY
SRVC.         SCHLUMBERGER                   : Scn          - SERVICE COMPANY
STRT.M        365.76                         : top_depth    - START DEPTH
STOP.M        600.26                         : bot_depth    - STOP DEPTH
STEP.M        0.25                           : increment    - STEP LENGTH
 NULL. -999.2500:NULL Value
~CURVE INFORMATION BLOCK
#MNEM UNIT       ERCB CURVE CODE    CURVE DESCRIPTION
#-----------   ------------------   ----------------------------------
DEPT.M        00 001 00 00         : DEPTH        - DEPTH
GR  .API      00 310 00 00         : GR           - GAMMA RAY
DPHI.V/V      00 890 00 00         : PHID         - DENSITY POROSITY (SANDSTONE)
NPHI.V/V      00 330 00 00         : PHIN         - NEUTRON POROSITY (SANDSTONE)
ILD .OHMM     00 120 00 00         : RESD         - DEEP RESISTIVITY (DIL)
~PARAMETER INFORMATION
#MNEM.UNIT           DATA             DESCRIPTION OF MNEMONIC
#---------         -----------     ------------------------------
GL  .M        712.318              : gl           - GROUND LEVEL ELEVATION
EREF.M        715.366              : kb           - ELEVATION OF DEPTH REFERENCE
DATM.M        712.318              : datum        - DATUM ELEVATION
TDD .M        611.124              : tdd          - TOTAL DEPTH DRILLER
RUN .         ONE                  : Run          - RUN NUMBER
ENG .         BILL                 : Engineer     - RECORDING ENGINEER
WIT .         JIM                  : Witness      - WITNESSED BY
MUD .         GEL                  : Mud_type     - MUD TYPE
MATR.         SANDSTONE            : Logunit      - NEUTRON MATRIX
TMAX.C        25.5556              : BHT          - MAXIMUM RECORDED TEMPERATURE
BHTD.M        611.124              : BHTDEP       - MAXIMUM RECORDED TEMPERATURE
MATR.         1                    : LOGUNIT      - NEUTRON MATRIX
RMT .C        25                   : MDTP         - TEMPERATURE OF MUD
NEUT.         1                    : NEUTRON      - NEUTRON TYPE
RESI.         0                    : RESIST       - RESISTIVITY TYPE
RMC .OHMM     0.25                 : RMC          - RESISTIVITY OF MUD CAKE
RMF .OHMM     0.25                 : RMF          - RESISTIVITY OF MUD FILTRATE
SUFT.C        15                   : SUFT         - SURFACE TEMPERATURE
~A  DEPTH       GR     PHID     PHIN     RESD
  365.760   93.829    0.234    0.598    2.586
  366.010   93.225    0.210    0.608    2.540
  366.260   93.327    0.221    0.633    2.560
  366.510  100.899    0.237    0.673    2.676
  366.760  103.206    0.242    0.678    2.816
  367.010  105.373    0.248    0.661    2.904
  367.260  105.822    0.271    0.626    3.038
  367.510  105.831    0.276    0.593    3.110
  367.760  105.872    0.247    0.596    3.037
  368.010  106.480    0.231    0.654    2.947
  368.260  105.354    0.225    0.678    2.858
  368.510  104.029    0.215    0.695    2.773
  368.760  104.082    0.239    0.711    2.641
  369.010  103.067    0.238    0.712    2.572
  369.260  101.682    0.245    0.660    2.627
  369.510  101.075    0.259    0.645    2.653
  369.760  100.290    0.249    0.649    2.747
  370.010   99.886    0.256    0.624    2.872
  370.260  100.325    0.239    0.609    2.960
  370.510  103.870    0.245    0.648    2.970
  370.760  107.964    0.243    0.666    2.832
  371.010  108.180    0.219    0.675    2.766
  371.260  108.182    0.207    0.692    2.768
  371.510  105.506    0.237    0.714    2.723
  371.760  104.308    0.247    0.736    2.669
  372.010  102.305    0.240    0.689    2.671
  372.260  103.536    0.250    0.679    2.922
  372.510  101.132    0.259    0.655    3.020
  372.760   96.626    0.260    0.666    3.260
  373.010   92.247    0.261    0.597    3.269
  373.260   90.246    0.223    0.553    3.107
  373.510   91.891    0.201    0.534    2.931
  373.760   95.096    0.247    0.634    2.760
  374.010   94.400    0.259    0.717    2.728
  374.260   92.015    0.291    0.725    3.069
  374.510   88.604    0.307    0.630    3.805
  374.760   84.268    0.321    0.512    4.641
  375.010   77.747    0.178    0.494    5.996
  375.260   78.919    0.117    0.460    7.415
  375.510   81.970    0.084    0.395    7.975
  375.760   88.246    0.211    0.435    7.573
  376.010   92.269    0.225    0.450    7.074
  376.260   95.645    0.228    0.446    6.780
  376.510   98.489    0.253    0.466    6.505
  376.760   97.275    0.276    0.483    6.371
  377.010   95.322    0.294    0.511    6.278
  377.260   94.456    0.290    0.574    6.271
  377.510   92.066    0.290    0.562    6.407
  377.760   89.548    0.297    0.550    6.605
  378.010   88.796    0.284    0.503    6.583
  378.260   90.517    0.299    0.487    6.508
  378.510   93.124    0.327    0.481    6.308
  378.760   95.159    0.353    0.487    6.093
  379.010   98.189    0.377    0.617    5.841
  379.260  100.797    0.372    0.636    5.369
  379.510  103.965    0.328    0.630    5.289
  379.760  105.408    0.281    0.620    5.047
  380.010  105.156    0.293    0.611    5.001
  380.260  101.109    0.317    0.617    5.446
  380.510   95.492    0.345    0.614    5.862
  380.760   86.975    0.376    0.639    6.194
  381.010   81.440    0.370    0.624    6.508
  381.260   77.847    0.342    0.597    6.699
  381.510   77.311    0.338    0.556    6.910
  381.760   79.191    0.329    0.520    6.985
  382.010   79.854    0.328    0.523    6.988
  382.260   78.690    0.331    0.530    7.010
  382.510   75.170    0.323    0.514    7.121
  382.760   73.421    0.310    0.495    7.040
  383.010   74.206    0.298    0.483    7.104
  383.260   77.750    0.299    0.488    7.106
  383.510   80.718    0.286    0.476    7.092
  383.760   82.930    0.280    0.466    7.242
  384.010   87.837    0.275    0.475    7.233
  384.260   89.838    0.260    0.452    7.243
  384.510   88.795    0.237    0.440    7.098
  384.760   86.171    0.244    0.416    7.098
  385.010   81.575    0.252    0.433    7.063
  385.260   68.498    0.282    0.464    6.965
  385.510   54.770    0.314    0.483    6.887
  385.760   48.291    0.323    0.471    6.824
  386.010   49.071    0.321    0.443    6.599
  386.260   54.505    0.311    0.430    6.545
  386.510   59.847    0.292    0.424    6.350
  386.760   66.699    0.270    0.421    6.270
  387.010   72.426    0.243    0.415    6.136
  387.260   79.830    0.239    0.452    5.895
  387.510   86.964    0.251    0.488    5.823
  387.760   89.655    0.234    0.480    5.763
  388.010   94.247    0.226    0.482    5.688
  388.260   96.086    0.223    0.486    5.686
  388.510   97.352    0.237    0.482    5.687
  388.760   93.089    0.238    0.490    5.680
  389.010   94.677    0.232    0.493    5.809
  389.260   95.450    0.219    0.495    5.672
  389.510   94.392    0.242    0.533    5.695
  389.760   93.758    0.252    0.542    5.376
  390.010   97.870    0.273    0.529    5.058
  390.260  107.921    0.217    0.539    4.751
  390.510  111.474    0.201    0.580    4.517
  390.760  106.799    0.183    0.596    4.392
  391.010  105.815    0.150    0.574    4.258
  391.260  110.444    0.165    0.631    4.094
  391.510  115.173    0.179    0.682    3.804
  391.760  116.210    0.161    0.695    3.487
  392.010  115.241    0.207    0.710    3.153
  392.260  114.766    0.233    0.726    2.899
  392.510  114.275    0.245    0.740    2.729
  392.760  111.521    0.266    0.736    3.040
  393.010  114.168    0.295    0.724    3.835
  393.260  116.147    0.315    0.615    4.690
  393.510  110.934    0.309    0.584    5.610
  393.760  110.624    0.253    0.520    6.456
  394.010  108.982    0.248    0.495    7.122
  394.260  108.726    0.254    0.505    7.447
  394.510  105.400    0.264    0.497    7.461
  394.760   98.436    0.275    0.507    7.341
  395.010   91.133    0.260    0.499    7.982
  395.260   84.487    0.287    0.526    8.096
  395.510   87.082    0.290    0.470    7.397
  395.760   94.889    0.268    0.466    6.465
  396.010  102.749    0.217    0.485    5.596
  396.260  105.950    0.203    0.588    4.944
  396.510  105.139    0.161    0.654    4.659
  396.760  102.827    0.150    0.635    4.718
  397.010  103.994    0.215    0.614    5.075
  397.260  103.032    0.262    0.641    5.831
  397.510  101.215    0.329    0.635    6.312
  397.760   99.272    0.308    0.597    7.147
  398.010   97.211    0.297    0.520    7.727
  398.260   96.852    0.272    0.462    8.386
  398.510   97.377    0.263    0.450    8.733
  398.760   98.367    0.269    0.457    8.849
  399.010   99.343    0.278    0.470    8.549
  399.260  100.488    0.290    0.466    8.042
  399.510   99.240    0.297    0.485    7.637
  399.760  101.786    0.305    0.479    7.273
  400.010  104.530    0.326    0.512    7.199
  400.260  108.338    0.301    0.545    7.010
  400.510  111.876    0.296    0.556    7.019
  400.760  116.090    0.297    0.573    7.029
  401.010  119.045    0.281    0.567    6.856
  401.260  116.342    0.262    0.535    6.538
  401.510  108.060    0.318    0.529    6.211
  401.760   96.823    0.319    0.581    6.029
  402.010   85.936    0.337    0.625    6.098
  402.260   76.796    0.342    0.546    7.106
  402.510   71.701    0.322    0.498    7.728
  402.760   74.266    0.300    0.476    8.082
  403.010   82.768    0.300    0.460    8.332
  403.260   89.387    0.277    0.446    8.407
  403.510   92.781    0.280    0.437    8.521
  403.760   95.366    0.278    0.434    8.555
  404.010   98.090    0.267    0.434    8.562
  404.260  101.767    0.257    0.429    8.290
  404.510  103.996    0.246    0.416    8.224
  404.760  105.938    0.233    0.402    7.974
  405.010  106.251    0.224    0.411    7.527
  405.260  107.395    0.229    0.443    6.947
  405.510  110.363    0.217    0.476    6.357
  405.760  113.822    0.216    0.520    5.552
  406.010  114.924    0.208    0.593    4.726
  406.260  113.801    0.209    0.629    4.258
  406.510  114.706    0.231    0.643    3.842
  406.760  113.719    0.262    0.663    3.823
  407.010  112.637    0.267    0.665    3.867
  407.260  110.050    0.281    0.644    4.003
  407.510  106.654    0.291    0.583    4.253
  407.760  104.764    0.296    0.593    4.661
  408.010  100.747    0.308    0.623    4.988
  408.260   98.920    0.289    0.586    5.453
  408.510   98.537    0.273    0.506    6.010
  408.760  102.803    0.250    0.478    6.774
  409.010  104.801    0.235    0.508    7.045
