~VERSION INFORMATION
 VERS.                 2.0:   CWLS LOG ASCII STANDARD -VERSION 2.0
 WRAP.                  NO:   ONE LINE PER DEPTH STEP
~WELL INFORMATION BLOCK
#MNEM.UNIT           DATA                    DESCRIPTION OF MNEMONIC
#---------    -------------------            -------------------------------
# Generated from Intellog Unique Number	CW_70_72/WELL/829
NULL.         -999.25                        : NULL_VALUE
WELL.         SUNDANCE ET AL SMITH 06-29     : Well_name    - WELL              
LOC .         06-29-071-22W4                 : Location     - LOCATION          
UWI .         00/06-29-071-22W4/0            : Uwi          - UNIQUE WELL ID    
ENTR.         JAYE                           : Entered      - ENTERED BY        
SRVC.         SCHLUMBERGER                   : Scn          - SERVICE COMPANY   
DATE.         9 MAR 76                       : Date         - LOG DATE          
STRT.M        402.336                        : top_depth    - START DEPTH       
STOP.M        603.586                        : bot_depth    - STOP DEPTH        
STEP.M        0.25                           : increment    - STEP LENGTH       
~CURVE INFORMATION BLOCK
#MNEM UNIT       ERCB CURVE CODE    CURVE DESCRIPTION
#-----------   ------------------   ----------------------------------
DEPT.M        00 001 00 00         : DEPTH        - DEPTH                       
DPHI.V/V      00 890 00 00         : PHID         - DENSITY POROSITY (SANDSTONE)
NPHI.V/V      00 330 00 00         : PHIN         - NEUTRON POROSITY (SANDSTONE)
GR  .API      00 310 00 00         : GR           - GAMMA RAY                   
CALI.MM       00 280 01 00         : CAL          - CALIPER                     
ILD .OHMM     00 120 00 00         : RESD         - DEEP RESISTIVITY (DIL)      
~PARAMETER INFORMATION       
#MNEM.UNIT           DATA             DESCRIPTION OF MNEMONIC
#---------         -----------     ------------------------------
GL  .M        641.421              : gl           - GROUND LEVEL ELEVATION      
EREF.M        644.896              : kb           - ELEVATION OF DEPTH REFERENCE
DATM.M        641.421              : datum        - DATUM ELEVATION             
TDD .M        625.754              : tdd          - TOTAL DEPTH DRILLER         
RUN .         ONE                  : Run          - RUN NUMBER                  
BASE.         EDM                  : Branch       - HOME BASE OF LOGGING UNIT   
MUD .         GEL                  : Mud_type     - MUD TYPE                    
MATR.         SANDSTONE            : Logunit      - NEUTRON MATRIX              
TMAX.C        22.7778              : BHT          - MAXIMUM RECORDED TEMPERATURE
BHTD.M        626.669              : BHTDEP       - MAXIMUM RECORDED TEMPERATURE
RMT .C        21.6667              : MDTP         - TEMPERATURE OF MUD          
MUDD.KG/M     0                    : MWT          - MUD DENSITY                 
NEUT.         1                    : NEUTRON      - NEUTRON TYPE                
RESI.         0                    : RESIST       - RESISTIVITY TYPE            
RM  .OHMM     1.67                 : RM           - RESISTIVITY OF MUD          
RMC .OHMM     1.25                 : RMC          - RESISTIVITY OF MUD CAKE     
RMF .OHMM     2.74                 : RMF          - RESISTIVITY OF MUD FILTRATE 
SUFT.C        -17.7778             : SUFT         - SURFACE TEMPERATURE         
~A  DEPTH     PHID     PHIN       GR      CAL     RESD
# ...
  438.836    0.284    0.490  102.268  176.222    4.519
  439.086    0.278    0.450   94.426  172.574    4.743
  439.336    0.233    0.444   89.456  163.632    5.043
  439.586    0.252    0.461   87.175  157.644    5.472
  439.836    0.255    0.471   84.457  154.929    5.982
  440.086    0.268    0.471   78.364  154.033    6.736
  440.336    0.272    0.469   71.400  153.333    8.178
  440.586    0.258    0.465   64.742  153.262   11.490
  440.836    0.266    0.450   62.273  153.305   15.442
  441.086    0.271    0.430   64.730  153.351   21.493
  441.336    0.236    0.371   67.004  153.698   30.363
  441.586    0.253    0.331   65.092  153.748   44.172
  441.836    0.144    0.172   61.750  154.109   53.252
  442.086    0.003    0.150   54.410  154.674   44.641
  442.336    0.008    0.160   52.440  155.040   29.610
  442.586    0.014    0.184   57.456  155.807   22.179
  442.836    0.025    0.236   66.272  156.274   13.664
  443.086    0.048    0.276   79.778  156.427    8.638
  443.336    0.110    0.404   89.288  156.681    6.342
  443.586    0.180    0.442  102.102  156.610    5.406
  443.836    0.198    0.462  100.446  156.549    5.062
  444.086    0.236    0.466   93.667  156.267    4.853
  444.336    0.245    0.444   90.509  156.094    4.672
  444.586    0.250    0.446   92.215  155.921    4.641
  444.836    0.262    0.454   94.925  155.653    4.776
  445.086    0.267    0.462   97.879  155.274    4.904
  445.336    0.262    0.464  100.591  154.792    5.089
  445.586    0.252    0.465  105.109  154.931    5.424
  445.836    0.236    0.465  108.753  156.345    5.477
  446.086    0.217    0.462  105.466  158.511    5.350
  446.336    0.205    0.462  100.502  160.878    5.010
  446.586    0.215    0.466   94.222  159.218    4.604
  446.836    0.232    0.471   92.124  157.258    4.264
  447.086    0.252    0.472   94.146  155.390    4.089
  447.336    0.238    0.470   98.540  155.013    4.063
  447.586    0.266    0.463   98.873  154.837    4.162
  447.836    0.259    0.449   98.459  154.890    4.477
  448.086    0.244    0.435  100.794  154.825    4.698
  448.336    0.232    0.444  104.249  155.075    4.960
  448.586    0.210    0.459  106.521  154.897    5.208
  448.836    0.196    0.468  107.355  154.725    5.326
  449.086    0.189    0.481  107.571  154.451    5.344
  449.336    0.200    0.484  107.528  154.501    5.284
  449.586    0.209    0.476  107.495  155.696    5.138
  449.836    0.198    0.456  108.513  158.169    5.062
  450.086    0.190    0.444  110.350  160.960    4.963
  450.336    0.179    0.449  112.370  162.483    4.848
  450.586    0.155    0.458  113.707  163.160    4.747
  450.836    0.166    0.477  114.044  163.506    4.697
  451.086    0.185    0.487  112.877  163.769    4.689
  451.336    0.207    0.495  110.782  164.437    4.633
  451.586    0.187    0.498  105.690  164.375    4.575
  451.836    0.231    0.494   87.310  162.826    4.478
  452.086    0.263    0.490   73.355  160.657    4.327
  452.336    0.292    0.482   62.396  157.106    4.165
  452.586    0.289    0.467   49.318  154.934    3.895
  452.836    0.291    0.440   48.030  153.277    3.706
  453.086    0.305    0.423   48.116  152.158    3.489
  453.336    0.317    0.398   48.573  151.463    3.268
  453.586    0.338    0.413   48.288  150.872    3.117
  453.836    0.334    0.429   47.443  150.588    3.039
  454.086    0.326    0.437   45.091  150.740    3.012
  454.336    0.311    0.439   44.180  151.620    3.020
  454.586    0.299    0.432   44.390  152.300    3.033
  454.836    0.307    0.424   44.974  152.551    3.063
  455.086    0.307    0.415   45.441  152.807    3.134
  455.336    0.291    0.412   46.026  153.162    3.200
  455.586    0.264    0.409   46.051  153.940    3.249
  455.836    0.248    0.398   45.952  154.515    3.264
  456.086    0.265    0.402   45.663  155.290    3.249
  456.336    0.290    0.409   45.621  155.654    3.231
  456.586    0.306    0.419   46.025  155.902    3.197
  456.836    0.307    0.422   46.607  155.950    3.135
  457.086    0.293    0.416   47.321  156.203    3.070
  457.336    0.290    0.412   47.221  156.031    3.025
  457.586    0.305    0.419   46.120  155.538    2.972
  457.836    0.317    0.434   44.962  155.160    2.931
  458.086    0.343    0.446   43.614  154.665    2.885
  458.336    0.347    0.455   43.824  154.295    2.859
  458.586    0.335    0.445   45.027  153.904    2.820
  458.836    0.322    0.426   45.926  153.849    2.811
  459.086    0.332    0.427   46.887  153.782    2.792
  459.336    0.322    0.431   47.540  153.711    2.795
  459.586    0.314    0.441   48.253  153.757    2.815
  459.836    0.300    0.436   49.088  153.687    2.838
  460.086    0.313    0.438   47.735  153.624    2.872
  460.336    0.299    0.444   45.952  153.668    2.906
  460.586    0.296    0.437   46.222  154.135    2.934
  460.836    0.306    0.434   48.494  154.918    2.969
  461.086    0.322    0.445   51.393  155.484    2.998
  461.336    0.313    0.440   54.660  156.139    3.034
  461.586    0.302    0.432   55.372  156.084    3.052
  461.836    0.276    0.429   54.459  155.714    3.059
  462.086    0.287    0.430   54.173  155.227    3.069
  462.336    0.303    0.436   55.251  155.059    3.076
  462.586    0.328    0.432   55.838  154.985    3.089
  462.836    0.325    0.425   55.981  154.930    3.108
  463.086    0.312    0.421   55.888  154.646    3.115
  463.336    0.305    0.435   55.478  154.273    3.128
  463.586    0.328    0.427   54.255  153.769    3.147
  463.836    0.317    0.417   52.721  153.716    3.154
  464.086    0.305    0.412   51.561  153.543    3.163
  464.336    0.314    0.421   52.888  153.158    3.153
  464.586    0.314    0.429   53.539  153.105    3.156
  464.836    0.299    0.439   53.562  153.036    3.157
  465.086    0.297    0.445   53.465  152.863    3.158
  465.336    0.299    0.448   53.428  151.534    3.172
  465.586    0.301    0.444   54.575  150.831    3.181
  465.836    0.302    0.435   56.660  151.084    3.182
  466.086    0.304    0.432   60.673  151.235    3.178
  466.336    0.298    0.435   59.703  151.486    3.168
  466.586    0.318    0.440   57.169  151.080    3.141
  466.836    0.325    0.449   58.688  150.620    3.109
  467.086    0.308    0.440   60.087  150.232    3.082
  467.336    0.309    0.451   60.113  149.862    3.067
  467.586    0.321    0.475   59.200  149.679    3.046
  467.836    0.328    0.483   58.101  149.505    3.033
  468.086    0.325    0.470   57.251  149.560    3.011
  468.336    0.315    0.460   57.213  149.595    3.121
  468.586    0.312    0.477   57.675  149.430    3.187
  468.836    0.306    0.486   58.700  149.145    3.212
  469.086    0.317    0.492   59.410  148.768    3.155
  469.336    0.274    0.465   60.745  148.499    3.134
  469.586    0.293    0.454   65.012  148.317    3.141
  469.836    0.309    0.457   66.093  148.475    3.250
  470.086    0.297    0.452   59.690  148.618    3.430
  470.336    0.295    0.431   56.347  148.649    3.606
  470.586    0.284    0.433   53.691  148.906    3.988
  470.836    0.268    0.434   53.896  149.042    4.384
  471.086    0.223    0.409   53.857  149.410    4.900
  471.336    0.160    0.318   53.010  149.673    5.355
  471.586    0.165    0.248   52.600  150.449    4.755
  471.836    0.198    0.271   52.624  150.811    4.299
  472.086    0.284    0.343   54.395  150.630    3.980
  472.336    0.315    0.380   57.913  150.577    3.631
  472.586    0.316    0.425   62.495  150.508    3.413
  472.836    0.311    0.456   60.959  150.557    3.243
  473.086    0.281    0.448   57.117  150.592    3.139
  473.336    0.300    0.445   55.512  150.631    3.095
  473.586    0.311    0.459   54.605  150.454    3.063
  473.836    0.302    0.451   51.814  150.298    3.055
  474.086    0.299    0.443   51.160  149.902    3.058
  474.336    0.310    0.461   51.496  149.520    3.058
  474.586    0.294    0.455   52.519  149.364    3.055
  474.836    0.286    0.447   53.975  149.298    3.056
  475.086    0.298    0.448   55.499  149.336    3.063
