~VERSION INFORMATION
 VERS.                 2.0:   CWLS LOG ASCII STANDARD -VERSION 2.0
 WRAP.                  NO:   ONE LINE PER DEPTH STEP
~WELL INFORMATION BLOCK
#MNEM.UNIT           DATA                    DESCRIPTION OF MNEMONIC
#---------    -------------------            -------------------------------
# Generated from Intellog Unique Number	CS_69_70/WELL/804
WELL.         HUSKEY OIL OPERATIONS          : Well_name    - WELL
LOC .         00/06-22-069-05W4/0            : Location     - LOCATION
UWI .         00/06-22-069-05W4/0            : Uwi          - UNIQUE WELL ID
ENTR.         SP                             : Entered      - ENTERED BY
SRVC.         SCHLUMBERGER                   : Scn          - SERVICE COMPANY
STRT.M        300                            : top_depth    - START DEPTH
STOP.M        580                            : bot_depth    - STOP DEPTH
STEP.M        0.25                           : increment    - STEP LENGTH
 NULL. -999.2500:NULL Value
~CURVE INFORMATION BLOCK
#MNEM UNIT       ERCB CURVE CODE    CURVE DESCRIPTION
#-----------   ------------------   ----------------------------------
DEPT.M        00 001 00 00         : DEPTH        - DEPTH
ILD .OHMM     00 120 00 00         : RESD         - DEEP RESISTIVITY (DIL)
DPHI.V/V      00 890 00 00         : PHID         - DENSITY POROSITY (LIMESTONE)
NPHI.V/V      00 330 00 00         : PHIN         - NEUTRON POROSITY (LIMESTONE)
GR  .API      00 310 00 00         : GR           - GAMMA RAY
~PARAMETER INFORMATION
#MNEM.UNIT           DATA             DESCRIPTION OF MNEMONIC
#---------         -----------     ------------------------------
GL  .M        670.1                : gl           - GROUND LEVEL ELEVATION
EREF.M        673.8                : kb           - ELEVATION OF DEPTH REFERENCE
DATM.M        670.1                : datum        - DATUM ELEVATION
TDD .M        585                  : tdd          - TOTAL DEPTH DRILLER
RUN .         ONE                  : Run          - RUN NUMBER
ENG .         BILL                 : Engineer     - RECORDING ENGINEER
WIT .         JIM                  : Witness      - WITNESSED BY
MUD .         GEL                  : Mud_type     - MUD TYPE
MATR.         LIMESTONE            : Logunit      - NEUTRON MATRIX
TMAX.C        21                   : BHT          - MAXIMUM RECORDED TEMPERATURE
BHTD.M        585                  : BHTDEP       - MAXIMUM RECORDED TEMPERATURE
MATR.         1                    : LOGUNIT      - NEUTRON MATRIX
RMT .C        25                   : MDTP         - TEMPERATURE OF MUD
NEUT.         1                    : NEUTRON      - NEUTRON TYPE
RESI.         0                    : RESIST       - RESISTIVITY TYPE
RMC .OHMM     0.25                 : RMC          - RESISTIVITY OF MUD CAKE
RMF .OHMM     0.25                 : RMF          - RESISTIVITY OF MUD FILTRATE
SUFT.C        15                   : SUFT         - SURFACE TEMPERATURE
~A  DEPTH     RESD     PHID     PHIN       GR
# ...
  474.000   15.422    0.256    0.413   62.242
  474.250   15.717    0.278    0.410   59.947
  474.500   16.723    0.283    0.412   56.987
  474.750   19.692    0.286    0.423   53.301
  475.000   22.544    0.292    0.420   51.126
  475.250   25.140    0.301    0.405   49.194
  475.500   27.669    0.311    0.394   51.677
  475.750   30.111    0.317    0.393   54.765
  476.000   32.403    0.321    0.405   56.280
  476.250   34.869    0.324    0.408   60.759
  476.500   36.345    0.322    0.409   66.871
  476.750   31.759    0.323    0.413   71.169
  477.000   26.529    0.320    0.404   72.200
  477.250   21.954    0.311    0.412   69.845
  477.500   19.040    0.304    0.426   66.884
  477.750   16.764    0.305    0.426   66.706
  478.000   15.789    0.304    0.420   69.310
  478.250   14.325    0.303    0.427   71.370
  478.500   13.747    0.304    0.419   75.365
  478.750   12.614    0.302    0.405   82.747
  479.000   12.150    0.290    0.399   90.190
  479.250   11.190    0.279    0.407   93.580
  479.500   10.500    0.276    0.410   94.007
  479.750    9.780    0.268    0.402   92.196
  480.000    9.351    0.256    0.392   90.264
  480.250    8.841    0.245    0.384   88.573
  480.500    8.613    0.237    0.385   89.242
  480.750    8.266    0.229    0.374   89.729
  481.000    8.008    0.222    0.358   90.760
  481.250    7.758    0.226    0.360   92.638
  481.500    7.818    0.240    0.404   93.851
  481.750    8.350    0.256    0.436   86.173
  482.000    9.053    0.274    0.448   69.664
  482.250    9.964    0.284    0.397   61.925
  482.500   10.763    0.290    0.376   58.541
  482.750   11.367    0.277    0.368   61.145
  483.000   11.627    0.263    0.357   73.245
  483.250   10.850    0.244    0.346   85.769
  483.500    9.733    0.223    0.339   91.942
  483.750    8.963    0.196    0.368   95.513
  484.000    8.411    0.190    0.385   86.444
  484.250    9.665    0.213    0.390   77.193
  484.500   13.027    0.239    0.365   57.902
  484.750   16.659    0.114    0.335   51.736
  485.000   20.908    0.086    0.307   47.989
  485.250   24.299    0.107    0.299   45.996
  485.500   24.856    0.149    0.310   54.044
  485.750   21.557    0.192    0.341   68.926
  486.000   16.768    0.213    0.369   81.147
  486.250   14.246    0.208    0.386   83.449
  486.500   19.382    0.237    0.394   70.025
  486.750   23.473    0.277    0.388   63.798
  487.000   27.382    0.312    0.384   64.165
  487.250   28.702    0.324    0.383   66.284
  487.500   26.682    0.333    0.395   69.191
  487.750   20.523    0.340    0.412   71.371
  488.000   16.512    0.330    0.416   73.129
  488.250   13.613    0.320    0.407   74.341
  488.500   11.223    0.310    0.400   75.494
  488.750    9.788    0.300    0.405   77.372
  489.000    8.913    0.288    0.412   79.553
  489.250    8.102    0.274    0.397   83.729
  489.500    7.893    0.259    0.387   89.660
  489.750    8.150    0.244    0.385   92.325
  490.000    9.072    0.232    0.381   85.856
  490.250   10.041    0.235    0.376   78.299
  490.500   11.072    0.254    0.380   71.285
  490.750   12.050    0.271    0.398   62.700
  491.000   12.465    0.283    0.379   58.590
  491.250   11.964    0.281    0.357   58.836
  491.500   10.773    0.262    0.338   78.436
  491.750    9.921    0.225    0.325   87.814
  492.000    9.171    0.194    0.339   90.842
  492.250    8.752    0.182    0.364   92.357
  492.500    8.688    0.188    0.374   92.179
  492.750    8.838    0.192    0.382   90.126
  493.000    9.058    0.191    0.396   88.496
  493.250    9.248    0.196    0.392   84.325
  493.500    9.443    0.201    0.390   82.030
  493.750    9.605    0.192    0.386   82.759
  494.000    9.571    0.187    0.376   83.307
  494.250    9.483    0.186    0.367   83.855
  494.500    9.274    0.188    0.356   84.402
  494.750    9.189    0.190    0.351   84.950
  495.000    9.243    0.192    0.360   85.255
  495.250    9.402    0.193    0.376   83.565
  495.500    9.745    0.200    0.395   81.572
  495.750   10.062    0.211    0.395   78.188
  496.000   10.255    0.210    0.389   75.046
  496.250   10.314    0.220    0.385   76.501
  496.500   10.220    0.225    0.379   79.105
  496.750    9.976    0.213    0.369   81.648
  497.000    9.921    0.205    0.360   79.716
  497.250    9.923    0.199    0.355   77.663
  497.500   10.037    0.196    0.350   76.699
  497.750   10.306    0.201    0.357   76.157
  498.000   10.602    0.203    0.353   76.040
  498.250   11.030    0.199    0.350   76.466
  498.500   11.497    0.197    0.349   76.470
  498.750   11.961    0.210    0.353   76.110
  499.000   12.236    0.225    0.352   73.694
  499.250   12.354    0.239    0.373   70.975
  499.500   12.379    0.226    0.359   69.950
  499.750   12.242    0.208    0.345   74.430
  500.000   11.445    0.193    0.344   77.335
  500.250   10.700    0.176    0.359   84.839
  500.500   10.250    0.179    0.368   91.798
  500.750   10.061    0.184    0.372   96.882
  501.000   10.063    0.190    0.374   95.312
  501.250   10.064    0.196    0.357  101.364
  501.500   10.085    0.201    0.344  110.621
  501.750   10.125    0.197    0.341  117.096
  502.000   10.223    0.179    0.349  126.535
  502.250   10.282    0.167    0.354  131.740
  502.500   10.342    0.166    0.358  129.021
  502.750   10.441    0.175    0.359  123.158
  503.000   10.641    0.182    0.360  115.540
  503.250   10.926    0.187    0.363  110.462
  503.500   11.261    0.192    0.364  103.812
  503.750   11.498    0.182    0.356   93.957
  504.000   11.608    0.185    0.341  100.069
  504.250   11.459    0.196    0.341   96.201
  504.500   11.354    0.202    0.352   92.575
  504.750   11.250    0.204    0.360   86.288
  505.000   11.210    0.207    0.361   87.138
  505.250   11.275    0.210    0.361   93.311
  505.500   11.687    0.205    0.364   93.737
  505.750   12.204    0.199    0.358  100.636
  506.000   13.010    0.196    0.352  101.486
  506.250   13.974    0.209    0.359   93.142
  506.500   15.123    0.230    0.367   85.887
  506.750   16.122    0.251    0.373   75.910
  507.000   17.058    0.263    0.377   68.595
  507.250   17.880    0.271    0.347   68.598
  507.500   18.325    0.240    0.338   68.601
  507.750   18.157    0.229    0.349   62.375
  508.000   17.524    0.238    0.356   57.237
  508.250   16.977    0.247    0.359   57.966
  508.500   17.762    0.246    0.359   58.695
  508.750   21.433    0.260    0.359   58.456
  509.000   23.900    0.252    0.356   56.584
  509.250   27.775    0.144    0.314   50.842
  509.500   31.619    0.122    0.264   45.885
  509.750   35.260    0.201    0.318   43.408
  510.000   37.449    0.254    0.351   42.081
  510.250   38.742    0.296    0.368   42.931
  510.500   39.632    0.296    0.363   47.229
  510.750   40.390    0.285    0.373   50.075
  511.000   40.473    0.299    0.381   45.119
  511.250   40.028    0.296    0.388   41.916
  511.500   39.512    0.297    0.381   39.621
  511.750   38.494    0.299    0.371   39.926
  512.000   38.501    0.297    0.361   43.619
  512.250   39.682    0.283    0.354   46.404
  512.500   39.838    0.229    0.311   46.347
  512.750   38.886    0.029    0.269   42.117
  513.000   37.460    0.123    0.246   42.543
  513.250   34.369    0.165    0.348   47.687
  513.500   30.145    0.242    0.377   54.042
  513.750   24.762    0.268    0.384   59.609
  514.000   23.191    0.271    0.359   70.379
  514.250   20.378    0.271    0.345   84.172
  514.500   17.806    0.229    0.338   90.103
  514.750   15.736    0.203    0.335   88.534
  515.000   14.037    0.203    0.324   85.573
  515.250   13.296    0.217    0.318   82.069
  515.500   13.199    0.237    0.318   80.136
  515.750   13.102    0.246    0.322   78.325
  516.000   13.056    0.237    0.333   80.868
  516.250   13.034    0.226    0.344   82.988
  516.500   13.036    0.220    0.353   81.541
  516.750   12.990    0.226    0.357   80.394
  517.000   12.967    0.241    0.358   78.825
  517.250   12.801    0.253    0.357   77.679
