~VERSION INFORMATION
 VERS.                 2.0:   CWLS LOG ASCII STANDARD -VERSION 2.0
 WRAP.                  NO:   ONE LINE PER DEPTH STEP
~WELL INFORMATION BLOCK
#MNEM.UNIT           DATA                    DESCRIPTION OF MNEMONIC
#---------    -------------------            -------------------------------
# Generated from Intellog Unique Number	CW_70_72/WELL/3301
NULL.         -999.25                        : NULL_VALUE
WELL.         CALSTAN SOBC MITSUE            : Well_name    - WELL              
LOC .         04-12-072-05W5                 : Location     - LOCATION          
UWI .         00/04-12-072-05W5/0            : Uwi          - UNIQUE WELL ID    
ENTR.         CAMPBELL                       : Entered      - ENTERED BY        
SRVC.         SCHLUMBERGER                   : Scn          - SERVICE COMPANY   
DATE.         21 OCT 1964                    : Date         - LOG DATE          
STRT.M        585.216                        : top_depth    - START DEPTH       
STOP.M        731.466                        : bot_depth    - STOP DEPTH        
STEP.M        0.25                           : increment    - STEP LENGTH       
~CURVE INFORMATION BLOCK
#MNEM UNIT       ERCB CURVE CODE    CURVE DESCRIPTION
#-----------   ------------------   ----------------------------------
DEPT.M        00 001 00 00         : DEPTH        - DEPTH                       
ILD .OHMM     00 120 00 00         : RESD         - DEEP RESISTIVITY (DIL)      
DELT.US/F     00 520 00 00         : DELT         - SONIC TRAVEL TIME           
GR  .API      00 310 00 00         : GR           - GAMMA RAY                   
~PARAMETER INFORMATION       
#MNEM.UNIT           DATA             DESCRIPTION OF MNEMONIC
#---------         -----------     ------------------------------
GL  .M        689.762              : gl           - GROUND LEVEL ELEVATION      
EREF.M        693.115              : kb           - ELEVATION OF DEPTH REFERENCE
DATM.M        693.115              : datum        - DATUM ELEVATION             
TDD .M        1806.24              : tdd          - TOTAL DEPTH DRILLER         
RUN .         ONE                  : Run          - RUN NUMBER                  
ENG .         MCKEOWN              : Engineer     - RECORDING ENGINEER          
WIT .         BROWN                : Witness      - WITNESSED BY                
MUD .         GEL                  : Mud_type     - MUD TYPE                    
MATR.         SANDSTONE            : Logunit      - NEUTRON MATRIX              
TMAX.C        48.8889              : BHT          - MAXIMUM RECORDED TEMPERATURE
BHTD.M        1806.24              : BHTDEP       - MAXIMUM RECORDED TEMPERATURE
RMT .C        12.2222              : MDTP         - TEMPERATURE OF MUD          
MUDD.KG/M     9800                 : MWT          - MUD DENSITY                 
NEUT.         1                    : NEUTRON      - NEUTRON TYPE                
RESI.         0                    : RESIST       - RESISTIVITY TYPE            
RM  .OHMM     1.55                 : RM           - RESISTIVITY OF MUD          
RMC .OHMM     1.32                 : RMC          - RESISTIVITY OF MUD CAKE     
RMF .OHMM     0.65                 : RMF          - RESISTIVITY OF MUD FILTRATE 
SUFT.C        10                   : SUFT         - SURFACE TEMPERATURE         
~A  DEPTH     RESD     DELT       GR
  585.216    5.476  196.654   44.613
  585.466    6.317  187.261   42.706
  585.716    7.257  200.862   40.559
  585.966    9.840  204.748   39.368
  586.216   12.473  209.605   38.892
  586.466   14.259  226.121   40.086
  586.716   14.651  260.127   44.143
  586.966   12.703  290.894   48.438
  587.216   10.107  279.234   48.678
  587.466    8.208  274.051   50.827
  587.716    5.463  366.678   52.975
  587.966    4.411  362.790   53.692
  588.216    3.906  363.113   54.648
  588.466    3.651  365.703   55.842
  588.716    3.345  367.321   57.274
  588.966    3.140  371.207   58.468
  589.216    2.884  365.052   57.277
  589.466    2.779  360.517   55.846
  589.716    2.771  366.669   56.563
  589.966    2.816  365.696   58.950
  590.216    2.710  361.161   61.099
  590.466    2.655  359.864   61.100
  590.716    2.598  354.681   62.771
  590.966    2.542  353.385   63.727
  591.216    2.542  339.457   62.058
  591.466    2.528  337.189   60.150
  591.716    2.522  348.847   56.334
  591.966    2.517  358.886   53.473
  592.216    2.510  359.533   54.429
  592.466    2.604  352.083   56.815
  592.716    2.745  325.848   57.532
  592.966    2.888  349.165   55.148
  593.216    2.982  358.881   54.672
  593.466    3.074  366.653   55.150
  593.716    3.118  376.368   56.106
  593.966    3.113  369.889   57.777
  594.216    2.957  354.342   60.164
  594.466    2.801  353.693   62.074
  594.716    2.745  355.635   63.029
  594.966    2.738  359.197   61.599
  595.216    2.782  356.605   58.260
  595.466    2.875  360.490   54.444
  595.716    2.918  438.219   53.253
  595.966    3.012  422.996   52.538
  596.216    3.205  344.617   50.870
  596.466    3.646  337.167   48.485
  596.716    4.188  347.530   47.770
  596.966    4.481  355.302   46.102
  597.216    4.275  431.411   47.773
  597.466    3.570  437.240   49.683
  597.716    3.216  398.698   53.024
  597.966    2.961  336.512   57.081
  598.216    2.904  350.114   60.422
  598.466    2.897  355.619   61.616
  598.716    3.089  362.095   59.947
  598.966    3.284  365.333   58.278
  599.216    3.426  366.303   57.803
  599.466    3.470  363.711   57.327
  599.716    3.513  359.824   56.851
  599.966    3.557  357.879   55.898
  600.216    3.451  355.611   57.569
  600.466    3.495  356.906   57.332
  600.716    3.637  366.297   55.663
  600.966    3.880  371.477   53.994
  601.216    4.172  373.420   51.609
  601.466    4.365  373.742   49.941
  601.716    4.607  373.741   51.374
  601.966    4.750  374.712   52.568
  602.216    4.893  376.654   53.046
  602.466    4.887  379.244   51.854
  602.716    4.831  378.595   50.424
  602.966    4.675  376.651   49.471
  603.216    4.570  378.593   49.234
  603.466    4.413  379.239   49.951
  603.716    4.207  381.505   51.145
  603.966    3.953  382.152   52.339
  604.216    3.796  380.532   54.248
  604.466    3.592  378.911   56.397
  604.716    3.436  381.501   55.921
  604.966    3.280  382.796   54.252
  605.216    3.322  375.021   54.253
  605.466    3.367  373.401   55.447
  605.716    3.460  370.485   54.017
  605.966    3.405  375.666   52.825
  606.216    3.148  381.818   52.350
  606.466    3.043  385.704   52.590
  606.716    2.987  371.452   53.784
  606.966    2.980  373.394   54.262
  607.216    2.974  376.632   53.548
  607.466    3.018  386.995   53.310
  607.716    3.011  387.966   53.311
  607.966    2.903  382.458   53.313
  608.216    2.799  385.696   54.029
  608.466    2.742  392.173   55.223
  608.716    2.736  381.160   56.895
  608.966    2.629  369.499   58.566
  609.216    2.474  364.964   59.522
  609.466    2.319  381.156   61.670
  609.716    2.212  393.463   62.625
  609.966    2.207  405.121   62.627
  610.216    2.150  378.886   63.105
  610.466    2.144  351.679   63.822
  610.716    2.138  339.047   64.539
  610.966    2.131  345.200   64.778
  611.216    2.175  337.425   64.302
  611.466    2.069  358.476   61.441
  611.716    2.013  362.362   57.625
  611.966    1.657  370.134   56.911
  612.216    1.353  389.241   58.582
  612.466    1.197  397.337   60.253
  612.716    1.190  414.825   60.731
  612.966    0.983  363.004   60.494
  613.216    1.077  339.036   60.257
  613.466    1.171  358.791   60.019
  613.716    1.265  365.915   60.021
  613.966    1.507  368.181   60.022
  614.216    1.651  345.509   60.262
  614.466    1.842  349.394   60.502
  614.716    1.937  359.757   60.503
  614.966    2.029  369.473   60.504
  615.216    2.022  369.795   60.266
  615.466    2.015  356.839   60.029
  615.716    2.010  357.162   60.269
  615.966    2.004  365.906   60.986
  616.216    1.998  370.763   61.941
  616.466    2.040  347.442   62.420
  616.716    2.135  356.510   60.751
  616.966    2.328  361.367   58.128
  617.216    2.668  364.605   56.937
  617.466    2.961  369.462   56.222
  617.716    3.303  376.910   55.269
  617.966    3.646  383.710   55.032
  618.216    3.788  366.867   53.840
  618.466    3.930  357.798   52.410
  618.716    3.926  363.302   51.218
  618.966    3.919  358.119   50.504
  619.216    3.912  360.061   50.266
  619.466    3.906  355.202   50.029
  619.716    3.901  353.582   50.030
  619.966    3.894  361.677   49.554
  620.216    3.887  360.381   50.032
  620.466    3.880  345.158   50.272
  620.716    3.925  352.606   50.273
  620.966    3.968  351.309   50.513
  621.216    4.012  350.984   51.230
  621.466    4.104  358.432   50.993
  621.716    4.247  361.994   50.278
  621.966    4.341  349.361   49.802
  622.216    4.534  338.348   49.804
  622.466    4.725  330.574   49.805
  622.716    4.919  317.942   49.806
  622.966    5.061  305.634   49.807
  623.216    5.353  293.002   49.570
  623.466    5.547  273.892   48.378
  623.716    5.790  244.418   47.902
  623.966    6.132  218.507   45.518
  624.216    6.674  231.137   43.372
  624.466    7.265  205.226   40.988
  624.716    8.055  209.435   38.603
  624.966    9.144  213.644   36.457
  625.216   10.632  197.449   37.651
  625.466   12.069  191.942   39.800
  625.716   12.062  203.925   41.232
  625.966   11.310  211.697   42.426
  626.216    9.909  218.173   43.859
  626.466    8.758  225.297   44.099
  626.716    7.705  241.490   42.907
  626.966    6.554  287.803   44.578
  627.216    5.302  318.570   49.589
  627.466    4.399  329.905   53.885
  627.716    4.244  358.728   52.216
  627.966    4.136  360.670   51.502
  628.216    4.082  362.289   52.696
  628.466    4.026  364.879   53.174
  628.716    3.969  365.849   53.414
  628.966    3.962  366.496   53.892
  629.216    4.005  365.847   54.132
  629.466    4.050  359.045   53.656
  629.716    4.092  359.367   49.840
  629.966    4.136  360.014   48.887
  630.216    4.130  360.013   50.081
  630.466    4.073  359.364   52.468
  630.716    4.067  357.420   53.901
  630.966    4.012  356.447   54.618
  631.216    4.006  358.389   54.619
  631.466    3.999  360.007   54.382
  631.716    3.992  360.330   53.429
  631.966    3.985  359.681   52.476
  632.216    4.028  359.356   51.522
  632.466    4.023  359.031   50.092
  632.716    4.016  357.411   48.185
  632.966    4.011  355.790   46.993
  633.216    4.005  358.380   49.142
  633.466    3.898  363.561   49.859
  633.716    3.791  367.770   50.814
  633.966    3.636  367.122   50.100
  634.216    3.480  340.239   48.192
  634.466    3.325  353.193   48.193
  634.716    3.219  357.402   49.626
  634.966    3.062  354.486   51.297
  635.216    3.105  376.832   53.207
  635.466    3.200  400.798   54.401
  635.716    3.343  372.620   52.494
  635.966    3.486  358.044   50.825
  636.216    3.677  363.873   50.588
  636.466    3.771  363.872   50.828
  636.716    3.865  361.280   50.829
  636.966    3.859  356.096   50.830
  637.216    3.852  355.124   51.070
  637.466    3.795  364.839   51.548
  637.716    3.790  361.599   52.742
  637.966    3.784  345.080   51.789
  638.216    3.777  351.881   51.791
  638.466    3.771  356.414   53.223
  638.716    3.814  355.441   55.133
  638.966    3.806  365.480   57.997
  639.216    3.801  364.831   59.907
