~VERSION INFORMATION
 VERS.                 2.0:   CWLS LOG ASCII STANDARD -VERSION 2.0
 WRAP.                  NO:   ONE LINE PER DEPTH STEP
~WELL INFORMATION BLOCK
#MNEM.UNIT           DATA                    DESCRIPTION OF MNEMONIC
#---------    -------------------            -------------------------------
# Generated from Intellog Unique Number	CW_70_72/WELL/2902
NULL.         -999.25                        : NULL_VALUE
WELL.         CHEVRON GAMBLER                : Well_name    - WELL              
LOC .         06-33-070-21W4                 : Location     - LOCATION          
UWI .         00/06-33-070-21W4/0            : Uwi          - UNIQUE WELL ID    
ENTR.         MAX                            : Entered      - ENTERED BY        
SRVC.         SCHLUMBERGER                   : Scn          - SERVICE COMPANY   
DATE.         01 FEB 76                      : Date         - LOG DATE
STRT.M        405.384                        : top_depth    - START DEPTH       
STOP.M        588.384                        : bot_depth    - STOP DEPTH        
STEP.M        0.25                           : increment    - STEP LENGTH       
~CURVE INFORMATION BLOCK
#MNEM UNIT       ERCB CURVE CODE    CURVE DESCRIPTION
#-----------   ------------------   ----------------------------------
DEPT.M        00 001 00 00         : DEPTH        - DEPTH                       
ILD .OHMM     00 120 00 00         : RESD         - DEEP RESISTIVITY (DIL)      
NPHI.V/V      00 330 00 00         : PHIN         - NEUTRON POROSITY (SANDSTONE)
DPHI.V/V      00 890 00 00         : PHID         - DENSITY POROSITY (SANDSTONE)
CALI.MM       00 280 01 00         : CAL          - CALIPER                     
GR  .API      00 310 00 00         : GR           - GAMMA RAY                   
~PARAMETER INFORMATION       
#MNEM.UNIT           DATA             DESCRIPTION OF MNEMONIC
#---------         -----------     ------------------------------
GL  .M        651.358              : gl           - GROUND LEVEL ELEVATION      
EREF.M        654.71               : kb           - ELEVATION OF DEPTH REFERENCE
DATM.M        651.358              : datum        - DATUM ELEVATION             
TDD .M        586.74               : tdd          - TOTAL DEPTH DRILLER         
RUN .         ONE                  : Run          - RUN NUMBER                  
ENG .         BILL                 : Engineer     - RECORDING ENGINEER          
WIT .         JIM                  : Witness      - WITNESSED BY                
MUD .         GEL                  : Mud_type     - MUD TYPE                    
MATR.         SANDSTONE            : Logunit      - NEUTRON MATRIX              
TMAX.C        23.8889              : BHT          - MAXIMUM RECORDED TEMPERATURE
BHTD.M        586.74               : BHTDEP       - MAXIMUM RECORDED TEMPERATURE
RMT .C        14.4444              : MDTP         - TEMPERATURE OF MUD          
MUDD.KG/M     9200                 : MWT          - MUD DENSITY                 
NEUT.         1                    : NEUTRON      - NEUTRON TYPE                
RESI.         0                    : RESIST       - RESISTIVITY TYPE            
RM  .OHMM     3.72                 : RM           - RESISTIVITY OF MUD          
RMC .OHMM     3.3                  : RMC          - RESISTIVITY OF MUD CAKE     
RMF .OHMM     6.4                  : RMF          - RESISTIVITY OF MUD FILTRATE 
SUFT.C        -20.5556             : SUFT         - SURFACE TEMPERATURE         
~A  DEPTH     RESD     PHIN     PHID      CAL       GR
# ...
  514.884    3.499    0.494    0.259  186.659   69.616
  515.134    3.592    0.548    0.259  186.649   72.921
  515.384    3.623    0.574    0.261  186.632   74.118
  515.634    3.623    0.546    0.260  186.614   74.409
  515.884    3.618    0.499    0.258  186.600   75.306
  516.134    3.648    0.483    0.261  186.584   78.310
  516.384    3.646    0.479    0.257  187.077   78.001
  516.634    3.642    0.477    0.247  187.571   77.388
  516.884    3.610    0.481    0.249  188.064   76.775
  517.134    3.575    0.468    0.248  189.070   76.765
  517.384    3.638    0.452    0.240  189.562   77.359
  517.634    3.701    0.450    0.236  190.570   78.554
  517.884    3.766    0.465    0.235  192.594   80.957
  518.134    3.763    0.478    0.230  194.619   83.964
  518.384    3.870    0.478    0.223  195.346   91.698
  518.634    3.829    0.493    0.218  196.358   91.969
  518.884    3.791    0.495    0.224  197.869   92.876
  519.134    3.552    0.493    0.235  198.881   94.398
  519.384    3.422    0.500    0.243  199.332   97.495
  519.634    3.122    0.571    0.242  199.269  102.777
  519.884    2.579    0.553    0.235  197.086  107.747
  520.134    2.374    0.547    0.220  199.135  111.147
  520.384    2.287    0.569    0.237  199.610  113.926
  520.634    2.287    0.586    0.253  197.411  117.331
  520.884    2.198    0.572    0.249  196.826  121.669
  521.134    2.216    0.539    0.242  196.755  115.374
  521.384    2.335    0.498    0.217  196.676  109.387
  521.634    2.974    0.484    0.208  196.091  107.467
  521.884    3.164    0.500    0.191  194.439  106.804
  522.134    3.427    0.503    0.183  192.770  106.141
  522.384    3.745    0.499    0.166  191.655  104.534
  522.634    4.056    0.488    0.179  191.600  102.307
  522.884    4.275    0.477    0.193  193.111   99.453
  523.134    4.426    0.464    0.190  193.055   97.226
  523.384    4.582    0.450    0.175  192.984   93.424
  523.634    4.701    0.444    0.155  192.921   92.766
  523.884    4.701    0.457    0.188  192.858   95.853
  524.134    4.812    0.480    0.204  192.779   95.498
  524.384    5.030    0.537    0.185  193.246   94.517
  524.634    5.159    0.513    0.154  193.246   94.489
  524.884    5.293    0.452    0.147  193.088   94.756
  525.134    5.381    0.455    0.173  193.041   95.027
  525.384    5.423    0.454    0.187  192.978   98.128
  525.634    5.414    0.459    0.199  192.915   99.963
  525.884    5.405    0.458    0.202  192.860   95.545
  526.134    5.398    0.449    0.189  193.326   95.191
  526.384    5.398    0.443    0.172  193.248   95.144
  526.634    5.382    0.437    0.180  193.714   93.551
  526.884    5.373    0.456    0.192  193.651   97.264
  527.134    5.318    0.460    0.183  193.596   97.540
  527.384    5.214    0.462    0.178  192.995   98.437
  527.634    5.114    0.447    0.190  191.872  100.273
  527.884    5.060    0.442    0.206  191.264  100.240
  528.134    4.917    0.448    0.216  190.671  100.511
  528.384    4.822    0.461    0.209  190.607  100.161
  528.634    4.686    0.460    0.204  190.536   98.867
  528.884    4.638    0.459    0.205  191.011   96.639
  529.134    4.638    0.476    0.200  193.060   95.042
  529.384    4.623    0.524    0.202  194.041   95.000
  529.634    4.700    0.459    0.210  193.448   94.954
  529.884    4.822    0.440    0.204  192.870   94.613
  530.134    5.038    0.438    0.185  192.799   92.694
  530.384    5.505    0.421    0.155  192.728   88.588
  530.634    6.350    0.366    0.086  192.665   81.975
  530.884    7.391    0.324    0.077  192.072   69.104
  531.134    8.006    0.340    0.108  191.479   67.497
  531.384    7.708    0.407    0.132  190.349   70.272
  531.634    6.971    0.458    0.190  189.210   77.118
  531.884    6.190    0.455    0.188  188.095   84.909
  532.134    5.597    0.434    0.197  186.442   88.622
  532.384    5.293    0.430    0.189  184.260   87.338
  532.634    5.478    0.407    0.155  182.591   80.099
  532.884    5.988    0.391    0.144  181.476   71.608
  533.134    6.255    0.393    0.187  181.413   71.258
  533.384    6.190    0.431    0.202  182.402   72.472
  533.634    5.907    0.516    0.208  183.928   73.355
  533.884    5.794    0.516    0.207  185.455   72.706
  534.134    5.681    0.412    0.207  186.981   71.716
  534.384    5.777    0.394    0.200  187.962   70.744
  534.634    5.980    0.380    0.173  188.437   68.830
  534.884    6.304    0.370    0.139  188.374   65.972
  535.134    6.952    0.348    0.104  188.833   63.113
  535.384    7.946    0.333    0.108  189.292   64.019
  535.634    8.226    0.369    0.177  189.229   68.050
  535.884    8.213    0.415    0.208  189.165   74.902
  536.134    7.699    0.425    0.209  188.565   75.799
  536.384    6.655    0.411    0.209  188.509   75.757
  536.634    5.908    0.412    0.202  189.498   78.540
  536.884    5.908    0.432    0.190  191.017   89.455
  537.134    5.679    0.449    0.195  193.073   94.737
  537.384    5.522    0.458    0.208  194.078   99.081
  537.634    5.512    0.447    0.205  194.544   98.404
  537.884    5.554    0.450    0.209  193.936   98.376
  538.134    5.596    0.515    0.214  192.821   98.334
  538.384    5.639    0.540    0.221  191.160   95.471
  538.634    5.625    0.490    0.225  188.432   89.811
  538.884    5.622    0.430    0.223  187.309   84.132
  539.134    5.614    0.419    0.214  186.716   81.273
  539.384    5.599    0.407    0.213  186.645   81.867
  539.634    5.647    0.402    0.193  187.112   81.199
  539.884    5.847    0.387    0.162  188.101   78.032
  540.134    6.390    0.361    0.088  188.575   75.174
  540.384    7.111    0.329    0.057  188.504   73.885
  540.634    7.912    0.298    0.039  188.441   74.474
  540.884    8.725    0.340    0.074  188.378   78.500
  541.134    8.709    0.427    0.108  189.383   85.977
  541.384    8.020    0.475    0.163  190.901   98.144
  541.634    6.994    0.490    0.199  191.882  109.372
  541.884    6.100    0.499    0.212  191.835  113.085
  542.134    5.177    0.507    0.213  192.286  113.365
  542.384    4.638    0.518    0.210  193.282  111.446
  542.634    4.193    0.521    0.199  194.287  111.721
  542.884    3.931    0.559    0.181  195.276  111.679
  543.134    3.786    0.555    0.208  194.683  114.145
  543.384    3.786    0.510    0.212  192.500  118.494
  543.634    3.706    0.497    0.197  189.764  117.513
  543.884    3.838    0.504    0.184  191.291  112.777
  544.134    4.156    0.490    0.161  195.482  107.733
  544.384    4.419    0.466    0.148  195.941  102.372
  544.634    4.535    0.436    0.153  194.818   96.702
  544.884    4.779    0.416    0.139  193.695   91.962
  545.134    4.949    0.417    0.119  193.624   92.242
  545.384    5.123    0.437    0.148  193.561   97.524
  545.634    5.350    0.436    0.169  193.490   96.857
  545.884    5.441    0.427    0.148  194.479   93.368
  546.134    5.481    0.429    0.139  194.408   93.648
  546.384    5.522    0.445    0.164  194.361   95.489
  546.634    5.515    0.449    0.183  193.222   93.569
  546.884    5.457    0.463    0.188  192.091   90.080
  547.134    5.400    0.468    0.168  191.514   89.740
  547.384    5.392    0.466    0.135  191.965   92.519
  547.634    5.382    0.449    0.129  191.902   96.544
  547.884    5.375    0.514    0.143  191.839   96.503
  548.134    5.367    0.500    0.135  191.776   96.778
  548.384    5.367    0.425    0.143  191.705   99.557
  548.634    5.299    0.444    0.178  192.172  103.593
  548.884    5.245    0.430    0.179  192.631  100.421
  549.134    5.240    0.421    0.168  193.097   97.250
  549.384    5.231    0.423    0.174  192.497   97.839
  549.634    5.224    0.423    0.157  191.896   98.427
  549.884    5.170    0.419    0.141  191.318   97.451
  550.134    5.115    0.419    0.138  191.255   95.219
  550.384    5.108    0.410    0.135  191.714   95.490
  550.634    5.108    0.420    0.178  192.181   97.961
  550.884    5.044    0.416    0.179  193.708  104.803
  551.134    4.993    0.422    0.165  194.696  107.587
