~VERSION INFORMATION
 VERS.                 2.0:   CWLS LOG ASCII STANDARD -VERSION 2.0
 WRAP.                  NO:   ONE LINE PER DEPTH STEP
~WELL INFORMATION BLOCK
#MNEM.UNIT           DATA                    DESCRIPTION OF MNEMONIC
#---------    -------------------            -------------------------------
# Generated from Intellog Unique Number	CW_70_72/WELL/3290
NULL.         -999.25                        : NULL_VALUE
WELL.         SULPETRO ET AL MITSUE 05-18    : Well_name    - WELL              
LOC .         05-18-071-05W5                 : Location     - LOCATION          
UWI .         00/05-18-071-05W5/0            : Uwi          - UNIQUE WELL ID    
ENTR.         JAYE                           : Entered      - ENTERED BY        
SRVC.         SCHLUMBERGER                   : Scn          - SERVICE COMPANY   
DATE.         1 MAR 81                       : Date         - LOG DATE          
STRT.M        650                            : top_depth    - START DEPTH       
STOP.M        895                            : bot_depth    - STOP DEPTH        
STEP.M        0.25                           : increment    - STEP LENGTH       
~CURVE INFORMATION BLOCK
#MNEM UNIT       ERCB CURVE CODE    CURVE DESCRIPTION
#-----------   ------------------   ----------------------------------
DEPT.M        00 001 00 00         : DEPTH        - DEPTH                       
DPHI.V/V      00 890 00 00         : PHID         - DENSITY POROSITY (SANDSTONE)
ILD .OHMM     00 120 00 00         : RESD         - DEEP RESISTIVITY (DIL)      
CALI.MM       00 280 01 00         : CAL          - CALIPER                     
GR  .API      00 310 00 00         : GR           - GAMMA RAY                   
NPHI.V/V      00 330 00 00         : PHIN         - NEUTRON POROSITY (SANDSTONE)
~PARAMETER INFORMATION       
#MNEM.UNIT           DATA             DESCRIPTION OF MNEMONIC
#---------         -----------     ------------------------------
GL  .M        795.4                : gl           - GROUND LEVEL ELEVATION      
EREF.M        798.4                : kb           - ELEVATION OF DEPTH REFERENCE
DATM.M        795.4                : datum        - DATUM ELEVATION             
TDD .M        895                  : tdd          - TOTAL DEPTH DRILLER         
RUN .         ONE                  : Run          - RUN NUMBER                  
ENG .         VALLANCOURT          : Engineer     - RECORDING ENGINEER          
WIT .         THACKER              : Witness      - WITNESSED BY                
BASE.         EDM                  : Branch       - HOME BASE OF LOGGING UNIT   
MUD .         GEL CHEM             : Mud_type     - MUD TYPE                    
MATR.         SANDSTONE            : Logunit      - NEUTRON MATRIX              
TMAX.C        32.8                 : BHT          - MAXIMUM RECORDED TEMPERATURE
BHTD.M        895                  : BHTDEP       - MAXIMUM RECORDED TEMPERATURE
RMT .C        20                   : MDTP         - TEMPERATURE OF MUD          
MUDD.KG/M     1130                 : MWT          - MUD DENSITY                 
NEUT.         1                    : NEUTRON      - NEUTRON TYPE                
RESI.         0                    : RESIST       - RESISTIVITY TYPE            
RM  .OHMM     4.57                 : RM           - RESISTIVITY OF MUD          
RMC .OHMM     0.25                 : RMC          - RESISTIVITY OF MUD CAKE     
RMF .OHMM     3.86                 : RMF          - RESISTIVITY OF MUD FILTRATE 
SUFT.C        5                    : SUFT         - SURFACE TEMPERATURE         
~A  DEPTH     PHID     RESD      CAL       GR     PHIN
# ...
  759.500    0.298    1.672  155.318   57.087    0.410
  759.750    0.298    1.671  156.007   57.439    0.406
  760.000    0.299    1.667  157.525   55.056    0.400
  760.250    0.302    1.657  159.973   52.487    0.391
  760.500    0.305    1.652  162.318   54.764    0.385
  760.750    0.307    1.645  163.420   56.482    0.387
  761.000    0.304    1.641  163.175   57.577    0.390
  761.250    0.300    1.631  161.689   59.109    0.390
  761.500    0.298    1.633  158.341   62.382    0.385
  761.750    0.298    1.639  153.854   60.060    0.386
  762.000    0.299    1.647  153.816   56.124    0.386
  762.250    0.301    1.671  156.679   58.837    0.389
  762.500    0.305    1.718  160.061   60.307    0.409
  762.750    0.305    1.841  160.852   61.837    0.401
  763.000    0.254    2.112  158.848   66.787    0.384
  763.250    0.187    2.350  157.257   72.419    0.375
  763.500    0.191    2.670  156.496   79.667    0.376
  763.750    0.218    2.943  156.464   84.367    0.391
  764.000    0.213    3.154  157.774   83.227    0.391
  764.250    0.187    3.219  160.531   83.207    0.389
  764.500    0.167    3.187  162.666   88.279    0.399
  764.750    0.184    2.981  162.221   93.352    0.408
  765.000    0.216    2.732  159.493   89.602    0.412
  765.250    0.244    2.504  155.107   77.589    0.425
  765.500    0.266    2.295  150.511   61.846    0.433
  765.750    0.287    2.131  149.235   53.623    0.426
  766.000    0.296    2.013  149.301   56.274    0.410
  766.250    0.295    2.019  150.197   63.273    0.396
  766.500    0.283    2.172  151.818   70.583    0.383
  766.750    0.227    2.444  155.096   78.203    0.379
  767.000    0.192    2.873  158.270   83.464    0.370
  767.250    0.156    3.240  161.027   87.107    0.393
  767.500    0.178    3.287  162.650   84.104    0.415
  767.750    0.197    2.736  162.512   79.359    0.431
  768.000    0.227    2.361  159.262   70.018    0.435
  768.250    0.278    2.072  155.498   57.507    0.432
  768.500    0.298    1.828  154.635   55.870    0.415
  768.750    0.317    1.638  155.738   57.401    0.402
  769.000    0.318    1.487  158.600   58.499    0.421
  769.250    0.316    1.412  160.534   59.035    0.429
  769.500    0.321    1.372  160.498   57.896    0.416
  769.750    0.324    1.346  158.080   53.835    0.406
  770.000    0.321    1.340  159.389   51.016    0.405
  770.250    0.320    1.350  159.662   53.106    0.421
  770.500    0.323    1.369  153.724   55.135    0.438
  770.750    0.326    1.379  153.689   56.295    0.445
  771.000    0.324    1.394  153.343   57.454    0.444
  771.250    0.319    1.425  153.924   58.240    0.432
  771.500    0.315    1.462  154.405   58.095    0.420
  771.750    0.314    1.486  154.372   58.195    0.435
  772.000    0.313    1.488  153.714   58.548    0.454
  772.250    0.314    1.510  152.745   56.910    0.450
  772.500    0.318    1.509  151.673   55.646    0.443
  772.750    0.321    1.486  151.224   55.190    0.448
  773.000    0.324    1.419  150.876   54.920    0.433
  773.250    0.323    1.356  149.802   54.898    0.424
  773.500    0.326    1.347  149.872   55.746    0.429
  773.750    0.334    1.342  152.839   57.153    0.434
  774.000    0.337    1.354  154.870   57.753    0.452
  774.250    0.336    1.376  154.735   56.736    0.451
  774.500    0.335    1.412  153.145   57.461    0.446
  774.750    0.330    1.457  154.144   59.676    0.447
  775.000    0.329    1.521  155.246   59.158    0.461
  775.250    0.334    1.581  153.965   58.949    0.455
  775.500    0.326    1.657  153.310   62.220    0.464
  775.750    0.301    1.720  154.415   64.249    0.474
  776.000    0.298    1.778  155.102   62.301    0.456
  776.250    0.307    1.821  151.752   60.725    0.445
  776.500    0.308    1.844  149.127   65.303    0.461
  776.750    0.287    1.864  147.743   68.387    0.475
  777.000    0.276    1.895  147.187   69.919    0.462
  777.250    0.266    1.963  147.153   65.424    0.473
  777.500    0.250    2.144  147.637   60.616    0.477
  777.750    0.223    2.477  149.876   63.515    0.453
  778.000    0.193    2.967  153.876   67.222    0.328
  778.250    0.149    3.397  157.572   70.432    0.293
  778.500    0.212    3.654  159.505   67.862    0.363
  778.750    0.249    3.821  160.504   61.814    0.393
  779.000    0.269    3.595  156.739   62.848    0.398
  779.250    0.277    3.307  156.807   63.075    0.386
  779.500    0.281    3.077  158.426   60.382    0.392
  779.750    0.284    2.939  159.737   60.360    0.404
  780.000    0.291    2.829  158.869   61.764    0.416
  780.250    0.299    2.738  156.866   63.420    0.423
  780.500    0.301    2.625  151.447   64.643    0.431
  780.750    0.297    2.556  148.823   62.510    0.440
  781.000    0.287    2.483  150.443   61.429    0.446
  781.250    0.284    2.403  153.615   61.533    0.446
  781.500    0.296    2.304  154.719   61.389    0.449
  781.750    0.296    2.193  155.404   61.861    0.461
  782.000    0.297    2.075  155.476   62.277    0.479
  782.250    0.300    2.016  156.370   62.938    0.522
  782.500    0.295    2.026  156.850   64.345    0.540
  782.750    0.295    2.095  156.090   65.132    0.533
  783.000    0.301    2.191  154.704   65.669    0.511
  783.250    0.304    2.361  154.048   65.958    0.506
  783.500    0.303    2.535  153.703   65.316    0.517
  783.750    0.300    2.686  153.458   62.995    0.523
  784.000    0.294    2.762  153.527   63.781    0.516
  784.250    0.286    2.823  154.321   65.685    0.508
  784.500    0.286    2.822  155.216   65.414    0.500
  784.750    0.291    2.747  157.144   65.331    0.503
  785.000    0.294    2.735  159.701   65.743    0.512
  785.250    0.293    2.807  157.490   64.542    0.503
  785.500    0.288    2.929  151.963   63.338    0.490
  785.750    0.279    3.046  149.854   63.629    0.489
  786.000    0.278    3.149  149.405   65.095    0.495
  786.250    0.275    3.195  149.061   66.255    0.479
  786.500    0.272    3.200  149.228   67.353    0.447
  786.750    0.270    3.192  150.128   68.698    0.434
  787.000    0.273    3.119  150.505   71.783    0.424
  787.250    0.276    2.985  150.882   71.016    0.418
  787.500    0.290    2.798  151.364   69.441    0.427
  787.750    0.305    2.598  151.532   68.177    0.447
  788.000    0.298    2.341  151.499   66.972    0.453
  788.250    0.292    2.296  151.253   65.524    0.462
  788.500    0.289    2.378  151.112   65.378    0.471
  788.750    0.278    2.483  151.182   66.037    0.425
  789.000    0.279    2.548  151.974   68.069    0.432
  789.250    0.291    2.556  155.357   68.790    0.441
  789.500    0.295    2.497  158.325   68.396    0.436
  789.750    0.295    2.367  157.460   67.813    0.441
  790.000    0.295    2.232  155.248   67.484    0.447
  790.250    0.297    2.100  155.005   67.646    0.449
  790.500    0.296    2.036  155.486   67.564    0.445
  790.750    0.295    2.009  158.350   67.044    0.440
  791.000    0.295    1.985  155.722   65.903    0.441
  791.250    0.300    1.965  153.098   65.138    0.445
  791.500    0.304    1.931  152.547   64.930    0.453
  791.750    0.308    1.880  154.266   64.971    0.460
  792.000    0.308    1.813  155.785   64.265    0.469
  792.250    0.304    1.778  157.407   64.615    0.481
  792.500    0.301    1.737  157.993   66.086    0.503
  792.750    0.305    1.707  158.371   68.550    0.525
  793.000    0.310    1.680  158.232   68.528    0.487
  793.250    0.309    1.654  158.089   68.506    0.467
  793.500    0.303    1.653  158.258   68.858    0.484
  793.750    0.305    1.668  159.157   67.593    0.490
  794.000    0.308    1.693  159.846   66.080    0.476
  794.250    0.305    1.730  159.497   65.499    0.473
  794.500    0.294    1.779  155.011   66.906    0.469
  794.750    0.297    1.819  149.483   67.941    0.465
  795.000    0.301    1.845  149.241   67.607    0.469
  795.250    0.305    1.837  149.620   68.269    0.463
  795.500    0.310    1.785  150.102   69.180    0.457
  795.750    0.314    1.721  151.201   68.661    0.455
