~VERSION INFORMATION
 VERS.                 2.0:   CWLS LOG ASCII STANDARD -VERSION 2.0
 WRAP.                  NO:   ONE LINE PER DEPTH STEP
~WELL INFORMATION BLOCK
#MNEM.UNIT           DATA                    DESCRIPTION OF MNEMONIC
#---------    -------------------            -------------------------------
# Generated from Intellog Unique Number	CW_73_75/WELL/468
WELL.         COSEKA ET AL MITSIK            : Well_name    - WELL
LOC .         00/04-21-074-05W5/0            : Location     - LOCATION
UWI .         00/04-21-074-05W5/0            : Uwi          - UNIQUE WELL ID
ENTR.         JAYE                           : Entered      - ENTERED BY
SRVC.         WESTERN ATLAS                  : Scn          - SERVICE COMPANY
DATE.         21 NOV 82                      : Date         - LOG DATE
STRT.M        465                            : top_depth    - START DEPTH
STOP.M        685                            : bot_depth    - STOP DEPTH
STEP.M        0.25                           : increment    - STEP LENGTH
 NULL. -999.2500:NULL Value
~CURVE INFORMATION BLOCK
#MNEM UNIT       ERCB CURVE CODE    CURVE DESCRIPTION
#-----------   ------------------   ----------------------------------
DEPT.M        00 001 00 00         : DEPTH        - DEPTH
ILD .OHMM     00 120 00 00         : RESD         - DEEP RESISTIVITY (DIL)
CALI.MM       00 280 01 00         : CAL          - CALIPER
GR  .API      00 310 00 00         : GR           - GAMMA RAY
NPHI.V/V      00 330 00 00         : PHIN         - NEUTRON POROSITY (SANDSTONE)
DPHI.V/V      00 890 00 00         : PHID         - DENSITY POROSITY (SANDSTONE)
~PARAMETER INFORMATION
#MNEM.UNIT           DATA             DESCRIPTION OF MNEMONIC
#---------         -----------     ------------------------------
GL  .M        700.46               : gl           - GROUND LEVEL ELEVATION
EREF.M        705.26               : kb           - ELEVATION OF DEPTH REFERENCE
DATM.M        700.46               : datum        - DATUM ELEVATION
TDD .M        1779                 : tdd          - TOTAL DEPTH DRILLER
RUN .         ONE                  : Run          - RUN NUMBER
ENG .         LAMBORN              : Engineer     - RECORDING ENGINEER
WIT .         JONES                : Witness      - WITNESSED BY
BASE.         EDM                  : Branch       - HOME BASE OF LOGGING UNIT
MUD .         GEL CHEM             : Mud_type     - MUD TYPE
MATR.         SANDSTONE            : Logunit      - NEUTRON MATRIX
TMAX.C        44                   : BHT          - MAXIMUM RECORDED TEMPERATURE
BHTD.M        1779.9               : BHTDEP       - MAXIMUM RECORDED TEMPERATURE
RMT .C        13                   : MDTP         - TEMPERATURE OF MUD
MUDD.KG/M     1100                 : MWT          - MUD DENSITY
NEUT.         1                    : NEUTRON      - NEUTRON TYPE
RESI.         0                    : RESIST       - RESISTIVITY TYPE
RM  .OHMM     0.65                 : RM           - RESISTIVITY OF MUD
RMC .OHMM     1.31                 : RMC          - RESISTIVITY OF MUD CAKE
RMF .OHMM     1.9                  : RMF          - RESISTIVITY OF MUD FILTRATE
SUFT.C        0                    : SUFT         - SURFACE TEMPERATURE
~A  DEPTH     RESD      CAL       GR     PHIN     PHID
# ...
  538.000    7.720  209.619   65.292    0.353    0.283
  538.250    7.565  210.705   60.457    0.370    0.287
  538.500    7.496  212.329   57.557    0.379    0.285
  538.750    7.456  213.627   59.962    0.382    0.279
  539.000    7.542  215.346   63.555    0.389    0.267
  539.250    7.645  217.898   64.900    0.376    0.258
  539.500    7.719  220.768   66.057    0.384    0.255
  539.750    7.823  223.739   64.778    0.399    0.254
  540.000    7.782  226.390   66.747    0.415    0.258
  540.250    7.625  229.672   66.845    0.428    0.263
  540.500    7.429  234.616   65.876    0.423    0.268
  540.750    7.280  240.920   65.537    0.379    0.271
  541.000    7.106  243.582   66.194    0.363    0.274
  541.250    6.872  244.254   67.042    0.350    0.275
  541.500    6.608  244.932   67.701    0.344    0.272
  541.750    6.415  245.509   68.167    0.371    0.263
  542.000    6.285  245.876   71.635    0.391    0.251
  542.250    6.287  246.252   73.853    0.398    0.242
  542.500    6.408  246.412   72.577    0.381    0.240
  542.750    6.618  246.568   70.300    0.363    0.247
  543.000    7.083  246.835   67.275    0.368    0.255
  543.250    7.724  246.889   66.373    0.387    0.258
  543.500    8.266  247.046   65.970    0.355    0.256
  543.750    8.964  246.800   65.567    0.338    0.248
  544.000    9.923  246.429   65.226    0.330    0.243
  544.250   10.781  245.560   64.572    0.318    0.226
  544.500   11.516  244.158   63.419    0.307    0.210
  544.750   11.179  242.125   62.765    0.284    0.188
  545.000   10.334  238.328   60.489    0.255    0.142
  545.250    9.341  234.022   58.149    0.211    0.093
  545.500    8.271  231.268   54.001    0.224    0.090
  545.750    7.447  230.073   52.349    0.260    0.114
  546.000    6.656  230.860   55.129    0.314    0.160
  546.250    6.073  233.097   63.091    0.347    0.225
  546.500    5.678  236.582   65.248    0.372    0.269
  546.750    5.419  240.599   64.786    0.380    0.286
  547.000    5.162  243.568   65.502    0.403    0.291
  547.250    4.937  245.703   70.653    0.403    0.289
  547.500    4.712  247.113   74.621    0.406    0.283
  547.750    4.463  247.066   74.715    0.428    0.277
  548.000    4.308  246.814   71.378    0.431    0.273
  548.250    4.261  246.243   67.918    0.406    0.275
  548.500    4.238  245.563   65.704    0.403    0.281
  548.750    4.208  244.477   69.107    0.408    0.297
  549.000    4.139  243.491   68.394    0.404    0.309
  549.250    4.071  242.506   66.865    0.393    0.305
  549.500    4.034  241.000   66.087    0.389    0.291
  549.750    3.967  238.874   69.429    0.389    0.273
  550.000    3.902  236.639   71.962    0.372    0.249
  550.250    3.874  234.925   72.558    0.365    0.230
  550.500    3.875  234.355   73.775    0.378    0.220
  550.750    3.898  233.893   81.673    0.389    0.209
  551.000    3.943  233.843   84.578    0.383    0.202
  551.250    3.982  234.118   85.735    0.392    0.195
  551.500    4.006  234.061   87.144    0.405    0.186
  551.750    4.067  234.326   88.114    0.393    0.184
  552.000    4.169  235.009   84.899    0.383    0.196
  552.250    4.305  236.313   80.126    0.394    0.219
  552.500    4.405  238.139   74.042    0.408    0.227
  552.750    4.464  240.478   74.891    0.386    0.227
  553.000    4.499  245.011   77.355    0.381    0.225
  553.250    4.509  248.290   79.511    0.403    0.225
  553.500    4.510  249.697   78.421    0.409    0.221
  553.750    4.495  250.480   78.204    0.405    0.214
  554.000    4.479  250.433   85.359    0.411    0.204
  554.250    4.439  250.284   86.949    0.424    0.190
  554.500    4.407  250.655   83.924    0.437    0.173
  554.750    4.294  252.476   85.331    0.443    0.160
  555.000    4.160  254.510   84.865    0.453    0.155
  555.250    4.031  254.461   84.588    0.447    0.163
  555.500    3.854  252.646   86.184    0.408    0.184
  555.750    3.700  251.245   89.398    0.413    0.209
  556.000    3.578  254.529   92.116    0.430    0.227
  556.250    3.499  257.387   92.839    0.443    0.261
  556.500    3.474  259.836   89.062    0.444    0.303
  556.750    3.574  258.435   85.163    0.460    0.333
  557.000    3.768  254.126   83.824    0.495    0.338
  557.250    4.055  251.063   89.600    0.447    0.321
  557.500    4.473  248.301   91.069    0.370    0.284
  557.750    4.868  245.656   87.919    0.384    0.259
  558.000    5.349  242.276   83.269    0.417    0.250
  558.250    5.844  238.795   77.748    0.437    0.252
  558.500    6.290  238.542   77.160    0.392    0.249
  558.750    6.037  238.909   81.811    0.380    0.234
  559.000    5.446  239.902   85.653    0.388    0.218
  559.250    4.951  242.559   88.931    0.415    0.199
  559.500    4.594  243.344   85.968    0.416    0.190
  559.750    4.459  241.730   86.001    0.410    0.184
  560.000    4.386  240.649   88.471    0.410    0.176
  560.250    4.412  240.494   88.005    0.414    0.181
  560.500    4.413  240.966   88.037    0.413    0.201
  560.750    4.448  241.440   92.316    0.412    0.223
  561.000    4.491  242.120   96.157    0.404    0.256
  561.250    4.526  242.278   98.253    0.390    0.278
  561.500    4.545  242.029   90.611    0.394    0.290
  561.750    4.572  242.081   85.522    0.410    0.278
  562.000    4.669  242.240   79.312    0.417    0.259
  562.250    4.812  241.874   83.778    0.411    0.243
  562.500    5.131  236.207   91.430    0.394    0.225
  562.750    5.450  227.947   94.582    0.383    0.214
  563.000    5.607  218.839   90.873    0.409    0.224
  563.250    5.433  213.493   85.661    0.418    0.243
  563.500    5.022  215.209   84.386    0.415    0.254
  563.750    4.617  220.674   85.415    0.403    0.267
  564.000    4.341  225.417   87.882    0.391    0.272
  564.250    4.441  229.007   87.983    0.407    0.258
  564.500    4.709  229.996   86.889    0.425    0.238
  564.750    5.212  224.647   84.988    0.416    0.236
  565.000    6.267  216.798   81.340    0.387    0.248
  565.250    7.395  212.480   76.002    0.377    0.259
  565.500    8.858  208.373   70.482    0.388    0.268
  565.750   10.219  207.077   65.769    0.393    0.267
  566.000   10.553  208.072   62.683    0.403    0.255
  566.250   10.206  209.167   64.277    0.414    0.246
  566.500    9.741  209.115   64.808    0.407    0.241
  566.750    9.175  209.698   65.532    0.382    0.240
  567.000    8.676  210.478   68.436    0.359    0.237
  567.250    8.157  211.695   72.592    0.365    0.231
  567.500    7.814  212.056   75.992    0.370    0.224
  567.750    7.529  212.209   79.710    0.370    0.212
  568.000    7.447  212.154   77.122    0.374    0.226
  568.250    7.822  212.111   69.538    0.387    0.235
  568.500    8.466  212.280   65.388    0.383    0.244
  568.750    9.232  212.011   63.053    0.374    0.253
  569.000    9.480  211.654   59.779    0.377    0.266
  569.250    9.573  210.571   61.435    0.384    0.273
  569.500    9.433  210.001   68.083    0.391    0.278
  569.750    9.330  209.747   64.121    0.385    0.281
  570.000    9.246  209.909   60.599    0.393    0.279
  570.250    9.179  210.268   60.635    0.404    0.271
  570.500    9.147  210.856   61.289    0.399    0.264
  570.750    9.099  210.903   62.010    0.398    0.258
  571.000    9.050  211.588   62.291    0.408    0.252
  571.250    9.070  212.377   61.890    0.406    0.248
  571.500    9.056  213.252   61.923    0.379    0.249
  571.750    9.075  214.771   62.897    0.412    0.253
  572.000    9.112  214.930   63.799    0.433    0.259
  572.250    9.149  214.671   63.833    0.406    0.265
  572.500    9.203  214.620   63.366    0.415    0.270
  572.750    9.433  214.373   62.028    0.439    0.273
  573.000    9.688  214.423   60.811    0.403    0.270
  573.250    9.690  214.163   61.782    0.359    0.257
  573.500    9.407  214.335   63.940    0.357    0.244
  573.750    9.079  214.379   68.408    0.364    0.227
  574.000    8.521  214.852   72.810    0.380    0.214
  574.250    8.041  216.577   73.031    0.395    0.203
