~VERSION INFORMATION
 VERS.                 2.0:   CWLS LOG ASCII STANDARD -VERSION 2.0
 WRAP.                  NO:   ONE LINE PER DEPTH STEP
~WELL INFORMATION BLOCK
#MNEM.UNIT           DATA                    DESCRIPTION OF MNEMONIC
#---------    -------------------            -------------------------------
# Generated from Intellog Unique Number	CW_82_90/WELL/199
WELL.         SHELL FINA RUBIN 03-25         : Well_name    - WELL
LOC .         00/03-25-083-02W5/0            : Location     - LOCATION
UWI .         00/03-25-083-02W5/0            : Uwi          - UNIQUE WELL ID
ENTR.         JAYE                           : Entered      - ENTERED BY
SRVC.         SCHLUMBERGER                   : Scn          - SERVICE COMPANY
DATE.         9 JAN 79                       : Date         - LOG DATE
STRT.M        225                            : top_depth    - START DEPTH
STOP.M        485                            : bot_depth    - STOP DEPTH
STEP.M        0.25                           : increment    - STEP LENGTH
 NULL. -999.2500:NULL Value
~CURVE INFORMATION BLOCK
#MNEM UNIT       ERCB CURVE CODE    CURVE DESCRIPTION
#-----------   ------------------   ----------------------------------
DEPT.M        00 001 00 00         : DEPTH        - DEPTH
CALI.MM       00 280 01 00         : CAL          - CALIPER
GR  .API      00 310 00 00         : GR           - GAMMA RAY
NPHI.V/V      00 330 00 00         : PHIN         - NEUTRON POROSITY (SANDSTONE)
DPHI.V/V      00 890 00 00         : PHID         - DENSITY POROSITY (SANDSTONE)
ILD .OHMM     00 120 00 00         : RESD         - DEEP RESISTIVITY (DIL)
~PARAMETER INFORMATION
#MNEM.UNIT           DATA             DESCRIPTION OF MNEMONIC
#---------         -----------     ------------------------------
GL  .M        613.4                : gl           - GROUND LEVEL ELEVATION
EREF.M        618                  : kb           - ELEVATION OF DEPTH REFERENCE
DATM.M        613.4                : datum        - DATUM ELEVATION
TDD .M        413.2                : tdd          - TOTAL DEPTH DRILLER
RUN .         ONE                  : Run          - RUN NUMBER
WIT .         CRAIG                : Witness      - WITNESSED BY
BASE.         EDMONTON             : Branch       - HOME BASE OF LOGGING UNIT
MUD .         GEL                  : Mud_type     - MUD TYPE
MATR.         SANDSTONE            : Logunit      - NEUTRON MATRIX
TMAX.C        0                    : BHT          - MAXIMUM RECORDED TEMPERATURE
BHTD.M        413.2                : BHTDEP       - MAXIMUM RECORDED TEMPERATURE
RMT .C        15                   : MDTP         - TEMPERATURE OF MUD
MUDD.KG/M     1050                 : MWT          - MUD DENSITY
NEUT.         1                    : NEUTRON      - NEUTRON TYPE
RESI.         0                    : RESIST       - RESISTIVITY TYPE
RM  .OHMM     2.26                 : RM           - RESISTIVITY OF MUD
RMC .OHMM     0                    : RMC          - RESISTIVITY OF MUD CAKE
RMF .OHMM     3.6                  : RMF          - RESISTIVITY OF MUD FILTRATE
SUFT.C        0                    : SUFT         - SURFACE TEMPERATURE
~A  DEPTH      CAL       GR     PHIN     PHID     RESD
# ...
  334.500  304.134   60.842    0.496    0.365   11.642
  334.750  304.394   59.153    0.510    0.366   11.734
  335.000  304.146   57.589    0.537    0.358   11.857
  335.250  303.198   57.566    0.520    0.357   11.939
  335.500  302.527   59.759    0.508    0.361   11.973
  335.750  302.185   63.185    0.498    0.359   11.959
  336.000  302.149   66.619    0.499    0.336   11.761
  336.250  301.999   68.011    0.515    0.327   11.563
  336.500  301.966   67.244    0.523    0.329   10.996
  336.750  302.229   65.680    0.531    0.334   10.518
  337.000  302.697   65.718    0.542    0.348    9.972
  337.250  303.595   65.759    0.570    0.347    9.576
  337.500  303.860   67.771    0.555    0.321    9.103
  337.750  303.411   70.583    0.543    0.289    8.637
  338.000  302.446   73.516    0.534    0.272    8.187
  338.250  301.690   74.722    0.529    0.294    7.679
  338.500  301.434   74.266    0.528    0.295    7.257
  338.750  301.806   76.220    0.535    0.288    6.616
  339.000  302.894   79.152    0.538    0.282    5.890
  339.250  304.390   84.186    0.526    0.267    5.450
  339.500  306.405   87.184    0.536    0.246    4.993
  339.750  308.204   88.820    0.539    0.253    4.602
  340.000  311.034   85.965    0.543    0.252    4.290
  340.250  311.419   85.017    0.547    0.260    3.897
  340.500  310.556   86.714    0.569    0.266    3.526
  340.750  309.075   91.257    0.556    0.277    3.239
  341.000  305.963   91.972    0.519    0.246    3.089
  341.250  304.581   90.408    0.506    0.213    3.118
  341.500  303.308   85.883    0.529    0.236    3.286
  341.750  302.653   82.038    0.560    0.240    3.587
  342.000  302.937   78.811    0.585    0.262    3.993
  342.250  303.703   74.959    0.543    0.254    4.351
  342.500  305.212   72.778    0.512    0.257    4.574
  342.750  305.998   73.316    0.509    0.266    4.709
  343.000  305.958   77.603    0.563    0.276    4.738
  343.250  305.816   79.062    0.556    0.291    4.504
  343.500  305.256   78.540    0.545    0.288    4.161
  343.750  304.798   77.538    0.550    0.287    4.072
  344.000  304.039   78.248    0.562    0.267    4.238
  344.250  303.389   78.472    0.561    0.271    4.552
  344.500  303.045   74.869    0.561    0.277    4.844
  344.750  302.685   70.901    0.560    0.283    5.380
  345.000  301.114   69.521    0.547    0.318    6.077
  345.250  299.839   70.799    0.552    0.334    6.948
  345.500  298.366   70.955    0.545    0.335    8.018
  345.750  296.278   71.363    0.543    0.345    8.637
  346.000  292.854   72.385    0.552    0.360    8.786
  346.250  286.866   73.225    0.562    0.374    8.813
  346.500  277.184   76.777    0.545    0.388    8.682
  346.750  265.252   78.050    0.520    0.404    8.455
  347.000  201.338   77.468    0.507    0.376    8.322
  347.250  203.553   76.708    0.501    0.391    8.238
  347.500  211.410   75.884    0.509    0.368    8.210
  347.750  230.333   74.438    0.493    0.337    8.249
  348.000  254.491   70.778    0.527    0.337    8.277
  348.250  280.492   62.741    0.553    0.357    8.198
  348.500  285.168   62.594    0.557    0.333    7.735
  348.750  290.259   65.406    0.570    0.269    6.917
  349.000  298.829   70.068    0.579    0.311    5.860
  349.250  305.760   73.434    0.591    0.342    4.671
  349.500  309.419   78.711    0.601    0.341    3.877
  349.750  310.720   82.572    0.616    0.327    3.619
  350.000  309.639   81.379    0.634    0.326    4.034
  350.250  306.523   76.299    0.635    0.324    4.956
  350.500  301.577   74.118    0.608    0.333    5.694
  350.750  299.984   71.813    0.571    0.321    6.105
  351.000  303.234   69.815    0.562    0.315    6.351
  351.250  305.958   69.237    0.554    0.302    6.487
  351.500  307.674   70.138    0.538    0.219    6.420
  351.750  306.798   72.340    0.494    0.209    6.116
  352.000  305.019   73.975    0.492    0.232    5.811
  352.250  305.705   74.629    0.500    0.273    5.717
  352.500  309.245   76.702    0.524    0.282    5.754
  352.750  312.179   76.253    0.557    0.282    5.865
  353.000  308.339   70.736    0.558    0.267    5.929
  353.250  301.124   67.942    0.551    0.275    5.910
  353.500  301.492   66.558    0.537    0.290    5.774
  353.750  301.558   65.242    0.535    0.306    5.524
  354.000  301.307   67.130    0.551    0.310    5.226
  354.250  302.806   68.956    0.546    0.322    5.092
  354.500  306.867   67.699    0.543    0.296    5.002
  354.750  305.701   66.689    0.554    0.182    4.946
  355.000  302.485   69.254    0.514    0.183    4.940
  355.250  303.055   75.454    0.494    0.212    4.922
  355.500  301.891   76.111    0.517    0.257    5.062
  355.750  301.027   75.347    0.543    0.291    5.188
  356.000  300.378   74.587    0.532    0.305    5.287
  356.250  299.102   75.182    0.518    0.287    5.458
  356.500  297.118   75.468    0.514    0.244    5.707
  356.750  296.163   74.822    0.532    0.198    5.960
  357.000  295.701   73.316    0.505    0.146    6.365
  357.250  295.462   70.952    0.485    0.162    6.712
  357.500  296.039   71.419    0.467    0.211    6.819
  357.750  298.456   75.222    0.452    0.275    6.703
  358.000  301.695   75.997    0.492    0.281    6.289
  358.250  305.754   75.611    0.510    0.274    5.718
  358.500  307.764   76.878    0.510    0.288    5.178
  358.750  309.279   77.961    0.503    0.289    4.752
  359.000  310.668   77.381    0.510    0.279    4.454
  359.250  312.156   76.493    0.532    0.270    4.331
  359.500  314.069   76.286    0.565    0.260    4.517
  359.750  314.643   75.091    0.577    0.244    4.890
  360.000  313.275   73.034    0.582    0.211    5.220
  360.250  311.083   67.338    0.558    0.168    5.676
  360.500  309.092   70.831    0.538    0.132    6.084
  360.750  308.027   76.727    0.492    0.114    6.178
  361.000  307.984   87.428    0.484    0.140    6.095
  361.250  308.049   91.105    0.505    0.185    5.984
  361.500  308.513   90.460    0.523    0.236    5.897
  361.750  309.298   86.805    0.521    0.234    5.891
  362.000  310.085   85.978    0.540    0.222    5.897
  362.250  310.554   87.311    0.531    0.222    5.913
  362.500  311.243   88.579    0.505    0.235    5.948
  362.750  311.700   88.124    0.498    0.254    6.010
  363.000  312.282   88.787    0.481    0.247    6.056
  363.250  313.052   90.236    0.475    0.252    6.113
  363.500  313.735   91.201    0.509    0.234    6.160
  363.750  313.493   90.936    0.513    0.238    6.247
  364.000  313.152   90.716    0.504    0.223    6.310
  364.250  312.895   88.413    0.499    0.220    6.408
  364.500  312.238   86.849    0.499    0.228    6.453
  364.750  311.484   88.431    0.508    0.237    6.468
  365.000  310.522   87.849    0.531    0.238    6.510
  365.250  310.695   88.444    0.532    0.227    6.596
  365.500  311.368   89.656    0.532    0.208    6.681
  365.750  312.244   90.615    0.512    0.218    6.777
  366.000  314.053   83.996    0.496    0.238    6.849
  366.250  314.116   81.816    0.480    0.237    6.940
  366.500  313.059   81.050    0.500    0.242    7.080
  366.750  309.833   79.062    0.529    0.238    7.235
  367.000  297.078   76.255    0.531    0.207    7.468
  367.250  294.678   71.855    0.523    0.230    8.161
  367.500  298.531   68.137    0.500    0.253   10.007
  367.750  304.058   64.106    0.470    0.239   13.162
  368.000  305.130   60.562    0.433    0.210   15.949
  368.250  306.731   57.210    0.383    0.114   16.647
  368.500  308.932   56.692    0.324    0.070   15.899
  368.750  313.520   61.910    0.335    0.113   14.481
  369.000  315.315   72.799    0.394    0.152   12.599
  369.250  314.862   78.323    0.430    0.179   10.650
  369.500  309.082   81.875    0.460    0.202    9.334
  369.750  298.276   83.576    0.490    0.234    8.575
  370.000  254.355   83.924    0.528    0.274    7.988
  370.250  248.794   84.206    0.474    0.283    7.540
  370.500  258.374   85.230    0.429    0.258    7.236
  370.750  278.838   86.197    0.422    0.250    6.884
