~VERSION INFORMATION
 VERS.                 2.0:   CWLS LOG ASCII STANDARD -VERSION 2.0
 WRAP.                  NO:   ONE LINE PER DEPTH STEP
~WELL INFORMATION BLOCK
#MNEM.UNIT           DATA                    DESCRIPTION OF MNEMONIC
#---------    -------------------            -------------------------------
# Generated from Intellog Unique Number	CS_69_70/WELL/822
NULL.         -999.25                        : NULL_VALUE
WELL.         A.E.C. FISHER                  : Well_name    - WELL              
LOC .         00/07-16-070-04W4/0            : Location     - LOCATION          
UWI .         00/07-16-070-04W4/0            : Uwi          - UNIQUE WELL ID    
ENTR.         SP                             : Entered      - ENTERED BY        
SRVC.         SCHLUMBERGER                   : Scn          - SERVICE COMPANY   
STRT.M        300                            : top_depth    - START DEPTH       
STOP.M        515                            : bot_depth    - STOP DEPTH        
STEP.M        0.25                           : increment    - STEP LENGTH       
~CURVE INFORMATION BLOCK
#MNEM UNIT       ERCB CURVE CODE    CURVE DESCRIPTION
#-----------   ------------------   ----------------------------------
DEPT.M        00 001 00 00         : DEPTH        - DEPTH                       
GR  .API      00 310 00 00         : GR           - GAMMA RAY                   
NPHI.V/V      00 330 00 00         : PHIN         - NEUTRON POROSITY (LIMESTONE)
DPHI.V/V      00 890 00 00         : PHID         - DENSITY POROSITY (LIMESTONE)
ILD .OHMM     00 120 00 00         : RESD         - DEEP RESISTIVITY (DIL)      
~PARAMETER INFORMATION       
#MNEM.UNIT           DATA             DESCRIPTION OF MNEMONIC
#---------         -----------     ------------------------------
GL  .M        677.5                : gl           - GROUND LEVEL ELEVATION      
EREF.M        681                  : kb           - ELEVATION OF DEPTH REFERENCE
DATM.M        677.5                : datum        - DATUM ELEVATION             
TDD .M        536                  : tdd          - TOTAL DEPTH DRILLER         
RUN .         ONE                  : Run          - RUN NUMBER                  
ENG .         BILL                 : Engineer     - RECORDING ENGINEER          
WIT .         JIM                  : Witness      - WITNESSED BY                
MUD .         GEL                  : Mud_type     - MUD TYPE                    
MATR.         LIMESTONE            : Logunit      - NEUTRON MATRIX              
TMAX.C        31                   : BHT          - MAXIMUM RECORDED TEMPERATURE
BHTD.M        536                  : BHTDEP       - MAXIMUM RECORDED TEMPERATURE
MATR.         1                    : LOGUNIT      - NEUTRON MATRIX              
RMT .C        25                   : MDTP         - TEMPERATURE OF MUD          
NEUT.         1                    : NEUTRON      - NEUTRON TYPE                
RESI.         0                    : RESIST       - RESISTIVITY TYPE            
RMC .OHMM     0.25                 : RMC          - RESISTIVITY OF MUD CAKE     
RMF .OHMM     0.25                 : RMF          - RESISTIVITY OF MUD FILTRATE 
SUFT.C        15                   : SUFT         - SURFACE TEMPERATURE         
~A  DEPTH       GR     PHIN     PHID     RESD
# ...
  387.000   87.178    0.493    0.296    3.775
  387.250   83.564    0.481    0.303    3.774
  387.500   79.943    0.467    0.314    3.773
  387.750   78.757    0.459    0.328    3.772
  388.000   81.211    0.448    0.311    3.772
  388.250   78.206    0.451    0.297    3.701
  388.500   74.584    0.457    0.289    3.564
  388.750   69.744    0.464    0.285    3.306
  389.000   62.481    0.455    0.348    3.067
  389.250   57.648    0.439    0.372    3.010
  389.500   60.716    0.436    0.376    2.953
  389.750   61.343    0.427    0.370    2.898
  390.000   59.554    0.431    0.368    2.952
  390.250   58.964    0.436    0.372    2.951
  390.500   58.385    0.432    0.362    2.951
  390.750   59.622    0.426    0.357    2.895
  391.000   59.651    0.446    0.352    2.895
  391.250   59.678    0.463    0.348    2.894
  391.500   60.313    0.466    0.366    2.840
  391.750   60.941    0.450    0.374    2.839
  392.000   60.971    0.443    0.374    2.838
  392.250   59.775    0.441    0.369    2.838
  392.500   58.586    0.450    0.364    2.837
  392.750   59.832    0.436    0.363    2.837
  393.000   61.687    0.428    0.371    2.889
  393.250   62.918    0.420    0.371    3.055
  393.500   64.159    0.425    0.366    3.172
  393.750   64.181    0.430    0.365    4.045
  394.000   60.570    0.420    0.365    5.664
  394.250   55.124    0.318    0.310    7.223
  394.500   48.465    0.257    0.211    7.497
  394.750   39.991    0.239    0.141    6.333
  395.000   44.270    0.373    0.122    5.153
  395.250   49.763    0.506    0.353    4.520
  395.500   54.645    0.467    0.378    3.818
  395.750   58.918    0.451    0.393    3.609
  396.000   62.584    0.437    0.362    3.411
  396.250   58.966    0.436    0.340    3.164
  396.500   60.824    0.434    0.351    3.105
  396.750   62.056    0.426    0.353    2.990
  397.000   61.472    0.432    0.356    2.989
  397.250   59.678    0.434    0.357    2.933
  397.500   60.310    0.426    0.358    2.933
  397.750   61.548    0.444    0.369    2.932
  398.000   61.575    0.464    0.378    2.877
  398.250   63.427    0.439    0.375    2.876
  398.500   64.664    0.433    0.370    2.876
  398.750   64.079    0.451    0.369    2.875
  399.000   62.283    0.458    0.365    2.821
  399.250   63.527    0.456    0.364    2.768
  399.500   62.336    0.437    0.364    2.716
  399.750   62.361    0.423    0.364    2.567
  400.000   66.639    0.413    0.364    2.472
  400.250   73.949    0.412    0.356    2.426
  400.500   84.909    0.463    0.342    2.381
  400.750   97.081    0.506    0.317    2.336
  401.000  103.785    0.536    0.295    2.662
  401.250  105.634    0.561    0.290    2.869
  401.500   97.772    0.531    0.289    3.150
  401.750   91.724    0.490    0.285    3.394
  402.000   86.888    0.477    0.285    3.589
  402.250   84.481    0.474    0.290    3.725
  402.500   83.289    0.477    0.291    3.939
  402.750   80.275    0.483    0.285    3.939
  403.000   76.659    0.480    0.285    3.864
  403.250   82.758    0.466    0.294    3.864
  403.500   85.212    0.461    0.289    4.086
  403.750   85.854    0.472    0.279    4.403
  404.000   85.870    0.468    0.274    4.570
  404.250   86.501    0.473    0.275    4.833
  404.500   86.530    0.480    0.276    4.832
  404.750   85.345    0.481    0.277    4.741
  405.000   86.584    0.487    0.274    4.398
  405.250   87.817    0.490    0.278    4.236
  405.500   91.492    0.488    0.278    4.079
  405.750   94.552    0.497    0.270    4.002
  406.000   95.183    0.498    0.261    4.002
  406.250   94.601    0.470    0.258    4.001
  406.500   94.627    0.459    0.266    4.000
  406.750   97.085    0.488    0.273    3.642
  407.000   98.318    0.491    0.273    3.019
  407.250   98.352    0.480    0.276    2.698
  407.500   98.981    0.494    0.266    2.366
  407.750  100.824    0.509    0.258    2.036
  408.000  106.937    0.501    0.253    1.925
  408.250  108.770    0.504    0.247    1.400
  408.500  113.660    0.515    0.246    1.205
  408.750  111.867    0.522    0.251    1.139
  409.000  109.453    0.504    0.259    1.508
  409.250  106.447    0.489    0.254    1.959
  409.500  104.646    0.484    0.245    2.452
  409.750  108.317    0.484    0.242    2.743
  410.000  110.773    0.491    0.240    3.011
  410.250  111.407    0.507    0.242    3.011
  410.500  109.006    0.512    0.246    2.954
  410.750  107.211    0.518    0.246    3.183
  411.000  106.023    0.521    0.244    3.304
  411.250  104.228    0.510    0.247    3.429
  411.500  103.037    0.497    0.253    3.493
  411.750  102.453    0.491    0.260    3.493
  412.000  102.473    0.481    0.260    3.427
  412.250  101.286    0.468    0.259    3.300
  412.500  101.311    0.539    0.261    3.300
  412.750  101.336    0.562    0.262    3.425
  413.000  100.145    0.573    0.268    3.691
  413.250   97.131    0.521    0.281    4.052
  413.500   89.882    0.508    0.298    4.366
  413.750   86.868    0.494    0.318    4.617
  414.000   83.851    0.476    0.327    4.792
  414.250   80.230    0.468    0.319    4.702
  414.500   79.648    0.468    0.308    4.529
  414.750   83.317    0.484    0.295    4.361
  415.000   85.165    0.501    0.289    4.611
  415.250   85.190    0.512    0.284    4.698
  415.500   82.787    0.477    0.301    4.876
  415.750   79.774    0.464    0.312    5.061
  416.000   83.443    0.477    0.315    5.253
  416.250   85.898    0.478    0.320    5.452
  416.500   82.894    0.479    0.321    5.554
  416.750   78.059    0.469    0.326    5.764
  417.000   72.620    0.456    0.319    5.873
  417.250   68.397    0.450    0.315    5.982
  417.500   70.843    0.447    0.310    5.870
  417.750   79.983    0.457    0.302    5.869
  418.000   83.648    0.463    0.292    5.978
  418.250   81.856    0.451    0.282    5.977
  418.500   79.450    0.436    0.277    6.088
  418.750   77.042    0.431    0.288    6.087
  419.000   74.641    0.431    0.342    5.973
  419.250   73.449    0.449    0.358    5.861
  419.500   72.263    0.476    0.361    5.860
  419.750   72.891    0.481    0.357    5.643
  420.000   71.113    0.465    0.355    5.642
  420.250   70.518    0.466    0.349    5.536
  420.500   74.796    0.484    0.341    5.535
  420.750   76.033    0.497    0.339    5.745
  421.000   76.057    0.504    0.339    6.190
  421.250   74.868    0.510    0.329    6.796
  421.500   71.863    0.395    0.312    7.461
  421.750   68.237    0.333    0.199    7.891
  422.000   70.088    0.300    0.155    7.889
  422.250   78.616    0.442    0.157    7.049
  422.500   82.890    0.474    0.221    6.663
  422.750   87.166    0.467    0.279    6.417
  423.000   92.662    0.463    0.287    6.065
  423.250   97.546    0.462    0.276    5.840
  423.500   97.567    0.471    0.260    5.731
  423.750   94.563    0.457    0.258    5.838
  424.000   91.561    0.441    0.255    5.837
  424.250   90.966    0.434    0.255    5.119
  424.500   88.567    0.454    0.267    4.324
  424.750   87.976    0.493    0.277    3.653
  425.000   91.046    0.520    0.290    3.518
  425.250   93.496    0.525    0.295    3.388
  425.500   93.519    0.527    0.283    3.202
  425.750   93.543    0.552    0.279    2.756
  426.000   98.431    0.566    0.285    2.557
  426.250  102.709    0.558    0.280    2.462
  426.500  105.766    0.568    0.279    2.284
  426.750  101.547    0.580    0.277    2.200
  427.000   99.750    0.596    0.288    2.199
  427.250   98.558    0.586    0.297    2.414
  427.500   94.939    0.572    0.291    2.460
  427.750   91.321    0.552    0.278    2.553
  428.000   94.991    0.558    0.268    2.601
  428.250   99.873    0.545    0.264    2.750
  428.500  104.147    0.525    0.265    2.963
  428.750  107.207    0.529    0.266    3.378
  429.000  104.820    0.535    0.269    3.997
  429.250  104.224    0.544    0.272    4.641
  429.500   99.398    0.519    0.277    5.809
  429.750   93.953    0.513    0.283    7.548
  430.000   88.510    0.520    0.286   10.182
  430.250   80.036    0.418    0.182   12.507
