~VERSION INFORMATION
 VERS.                 2.0:   CWLS LOG ASCII STANDARD -VERSION 2.0
 WRAP.                  NO:   ONE LINE PER DEPTH STEP
~WELL INFORMATION BLOCK
#MNEM.UNIT           DATA                    DESCRIPTION OF MNEMONIC
#---------    -------------------            -------------------------------
# Generated from Intellog Unique Number	CW_79_81/WELL/619
WELL.         07-26-079-26W4                 : Well_name    - WELL
LOC .         00/07-26-079-26W4/0            : Location     - LOCATION
UWI .         00/07-26-079-26W4/0            : Uwi          - UNIQUE WELL ID
ENTR.         MAX                            : Entered      - ENTERED BY
SRVC.         SCHLUMBERGER                   : Scn          - SERVICE COMPANY
STRT.M        207.264                        : top_depth    - START DEPTH
STOP.M        487.764                        : bot_depth    - STOP DEPTH
STEP.M        0.25                           : increment    - STEP LENGTH
 NULL. -999.2500:NULL Value
~CURVE INFORMATION BLOCK
#MNEM UNIT       ERCB CURVE CODE    CURVE DESCRIPTION
#-----------   ------------------   ----------------------------------
DEPT.M        00 001 00 00         : DEPTH        - DEPTH
ILD .OHMM     00 120 00 00         : RESD         - DEEP RESISTIVITY (DIL)
NPHI.V/V      00 330 00 00         : PHIN         - NEUTRON POROSITY (SANDSTONE)
DPHI.V/V      00 890 00 00         : PHID         - DENSITY POROSITY (SANDSTONE)
CALI.MM       00 280 01 00         : CAL          - CALIPER
GR  .API      00 310 00 00         : GR           - GAMMA RAY
~PARAMETER INFORMATION
#MNEM.UNIT           DATA             DESCRIPTION OF MNEMONIC
#---------         -----------     ------------------------------
GL  .M        558.394              : gl           - GROUND LEVEL ELEVATION
EREF.M        562.051              : kb           - ELEVATION OF DEPTH REFERENCE
DATM.M        558.394              : datum        - DATUM ELEVATION
TDD .M        463.601              : tdd          - TOTAL DEPTH DRILLER
RUN .         ONE                  : Run          - RUN NUMBER
ENG .         BILL                 : Engineer     - RECORDING ENGINEER
WIT .         JIM                  : Witness      - WITNESSED BY
MUD .         GEL                  : Mud_type     - MUD TYPE
MATR.         SANDSTONE            : Logunit      - NEUTRON MATRIX
TMAX.C        22.2222              : BHT          - MAXIMUM RECORDED TEMPERATURE
BHTD.M        463.601              : BHTDEP       - MAXIMUM RECORDED TEMPERATURE
RMT .C        25.5556              : MDTP         - TEMPERATURE OF MUD
MUDD.KG/M     10200                : MWT          - MUD DENSITY
NEUT.         1                    : NEUTRON      - NEUTRON TYPE
RESI.         0                    : RESIST       - RESISTIVITY TYPE
RM  .OHMM     6.28                 : RM           - RESISTIVITY OF MUD
RMC .OHMM     0                    : RMC          - RESISTIVITY OF MUD CAKE
RMF .OHMM     0                    : RMF          - RESISTIVITY OF MUD FILTRATE
SUFT.C        -20.5556             : SUFT         - SURFACE TEMPERATURE
~A  DEPTH     RESD     PHIN     PHID      CAL       GR
# ...
  353.264    8.369    0.483    0.245  224.864  102.507
  353.514    8.379    0.487    0.253  224.864  103.150
  353.764    8.392    0.487    0.248  224.992  103.199
  354.014    8.103    0.463    0.232  225.583  101.142
  354.264    7.755    0.458    0.238  225.656  100.285
  354.514    7.906    0.463    0.237  225.721  100.028
  354.764    9.583    0.487    0.227  225.295   97.081
  355.014   14.850    0.491    0.214  225.295   95.613
  355.264   22.597    0.489    0.198  225.478   91.756
  355.514   31.683    0.468    0.182  225.007   86.397
  355.764   36.040    0.431    0.132  224.590   80.750
  356.014   38.818    0.316    0.067  224.646   79.587
  356.264   37.136    0.238    0.085  223.703   79.936
  356.514   31.297    0.282    0.153  223.286   82.370
  356.764   30.209    0.369    0.218  223.350   86.014
  357.014   23.889    0.419    0.247  224.440   87.869
  357.264   19.577    0.444    0.255  225.022   89.407
  357.514   15.473    0.458    0.259  225.095   91.851
  357.764   11.795    0.462    0.253  225.168   94.906
  358.014    8.991    0.460    0.225  225.251   97.350
  358.264    7.506    0.468    0.227  225.334   99.489
  358.514    6.677    0.466    0.237  225.906  102.238
  358.764    6.051    0.459    0.250  227.005  105.282
  359.014    5.738    0.459    0.250  227.577  108.927
  359.264    5.591    0.464    0.235  228.159  109.870
  359.514    5.547    0.470    0.236  229.775  107.518
  359.764    5.506    0.479    0.226  230.874  107.862
  360.014    5.512    0.496    0.228  231.963  104.904
  360.264    5.622    0.469    0.202  232.527  108.249
  360.514    5.682    0.465    0.217  232.600  109.803
  360.764    5.794    0.460    0.224  232.701  111.942
  361.014    5.854    0.456    0.225  232.701  113.796
  361.264    5.975    0.454    0.232  232.367  112.929
  361.514    6.200    0.456    0.240  231.886  109.682
  361.764    6.618    0.460    0.244  231.461  108.814
  362.014    6.996    0.470    0.242  230.518  109.763
  362.264    8.405    0.467    0.226  230.083  110.112
  362.514    9.052    0.470    0.226  228.133  107.144
  362.764    9.487    0.455    0.206  226.682  105.987
  363.014    9.851    0.439    0.191  225.231  103.635
  363.264   10.610    0.460    0.221  223.798  103.378
  363.514   11.636    0.476    0.225  223.798  101.321
  363.764   13.116    0.460    0.204  222.929   96.262
  364.014   15.050    0.409    0.142  222.466   86.698
  364.264   19.622    0.261    0.048  222.059   73.832
  364.514   26.293    0.250    0.039  222.059   72.680
  364.764   26.817    0.254    0.055  222.215   74.829
  365.014   22.177    0.279    0.080  222.279   81.180
  365.264   15.293    0.314    0.109  222.343   83.319
  365.514   12.200    0.363    0.156  222.408   89.369
  365.764   10.373    0.413    0.194  223.506   97.220
  366.014    9.146    0.440    0.199  225.631  102.059
  366.264    8.830    0.457    0.203  226.702  112.011
  366.514    9.169    0.462    0.204  226.267  112.955
  366.764    9.610    0.456    0.203  225.334  109.997
  367.014    9.451    0.432    0.203  223.384  105.845
  367.264    8.720    0.425    0.206  222.931  107.694
  367.514    8.045    0.423    0.211  222.496  111.033
  367.764    7.490    0.431    0.207  223.086  111.382
  368.014    7.167    0.434    0.207  223.668  111.120
  368.264    7.167    0.439    0.216  223.751  113.264
  368.514    7.057    0.455    0.208  223.815  111.517
  368.764    6.940    0.452    0.220  223.389  112.161
  369.014    7.015    0.450    0.209  223.463  114.005
  369.264    7.151    0.467    0.213  223.536  110.141
  369.514    7.226    0.462    0.218  224.635  107.484
  369.764    7.237    0.450    0.205  225.216  109.033
  370.014    7.250    0.458    0.191  226.315  110.271
  370.264    7.258    0.451    0.185  226.897  111.815
  370.514    7.268    0.449    0.173  226.952  114.565
  370.764    7.268    0.458    0.174  226.526  117.614
  371.014    7.291    0.468    0.199  226.101  115.852
  371.264    7.234    0.465    0.213  226.174  114.695
  371.514    7.241    0.460    0.210  226.247  111.743
  371.764    7.252    0.465    0.199  226.311  106.984
  372.014    7.327    0.451    0.226  226.893  105.527
  372.264    7.338    0.432    0.223  226.477  106.471
  372.514    7.282    0.436    0.221  226.541  108.320
  372.764    7.294    0.448    0.226  226.106  109.258
  373.014    7.237    0.449    0.232  226.179  109.602
  373.264    7.246    0.444    0.218  226.253  109.656
  373.514    7.257    0.447    0.208  225.827  109.394
  373.764    7.400    0.443    0.211  225.910  107.942
  374.014    7.754    0.444    0.224  225.974  106.174
  374.264    8.660    0.452    0.231  226.057  103.217
  374.514   10.123    0.470    0.224  226.139  100.559
  374.764   12.611    0.475    0.230  226.203   99.418
  375.014   13.959    0.473    0.241  226.776  100.056
  375.264   14.103    0.457    0.257  226.849  100.705
  375.514   13.867    0.454    0.241  226.932   99.543
  375.764   14.143    0.476    0.217  227.005   97.786
  376.014   17.145    0.480    0.136  227.088   94.828
  376.264   23.818    0.450    0.086  227.152   91.865
  376.514   37.929    0.317    0.031  225.710   79.905
  376.764   46.824    0.245    0.053  224.259   75.447
  377.014   52.294    0.267    0.077  223.307   73.090
  377.264   60.586    0.287    0.082  221.874   71.038
  377.514   72.109    0.292    0.064  221.439   68.370
  377.764   77.656    0.284   -0.004  221.004   64.522
  378.014   88.333    0.203   -0.029  220.561   64.260
  378.264   93.397    0.173   -0.006  220.643   72.406
  378.514   89.381    0.209    0.039  220.716   78.762
  378.764   66.893    0.243    0.113  220.799   83.901
  379.014   50.071    0.288    0.164  221.880   90.558
  379.264   40.676    0.331    0.204  223.995   93.596
  379.514   29.894    0.386    0.210  226.618   97.841
  379.764   21.973    0.432    0.203  228.724   98.195
  380.014   19.556    0.437    0.183  228.724   98.833
  380.264   19.230    0.433    0.182  229.896  100.383
  380.514   19.097    0.423    0.187  231.984  102.521
  380.764   18.937    0.426    0.211  233.582  105.871
  381.014   18.782    0.419    0.217  235.198  105.014
  381.264   18.782    0.423    0.215  236.288  102.062
  381.514   18.665    0.415    0.233  236.869  102.100
  381.764   18.524    0.427    0.228  237.451  103.949
  382.014   18.546    0.435    0.224  238.023  104.587
  382.264   18.403    0.437    0.224  238.623  102.835
  382.514   17.773    0.430    0.223  239.195  105.585
  382.764   16.849    0.416    0.212  239.786  108.329
  383.014   15.410    0.421    0.205  239.859  111.068
  383.264   14.614    0.436    0.203  239.933  112.322
  383.514   14.111    0.447    0.208  239.507  110.265
  383.764   13.871    0.461    0.207  239.054  108.202
  384.014   13.642    0.465    0.205  238.628  109.157
  384.264   13.416    0.445    0.199  238.184  111.890
  384.514   13.308    0.445    0.192  238.267  116.140
  384.764   13.088    0.436    0.199  237.851  120.090
  385.014   13.108    0.433    0.197  237.906  120.728
  385.264   13.128    0.433    0.183  237.480  119.571
  385.514   13.144    0.428    0.165  237.544  116.613
  385.764   12.807    0.419    0.128  237.627  114.567
  386.014   12.366    0.396    0.126  237.201  114.299
  386.264   12.050    0.411    0.150  237.320  114.948
  386.514   11.635    0.433    0.174  237.348  115.592
  386.764   11.133    0.442    0.192  237.421  115.340
  387.014   10.848    0.449    0.199  237.495  113.578
  387.264   10.669    0.447    0.208  238.076  110.926
  387.514   10.588    0.437    0.207  239.166  111.269
  387.764   10.696    0.440    0.197  240.256  110.407
  388.014   11.315    0.460    0.202  240.855  107.155
  388.264   12.187    0.476    0.221  240.929  107.798
  388.514   12.658    0.462    0.208  240.993  110.242
  388.764   12.788    0.438    0.216  241.066  112.686
  389.014   12.575    0.431    0.217  240.632  115.130
  389.264   12.367    0.426    0.201  240.252  116.980
  389.514   12.282    0.431    0.199  239.762  115.533
