~VERSION INFORMATION
 VERS.                 2.0:   CWLS LOG ASCII STANDARD -VERSION 2.0
 WRAP.                  NO:   ONE LINE PER DEPTH STEP
~WELL INFORMATION BLOCK
#MNEM.UNIT           DATA                    DESCRIPTION OF MNEMONIC
#---------    -------------------            -------------------------------
# Generated from Intellog Unique Number	CW_76_78/WELL/468
WELL.         PCP MARTIN HILLS 06-05         : Well_name    - WELL
LOC .         00/06-05-076-04W5/0            : Location     - LOCATION
UWI .         00/06-05-076-04W5/0            : Uwi          - UNIQUE WELL ID
ENTR.         JAYE                           : Entered      - ENTERED BY
SRVC.         SCHLUMBERGER                   : Scn          - SERVICE COMPANY
DATE.         8 MAR 74                       : Date         - LOG DATE
STRT.M        682.752                        : top_depth    - START DEPTH
STOP.M        905.252                        : bot_depth    - STOP DEPTH
STEP.M        0.25                           : increment    - STEP LENGTH
 NULL. -999.2500:NULL Value
~CURVE INFORMATION BLOCK
#MNEM UNIT       ERCB CURVE CODE    CURVE DESCRIPTION
#-----------   ------------------   ----------------------------------
DEPT.M        00 001 00 00         : DEPTH        - DEPTH
ILD .OHMM     00 120 00 00         : RESD         - DEEP RESISTIVITY (DIL)
NPHI.V/V      00 330 00 00         : PHIN         - NEUTRON POROSITY (SANDSTONE)
DPHI.V/V      00 890 00 00         : PHID         - DENSITY POROSITY (SANDSTONE)
GR  .API      00 310 00 00         : GR           - GAMMA RAY
CALI.MM       00 280 01 00         : CAL          - CALIPER
~PARAMETER INFORMATION
#MNEM.UNIT           DATA             DESCRIPTION OF MNEMONIC
#---------         -----------     ------------------------------
GL  .M        955.243              : gl           - GROUND LEVEL ELEVATION
EREF.M        958.596              : kb           - ELEVATION OF DEPTH REFERENCE
DATM.M        955.243              : datum        - DATUM ELEVATION
TDD .M        920.496              : tdd          - TOTAL DEPTH DRILLER
RUN .         ONE                  : Run          - RUN NUMBER
BASE.         EDM                  : Branch       - HOME BASE OF LOGGING UNIT
MATR.         SANDSTONE            : Logunit      - NEUTRON MATRIX
TMAX.C        33.3333              : BHT          - MAXIMUM RECORDED TEMPERATURE
BHTD.M        825.094              : BHTDEP       - MAXIMUM RECORDED TEMPERATURE
RMT .C        2.22222              : MDTP         - TEMPERATURE OF MUD
MUDD.KG/M     0                    : MWT          - MUD DENSITY
NEUT.         1                    : NEUTRON      - NEUTRON TYPE
RESI.         0                    : RESIST       - RESISTIVITY TYPE
RM  .OHMM     2.5                  : RM           - RESISTIVITY OF MUD
RMC .OHMM     0                    : RMC          - RESISTIVITY OF MUD CAKE
RMF .OHMM     4.8                  : RMF          - RESISTIVITY OF MUD FILTRATE
SUFT.C        -17.7778             : SUFT         - SURFACE TEMPERATURE
~A  DEPTH     RESD     PHIN     PHID       GR      CAL
# ...
  792.252    5.702    0.421    0.301   57.437  191.341
  792.502    5.681    0.410    0.298   60.139  192.612
  792.752    5.670    0.408    0.294   61.379  193.682
  793.002    5.555    0.413    0.290   63.713  192.988
  793.252    5.275    0.410    0.289   65.928  190.749
  793.502    5.056    0.417    0.292   65.948  185.417
  793.752    4.864    0.406    0.293   66.271  182.044
  794.002    4.696    0.422    0.294   65.743  182.286
  794.252    4.576    0.440    0.296   64.421  184.071
  794.502    4.434    0.436    0.302   63.101  186.174
  794.752    4.281    0.415    0.301   64.034  186.512
  795.002    4.226    0.410    0.298   66.431  186.544
  795.252    4.225    0.412    0.295   70.716  188.438
  795.502    4.303    0.414    0.295   75.612  189.607
  795.752    4.505    0.406    0.297   80.996  189.121
  796.002    4.849    0.395    0.296   81.139  187.195
  796.252    5.191    0.386    0.296   78.048  185.987
  796.502    5.526    0.421    0.293   74.168  186.126
  796.752    5.991    0.461    0.284   70.835  188.429
  797.002    6.449    0.453    0.265   67.441  192.487
  797.252    6.890    0.414    0.253   66.123  195.311
  797.502    7.307    0.383    0.244   66.385  195.031
  797.752    7.347    0.359    0.235   65.430  195.891
  798.002    7.172    0.308    0.224   60.877  191.589
  798.252    6.925    0.287    0.239   61.387  187.391
  798.502    6.540    0.313    0.257   64.147  187.633
  798.752    6.245    0.344    0.272   65.324  189.314
  799.002    5.974    0.376    0.286   66.014  190.590
  799.252    5.736    0.404    0.295   67.071  191.347
  799.502    5.517    0.426    0.300   67.821  191.794
  799.752    5.268    0.448    0.309   68.267  192.337
  800.002    5.134    0.431    0.317   66.459  193.203
  800.252    5.049    0.441    0.319   62.089  193.746
  800.502    5.238    0.461    0.317   60.952  194.090
  800.752    5.617    0.462    0.313   59.996  194.845
  801.002    6.169    0.430    0.304   59.101  195.292
  801.252    7.069    0.388    0.296   58.207  197.391
  801.502    8.266    0.338    0.284   57.312  199.384
  801.752    9.265    0.312    0.264   55.322  197.971
  802.002    9.012    0.337    0.297   57.351  192.224
  802.252    8.263    0.419    0.340   60.848  189.578
  802.502    7.344    0.455    0.336   61.718  188.992
  802.752    6.383    0.454    0.330   61.372  189.233
  803.002    5.368    0.453    0.325   59.748  189.268
  803.252    4.598    0.462    0.322   60.071  189.606
  803.502    4.185    0.467    0.317   61.492  190.463
  803.752    4.063    0.459    0.317   63.891  191.017
  804.002    4.070    0.438    0.319   64.640  191.562
  804.252    4.077    0.450    0.319   63.749  192.739
  804.502    4.069    0.477    0.321   63.764  193.698
  804.752    4.061    0.483    0.322   61.652  194.551
  805.002    4.038    0.457    0.320   62.100  194.896
  805.252    4.060    0.439    0.318   63.031  195.034
  805.502    4.074    0.416    0.316   66.465  195.377
  805.752    4.066    0.400    0.313   67.947  195.205
  806.002    4.036    0.394    0.304   66.139  194.825
  806.252    4.013    0.387    0.285   66.706  194.753
  806.502    4.088    0.381    0.273   67.338  194.686
  806.752    4.256    0.377    0.249   67.295  194.721
  807.002    4.506    0.372    0.213   66.096  195.681
  807.252    4.614    0.344    0.202   67.334  197.980
  807.502    4.546    0.382    0.250   70.036  200.082
  807.752    4.397    0.410    0.274   68.654  201.255
  808.002    4.160    0.455    0.290   64.711  201.697
  808.252    3.958    0.441    0.301   63.515  201.729
  808.502    3.829    0.410    0.305   63.714  201.350
  808.752    3.710    0.399    0.297   65.809  201.073
  809.002    3.655    0.408    0.285   68.203  200.802
  809.252    3.635    0.415    0.266   73.587  200.417
  809.502    3.614    0.420    0.255   75.739  200.043
  809.752    3.587    0.432    0.252   76.734  200.277
  810.002    3.587    0.450    0.248   78.034  200.104
  810.252    3.606    0.469    0.242   78.541  199.826
  810.502    3.666    0.482    0.244   77.889  199.139
  810.752    3.720    0.443    0.243   78.093  198.865
  811.002    3.817    0.467    0.236   81.342  198.796
  811.252    3.895    0.472    0.226   89.163  199.237
  811.502    3.923    0.452    0.225   87.598  200.207
  811.752    3.908    0.433    0.222   81.523  201.161
  812.002    3.864    0.414    0.220   77.520  202.332
  812.252    3.808    0.426    0.220   76.199  202.570
  812.502    3.731    0.434    0.221   78.414  203.226
  812.752    3.649    0.418    0.218   80.628  204.391
  813.002    3.601    0.434    0.213   80.952  205.147
  813.252    3.581    0.446    0.207   83.470  205.696
  813.502    3.601    0.457    0.210   87.207  206.041
  813.752    3.654    0.475    0.218   82.960  206.488
  814.002    3.756    0.468    0.224   79.140  206.209
  814.252    3.867    0.445    0.231   83.244  205.109
  814.502    3.997    0.466    0.241   86.190  203.594
  814.752    4.185    0.463    0.241   83.770  202.182
  815.002    4.463    0.441    0.236   83.425  201.698
  815.252    4.690    0.438    0.232   86.004  201.733
  815.502    4.768    0.439    0.228   89.315  202.592
  815.752    4.776    0.435    0.221   89.761  203.039
  816.002    4.767    0.432    0.216   87.100  203.384
  816.252    4.766    0.428    0.220   83.584  203.520
  816.502    4.766    0.422    0.218   81.531  203.548
  816.752    4.748    0.388    0.217   81.794  203.686
  817.002    4.782    0.387    0.215   83.216  203.412
  817.252    4.799    0.398    0.211   83.237  202.617
  817.502    4.764    0.404    0.213   83.683  202.341
  817.752    4.693    0.414    0.213   84.799  202.785
  818.002    4.599    0.413    0.209   85.490  205.816
  818.252    4.489    0.404    0.209   88.008  207.397
  818.502    4.382    0.404    0.206   86.992  207.633
  818.752    4.286    0.417    0.200   83.476  207.977
  819.002    4.231    0.407    0.196   80.875  208.319
  819.252    4.184    0.391    0.190   82.114  208.560
  819.502    4.168    0.395    0.189   83.719  208.389
  819.752    4.122    0.412    0.191   85.505  208.729
  820.002    4.091    0.428    0.193   89.243  209.588
  820.252    4.045    0.452    0.195   91.578  210.655
  820.502    3.971    0.480    0.199   93.610  208.828
  820.752    3.778    0.479    0.212   92.046  206.076
  821.002    3.729    0.462    0.222   88.894  202.395
  821.252    3.819    0.452    0.239   84.343  198.299
  821.502    3.875    0.442    0.247   79.425  191.314
  821.752    3.903    0.426    0.262   74.203  189.284
  822.002    3.917    0.417    0.267   76.173  192.516
  822.252    3.852    0.406    0.266   78.814  198.227
  822.502    3.810    0.425    0.255   82.126  202.598
  822.752    3.726    0.446    0.214   83.183  205.827
  823.002    3.041    0.471    0.203   83.324  207.873
  823.252    2.923    0.464    0.196   84.890  207.676
  823.502    2.904    0.454    0.210   86.522  207.361
  823.752    2.917    0.444    0.212   86.275  207.268
  824.002    2.962    0.436    0.219   84.042  206.562
  824.252    3.087    0.432    0.212   83.208  206.545
  824.502    3.241    0.431    0.199   83.868  206.754
  824.752    3.298    0.433    0.198   84.768  206.934
  825.002    2.844    0.446    0.211   85.545  207.756
  825.252    2.503    0.457    0.202   86.450  208.062
  825.502    2.297    0.475    0.211   87.657  207.954
  825.752    2.140    0.453    0.208   88.379  207.963
  826.002    2.103    0.441    0.204   89.228  207.759
  826.252    2.168    0.437    0.199   92.118  207.352
  826.502    2.305    0.433    0.190   93.390  206.819
  826.752    2.442    0.424    0.177   91.211  206.113
  827.002    2.645    0.436    0.181   88.500  205.074
  827.252    2.757    0.438    0.188   86.803  204.356
  827.502    2.769    0.430    0.213   85.475  204.455
  827.752    2.711    0.431    0.212   83.837  204.564
  828.002    2.582    0.446    0.201   84.989  205.172
  828.252    2.491    0.467    0.201   86.552  205.799
  828.502    2.443    0.456    0.203   86.912  206.404
