~VERSION INFORMATION
 VERS.                 2.0:   CWLS LOG ASCII STANDARD -VERSION 2.0
 WRAP.                  NO:   ONE LINE PER DEPTH STEP
~WELL INFORMATION BLOCK
#MNEM.UNIT           DATA                    DESCRIPTION OF MNEMONIC
#---------    -------------------            -------------------------------
# Generated from Intellog Unique Number	CS_73_76/WELL/2162
WELL.         HOUSTON OILS LIMITED           : Well_name    - WELL
LOC .         00/06-08-074-14W4/0            : Location     - LOCATION
UWI .         00/06-08-074-14W4/0            : Uwi          - UNIQUE WELL ID
ENTR.         SP                             : Entered      - ENTERED BY
SRVC.         SCHLUMBERGER                   : Scn          - SERVICE COMPANY
STRT.M        365.76                         : top_depth    - START DEPTH
STOP.M        600.26                         : bot_depth    - STOP DEPTH
STEP.M        0.25                           : increment    - STEP LENGTH
 NULL. -999.2500:NULL Value
~CURVE INFORMATION BLOCK
#MNEM UNIT       ERCB CURVE CODE    CURVE DESCRIPTION
#-----------   ------------------   ----------------------------------
DEPT.M        00 001 00 00         : DEPTH        - DEPTH
GR  .API      00 310 00 00         : GR           - GAMMA RAY
DPHI.V/V      00 890 00 00         : PHID         - DENSITY POROSITY (SANDSTONE)
NPHI.V/V      00 330 00 00         : PHIN         - NEUTRON POROSITY (SANDSTONE)
ILD .OHMM     00 120 00 00         : RESD         - DEEP RESISTIVITY (DIL)
~PARAMETER INFORMATION
#MNEM.UNIT           DATA             DESCRIPTION OF MNEMONIC
#---------         -----------     ------------------------------
GL  .M        712.318              : gl           - GROUND LEVEL ELEVATION
EREF.M        715.366              : kb           - ELEVATION OF DEPTH REFERENCE
DATM.M        712.318              : datum        - DATUM ELEVATION
TDD .M        611.124              : tdd          - TOTAL DEPTH DRILLER
RUN .         ONE                  : Run          - RUN NUMBER
ENG .         BILL                 : Engineer     - RECORDING ENGINEER
WIT .         JIM                  : Witness      - WITNESSED BY
MUD .         GEL                  : Mud_type     - MUD TYPE
MATR.         SANDSTONE            : Logunit      - NEUTRON MATRIX
TMAX.C        25.5556              : BHT          - MAXIMUM RECORDED TEMPERATURE
BHTD.M        611.124              : BHTDEP       - MAXIMUM RECORDED TEMPERATURE
MATR.         1                    : LOGUNIT      - NEUTRON MATRIX
RMT .C        25                   : MDTP         - TEMPERATURE OF MUD
NEUT.         1                    : NEUTRON      - NEUTRON TYPE
RESI.         0                    : RESIST       - RESISTIVITY TYPE
RMC .OHMM     0.25                 : RMC          - RESISTIVITY OF MUD CAKE
RMF .OHMM     0.25                 : RMF          - RESISTIVITY OF MUD FILTRATE
SUFT.C        15                   : SUFT         - SURFACE TEMPERATURE
~A  DEPTH       GR     PHID     PHIN     RESD
# ...
  452.760   98.621    0.214    0.639    2.491
  453.010   98.368    0.221    0.640    2.799
  453.260   99.634    0.229    0.649    2.857
  453.510   95.496    0.244    0.650    2.776
  453.760   92.829    0.285    0.665    2.634
  454.010   90.097    0.334    0.689    2.616
  454.260   85.594    0.373    0.715    2.923
  454.510   83.346    0.384    0.581    3.420
  454.760   84.694    0.340    0.533    3.823
  455.010   92.947    0.328    0.482    4.125
  455.260   96.913    0.297    0.501    3.723
  455.510  100.884    0.306    0.587    2.953
  455.760   99.363    0.312    0.664    2.499
  456.010   92.262    0.310    0.706    2.333
  456.260   86.947    0.316    0.679    2.561
  456.510   83.798    0.301    0.600    2.872
  456.760   83.768    0.302    0.568    3.518
  457.010   85.972    0.303    0.511    4.099
  457.260   86.917    0.293    0.485    4.906
  457.510   87.251    0.273    0.465    5.518
  457.760   85.983    0.281    0.467    6.202
  458.010   80.910    0.279    0.484    6.546
  458.260   74.823    0.284    0.504    6.613
  458.510   71.785    0.307    0.512    6.612
  458.760   71.445    0.311    0.516    6.612
  459.010   74.080    0.298    0.499    6.599
  459.260   73.046    0.289    0.476    6.715
  459.510   74.236    0.287    0.480    6.991
  459.760   74.141    0.270    0.488    7.158
  460.010   71.011    0.178    0.465    7.874
  460.260   61.142    0.042    0.377    9.760
  460.510   50.446    0.015    0.267   12.973
  460.760   46.038    0.003    0.191   18.081
  461.010   45.487   -0.000    0.149   23.235
  461.260   47.006   -0.000    0.140   27.435
  461.510   51.456    0.018    0.137   29.684
  461.760   54.312    0.045    0.161   28.887
  462.010   58.226    0.067    0.191   20.163
  462.260   62.926    0.114    0.264   14.779
  462.510   68.461    0.167    0.448   12.248
  462.760   70.281    0.283    0.458   11.573
  463.010   63.416    0.252    0.378   12.110
  463.260   55.612    0.192    0.281   13.237
  463.510   53.830    0.107    0.228   14.307
  463.760   57.568    0.107    0.248   14.996
  464.010   64.590    0.165    0.344   13.056
  464.260   70.800    0.226    0.385    9.614
  464.510   76.531    0.277    0.448    7.934
  464.760   80.114    0.283    0.502    6.830
  465.010   82.867    0.278    0.517    6.138
  465.260   86.385    0.266    0.499    5.698
  465.510   89.664    0.256    0.483    5.637
  465.760   89.770    0.241    0.487    5.591
  466.010   87.941    0.241    0.508    5.764
  466.260   83.559    0.249    0.512    5.928
  466.510   81.473    0.271    0.499    6.233
  466.760   83.142    0.266    0.485    6.488
  467.010   84.072    0.263    0.476    6.815
  467.260   85.050    0.256    0.474    7.066
  467.510   86.043    0.262    0.497    7.138
  467.760   87.048    0.258    0.504    7.389
  468.010   87.472    0.251    0.499    7.857
  468.260   87.517    0.247    0.483    8.366
  468.510   86.743    0.235    0.469    8.726
  468.760   85.843    0.200    0.453    9.737
  469.010   84.364    0.178    0.445   10.292
  469.260   85.249    0.183    0.430   10.107
  469.510   88.183    0.197    0.395    9.072
  469.760   91.675    0.219    0.451    8.090
  470.010   93.521    0.237    0.490    7.040
  470.260   92.611    0.254    0.507    6.547
  470.510   89.703    0.239    0.494    6.284
  470.760   88.136    0.228    0.478    6.203
  471.010   86.986    0.228    0.488    6.189
  471.260   87.041    0.215    0.491    6.327
  471.510   86.883    0.204    0.497    6.312
  471.760   87.483    0.219    0.507    6.264
  472.010   88.889    0.229    0.522    6.073
  472.260   89.790    0.234    0.528    5.793
  472.510   90.521    0.226    0.542    5.767
  472.760   91.142    0.217    0.569    5.764
  473.010   90.078    0.218    0.544    5.872
  473.260   88.864    0.213    0.509    5.890
  473.510   88.765    0.222    0.481    6.079
  473.760   89.864    0.221    0.508    6.150
  474.010   88.148    0.211    0.523    6.180
  474.260   84.680    0.219    0.529    6.294
  474.510   85.271    0.224    0.494    6.196
  474.760   86.549    0.217    0.472    6.568
  475.010   86.506    0.210    0.462    6.530
  475.260   84.960    0.210    0.469    6.531
  475.510   83.364    0.202    0.489    6.531
  475.760   80.265    0.194    0.517    6.528
  476.010   76.914    0.159    0.496    6.492
  476.260   83.181    0.132    0.445    6.289
  476.510   89.941    0.158    0.414    6.021
  476.760   90.558    0.219    0.474    5.802
  477.010   87.152    0.267    0.564    5.845
  477.260   84.660    0.279    0.553    5.985
  477.510   85.948    0.279    0.536    6.104
  477.760   85.981    0.280    0.545    6.287
  478.010   82.694    0.292    0.541    6.477
  478.260   80.849    0.304    0.531    6.518
  478.510   79.890    0.308    0.495    6.507
  478.760   78.807    0.305    0.502    6.648
  479.010   76.839    0.314    0.499    6.635
  479.260   78.733    0.322    0.498    6.646
  479.510   80.437    0.317    0.516    6.500
  479.760   82.914    0.313    0.520    6.511
  480.010   83.358    0.316    0.515    6.431
  480.260   82.752    0.320    0.510    6.395
  480.510   81.209    0.324    0.515    6.388
  480.760   80.307    0.329    0.513    6.321
  481.010   78.747    0.321    0.505    6.275
  481.260   79.474    0.315    0.497    6.270
  481.510   78.232    0.314    0.497    6.266
  481.760   80.069    0.311    0.496    6.254
  482.010   81.062    0.305    0.488    6.240
  482.260   81.151    0.300    0.511    6.263
  482.510   81.169    0.294    0.546    6.266
  482.760   81.354    0.291    0.539    6.182
  483.010   79.082    0.290    0.512    6.153
  483.260   81.144    0.298    0.503    6.148
  483.510   83.238    0.297    0.497    6.147
  483.760   83.839    0.299    0.493    6.146
  484.010   87.570    0.305    0.519    6.145
  484.260   89.321    0.305    0.514    6.153
  484.510   90.316    0.295    0.510    6.010
  484.760   90.323    0.293    0.519    5.839
  485.010   89.284    0.297    0.542    5.477
  485.260   89.019    0.286    0.561    4.885
  485.510   88.453    0.293    0.565    4.035
  485.760   90.217    0.286    0.546    3.285
  486.010   93.833    0.268    0.610    3.004
  486.260   97.009    0.277    0.717    2.725
  486.510  101.342    0.283    0.714    2.578
  486.760  102.145    0.259    0.710    2.551
  487.010  102.136    0.249    0.717    2.565
  487.260  102.013    0.256    0.718    2.772
  487.510   99.909    0.242    0.700    3.144
  487.760   98.559    0.247    0.693    3.402
  488.010   97.986    0.248    0.638    3.847
  488.260   99.428    0.235    0.551    4.350
  488.510  100.385    0.243    0.528    4.612
  488.760   97.344    0.243    0.532    4.748
  489.010   95.988    0.238    0.524    4.835
  489.260   96.034    0.255    0.509    4.856
  489.510   97.428    0.262    0.496    4.916
  489.760   99.204    0.267    0.507    4.915
  490.010   98.721    0.257    0.491    4.914
  490.260   95.987    0.248    0.525    4.914
  490.510   92.202    0.240    0.567    4.962
  490.760   90.859    0.250    0.578    4.999
  491.010   91.368    0.250    0.559    5.003
  491.260   92.163    0.266    0.571    5.042
  491.510   91.352    0.283    0.587    5.088
  491.760   89.089    0.293    0.581    5.169
  492.010   89.591    0.287    0.550    5.249
  492.260   87.854    0.270    0.536    4.901
  492.510   82.314    0.283    0.522    5.012
  492.760   81.532    0.296    0.526    5.020
  493.010   81.920    0.301    0.546    5.089
  493.260   85.497    0.299    0.540    4.983
  493.510   88.258    0.283    0.516    4.974
  493.760   90.726    0.264    0.516    4.898
  494.010   92.533    0.250    0.536    4.893
  494.260   92.729    0.238    0.544    5.008
  494.510   92.975    0.228    0.536    5.068
  494.760   88.452    0.213    0.530    5.314
  495.010   83.655    0.198    0.523    5.576
  495.260   79.654    0.179    0.506    5.747
  495.510   73.216    0.148    0.348    5.765
  495.760   77.810    0.156    0.350    5.769
  496.010   85.287    0.190    0.433    5.601
