~VERSION INFORMATION
 VERS.                 2.0:   CWLS LOG ASCII STANDARD -VERSION 2.0
 WRAP.                  NO:   ONE LINE PER DEPTH STEP
~WELL INFORMATION BLOCK
#MNEM.UNIT           DATA                    DESCRIPTION OF MNEMONIC
#---------    -------------------            -------------------------------
# Generated from Intellog Unique Number	CN_91_93/WELL/1073
WELL.         06-03-091-19W4                 : Well_name    - WELL
LOC .         00/06-03-091-19W4/0            : Location     - LOCATION
UWI .         00/06-03-091-19W4/0            : Uwi          - UNIQUE WELL ID
ENTR.         JOETTE                         : Entered      - ENTERED BY
SRVC.         SCHLUMBERGER                   : Scn          - SERVICE COMPANY
DATE.         02/04/92                       : Date         - LOG DATE
STRT.F        410.105                        : top_depth    - START DEPTH
STOP.F        770.997                        : bot_depth    - STOP DEPTH
STEP.F        0.82                           : increment    - STEP LENGTH
 NULL. -999.2500:NULL Value
~CURVE INFORMATION BLOCK
#MNEM UNIT       ERCB CURVE CODE    CURVE DESCRIPTION
#-----------   ------------------   ----------------------------------
DEPT.F        00 001 00 00         : DEPTH        - DEPTH
ILD .OHMM     00 120 00 00         : RESD         - DEEP RESISTIVITY (DIL)
NPHI.V/V      00 330 00 00         : PHIN         - NEUTRON POROSITY (SANDSTONE)
CALI.IN       00 280 01 00         : CAL          - CALIPER
GR  .API      00 310 00 00         : GR           - GAMMA RAY
~PARAMETER INFORMATION
#MNEM.UNIT           DATA             DESCRIPTION OF MNEMONIC
#---------         -----------     ------------------------------
GL  .M        518.3                : gl           - GROUND LEVEL ELEVATION
EREF.M        518.3                : kb           - ELEVATION OF DEPTH REFERENCE
DATM.M        518.3                : datum        - DATUM ELEVATION
TDD .M        238                  : tdd          - TOTAL DEPTH DRILLER
RUN .         ONE                  : Run          - RUN NUMBER
ENG .         JO                   : Engineer     - RECORDING ENGINEER
WIT .         TIM                  : Witness      - WITNESSED BY
MUD .         GEL                  : Mud_type     - MUD TYPE
MATR.         SANDSTONE            : Logunit      - NEUTRON MATRIX
TMAX.F        59                   : BHT          - MAXIMUM RECORDED TEMPERATURE
BHTD.F        780.84               : BHTDEP       - MAXIMUM RECORDED TEMPERATURE
RMT .F        59                   : MDTP         - TEMPERATURE OF MUD
MUDD.LB/G     10.1667              : MWT          - MUD DENSITY
NEUT.         1                    : NEUTRON      - NEUTRON TYPE
RESI.         0                    : RESIST       - RESISTIVITY TYPE
RM  .OHMM     7.4                  : RM           - RESISTIVITY OF MUD
RMC .OHMM     19.8                 : RMC          - RESISTIVITY OF MUD CAKE
RMF .OHMM     6.5                  : RMF          - RESISTIVITY OF MUD FILTRATE
SUFT.F        39.2                 : SUFT         - SURFACE TEMPERATURE
~A  DEPTH     RESD     PHIN      CAL       GR
# ...
  695.538   24.476    0.407    8.656   37.590
  696.358   29.223    0.380    7.997   37.360
  697.178   32.687    0.392    7.942   38.008
  697.999   38.665    0.413    8.123   41.339
  698.819   46.597    0.436    8.224   41.103
  699.639   64.577    0.497    8.248   37.001
  700.459   80.779    0.443    8.174   34.096
  701.280   95.556    0.459    8.158   32.358
  702.100  104.914    0.466    8.181   29.453
  702.920  105.924    0.467    8.224   28.317
  703.740  105.952    0.441    8.170   27.195
  704.560  107.973    0.431    8.095   24.870
  705.381  114.211    0.437    8.099   25.823
  706.201  116.413    0.420    8.123   32.729
  707.021  118.610    0.408    8.123   34.284
  707.841  118.610    0.415    8.152   30.777
  708.661  126.687    0.418    8.174   27.560
  709.482  145.712    0.400    8.179   24.640
  710.302  157.023    0.413    8.182   20.545
  711.122  172.412    0.419    8.147   21.506
  711.942  180.681    0.420    8.132   22.748
  712.762  185.845    0.421    8.135   25.187
  713.583  177.434    0.425    8.159   26.132
  714.403  166.276    0.420    8.203   24.119
  715.223  154.375    0.421    8.203   26.856
  716.043  143.326    0.405    8.231   29.295
  716.864  131.833    0.419    8.253   27.290
  717.684  123.547    0.421    8.253   27.930
  718.504  119.059    0.412    8.281   30.079
  719.324  113.674    0.413    8.285   32.816
  720.144  109.538    0.433    8.250   37.046
  720.965  100.758    0.469    8.215   39.478
  721.785   96.195    0.458    8.219   40.438
  722.605   94.444    0.445    8.184   39.599
  723.425   93.593    0.458    8.109   42.344
  724.245   93.621    0.478    8.055   41.505
  725.066   91.920    0.450    8.020   36.214
  725.886   87.757    0.447    8.044   33.911
  726.706   80.723    0.454    8.106   33.369
  727.526   75.642    0.459    8.169   33.430
  728.346   62.221    0.452    8.192   33.483
  729.167   59.957    0.448    8.216   34.139
  729.987   50.244    0.454    8.200   37.767
  730.807   41.715    0.475    8.145   42.890
  731.627   37.311    0.488    7.857   46.816
  732.448   28.752    0.452    7.744   51.336
  733.268   19.447    0.441    7.943   56.161
  734.088   15.268    0.442    8.044   58.898
  734.908   13.157    0.426    7.736   63.723
  735.728    8.573    0.413    7.526   69.136
  736.549    6.794    0.409    7.529   69.493
  737.369    5.641    0.421    7.689   83.833
  738.189    5.045    0.446    7.927   88.658
  739.009    4.908    0.524    8.107   97.052
  739.829    5.001    0.483    8.191  101.877
  740.650    5.097    0.460    8.214  100.443
  741.470    4.911    0.453    8.214   96.654
  742.290    4.733    0.456    8.221   94.634
  743.110    4.647    0.457    8.265   93.497
  743.930    4.915    0.455    8.248   96.226
  744.751    5.151    0.519    8.253  102.241
  745.571    5.655    0.496    8.237   98.429
  746.391    6.445    0.488    8.241   95.219
  747.211    8.291    0.478    8.246   92.612
  748.031   10.179    0.445    8.249   90.888
  748.852   12.041    0.431    8.249   89.752
  749.672   13.469    0.412    8.258   88.616
  750.492   13.984    0.396    8.280   80.054
  751.312   14.118    0.388    8.304   76.540
  752.133   14.796    0.400    8.327   81.960
  752.953   17.019    0.411    8.332   84.399
  753.773   20.511    0.429    8.316   79.703
  754.593   25.183    0.450    8.281   67.863
  755.413   25.190    0.435    8.265   65.545
  756.234   24.503    0.424    8.250   73.633
  757.054   22.962    0.443    8.234   79.358
  757.874   21.720    0.459    8.239   78.222
  758.694   21.725    0.425    8.245   75.020
  759.514   23.852    0.455    8.227   75.965
  760.335   22.352    0.454    8.212   78.701
  761.155   19.443    0.446    8.216   82.924
  761.975   16.754    0.450    8.220   83.298
  762.795   13.401    0.448    8.244   82.451
  763.615    9.675    0.389    8.244   81.323
  764.436    7.116    0.367    8.253   80.804
  765.256    5.692    0.350    8.255   80.857
  766.076    4.682    0.220    8.255   83.006
  766.896    4.110    0.198    8.264   82.472
  767.717    3.924    0.190    8.264   82.472
  768.537    5.048    0.190    8.273   82.601
  769.357    6.373    0.190    8.275   83.249
  770.177    7.825    0.190    8.275   83.897
  770.997    9.343    0.190    8.304   85.154
