~VERSION INFORMATION
 VERS.                 2.0:   CWLS LOG ASCII STANDARD -VERSION 2.0
 WRAP.                  NO:   ONE LINE PER DEPTH STEP
~WELL INFORMATION BLOCK
#MNEM.UNIT           DATA                    DESCRIPTION OF MNEMONIC
#---------    -------------------            -------------------------------
# Generated from Intellog Unique Number	CW_70_72/WELL/3012
NULL.         -999.25                         : NULL_VALUE
WELL.         CITADEL ET AL MEYER 06-32      : Well_name    - WELL              
LOC .         06-32-070-25W4                 : Location     - LOCATION          
UWI .         00/06-32-070-25W4/0            : Uwi          - UNIQUE WELL ID    
ENTR.         J                              : Entered      - ENTERED BY        
SRVC.         COMPUTALOG                     : Scn          - SERVICE COMPANY   
DATE.         7 MAR 82                       : Date         - LOG DATE          
STRT.M        490                            : top_depth    - START DEPTH       
STOP.M        690                            : bot_depth    - STOP DEPTH        
STEP.M        0.25                           : increment    - STEP LENGTH       
~CURVE INFORMATION BLOCK
#MNEM UNIT       ERCB CURVE CODE    CURVE DESCRIPTION
#-----------   ------------------   ----------------------------------
DEPT.M        00 001 00 00         : DEPTH        - DEPTH                       
ILD .OHMM     00 120 00 00         : RESD         - DEEP RESISTIVITY (DIL)      
CALI.MM       00 280 01 00         : CAL          - CALIPER                     
GR  .API      00 310 00 00         : GR           - GAMMA RAY                   
NPHI.V/V      00 330 00 00         : PHIN         - NEUTRON POROSITY (SANDSTONE)
DPHI.V/V      00 890 00 00         : PHID         - DENSITY POROSITY (SANDSTONE)
~PARAMETER INFORMATION       
#MNEM.UNIT           DATA             DESCRIPTION OF MNEMONIC
#---------         -----------     ------------------------------
GL  .M        661                  : gl           - GROUND LEVEL ELEVATION      
EREF.M        665                  : kb           - ELEVATION OF DEPTH REFERENCE
DATM.M        661                  : datum        - DATUM ELEVATION             
TDD .M        725                  : tdd          - TOTAL DEPTH DRILLER         
RUN .         ONE                  : Run          - RUN NUMBER                  
ENG .         SVRCEL/BRULE         : Engineer     - RECORDING ENGINEER          
WIT .         CRIPPS/WETHERLY      : Witness      - WITNESSED BY                
BASE.         EDM                  : Branch       - HOME BASE OF LOGGING UNIT   
MUD .         GEL CHEM             : Mud_type     - MUD TYPE                    
MATR.         SANDSTONE            : Logunit      - NEUTRON MATRIX              
TMAX.C        30                   : BHT          - MAXIMUM RECORDED TEMPERATURE
BHTD.M        722                  : BHTDEP       - MAXIMUM RECORDED TEMPERATURE
RMT .C        16.6                 : MDTP         - TEMPERATURE OF MUD          
MUDD.KG/M     1210                 : MWT          - MUD DENSITY                 
NEUT.         1                    : NEUTRON      - NEUTRON TYPE                
RESI.         0                    : RESIST       - RESISTIVITY TYPE            
RM  .OHMM     3.4                  : RM           - RESISTIVITY OF MUD          
RMC .OHMM     3.5                  : RMC          - RESISTIVITY OF MUD CAKE     
RMF .OHMM     3.5                  : RMF          - RESISTIVITY OF MUD FILTRATE 
SUFT.C        0                    : SUFT         - SURFACE TEMPERATURE         
~A  DEPTH     RESD      CAL       GR     PHIN     PHID
# ...
  599.500   10.966  200.347   88.381    0.255    0.119
  599.750   13.769  200.253   80.045    0.202    0.055
  600.000   16.745  200.581   72.340    0.178    0.022
  600.250   18.783  202.699   64.951    0.165    0.007
  600.500   17.989  204.817   57.689    0.160    0.001
  600.750   13.068  205.777   55.862    0.158    0.003
  601.000   10.234  205.894   56.438    0.162    0.011
  601.250    8.214  205.698   59.100    0.183    0.035
  601.500    6.385  204.759   67.514    0.228    0.058
  601.750    5.967  202.979   83.261    0.295    0.146
  602.000    5.086  201.095   91.358    0.443    0.163
  602.250    4.459  198.682   91.808    0.458    0.174
  602.500    3.946  197.957   86.822    0.401    0.179
  602.750    3.688  196.076   85.500    0.369    0.174
  603.000    3.627  195.451   85.951    0.341    0.166
  603.250    3.634  194.938   88.043    0.326    0.164
  603.500    3.689  194.423   90.073    0.354    0.172
  603.750    3.725  194.223   90.965    0.379    0.179
  604.000    3.824  194.130   90.718    0.410    0.181
  604.250    3.825  196.670   90.599    0.402    0.183
  604.500    3.803  199.524   89.847    0.403    0.181
  604.750    3.854  201.961   87.959    0.391    0.179
  605.000    3.898  202.603   90.115    0.356    0.174
  605.250    3.950  200.613   96.505    0.335    0.169
  605.500    3.981  199.570  100.685    0.319    0.166
  605.750    4.003  201.479  102.271    0.337    0.166
  606.000    4.019  203.915  103.670    0.366    0.166
  606.250    4.034  206.035  104.182    0.384    0.167
  606.500    4.065  206.467  103.304    0.374    0.172
  606.750    4.104  206.373   97.812    0.362    0.171
  607.000    4.128  206.067   95.354    0.360    0.163
  607.250    4.191  205.554   95.992    0.377    0.154
  607.500    4.238  205.249   99.539    0.356    0.148
  607.750    4.295  204.838  101.885    0.348    0.148
  608.000    4.336  204.429  104.358    0.353    0.151
  608.250    4.336  203.494  104.237    0.344    0.157
  608.500    4.361  202.347  104.878    0.347    0.161
  608.750    4.378  201.198  105.896    0.344    0.165
  609.000    4.387  198.680  107.230    0.352    0.158
  609.250    4.412  198.797  104.518    0.349    0.149
  609.500    4.437  200.072  100.417    0.367    0.142
  609.750    4.446  200.824   98.907    0.393    0.146
  610.000    4.447  201.151  100.367    0.426    0.155
  610.250    4.397  200.949  105.620    0.413    0.164
  610.500    4.448  200.329  104.932    0.398    0.169
  610.750    4.532  200.552  103.423    0.384    0.162
  611.000    4.550  200.987  105.263    0.369    0.154
  611.250    4.550  201.315  109.125    0.382    0.155
  611.500    4.559  201.431  111.471    0.398    0.162
  611.750    4.559  202.178  111.667    0.390    0.159
  612.000    4.629  203.456  109.084    0.371    0.154
  612.250    4.665  204.624  107.193    0.348    0.149
  612.500    4.683  205.798  107.137    0.350    0.137
  612.750    4.692  206.125  105.690    0.370    0.131
  613.000    4.692  206.033   98.934    0.388    0.123
  613.250    4.657  205.937   93.441    0.421    0.135
  613.500    4.614  205.527   95.473    0.450    0.152
  613.750    4.529  205.328   97.627    0.433    0.161
  614.000    4.478  205.548  101.364    0.396    0.166
  614.250    4.496  205.354  105.544    0.350    0.165
  614.500    4.513  205.257  108.394    0.347    0.158
  614.750    4.505  205.267  108.653    0.361    0.152
  615.000    4.480  205.173  106.638    0.392    0.147
  615.250    4.472  204.974  104.811    0.365    0.143
  615.500    4.456  205.091  100.836    0.381    0.144
  615.750    4.456  204.681   97.872    0.383    0.149
  616.000    4.482  203.854   98.321    0.411    0.151
  616.250    4.516  203.551   99.529    0.396    0.147
  616.500    4.698  203.138   99.410    0.367    0.139
  616.750    5.240  203.148  100.114    0.329    0.126
  617.000    5.900  203.371  100.814    0.360    0.130
  617.250    6.910  203.172  104.108    0.395    0.135
  617.500    8.109  203.499   98.237    0.281    0.111
  617.750    8.809  204.564   83.010    0.222    0.076
  618.000    9.321  204.894   69.869    0.186    0.031
  618.250    8.327  204.798   65.261    0.160   -0.005
  618.500    7.233  204.598   78.037    0.217    0.031
  618.750    6.523  204.716   88.474    0.356    0.059
  619.000    6.108  204.622   98.847    0.400    0.110
  619.250    5.850  204.635  102.394    0.422    0.105
  619.500    5.806  204.013   94.690    0.377    0.101
  619.750    5.709  204.025   91.285    0.336    0.109
  620.000    5.541  203.825   93.249    0.331    0.119
  620.250    5.120  203.838   97.302    0.354    0.131
  620.500    4.696  203.637   98.510    0.370    0.144
  620.750    4.481  204.072   96.622    0.360    0.159
  621.000    4.381  204.082   98.019    0.355    0.165
  621.250    4.382  203.780  100.491    0.357    0.157
  621.500    4.374  203.158   99.675    0.343    0.153
  621.750    4.350  202.539   97.723    0.330    0.151
  622.000    4.408  202.234   98.741    0.337    0.147
  622.250    4.467  202.244  101.656    0.361    0.145
  622.500    4.492  202.363  104.887    0.382    0.144
  622.750    4.527  202.477  107.107    0.391    0.146
  623.000    4.493  202.489  108.188    0.385    0.150
  623.250    4.468  202.397  105.035    0.376    0.153
  623.500    4.452  202.618  103.398    0.363    0.154
  623.750    4.419  203.052  105.554    0.358    0.153
  624.000    4.419  203.380  107.836    0.361    0.148
  624.250    4.436  203.814  107.529    0.377    0.139
  624.500    4.470  204.246  107.094    0.362    0.134
  624.750    4.504  204.256  107.478    0.356    0.136
  625.000    4.634  205.006  109.507    0.354    0.139
  625.250    4.704  205.543  115.266    0.345    0.141
  625.500    4.812  206.293  116.727    0.356    0.139
  625.750    4.895  206.619  112.310    0.351    0.138
  626.000    4.998  207.271  109.851    0.343    0.135
  626.250    5.180  207.383  103.412    0.346    0.132
  626.500    5.409  207.394  100.384    0.373    0.124
  626.750    5.735  207.088   95.397    0.390    0.115
  627.000    6.023  206.996   91.485    0.371    0.108
  627.250    6.035  206.583   88.205    0.334    0.107
  627.500    5.514  206.071   87.327    0.313    0.118
  627.750    5.361  205.870   88.534    0.295    0.129
  628.000    5.292  205.364   92.968    0.290    0.142
  628.250    5.194  205.367   97.082    0.288    0.141
  628.500    5.107  205.483  101.830    0.300    0.127
  628.750    4.947  205.284  101.837    0.324    0.111
  629.000    4.882  205.087  101.591    0.316    0.103
  629.250    4.855  204.467  103.873    0.304    0.119
  629.500    4.856  204.056  107.926    0.318    0.121
  629.750    4.820  203.961  111.536    0.332    0.116
  630.000    4.793  203.982  113.565    0.351    0.119
  630.250    4.758  204.407  115.342    0.359    0.133
  630.500    4.696  205.998  118.384    0.377    0.140
  630.750    4.635  211.283  121.361    0.376    0.141
  631.000    4.644  212.764  119.283    0.387    0.133
  631.250    4.644  212.764  115.687    0.378    0.128
  631.500    4.698  207.416  113.861    0.396    0.131
  631.750    4.823  206.161  112.540    0.386    0.132
  632.000    4.952  204.592  107.616    0.397    0.120
  632.250    5.066  203.236  106.486    0.360    0.120
  632.500    5.124  202.615  109.211    0.340    0.126
  632.750    5.163  201.784  110.102    0.320    0.132
  633.000    5.183  201.163  105.431    0.332    0.124
  633.250    5.193  200.964  101.077    0.341    0.108
  633.500    5.194  201.923  101.842    0.328    0.102
  633.750    5.175  203.938  108.297    0.324    0.113
  634.000    5.117  206.583  112.918    0.344    0.123
  634.250    5.041  208.069  108.817    0.363    0.136
  634.500    4.957  207.660  106.737    0.387    0.136
  634.750    4.939  207.247  107.440    0.354    0.134
  635.000    4.884  206.943  107.510    0.358    0.125
  635.250    4.866  206.744  107.201    0.362    0.119
  635.500    4.812  206.651  108.535    0.376    0.112
  635.750    4.830  206.558  111.704    0.389    0.127
