~VERSION INFORMATION
 VERS.                 2.0:   CWLS LOG ASCII STANDARD -VERSION 2.0
 WRAP.                  NO:   ONE LINE PER DEPTH STEP
~WELL INFORMATION BLOCK
#MNEM.UNIT           DATA                    DESCRIPTION OF MNEMONIC
#---------    -------------------            -------------------------------
# Generated from Intellog Unique Number	CS_73_76/WELL/2166
WELL.         BOW VALLEY INDUSTRIES LTD.     : Well_name    - WELL
LOC .         00/06-23-074-14W4/0            : Location     - LOCATION
UWI .         00/06-23-074-14W4/0            : Uwi          - UNIQUE WELL ID
ENTR.         SP                             : Entered      - ENTERED BY
SRVC.         SCHLUMBERGER                   : Scn          - SERVICE COMPANY
STRT.M        410                            : top_depth    - START DEPTH
STOP.M        625                            : bot_depth    - STOP DEPTH
STEP.M        0.25                           : increment    - STEP LENGTH
 NULL. -999.2500:NULL Value
~CURVE INFORMATION BLOCK
#MNEM UNIT       ERCB CURVE CODE    CURVE DESCRIPTION
#-----------   ------------------   ----------------------------------
DEPT.M        00 001 00 00         : DEPTH        - DEPTH
GR  .API      00 310 00 00         : GR           - GAMMA RAY
NPHI.V/V      00 330 00 00         : PHIN         - NEUTRON POROSITY (LIMESTONE)
ILD .OHMM     00 120 00 00         : RESD         - DEEP RESISTIVITY (DIL)
DPHI.V/V      00 890 00 00         : PHID         - DENSITY POROSITY (LIMESTONE)
~PARAMETER INFORMATION
#MNEM.UNIT           DATA             DESCRIPTION OF MNEMONIC
#---------         -----------     ------------------------------
GL  .M        770.81               : gl           - GROUND LEVEL ELEVATION
EREF.M        774.16               : kb           - ELEVATION OF DEPTH REFERENCE
DATM.M        770.81               : datum        - DATUM ELEVATION
TDD .M        626                  : tdd          - TOTAL DEPTH DRILLER
RUN .         ONE                  : Run          - RUN NUMBER
ENG .         BILL                 : Engineer     - RECORDING ENGINEER
WIT .         JIM                  : Witness      - WITNESSED BY
MUD .         GEL                  : Mud_type     - MUD TYPE
MATR.         LIMESTONE            : Logunit      - NEUTRON MATRIX
TMAX.C        22                   : BHT          - MAXIMUM RECORDED TEMPERATURE
BHTD.M        626                  : BHTDEP       - MAXIMUM RECORDED TEMPERATURE
MATR.         1                    : LOGUNIT      - NEUTRON MATRIX
RMT .C        25                   : MDTP         - TEMPERATURE OF MUD
NEUT.         1                    : NEUTRON      - NEUTRON TYPE
RESI.         0                    : RESIST       - RESISTIVITY TYPE
RMC .OHMM     0.25                 : RMC          - RESISTIVITY OF MUD CAKE
RMF .OHMM     0.25                 : RMF          - RESISTIVITY OF MUD FILTRATE
SUFT.C        15                   : SUFT         - SURFACE TEMPERATURE
~A  DEPTH       GR     PHIN     RESD     PHID
  410.000  100.609    0.567    2.769    0.223
  410.250  101.217    0.560    2.667    0.232
  410.500   99.996    0.548    2.569    0.232
  410.750   99.995    0.554    2.521    0.223
  411.000   99.384    0.554    2.474    0.211
  411.250  100.602    0.552    2.473    0.220
  411.500   96.942    0.545    2.518    0.214
  411.750   98.160    0.538    2.565    0.229
  412.000   97.549    0.544    2.660    0.215
  412.250   94.499    0.556    2.811    0.208
  412.500   90.229    0.532    3.083    0.192
  412.750   89.618    0.508    3.258    0.179
  413.000   91.446    0.512    3.572    0.165
  413.250   90.225    0.505    3.775    0.144
  413.500   89.614    0.482    3.844    0.122
  413.750   90.222    0.468    3.635    0.179
  414.000   92.660    0.472    3.438    0.195
  414.250   95.706    0.502    3.191    0.173
  414.500   96.925    0.502    3.131    0.178
  414.750   99.362    0.489    3.073    0.202
  415.000   99.971    0.496    3.015    0.213
  415.250  100.579    0.514    3.014    0.202
  415.500  101.187    0.524    2.958    0.199
  415.750  101.186    0.518    2.902    0.199
  416.000   97.526    0.532    2.796    0.201
  416.250   95.085    0.542    2.795    0.213
  416.500   93.865    0.514    2.846    0.210
  416.750   92.644    0.510    3.064    0.219
  417.000   91.423    0.518    3.298    0.213
  417.250   94.470    0.499    3.421    0.197
  417.500   92.030    0.480    3.357    0.214
  417.750   93.248    0.479    3.116    0.228
  418.000   94.466    0.504    3.058    0.202
  418.250   92.635    0.514    3.172    0.190
  418.500   87.146    0.531    3.479    0.174
  418.750   77.389    0.536    3.815    0.162
  419.000   72.509    0.473    4.505    0.158
  419.250   67.630    0.434    5.320    0.168
  419.500   67.019    0.447    5.834    0.199
  419.750   70.066    0.424    6.165    0.225
  420.000   73.723    0.439    6.278    0.243
  420.250   71.892    0.443    6.047    0.263
  420.500   70.062    0.439    6.158    0.269
  420.750   69.451    0.451    6.880    0.260
  421.000   73.717    0.453    7.270    0.275
  421.250   74.936    0.429    7.134    0.265
  421.500   82.861    0.415    7.000    0.263
  421.750   85.908    0.423    6.744    0.228
  422.000   93.224    0.429    6.377    0.218
  422.250   97.490    0.443    5.919    0.212
  422.500   99.318    0.432    5.598    0.204
  422.750  101.146    0.443    5.392    0.205
  423.000  101.754    0.440    5.390    0.209
  423.250   98.704    0.443    5.591    0.199
  423.500   91.996    0.443    5.800    0.199
  423.750   85.897    0.457    6.361    0.199
  424.000   78.578    0.474    6.847    0.282
  424.250   74.309    0.478    7.370    0.314
  424.500   68.820    0.443    7.789    0.319
  424.750   66.379    0.424    8.080    0.322
  425.000   65.158    0.427    8.228    0.322
  425.250   68.206    0.421    8.225    0.321
  425.500   71.863    0.417    8.221    0.305
  425.750   76.130    0.426    8.372    0.287
  426.000   81.616    0.433    8.369    0.275
  426.250   83.444    0.441    8.212    0.267
  426.500   83.442    0.437    8.058    0.270
  426.750   85.880    0.418    7.908    0.262
  427.000   89.537    0.418    7.761    0.253
  427.250   87.707    0.411    7.204    0.239
  427.500   82.827    0.387    6.940    0.238
  427.750   79.167    0.375    6.685    0.204
  428.000   79.775    0.392    6.682    0.187
  428.250   76.115    0.410    7.193    0.205
  428.500   74.894    0.417    7.326    0.207
  428.750   71.234    0.428    7.740    0.226
  429.000   67.575    0.427    8.180    0.232
  429.250   63.305    0.416    8.486    0.246
  429.500   59.645    0.414    8.482    0.256
  429.750   57.205    0.415    8.021    0.269
  430.000   60.862    0.410    7.871    0.275
  430.250   65.739    0.405    7.582    0.257
  430.500   70.005    0.398    7.579    0.257
  430.750   71.833    0.400    7.437    0.251
  431.000   69.392    0.405    7.297    0.239
  431.250   66.952    0.408    7.295    0.212
  431.500   65.731    0.412    7.293    0.210
  431.750   65.120    0.386    7.290    0.232
  432.000   66.338    0.386    7.425    0.243
  432.250   67.556    0.398    7.422    0.234
  432.500   65.116    0.409    7.419    0.220
  432.750   60.846    0.405    7.415    0.241
  433.000   58.406    0.410    7.412    0.258
  433.250   55.965    0.411    7.274    0.269
  433.500   56.574    0.405    7.272    0.283
  433.750   60.840    0.405    7.136    0.274
  434.000   62.668    0.410    7.002    0.274
  434.250   65.716    0.405    6.745    0.267
  434.500   67.543    0.397    6.743    0.275
  434.750   68.152    0.393    6.617    0.238
  435.000   68.760    0.401    6.493    0.220
  435.250   66.929    0.417    6.491    0.223
  435.500   63.879    0.432    6.369    0.244
  435.750   62.049    0.440    6.367    0.255
  436.000   60.217    0.434    6.604    0.282
  436.250   58.996    0.444    6.603    0.295
  436.500   57.776    0.450    6.723    0.305
  436.750   57.165    0.431    6.721    0.306
  437.000   55.944    0.445    6.843    0.309
  437.250   55.333    0.452    6.970    0.303
  437.500   54.112    0.450    6.967    0.312
  437.750   53.501    0.446    7.094    0.300
  438.000   52.890    0.440    7.224    0.300
  438.250   50.449    0.448    7.221    0.320
  438.500   49.228    0.456    7.219    0.334
  438.750   48.007    0.456    7.216    0.328
  439.000   52.274    0.438    7.349    0.309
  439.250   55.931    0.433    7.345    0.300
  439.500   55.930    0.445    7.343    0.293
  439.750   51.660    0.456    7.340    0.314
  440.000   53.488    0.449    7.338    0.328
  440.250   54.706    0.448    7.472    0.329
  440.500   53.485    0.455    7.469    0.318
  440.750   51.655    0.463    7.467    0.303
  441.000   50.434    0.444    7.463    0.306
  441.250   49.213    0.442    7.461    0.324
  441.500   49.821    0.451    7.459    0.336
  441.750   49.820    0.465    7.456    0.343
  442.000   48.599    0.448    7.453    0.349
  442.250   46.768    0.437    7.451    0.335
  442.500   46.157    0.451    7.448    0.337
  442.750   45.546    0.438    7.445    0.339
  443.000   44.934    0.438    7.442    0.331
  443.250   44.933    0.440    7.439    0.319
  443.500   45.541    0.443    7.437    0.316
  443.750   46.760    0.444    7.434    0.320
  444.000   47.978    0.450    7.432    0.329
  444.250   49.196    0.440    7.429    0.335
  444.500   49.194    0.445    7.426    0.325
  444.750   50.412    0.457    7.287    0.318
  445.000   52.240    0.462    7.285    0.307
  445.250   53.459    0.463    7.281    0.319
  445.500   56.506    0.457    7.279    0.305
  445.750   59.553    0.427    7.275    0.299
  446.000   62.600    0.409    7.273    0.288
  446.250   68.087    0.403    7.272    0.240
  446.500   76.622    0.413    7.269    0.213
  446.750   84.547    0.425    7.133    0.194
  447.000   89.424    0.445    6.871    0.198
  447.250   95.520    0.457    6.741    0.225
  447.500  100.396    0.463    6.616    0.218
  447.750  104.663    0.468    6.492    0.236
  448.000  107.710    0.463    6.371    0.236
  448.250  108.929    0.457    6.369    0.231
  448.500  105.269    0.467    6.485    0.212
  448.750   92.463    0.477    6.605    0.249
  449.000   83.315    0.482    6.851    0.276
  449.250   75.996    0.484    7.239    0.267
  449.500   71.727    0.484    7.510    0.278
  449.750   69.286    0.476    7.791    0.292
  450.000   71.724    0.465    8.233    0.283
  450.250   75.381    0.447    8.383    0.276
  450.500   80.867    0.428    8.381    0.255
  450.750   84.524    0.421    8.377    0.230
  451.000   86.353    0.421    8.221    0.207
  451.250   88.790    0.419    8.067    0.226
  451.500   93.666    0.407    7.628    0.213
  451.750   95.495    0.402    6.951    0.216
  452.000   99.152    0.422    6.217    0.201
  452.250  105.857    0.449    5.459    0.191
  452.500  110.124    0.459    5.163    0.196
  452.750  114.391    0.474    4.618    0.213
  453.000  113.780    0.491    4.449    0.225
  453.250  110.120    0.501    4.286    0.217
