~VERSION INFORMATION
 VERS.                 2.0:   CWLS LOG ASCII STANDARD -VERSION 2.0
 WRAP.                  NO:   ONE LINE PER DEPTH STEP
~WELL INFORMATION BLOCK
#MNEM.UNIT           DATA                    DESCRIPTION OF MNEMONIC
#---------    -------------------            -------------------------------
# Generated from Intellog Unique Number	CS_77_79/WELL/2978
WELL.         CDNOXY VINEFRED                : Well_name    - WELL
LOC .         00/06-03-077-03W4/0            : Location     - LOCATION
UWI .         00/06-03-077-03W4/0            : Uwi          - UNIQUE WELL ID
ENTR.         TIM                            : Entered      - ENTERED BY
SRVC.         SCHLUMBERGER                   : Scn          - SERVICE COMPANY
STRT.M        210                            : top_depth    - START DEPTH
STOP.M        485                            : bot_depth    - STOP DEPTH
STEP.M        0.25                           : increment    - STEP LENGTH
 NULL. -999.2500:NULL Value
~CURVE INFORMATION BLOCK
#MNEM UNIT       ERCB CURVE CODE    CURVE DESCRIPTION
#-----------   ------------------   ----------------------------------
DEPT.M        00 001 00 00         : DEPTH        - DEPTH
GR  .API      00 310 00 00         : GR           - GAMMA RAY
NPHI.V/V      00 330 00 00         : PHIN         - NEUTRON POROSITY (DOLOMITE)
DPHI.V/V      00 890 00 00         : PHID         - DENSITY POROSITY (DOLOMITE)
ILD .OHMM     00 120 00 00         : RESD         - DEEP RESISTIVITY (DIL)
~PARAMETER INFORMATION
#MNEM.UNIT           DATA             DESCRIPTION OF MNEMONIC
#---------         -----------     ------------------------------
GL  .M        587.4                : gl           - GROUND LEVEL ELEVATION
EREF.M        590.4                : kb           - ELEVATION OF DEPTH REFERENCE
DATM.M        590.4                : datum        - DATUM ELEVATION
TDD .M        492.2                : tdd          - TOTAL DEPTH DRILLER
RUN .         ONE                  : Run          - RUN NUMBER
ENG .         BILL                 : Engineer     - RECORDING ENGINEER
WIT .         JIM                  : Witness      - WITNESSED BY
MUD .         GEL                  : Mud_type     - MUD TYPE
MATR.         DOLOMITE             : Logunit      - NEUTRON MATRIX
TMAX.C        20                   : BHT          - MAXIMUM RECORDED TEMPERATURE
BHTD.M        492                  : BHTDEP       - MAXIMUM RECORDED TEMPERATURE
MATR.         1                    : LOGUNIT      - NEUTRON MATRIX
RMT .C        20                   : MDTP         - TEMPERATURE OF MUD
NEUT.         1                    : NEUTRON      - NEUTRON TYPE
RESI.         4.33                 : RESIST       - RESISTIVITY TYPE
RMC .OHMM     3.65                 : RMC          - RESISTIVITY OF MUD CAKE
RMF .OHMM     3.62                 : RMF          - RESISTIVITY OF MUD FILTRATE
SUFT.C        15                   : SUFT         - SURFACE TEMPERATURE
~A  DEPTH       GR     PHIN     PHID     RESD
  210.000  105.012    0.482    0.253    4.479
  210.250  116.684    0.483    0.234    4.317
  210.500  116.073    0.483    0.245    4.238
  210.750  114.847    0.478    0.250    4.161
  211.000  113.622    0.472    0.253    4.086
  211.250  113.624    0.476    0.255    4.088
  211.500  115.469    0.476    0.259    4.246
  211.750  117.314    0.456    0.261    4.410
  212.000  116.089    0.437    0.265    4.667
  212.250  112.407    0.443    0.269    4.938
  212.500  100.128    0.450    0.251    5.325
  212.750   94.605    0.453    0.223    5.850
  213.000   79.869    0.426    0.211    6.674
  213.250   73.117    0.420    0.195    7.332
  213.500   74.349    0.400    0.193    7.905
  213.750   72.509    0.406    0.230    8.685
  214.000   54.703    0.413    0.248    9.724
  214.250   49.793    0.396    0.290   10.883
  214.500   41.812    0.381    0.322   12.648
  214.750   69.450    0.372    0.345   13.639
  215.000   74.980    0.365    0.340   13.644
  215.250   86.036    0.354    0.312   13.151
  215.500   87.881    0.368    0.160   13.659
  215.750   75.603    0.388    0.195   15.005
  216.000   74.991    0.404    0.253   17.114
  216.250   73.152    0.405    0.299   18.456
  216.500   62.715    0.413    0.315   17.132
  216.750   67.018    0.413    0.322   15.316
  217.000   70.704    0.404    0.321   13.441
  217.250   76.234    0.402    0.296   11.577
  217.500   85.449    0.409    0.283   10.159
  217.750   93.436    0.413    0.281    9.254
  218.000   94.053    0.415    0.279    8.431
  218.250   94.055    0.415    0.271    7.974
  218.500   92.217    0.413    0.262    7.685
  218.750   92.218    0.412    0.259    7.689
  219.000   91.607    0.405    0.257    7.691
  219.250   92.838    0.394    0.256    8.295
  219.500   95.298    0.390    0.256    8.944
  219.750   95.915    0.395    0.257    9.643
  220.000   89.777    0.400    0.268   11.208
  220.250   77.498    0.402    0.289   12.312
  220.500   75.658    0.399    0.305   13.031
  220.750   85.487    0.394    0.316   13.283
  221.000   92.860    0.391    0.322   13.798
  221.250   95.932    0.389    0.309   14.062
  221.500   99.621    0.382    0.302   14.337
  221.750   98.395    0.376    0.293   14.342
  222.000   95.327    0.369    0.263   14.084
  222.250   91.032    0.372    0.256   13.829
  222.500   90.421    0.379    0.260   13.326
  222.750   89.809    0.389    0.268   12.605
  223.000   89.812    0.385    0.282   12.374
  223.250   94.729    0.384    0.291   11.925
  223.500   97.802    0.390    0.295   11.709
  223.750  103.945    0.401    0.300   11.497
  224.000  105.177    0.404    0.305   11.721
  224.250  102.110    0.395    0.288   11.947
  224.500  100.269    0.394    0.284   12.409
  224.750   95.974    0.395    0.283   13.379
  225.000   95.362    0.396    0.283   14.700
  225.250  103.963    0.400    0.287   15.854
  225.500  108.878    0.404    0.290   15.860
  225.750  113.180    0.406    0.283   15.570
  226.000  112.569    0.405    0.272   15.290
  226.250  108.888    0.399    0.272   14.735
  226.500  106.434    0.391    0.273   14.468
  226.750  101.525    0.380    0.276   14.473
  227.000  105.212    0.373    0.280   13.947
  227.250  110.127    0.366    0.278   13.696
  227.500  112.587    0.357    0.268   14.495
  227.750  112.590    0.351    0.263   15.338
  228.000   84.344    0.371    0.256   16.230
  228.250   74.521    0.396    0.248   17.833
  228.500   65.313    0.406    0.255   17.187
  228.750   67.157    0.407    0.260   15.952
  229.000   73.915    0.411    0.271   14.807
  229.250   80.059    0.411    0.272   13.745
  229.500   89.889    0.403    0.268   13.000
  229.750   96.647    0.399    0.257   12.067
  230.000  102.177    0.390    0.244   11.413
  230.250  102.793    0.383    0.244   10.998
  230.500   98.498    0.388    0.246   10.599
  230.750   99.115    0.397    0.247   10.214
  231.000  100.960    0.408    0.251   10.029
  231.250  102.806    0.402    0.252    9.848
  231.500  103.422    0.401    0.254    9.489
  231.750  106.495    0.403    0.252    9.148
  232.000  113.867    0.400    0.252    8.980
  232.250  113.257    0.394    0.252    8.985
  232.500  112.645    0.386    0.249    9.332
  232.750  107.736    0.379    0.238    9.876
  233.000   97.913    0.368    0.221   10.648
  233.250   84.406    0.349    0.217   11.481
  233.500   80.110    0.347    0.218   13.096
  233.750   75.200    0.370    0.227   13.859
  234.000   70.904    0.380    0.253   13.866
  234.250   67.837    0.396    0.266   13.362
  234.500   68.454    0.385    0.277   12.638
  234.750   69.685    0.386    0.282   11.953
  235.000   72.144    0.391    0.269   11.095
  235.250   75.832    0.394    0.240   10.299
  235.500   78.905    0.397    0.229    9.561
  235.750   85.049    0.397    0.234    9.043
  236.000  116.372    0.405    0.244    8.552
  236.250  119.445    0.409    0.268    8.088
  236.500  123.747    0.418    0.193    7.650
  236.750  126.206    0.420    0.183    7.101
  237.000  128.665    0.420    0.183    6.591
  237.250  131.125    0.423    0.211    6.118
  237.500  130.513    0.415    0.216    5.679
  237.750  128.060    0.411    0.229    5.272
  238.000  126.221    0.412    0.244    4.627
  238.250  128.066    0.414    0.239    4.542
  238.500  130.526    0.424    0.239    4.139
  238.750  131.756    0.435    0.241    3.988
  239.000  133.601    0.453    0.245    3.773
  239.250  134.833    0.451    0.252    3.773
  239.500  131.151    0.435    0.255    4.639
  239.750  125.013    0.420    0.263    5.811
  240.000  116.418    0.397    0.257    7.844
  240.250  111.508    0.396    0.228    8.949
  240.500  109.669    0.404    0.181    9.122
  240.750  107.830    0.415    0.169    9.298
  241.000  105.991    0.429    0.177   10.026
  241.250   84.500    0.426    0.236   10.609
  241.500   82.660    0.425    0.283   10.609
  241.750   80.820    0.384    0.307   12.109
  242.000   77.139    0.381    0.290   13.302
  242.250   75.300    0.386    0.284   13.561
  242.500   77.759    0.397    0.287   13.820
  242.750   82.061    0.408    0.290   14.089
  243.000   83.907    0.414    0.297   14.362
  243.250   83.909    0.418    0.303   14.367
  243.500   83.913    0.425    0.306   14.645
  243.750   83.301    0.429    0.306   14.652
  244.000   83.304    0.424    0.302   14.658
  244.250   82.694    0.417    0.300   14.665
  244.500   82.082    0.406    0.298   14.950
  244.750   80.856    0.391    0.295   14.956
  245.000   79.017    0.384    0.291   14.964
  245.250   79.633    0.379    0.286   14.696
  245.500   83.936    0.381    0.283   14.699
  245.750   88.237    0.391    0.281   14.706
  246.000   96.224    0.402    0.280   14.714
  246.250   99.911    0.414    0.284   14.721
  246.500  103.598    0.415    0.293   14.726
  246.750  103.601    0.401    0.302   15.296
  247.000   98.692    0.398    0.304   15.887
  247.250   96.852    0.404    0.303   16.197
  247.500   96.855    0.409    0.295   16.200
  247.750   93.173    0.415    0.282   16.516
  248.000   90.106    0.388    0.263   16.525
  248.250   99.320    0.363    0.243   16.532
  248.500  104.236    0.367    0.239   16.233
  248.750   82.131    0.373    0.253   16.242
  249.000   66.781    0.363    0.279   16.247
  249.250   59.415    0.368    0.302   16.255
  249.500   56.961    0.375    0.298   16.262
  249.750   64.948    0.382    0.274   16.575
  250.000   71.706    0.397    0.267   16.900
  250.250   71.095    0.405    0.257   17.223
  250.500   66.185    0.415    0.252   17.892
  250.750   60.048    0.405    0.298   18.237
  251.000   58.208    0.393    0.318   18.943
  251.250   60.053    0.380    0.345   19.310
  251.500   60.670    0.371    0.352   19.319
  251.750   61.288    0.373    0.352   18.617
  252.000   60.675    0.380    0.351   18.627
  252.250   61.907    0.386    0.347   18.286
  252.500   64.367    0.394    0.346   18.298
  252.750   63.755    0.404    0.355   18.304
  253.000   63.145    0.416    0.358   18.312
  253.250   65.603    0.394    0.351   18.669
