~VERSION INFORMATION
 VERS.                 2.0:   CWLS LOG ASCII STANDARD -VERSION 2.0
 WRAP.                  NO:   ONE LINE PER DEPTH STEP
~WELL INFORMATION BLOCK
#MNEM.UNIT           DATA                    DESCRIPTION OF MNEMONIC
#---------    -------------------            -------------------------------
# Generated from Intellog Unique Number	CW_70_72/WELL/3005
NULL.         -999.25                        : NULL_VALUE
WELL.         GULF POC CALLS 06-03           : Well_name    - WELL              
LOC .         06-03-070-23W4                 : Location     - LOCATION          
UWI .         00/06-03-070-23W4/0            : Uwi          - UNIQUE WELL ID    
ENTR.         J                              : Entered      - ENTERED BY        
SRVC.         SCHLUMBERGER                   : Scn          - SERVICE COMPANY   
DATE.         9 JAN 75                       : Date         - LOG DATE          
STRT.M        396.24                         : top_depth    - START DEPTH       
STOP.M        579.24                         : bot_depth    - STOP DEPTH        
STEP.M        0.25                           : increment    - STEP LENGTH       
~CURVE INFORMATION BLOCK
#MNEM UNIT       ERCB CURVE CODE    CURVE DESCRIPTION
#-----------   ------------------   ----------------------------------
DEPT.M        00 001 00 00         : DEPTH        - DEPTH                       
ILD .OHMM     00 120 00 00         : RESD         - DEEP RESISTIVITY (DIL)      
CALI.MM       00 280 01 00         : CAL          - CALIPER                     
GR  .API      00 310 00 00         : GR           - GAMMA RAY                   
NPHI.V/V      00 330 00 00         : PHIN         - NEUTRON POROSITY (SANDSTONE)
DPHI.V/V      00 890 00 00         : PHID         - DENSITY POROSITY (SANDSTONE)
~PARAMETER INFORMATION       
#MNEM.UNIT           DATA             DESCRIPTION OF MNEMONIC
#---------         -----------     ------------------------------
GL  .M        626.577              : gl           - GROUND LEVEL ELEVATION      
EREF.M        629.839              : kb           - ELEVATION OF DEPTH REFERENCE
DATM.M        626.577              : datum        - DATUM ELEVATION             
TDD .M        606.552              : tdd          - TOTAL DEPTH DRILLER         
RUN .         ONE                  : Run          - RUN NUMBER                  
ENG .         STRUKY               : Engineer     - RECORDING ENGINEER          
WIT .         CURBA                : Witness      - WITNESSED BY                
BASE.         EDMONTON             : Branch       - HOME BASE OF LOGGING UNIT   
MUD .         RCL & DX 301         : Mud_type     - MUD TYPE                    
MATR.         SANDSTONE            : Logunit      - NEUTRON MATRIX              
TMAX.C        26.1111              : BHT          - MAXIMUM RECORDED TEMPERATURE
BHTD.M        595.579              : BHTDEP       - MAXIMUM RECORDED TEMPERATURE
RMT .C        21.1111              : MDTP         - TEMPERATURE OF MUD          
MUDD.KG/M     1020                 : MWT          - MUD DENSITY                 
NEUT.         1                    : NEUTRON      - NEUTRON TYPE                
RESI.         0                    : RESIST       - RESISTIVITY TYPE            
RM  .OHMM     2.5                  : RM           - RESISTIVITY OF MUD          
RMC .OHMM     2.5                  : RMC          - RESISTIVITY OF MUD CAKE     
RMF .OHMM     1.7                  : RMF          - RESISTIVITY OF MUD FILTRATE 
SUFT.C        -17.7778             : SUFT         - SURFACE TEMPERATURE         
~A  DEPTH     RESD      CAL       GR     PHIN     PHID
  396.240    2.780  175.660  120.947    0.515    0.252
  396.490    2.656  178.671  122.484    0.539    0.271
  396.740    2.547  185.557  124.757    0.559    0.293
  396.990    2.465  188.677  124.303    0.554    0.313
  397.240    2.461  183.815  123.667    0.533    0.303
  397.490    2.489  180.331  121.976    0.541    0.304
  397.740    2.574  181.974  120.346    0.555    0.284
  397.990    2.647  188.764  121.011    0.574    0.282
  398.240    2.762  188.940  126.257    0.590    0.278
  398.490    2.904  182.091  127.170    0.590    0.256
  398.740    3.002  180.698  125.166    0.573    0.234
  398.990    3.009  180.454  123.356    0.549    0.245
  399.240    2.971  180.846  121.354    0.522    0.263
  399.490    2.860  181.235  121.331    0.511    0.263
  399.740    2.678  182.255  121.009    0.527    0.260
  399.990    2.526  184.535  120.061    0.576    0.260
  400.240    2.480  190.272  119.422    0.589    0.296
  400.490    2.500  192.546  119.099    0.577    0.316
  400.740    2.537  191.361  116.230    0.551    0.313
  400.990    2.624  185.985  109.089    0.536    0.382
  401.240    2.698  181.657  104.735    0.533    0.397
  401.490    2.879  192.533  105.645    0.588    0.379
  401.740    3.099  189.354  107.918    0.587    0.420
  401.990    3.368  204.532  109.202    0.548    0.365
  402.240    3.804  197.684  112.530    0.513    0.356
  402.490    4.257  189.473  116.661    0.459    0.306
  402.740    4.651  187.019  116.706    0.439    0.278
  402.990    5.340  185.632  106.963    0.445    0.262
  403.240    6.065  185.079   97.470    0.451    0.271
  403.490    6.900  186.305   88.535    0.434    0.270
  403.740    7.880  187.427   79.473    0.423    0.261
  403.990    9.336  188.558   81.005    0.429    0.247
  404.240   10.486  189.990   77.518    0.409    0.332
  404.490   11.691  191.430   72.607    0.390    0.347
  404.740   12.798  193.184   72.899    0.380    0.343
  404.990   13.628  194.719   73.932    0.376    0.324
  405.240   15.083  195.423   72.180    0.380    0.289
  405.490   16.240  195.602   72.907    0.371    0.260
  405.740   16.366  195.472   78.092    0.356    0.242
  405.990   12.749  195.335   82.960    0.385    0.286
  406.240    9.842  195.516   85.240    0.429    0.328
  406.490    8.452  195.803   88.565    0.440    0.327
  406.740    7.544  196.087   89.043    0.438    0.325
  406.990    6.758  196.052   88.898    0.449    0.320
  407.240    6.304  195.921   90.184    0.459    0.315
  407.490    6.307  195.885   91.154    0.472    0.316
  407.740    6.679  195.856   88.785    0.478    0.316
  407.990    7.073  195.199   87.217    0.486    0.305
  408.240    7.089  193.699   86.892    0.495    0.302
  408.490    6.386  192.405   89.288    0.475    0.310
  408.740    5.892  192.377   94.101    0.455    0.314
  408.990    5.396  192.558   95.381    0.447    0.299
  409.240    4.951  193.886   96.726    0.452    0.276
  409.490    4.765  194.596   99.064    0.465    0.258
  409.740    4.811  194.769  101.400    0.478    0.263
  409.990    4.974  194.530  108.876    0.490    0.267
  410.240    5.297  194.083  108.672    0.502    0.275
  410.490    5.477  193.738  100.107    0.469    0.279
  410.740    5.509  193.179  102.626    0.447    0.292
  410.990    5.303  193.679  107.811    0.431    0.297
  411.240    5.141  193.538  105.676    0.426    0.282
  411.490    5.105  192.360  105.795    0.439    0.265
  411.740    5.145  191.064  107.635    0.425    0.254
  411.990    5.214  190.722  110.466    0.425    0.248
  412.240    5.391  190.483   94.034    0.421    0.246
  412.490    5.533  190.027   78.720    0.399    0.264
  412.740    5.828  189.161   71.333    0.384    0.305
  412.990    5.862  188.297   74.532    0.378    0.337
  413.240    5.725  188.155   82.011    0.409    0.303
  413.490    5.531  188.234   90.043    0.418    0.298
  413.740    5.462  189.876   94.794    0.412    0.289
  413.990    5.424  191.000   97.933    0.422    0.264
  414.240    5.466  192.123   95.251    0.434    0.256
  414.490    5.538  192.620   93.499    0.448    0.259
  414.740    5.581  192.901   94.288    0.459    0.268
  414.990    5.583  193.189  101.888    0.462    0.274
  415.240    5.544  193.263  107.692    0.453    0.266
  415.490    5.495  193.021  106.930    0.425    0.263
  415.740    5.377  192.260  104.064    0.420    0.271
  415.990    4.989  190.233  103.054    0.439    0.293
  416.240    4.412  187.475  104.397    0.439    0.320
  416.490    4.004  185.459  107.044    0.496    0.354
  416.740    3.201  199.898  111.916    0.553    0.400
  416.990    2.789  208.572  115.429    0.605    0.475
  417.240    2.499  211.584  118.507    0.625    0.478
  417.490    2.370  211.135  120.536    0.646    0.462
  417.740    2.340  197.261  122.191    0.599    0.480
  417.990    2.687  252.708  122.666    0.554    0.503
  418.240    3.279  248.167  119.115    0.521    0.410
  418.490    3.942  202.517  114.023    0.466    0.337
  418.740    4.526  197.348  103.662    0.447    0.305
  418.990    5.294  205.074   94.231    0.459    0.297
  419.240    5.990  201.270   83.188    0.459    0.360
  419.490    6.059  202.601   81.433    0.453    0.326
  419.740    5.972  205.300   84.078    0.443    0.321
  419.990    6.164  208.626   84.497    0.417    0.328
  420.240    6.552  212.362   84.292    0.437    0.311
  420.490    6.888  213.906   85.634    0.464    0.336
  420.740    7.389  215.765   87.973    0.475    0.354
  420.990    7.768  217.831   89.626    0.478    0.325
  421.240    8.032  219.066   90.600    0.487    0.312
  421.490    8.109  220.495   92.936    0.494    0.299
  421.740    7.891  220.894   91.741    0.492    0.297
  421.990    7.595  221.071   87.510    0.490    0.282
  422.240    7.377  220.199   85.510    0.489    0.297
  422.490    7.153  218.597   86.546    0.494    0.314
  422.740    6.986  215.940   87.705    0.496    0.325
  422.990    6.774  213.818   91.094    0.497    0.332
  423.240    6.580  211.062   92.436    0.499    0.323
  423.490    6.462  207.037   91.305    0.497    0.302
  423.740    6.370  204.812   87.136    0.486    0.297
  423.990    6.337  202.155   84.209    0.463    0.317
  424.240    6.281  199.607   79.730    0.471    0.313
  424.490    6.079  197.271   75.254    0.485    0.346
  424.740    4.931  195.778   74.926    0.488    0.372
  424.990    3.813  212.106   87.232    0.506    0.425
  425.240    3.145  227.807   92.973    0.552    0.501
  425.490    2.756  237.215   96.487    0.582    0.562
  425.740    2.590  205.828   96.779    0.631    0.453
  425.990    2.835  207.789   97.688    0.515    0.438
  426.240    3.179  200.103  101.697    0.494    0.366
  426.490    3.670  196.613  105.890    0.487    0.313
  426.740    4.269  185.675  106.117    0.479    0.312
  426.990    4.529  182.392  106.844    0.461    0.316
  427.240    4.506  181.839  114.631    0.472    0.310
  427.490    4.313  183.800  122.847    0.480    0.290
  427.740    4.008  185.129  123.017    0.494    0.285
  427.990    3.732  184.048  109.621    0.513    0.280
  428.240    3.625  181.400   99.134    0.516    0.287
  428.490    3.620  177.590   92.863    0.483    0.334
  428.740    3.655  175.460   87.397    0.451    0.300
  428.990    3.745  173.232   88.800    0.461    0.315
  429.240    3.944  170.050   93.986    0.473    0.355
  429.490    4.325  168.139   96.197    0.483    0.373
  429.740    4.822  168.522   92.462    0.494    0.343
  429.990    5.745  173.212   85.878    0.489    0.310
  430.240    6.768  180.002   79.978    0.426    0.328
  430.490    8.790  180.287   73.335    0.384    0.266
  430.740   10.510  171.867   74.861    0.361    0.231
  430.990   11.762  178.862   74.412    0.332    0.209
  431.240   11.701  181.871   70.677    0.309    0.197
  431.490    9.920  177.540   71.404    0.317    0.209
  431.740    7.194  177.197   74.607    0.367    0.234
  431.990    5.740  180.834   81.587    0.400    0.263
  432.240    4.786  183.952   87.453    0.435    0.283
  432.490    4.080  186.961   92.080    0.466    0.344
