~VERSION INFORMATION
 VERS.                 2.0:   CWLS LOG ASCII STANDARD -VERSION 2.0
 WRAP.                  NO:   ONE LINE PER DEPTH STEP
~WELL INFORMATION BLOCK
#MNEM.UNIT           DATA                    DESCRIPTION OF MNEMONIC
#---------    -------------------            -------------------------------
# Generated from Intellog Unique Number	CW_82_90/WELL/2588
WELL.         06-34-082-02W5                 : Well_name    - WELL
LOC .         00/06-34-082-02W5/0            : Location     - LOCATION
UWI .         00/06-34-082-02W5/0            : Uwi          - UNIQUE WELL ID
ENTR.         JJ                             : Entered      - ENTERED BY
SRVC.         SCHLUMBERGER                   : Scn          - SERVICE COMPANY
DATE.         3 FEB 77                       : Date         - LOG DATE
STRT.M        313.944                        : top_depth    - START DEPTH
STOP.M        441.944                        : bot_depth    - STOP DEPTH
STEP.M        0.25                           : increment    - STEP LENGTH
 NULL. -999.2500:NULL Value
~CURVE INFORMATION BLOCK
#MNEM UNIT       ERCB CURVE CODE    CURVE DESCRIPTION
#-----------   ------------------   ----------------------------------
DEPT.M        00 001 00 00         : DEPTH        - DEPTH
DELT.US/F     00 520 00 00         : DELT         - SONIC TRAVEL TIME
GR  .API      00 310 00 00         : GR           - GAMMA RAY
RHOB.KG/M3    00 350 00 00         : DENS         - BULK DENSITY
ILD .OHMM     00 120 00 00         : RESD         - DEEP RESISTIVITY (DIL)
~PARAMETER INFORMATION
#MNEM.UNIT           DATA             DESCRIPTION OF MNEMONIC
#---------         -----------     ------------------------------
GL  .M        584.85               : gl           - GROUND LEVEL ELEVATION
EREF.M        588.142              : kb           - ELEVATION OF DEPTH REFERENCE
DATM.M        588.142              : datum        - DATUM ELEVATION
TDD .M        441.655              : tdd          - TOTAL DEPTH DRILLER
RUN .         ONE                  : Run          - RUN NUMBER
ENG .         CROCKFORD            : Engineer     - RECORDING ENGINEER
WIT .         HUNTER               : Witness      - WITNESSED BY
BASE.         EDM                  : Branch       - HOME BASE OF LOGGING UNIT
MUD .         GEL CHEM             : Mud_type     - MUD TYPE
MATR.         LIMESTONE            : Logunit      - NEUTRON MATRIX
TMAX.C        30                   : BHT          - MAXIMUM RECORDED TEMPERATURE
BHTD.M        440.131              : BHTDEP       - MAXIMUM RECORDED TEMPERATURE
RMT .C        13.3333              : MDTP         - TEMPERATURE OF MUD
MUDD.KG/M     1140                 : MWT          - MUD DENSITY
NEUT.         1                    : NEUTRON      - NEUTRON TYPE
RESI.         0                    : RESIST       - RESISTIVITY TYPE
RM  .OHMM     3.36                 : RM           - RESISTIVITY OF MUD
RMC .OHMM     0                    : RMC          - RESISTIVITY OF MUD CAKE
RMF .OHMM     3.82                 : RMF          - RESISTIVITY OF MUD FILTRATE
SUFT.C        5                    : SUFT         - SURFACE TEMPERATURE
~A  DEPTH     DELT       GR     DENS     RESD
  313.944  243.662   59.450 2564.090   15.916
  314.194  224.658   53.033 2576.430   17.720
  314.444  217.140   53.071 2592.130   21.998
  314.694  218.680   56.144 2587.320   25.858
  314.944  229.932   59.099 2586.680   27.075
  315.194  230.411   56.758 2517.650   21.923
  315.444  252.566   58.983 2434.670   17.913
  315.694  356.222   61.269 2156.480   14.167
  315.944  408.426   63.248 2131.320   12.069
  316.194  418.689   66.512 2199.480   10.698
  316.444  404.938   66.724 2261.250    9.297
  316.694  390.924   64.570 2289.330    8.779
  316.944  395.347   65.938 2233.070    8.785
  317.194  405.749   69.750 2148.090    8.635
  317.444  407.481   74.283 2179.350    8.199
  317.694  401.078   79.732 2190.290    7.999
  317.944  407.412   80.860 2164.150    8.005
  318.194  417.610   84.180 2145.560    8.054
  318.444  420.921   84.638 2150.310    7.874
  318.694  414.060   78.954 2143.300    7.710
  318.944  408.182   83.489 2202.670    7.508
  319.194  406.572   87.721 2301.330    7.299
  319.444  406.927   93.477 2308.090    7.071
  319.694  409.906   93.874 2272.160    6.936
  319.944  416.175   91.778 2325.950    6.954
  320.194  415.417   91.203 2333.100    6.983
  320.444  413.149   90.749 2320.110    6.964
  320.694  410.287   90.480 2331.250    7.044
  320.944  396.404   91.912 2307.870    7.126
  321.194  395.315   93.040 2255.420    7.183
  321.444  411.559   91.740 2242.190    7.293
  321.694  399.313   88.302 2217.030    7.378
  321.944  395.076   83.224 2175.920    7.199
  322.194  396.413   78.268 2197.420    6.798
  322.444  400.058   79.457 2222.310    6.136
  322.694  403.107   82.228 2209.110    5.489
  322.944  408.648   84.576 2236.790    5.063
  323.194  416.553   85.643 2268.870    4.817
  323.444  424.322   84.525 2260.050    4.725
  323.694  424.946   83.032 2171.680    4.754
  323.944  426.419   80.757 2216.710    5.115
  324.194  421.198   78.175 2222.680    5.644
  324.444  416.173   76.441 2177.770    6.149
  324.694  414.361   75.928 2242.140    6.120
  324.944  410.127   76.934 2243.700    5.896
  325.194  412.846   80.378 2212.950    6.019
  325.444  421.605   82.966 2174.220    6.348
  325.694  426.160   80.628 2169.420    6.683
  325.944  416.278   80.842 2184.530    6.947
  326.194  410.930   77.225 2229.370    7.169
  326.444  397.567   72.937 2308.480    7.109
  326.694  389.523   74.613 2383.610    6.961
  326.944  393.161   74.649 2288.270    6.842
  327.194  402.444   72.066 2168.990    6.859
  327.444  402.805   75.083 2148.030    6.989
  327.694  407.818   78.459 2164.930    7.265
  327.944  411.265   76.185 2213.150    7.773
  328.194  389.702   74.634 2347.510    8.393
  328.444  325.481   72.294 2393.140    9.129
  328.694  266.704   67.945 2459.090    9.644
  328.944  258.531   68.591 2481.780   10.153
  329.194  283.302   71.908 2468.590    9.906
  329.444  320.543   82.286 2422.500    9.154
  329.694  360.867   88.162 2345.710    8.130
  329.944  390.821   95.557 2357.840    7.181
  330.194  398.532   99.487 2368.160    6.720
  330.444  403.218   93.560 2329.240    6.404
  330.694  405.544   87.991 2325.010    6.248
  330.944  406.559   87.173 2272.530    6.219
  331.194  404.817   91.346 2249.780    6.338
  331.444  402.220   91.138 2265.680    6.504
  331.694  403.751   87.764 2281.400    6.737
  331.944  406.414   85.239 2295.530    6.927
  332.194  407.623   86.124 2320.410    7.033
  332.444  406.208   88.230 2269.930    7.141
  332.694  407.354   90.279 2295.230    7.081
  332.944  411.119   91.278 2282.830    6.884
  333.194  415.943   91.917 2313.300    6.596
  333.444  418.858   91.464 2345.360    6.332
  333.694  416.394   89.004 2324.590    6.325
  333.944  406.776   89.955 2320.760    6.422
  334.194  399.652   91.686 2346.060    6.712
  334.444  396.527   90.325 2328.860    7.556
  334.694  384.092   86.886 2317.070    8.412
  334.944  346.451   83.148 2428.900   10.198
  335.194  241.934   78.800 2552.880   13.125
  335.444  216.368   65.934 2630.400   16.770
  335.694  206.092   61.342 2665.270   21.542
  335.944  225.483   56.207 2637.110   29.323
  336.194  244.016   55.934 2583.240   29.719
  336.444  264.064   59.255 2488.290   24.195
  336.694  289.556   61.052 2324.560   19.521
  336.944  323.779   61.207 2339.070   15.165
  337.194  317.045   65.139 2410.620   13.058
  337.444  317.799   70.832 2364.930   11.083
  337.694  353.202   77.313 2309.660    9.701
  337.944  384.142   83.855 2273.130    8.491
  338.194  400.579   94.234 2312.580    7.500
  338.444  405.924  100.597 2294.400    6.684
  338.694  411.131   98.620 2303.730    6.143
  338.944  412.084   95.491 2313.870    6.456
  339.194  404.173   92.178 2295.900    7.228
  339.444  391.994   89.355 2308.010    8.359
  339.694  390.842   86.285 2284.450    9.989
  339.944  393.955   81.512 2196.670   10.403
  340.194  383.545   77.891 2221.370   10.204
  340.444  379.702   81.030 2275.980    9.312
  340.694  378.552   83.679 2265.950    8.558
  340.944  379.301   84.809 2316.970    7.504
  341.194  380.319   85.329 2265.100    6.473
  341.444  382.643   85.971 2270.840    6.214
  341.694  391.009   88.257 2199.020    6.759
  341.944  405.806   84.211 2232.690    7.458
  342.194  407.015   74.144 2209.720    8.673
  342.444  385.978   68.275 2205.290    9.887
  342.694  361.460   70.256 2325.090   10.811
  342.944  352.694   75.952 2386.270   11.484
  343.194  371.364   83.470 2338.180   11.065
  343.444  383.141   89.466 2341.530   10.373
  343.694  377.719   97.653 2306.010    9.213
  343.944  369.089   97.139 2378.560    8.622
  344.194  375.549   92.853 2352.210    8.473
  344.444  382.859   91.792 2343.990    8.495
  344.694  388.925   94.562 2315.050    8.640
  344.944  391.713   96.846 2319.990    8.805
  345.194  393.446   93.107 2302.820    8.892
  345.444  393.276   93.692 2305.560    8.962
  345.694  391.865   95.000 2329.860    8.985
  345.944  389.798   95.703 2333.000    9.008
  346.194  385.692   96.225 2300.060    8.998
  346.444  384.670   94.373 2302.630    8.908
  346.694  388.635   91.060 2294.430    8.896
  346.944  392.991   91.029 2280.830    8.402
  347.194  392.238   95.262 2303.910    8.364
  347.444  389.510   94.688 2316.470    8.308
  347.694  388.420   91.376 2310.830    8.361
  347.944  389.171   90.982 2307.600    8.381
  348.194  391.950   92.970 2292.810    8.388
  348.444  394.092   94.276 2270.850    8.332
  348.694  398.123   96.378 2262.620    8.262
  348.944  404.845   93.733 2294.100    8.194
  349.194  397.456   89.814 2343.120    8.097
  349.444  388.952   86.804 2308.180    8.478
  349.694  380.057   81.361 2299.160    9.170
  349.944  376.017   71.235 2262.840   10.398
  350.194  380.312   66.703 2238.880   11.514
  350.444  383.756   69.171 2185.000   12.938
  350.694  383.129   73.523 2221.280   13.995
  350.944  376.464   79.582 2261.500   14.184
  351.194  361.268   80.164 2219.410   13.541
  351.444  315.688   72.838 2187.860   14.127
  351.694  266.886   64.171 2241.460   15.115
  351.944  252.612   65.843 2321.990   16.086
  352.194  310.065   68.496 2355.440   16.965
  352.444  334.436   70.535 2280.840   15.820
  352.694  356.258   73.793 2190.070   15.022
  352.944  373.741   77.599 2217.950   14.818
  353.194  374.817   80.617 2189.600   14.881
  353.444  376.424   78.579 2234.640   15.442
  353.694  382.227   75.025 2260.710   15.905
  353.944  379.571   78.342 2221.430   16.446
  354.194  377.494   77.403 2198.850   16.818
  354.444  378.121   76.647 2215.740   16.527
  354.694  377.886   78.565 2276.720   15.665
  354.944  372.073   75.130 2267.110   14.372
  355.194  373.019   73.708 2282.030   13.021
  355.444  376.005   79.154 2268.240   12.229
  355.694  374.587   83.327 2263.030   11.933
  355.944  371.266   79.710 2262.180   12.336
  356.194  371.103   78.158 2246.200   13.152
  356.444  374.078   79.532 2228.010   14.226
  356.694  376.995   81.150 2197.090   13.051
  356.944  380.315   81.970 2197.290   11.362
  357.194  387.235   83.712 2218.150    9.891
