~VERSION INFORMATION
 VERS.                 2.0:   CWLS LOG ASCII STANDARD -VERSION 2.0
 WRAP.                  NO:   ONE LINE PER DEPTH STEP
~WELL INFORMATION BLOCK
#MNEM.UNIT           DATA                    DESCRIPTION OF MNEMONIC
#---------    -------------------            -------------------------------
# Generated from Intellog Unique Number	CC_80_83/WELL/1172
NULL.         -999.25                        : NULL_VALUE
WELL.         HPCI PCEJ CHARD                : Well_name
LOC .         07-06-080-06W4                 : Location     - LOCATION          
UWI .         00/07-06-080-06W400            : Uwi          - UNIQUE WELL ID    
ENTR.         DW                             : Entered      - ENTERED BY        
SRVC.         SCHLUMBERGER                   : Scn          - SERVICE COMPANY   
DATE.         17 JAN 85                      : Date         - LOG DATE
STRT.M        120                            : top_depth    - START DEPTH       
STOP.M        359.997                        : bot_depth    - STOP DEPTH        
STEP.M        0.3                            : increment    - STEP LENGTH       
~CURVE INFORMATION BLOCK
#MNEM UNIT       ERCB CURVE CODE    CURVE DESCRIPTION
#-----------   ------------------   ----------------------------------
DEPT.M        00 001 00 00         : DEPTH        - DEPTH                       
DPHI.V/V      00 890 00 00         : PHID         - DENSITY POROSITY (LIMESTONE)
NPHI.V/V      00 330 00 00         : PHIN         - NEUTRON POROSITY (LIMESTONE)
GR  .API      00 310 00 00         : GR           - GAMMA RAY                   
ILD .OHMM     00 120 00 00         : RESD         - DEEP RESISTIVITY (DIL)      
~PARAMETER INFORMATION       
#MNEM.UNIT           DATA             DESCRIPTION OF MNEMONIC
#---------         -----------     ------------------------------
GL  .M        552                  : gl           - GROUND LEVEL ELEVATION      
EREF.M        555.25               : kb           - ELEVATION OF DEPTH REFERENCE
DATM.M        555.25               : datum        - DATUM ELEVATION             
TDD .M        380                  : tdd          - TOTAL DEPTH DRILLER         
RUN .         ONE                  : Run          - RUN NUMBER                  
ENG .         BILL                 : Engineer     - RECORDING ENGINEER          
WIT .         JIM                  : Witness      - WITNESSED BY                
MUD .         GEL                  : Mud_type     - MUD TYPE                    
MATR.         LIMESTONE            : Logunit      - NEUTRON MATRIX              
TMAX.C        20                   : BHT          - MAXIMUM RECORDED TEMPERATURE
BHTD.M        380                  : BHTDEP       - MAXIMUM RECORDED TEMPERATURE
MATR.         1                    : LOGUNIT      - NEUTRON MATRIX              
RMT .C        25                   : MDTP         - TEMPERATURE OF MUD          
NEUT.         1                    : NEUTRON      - NEUTRON TYPE                
RESI.         0                    : RESIST       - RESISTIVITY TYPE            
RMC .OHMM     0.25                 : RMC          - RESISTIVITY OF MUD CAKE     
RMF .OHMM     0.25                 : RMF          - RESISTIVITY OF MUD FILTRATE 
SUFT.C        15                   : SUFT         - SURFACE TEMPERATURE         
~A  DEPTH     PHID     PHIN       GR     RESD
  120.000    0.328    0.602  105.662    2.735
  120.300    0.346    0.628  107.524    2.788
  120.600    0.347    0.619  108.766    2.788
  120.900    0.335    0.579  110.010    2.788
  121.200    0.325    0.561  101.388    2.736
  121.500    0.297    0.571   98.930    2.789
  121.800    0.297    0.528   97.090    2.843
  122.100    0.301    0.508   94.634    2.953
  122.400    0.299    0.522  103.898    3.068
  122.700    0.291    0.573  102.056    3.127
  123.000    0.259    0.542   95.901    3.187
  123.300    0.244    0.560   95.912    3.188
  123.600    0.269    0.579   99.004    3.249
  123.900    0.271    0.530  101.484    3.250
  124.200    0.265    0.535  104.577    3.312
  124.500    0.275    0.554  105.823    3.441
  124.800    0.285    0.592  105.218    3.643
  125.100    0.262    0.576  102.761    3.713
  125.400    0.249    0.544  101.536    3.644
  125.700    0.277    0.491  103.396    3.442
  126.000    0.296    0.503  106.492    3.378
  126.300    0.271    0.548  104.654    3.379
  126.600    0.260    0.554   97.263    3.510
  126.900    0.277    0.514   97.889    3.787
  127.200    0.269    0.504  105.917    4.086
  127.500    0.251    0.539  109.013    4.326
  127.800    0.231    0.575  105.322    4.757
  128.100    0.126    0.557   73.262    5.645
  128.400    0.207    0.409   70.806    6.207
  128.700    0.275    0.482   79.452    6.826
  129.000    0.286    0.454   67.744    6.958
  129.300    0.292    0.427   84.406    6.573
  129.600    0.268    0.471  104.771    5.648
  129.900    0.236    0.485  109.714    5.041
  130.200    0.235    0.514  104.795    4.331
  130.500    0.261    0.544   98.636    4.092
  130.800    0.292    0.544   91.863    4.171
  131.100    0.307    0.500   88.171    5.238
  131.400    0.283    0.474   87.566    7.098
  131.700    0.270    0.470   96.827    9.260
  132.000    0.260    0.458  101.155    9.261
  132.300    0.203    0.428   99.319    9.440
  132.600    0.224    0.405   97.476   10.381
  132.900    0.263    0.431   91.321   12.085
  133.200    0.289    0.427   84.547   13.040
  133.500    0.314    0.417   77.772   12.088
  133.800    0.289    0.408   78.401   10.386
  134.100    0.255    0.405   94.446    9.269
  134.400    0.263    0.462  103.093    7.523
  134.700    0.252    0.484  103.719    7.108
  135.000    0.251    0.474  103.731    7.245
  135.300    0.264    0.443  104.973    8.434
  135.600    0.279    0.436  104.984   10.394
  135.900    0.299    0.474   93.894   12.568
  136.200    0.305    0.483   87.120   14.631
  136.500    0.329    0.468   80.966   16.711
  136.800    0.360    0.457   71.109   18.730
  137.100    0.320    0.440   67.419   19.091
  137.400    0.300    0.396   69.896   18.037
  137.700    0.292    0.382   71.757   17.701
  138.000    0.295    0.377   74.234   17.702
  138.300    0.290    0.377   77.945   17.372
  138.600    0.265    0.373   73.640   17.373
  138.900    0.236    0.371   74.883   16.414
  139.200    0.265    0.378   83.527   15.507
  139.500    0.289    0.433   95.873   14.375
  139.800    0.278    0.439  104.517   14.106
  140.100    0.295    0.434  106.997   14.108
  140.400    0.295    0.453  110.708   14.937
  140.700    0.304    0.470  111.951   16.117
  141.000    0.326    0.446   72.490   18.063
  141.300    0.338    0.430   67.568   18.765
  141.600    0.326    0.415   79.297   18.414
  141.900    0.260    0.408   90.409   16.125
  142.200    0.258    0.404   95.969   14.948
  142.500    0.275    0.423   99.681   14.950
  142.800    0.285    0.431   84.272   15.828
  143.100    0.289    0.424   68.865   18.779
  143.400    0.284    0.416   59.010   22.707
  143.700    0.257    0.412   59.020   24.040
  144.000    0.288    0.409   70.131   22.712
  144.300    0.301    0.413   78.160   18.435
  144.600    0.271    0.428   78.786   17.089
  144.900    0.245    0.416   96.683   15.544
  145.200    0.254    0.387   89.911   14.138
  145.500    0.244    0.382   89.920   13.613
  145.800    0.239    0.403   92.399   13.875
  146.100    0.255    0.439   85.625   14.973
  146.400    0.279    0.441   78.236   15.261
  146.700    0.269    0.395   85.032   14.695
  147.000    0.253    0.372   92.442   14.696
  147.300    0.254    0.383   91.835   15.267
  147.600    0.275    0.398   79.510   17.110
  147.900    0.311    0.411   65.337   19.176
  148.200    0.346    0.420   57.947   20.692
  148.500    0.344    0.436   56.108   21.495
  148.800    0.381    0.420   55.502   22.330
  149.100    0.384    0.409   57.980   22.760
  149.400    0.374    0.437   67.243   22.764
  149.700    0.352    0.441   72.802   22.339
  150.000    0.340    0.461   78.980   21.921
  150.300    0.338    0.442   88.858   21.107
  150.600    0.339    0.407   84.552   20.323
  150.900    0.353    0.410   82.096   19.568
  151.200    0.337    0.435   85.808   19.571
  151.500    0.326    0.457   82.733   19.574
  151.800    0.337    0.445   79.661   19.207
  152.100    0.330    0.423   92.009   18.848
  152.400    0.311    0.445   95.720   18.496
  152.700    0.296    0.473   96.345   18.853
  153.000    0.312    0.483   98.823   19.585
  153.300    0.323    0.436   92.049   19.964
  153.600    0.322    0.423   80.960   19.590
  153.900    0.308    0.417   88.371   18.862
  154.200    0.323    0.448  104.415   17.486
  154.500    0.318    0.456   97.644   16.209
  154.800    0.304    0.432   87.171   16.521
  155.100    0.287    0.407   87.181   16.213
  155.400    0.278    0.426   90.891   15.317
  155.700    0.278    0.427   94.602   13.413
  156.000    0.274    0.443  106.331    9.715
  156.300    0.209    0.478  118.060    7.171
  156.600    0.178    0.509  120.538    6.046
  156.900    0.188    0.536  118.697    5.195
  157.200    0.215    0.540  114.391    4.463
  157.500    0.222    0.562  121.803    3.984
  157.800    0.226    0.591  126.748    4.138
  158.100    0.247    0.605  127.374    4.381
  158.400    0.269    0.583  119.985    5.298
  158.700    0.252    0.479  105.810    7.893
  159.000    0.243    0.395   97.187   11.109
  159.300    0.258    0.398   94.731   13.691
  159.600    0.236    0.424   86.107   14.495
  159.900    0.244    0.414   83.034   14.774
  160.200    0.253    0.403   89.212   14.499
  160.500    0.225    0.412   96.007   14.501
  160.800    0.249    0.444   88.001   15.646
  161.100    0.332    0.423   68.892   19.281
  161.400    0.310    0.408   62.119   21.204
  161.700    0.314    0.423   75.698   21.613
  162.000    0.326    0.429   78.175   20.810
  162.300    0.334    0.425   76.337   19.661
  162.600    0.335    0.417   76.968   19.293
  162.900    0.339    0.423   76.977   19.296
  163.200    0.336    0.424   76.986   20.045
  163.500    0.327    0.427   75.149   20.047
  163.800    0.314    0.428   77.009   19.672
  164.100    0.311    0.417   80.102   18.586
  164.400    0.307    0.402   87.513   16.587
  164.700    0.286    0.424   99.240   10.127
  165.000    0.187    0.446  110.353    7.619
  165.300    0.149    0.477  113.447    7.063
  165.600    0.171    0.490  118.393    6.931
  165.900    0.217    0.516  120.254    7.917
  166.200    0.249    0.514  120.263    9.573
  166.500    0.315    0.483  117.192   12.971
  166.800    0.366    0.450  109.184   20.074
  167.100    0.357    0.425   98.710   22.499
  167.400    0.341    0.403   85.153   22.078
  167.700    0.342    0.440   77.146   20.081
  168.000    0.341    0.436   83.324   18.616
  168.300    0.322    0.404   99.986   17.587
  168.600    0.304    0.418  106.166   15.997
  168.900    0.291    0.440  106.793   14.277
  169.201    0.287    0.426  104.954   13.747
  169.501    0.282    0.436  100.646   14.281
  169.801    0.284    0.458  100.657   15.119
  170.101    0.310    0.466  104.984   16.626
  170.401    0.318    0.468   96.361   18.991
  170.701    0.300    0.441   91.439   20.107
  171.001    0.292    0.395   87.132   20.111
  171.301    0.307    0.411   77.275   20.498
  171.601    0.348    0.422   61.250   20.892
  171.901    0.336    0.422   52.011   23.865
