~VERSION INFORMATION
 VERS.                 2.0:   CWLS LOG ASCII STANDARD -VERSION 2.0
 WRAP.                  NO:   ONE LINE PER DEPTH STEP
~WELL INFORMATION BLOCK
#MNEM.UNIT           DATA                    DESCRIPTION OF MNEMONIC
#---------    -------------------            -------------------------------
# Generated from Intellog Unique Number	CW_79_81/WELL/185
WELL.         01-27-079-23W4                 : Well_name    - WELL
LOC .         00/01-27-079-23W4/0            : Location     - LOCATION
UWI .         00/01-27-079-23W4/0            : Uwi          - UNIQUE WELL ID
ENTR.         MAX                            : Entered      - ENTERED BY
SRVC.         COMPUTALOG                     : Scn          - SERVICE COMPANY
STRT.M        225                            : top_depth    - START DEPTH
STOP.M        465                            : bot_depth    - STOP DEPTH
STEP.M        0.25                           : increment    - STEP LENGTH
 NULL. -999.2500:NULL Value
~CURVE INFORMATION BLOCK
#MNEM UNIT       ERCB CURVE CODE    CURVE DESCRIPTION
#-----------   ------------------   ----------------------------------
DEPT.M        00 001 00 00         : DEPTH        - DEPTH
GR  .API      00 310 00 00         : GR           - GAMMA RAY
ILD .OHMM     00 120 00 00         : RESD         - DEEP RESISTIVITY (DIL)
NPHI.V/V      00 330 00 00         : PHIN         - NEUTRON POROSITY (SANDSTONE)
DPHI.V/V      00 890 00 00         : PHID         - DENSITY POROSITY (SANDSTONE)
CALI.MM       00 280 01 00         : CAL          - CALIPER
~PARAMETER INFORMATION
#MNEM.UNIT           DATA             DESCRIPTION OF MNEMONIC
#---------         -----------     ------------------------------
GL  .M        563.6                : gl           - GROUND LEVEL ELEVATION
EREF.M        568.6                : kb           - ELEVATION OF DEPTH REFERENCE
DATM.M        563.6                : datum        - DATUM ELEVATION
TDD .M        580                  : tdd          - TOTAL DEPTH DRILLER
RUN .         ONE                  : Run          - RUN NUMBER
ENG .         BILL                 : Engineer     - RECORDING ENGINEER
WIT .         JIM                  : Witness      - WITNESSED BY
MUD .         GEL                  : Mud_type     - MUD TYPE
MATR.         SANDSTONE            : Logunit      - NEUTRON MATRIX
TMAX.C        28                   : BHT          - MAXIMUM RECORDED TEMPERATURE
BHTD.M        580                  : BHTDEP       - MAXIMUM RECORDED TEMPERATURE
RMT .C        15.6                 : MDTP         - TEMPERATURE OF MUD
MUDD.KG/M     1180                 : MWT          - MUD DENSITY
NEUT.         1                    : NEUTRON      - NEUTRON TYPE
RESI.         0                    : RESIST       - RESISTIVITY TYPE
RM  .OHMM     6.3                  : RM           - RESISTIVITY OF MUD
RMC .OHMM     4.7                  : RMC          - RESISTIVITY OF MUD CAKE
RMF .OHMM     7                    : RMF          - RESISTIVITY OF MUD FILTRATE
SUFT.C        -10                  : SUFT         - SURFACE TEMPERATURE
~A  DEPTH       GR     RESD     PHIN     PHID      CAL
# ...
  298.000   61.533    7.977    0.417    0.330  223.045
  298.250   65.422    6.331    0.421    0.312  222.512
  298.500   70.215    4.375    0.461    0.276  222.981
  298.750   74.703    3.914    0.485    0.266  222.944
  299.000   74.980    4.097    0.482    0.272  223.413
  299.250   71.658    5.061    0.451    0.284  223.886
  299.500   65.325    6.253    0.429    0.301  223.850
  299.750   61.693    7.446    0.428    0.317  223.312
  300.000   61.975    9.285    0.426    0.352  222.783
  300.250   63.458   14.181    0.418    0.364  221.741
  300.500   65.243   15.977    0.410    0.359  221.713
  300.750   65.527   16.718    0.416    0.351  221.676
  301.000   64.302   16.864    0.418    0.348  221.648
  301.250   64.581   17.009    0.411    0.353  221.616
  301.500   64.862   17.000    0.418    0.356  222.085
  301.750   65.444   16.834    0.432    0.356  222.048
  302.000   64.521   16.823    0.415    0.339  222.012
  302.250   61.796   17.283    0.390    0.316  223.980
  302.500   59.975   17.922    0.369    0.272  225.455
  302.750   54.542   19.278    0.337    0.254  224.425
  303.000   47.908   19.995    0.295    0.216  223.382
  303.250   39.772   20.353    0.297    0.208  223.350
  303.500   38.848   19.786    0.318    0.232  223.318
  303.750   46.645   18.881    0.354    0.262  223.282
  304.000   52.035   17.209    0.371    0.292  223.245
  304.250   53.817   15.973    0.377    0.306  223.221
  304.500   55.303   16.111    0.369    0.315  223.185
  304.750   57.090   17.019    0.355    0.290  223.153
  305.000   54.062   18.998    0.376    0.272  223.120
  305.250   50.736   20.440    0.404    0.304  223.084
  305.500   47.710   21.389    0.423    0.330  223.056
  305.750   48.592   21.375    0.433    0.347  223.024
  306.000   53.982   21.363    0.431    0.352  222.987
  306.250   53.061   21.351    0.410    0.347  222.450
  306.500   51.238   21.531    0.400    0.342  221.412
  306.750   49.111   21.923    0.401    0.345  220.385
  307.000   48.188   22.316    0.418    0.357  220.349
  307.250   49.073   22.509    0.413    0.357  220.818
  307.500   50.554   22.495    0.409    0.359  221.279
  307.750   51.434   22.688    0.404    0.359  221.255
  308.000   51.112   22.884    0.404    0.358  220.721
  308.250   51.696   22.858    0.416    0.350  220.681
  308.500   51.376   23.065    0.414    0.348  220.152
  308.750   50.458   23.051    0.415    0.350  220.119
  309.000   50.736   23.252    0.426    0.351  220.083
  309.250   51.917   23.238    0.431    0.349  220.556
  309.500   52.499   23.435    0.429    0.345  220.516
  309.750   50.378   23.640    0.423    0.343  220.483
  310.000   47.047   23.846    0.408    0.347  219.946
  310.250   44.923   24.052    0.403    0.350  219.914
  310.500   43.099   24.481    0.397    0.350  219.886
  310.750   42.782   24.693    0.406    0.345  219.853
  311.000   42.159   24.678    0.416    0.339  219.320
  311.250   40.932   24.891    0.417    0.334  218.787
  311.500   40.316   25.108    0.419    0.329  218.746
  311.750   39.393   25.552    0.418    0.326  218.714
  312.000   38.469   25.543    0.419    0.327  218.686
  312.250   37.548   25.527    0.424    0.329  218.650
  312.500   39.032   25.512    0.423    0.331  218.613
  312.750   42.622   25.025    0.423    0.332  219.086
  313.000   43.502   24.782    0.425    0.333  220.052
  313.250   41.374   24.541    0.424    0.336  220.525
  313.500   42.860   24.299    0.427    0.338  221.988
  313.750   45.847   24.063    0.434    0.338  222.461
  314.000   45.227   24.063    0.428    0.345  222.926
  314.250   44.907   24.032    0.419    0.342  222.897
  314.500   45.185   23.795    0.426    0.338  222.360
  314.750   45.166   23.795    0.429    0.336  221.823
  315.000   44.545   23.539    0.430    0.338  221.289
  315.250   44.829   23.532    0.432    0.343  220.760
  315.500   44.807   23.304    0.431    0.342  219.722
  315.750   44.786   23.304    0.426    0.337  219.192
  316.000   43.564   23.272    0.426    0.328  218.647
  316.250   42.344   23.272    0.414    0.326  218.122
  316.500   41.118   23.453    0.411    0.326  218.086
  316.750   40.199   23.663    0.422    0.324  217.552
  317.000   38.676   24.089    0.398    0.308  217.520
  317.250   38.654   24.748    0.382    0.280  217.488
  317.500   41.038   25.193    0.338    0.176  217.953
  317.750   42.519   25.880    0.349    0.179  218.421
  318.000   42.204   26.836    0.372    0.216  218.890
  318.250   43.688   27.068    0.387    0.314  219.355
  318.500   47.577   26.561    0.392    0.332  220.325
  318.750   48.459   25.347    0.396    0.332  220.794
  319.000   49.340   23.968    0.403    0.330  220.264
  319.250   50.523   23.086    0.416    0.328  220.220
  319.500   47.194   22.441    0.419    0.326  220.689
  319.750   46.273   22.222    0.422    0.322  221.158
  320.000   51.364   21.801    0.427    0.316  221.631
  320.250   51.944   21.388    0.427    0.306  222.095
  320.500   54.933   20.791    0.424    0.303  222.059
  320.750   58.221   20.213    0.422    0.305  222.035
  321.000   62.408   19.289    0.427    0.303  221.975
  321.250   66.598   18.581    0.429    0.284  221.966
  321.500   71.091   17.569    0.414    0.269  221.934
  321.750   74.676   16.613    0.387    0.245  221.393
  322.000   78.866   15.138    0.381    0.179  221.369
  322.250   83.957   13.925    0.398    0.183  221.332
  322.500   89.049   12.345    0.421    0.190  221.296
  322.750   86.019   10.943    0.438    0.210  220.767
  323.000   83.895   10.348    0.428    0.221  220.735
  323.250   82.973    9.784    0.430    0.222  220.702
  323.500   83.257    9.598    0.428    0.212  220.157
  323.750   85.342    9.593    0.436    0.210  220.129
  324.000   88.928    9.586    0.437    0.211  220.101
  324.250   89.811    9.406    0.418    0.208  220.068
  324.500   86.783    9.143    0.415    0.205  221.535
  324.750   87.362    8.970    0.418    0.202  221.499
  325.000   88.249    8.883    0.432    0.199  221.471
  325.250   87.624    8.796    0.432    0.196  221.435
  325.500   85.803    8.872    0.422    0.190  222.404
  325.750   83.680    9.199    0.401    0.192  223.370
  326.000   82.453    9.538    0.408    0.206  223.839
  326.250   83.641    9.622    0.420    0.220  223.807
  326.500   86.024    9.617    0.407    0.201  224.773
  326.750   87.506    9.521    0.413    0.190  224.740
  327.000   88.088    9.342    0.427    0.191  224.712
  327.250   88.970    8.916    0.436    0.193  224.179
  327.500   89.552    8.586    0.434    0.196  223.642
  327.750   90.134    8.347    0.408    0.195  223.613
  328.000   91.618    8.265    0.412    0.194  223.577
  328.250   92.500    8.337    0.421    0.196  223.545
  328.500   91.577    8.487    0.432    0.203  223.509
  328.750   88.551    8.640    0.442    0.213  223.480
  329.000   87.630    8.714    0.451    0.225  222.438
  329.250   88.212    8.871    0.456    0.230  222.406
  329.500   86.990    9.198    0.457    0.231  221.872
  329.750   83.057    9.537    0.446    0.239  221.840
  330.000   78.831    9.615    0.431    0.236  221.808
  330.250   76.104    9.703    0.419    0.223  221.772
  330.500   78.793    9.877    0.422    0.219  221.739
  330.750   85.385    9.781    0.439    0.211  221.707
  331.000   87.771    9.597    0.447    0.208  221.675
  331.250   86.544    9.244    0.444    0.209  221.643
  331.500   85.928    9.151    0.436    0.209  221.610
  331.750   85.007    9.146    0.442    0.208  221.574
  332.000   84.985    9.397    0.446    0.212  221.546
  332.250   86.168    9.566    0.441    0.212  221.510
  332.500   85.548    9.650    0.435    0.203  221.477
  332.750   82.520    9.642    0.438    0.200  220.940
  333.000   83.402    9.725    0.431    0.212  220.912
  333.250   84.886    9.720    0.422    0.227  220.371
  333.500   82.462    9.804    0.422    0.241  220.342
  333.750   78.835    9.980    0.431    0.258  219.805
  334.000   72.499   10.639    0.428    0.269  219.773
  334.250   67.064   12.553    0.420    0.275  219.741
