~VERSION INFORMATION
 VERS.                 2.0:   CWLS LOG ASCII STANDARD -VERSION 2.0
 WRAP.                  NO:   ONE LINE PER DEPTH STEP
~WELL INFORMATION BLOCK
#MNEM.UNIT           DATA                    DESCRIPTION OF MNEMONIC
#---------    -------------------            -------------------------------
# Generated from Intellog Unique Number	CS_77_79/WELL/857
WELL.         HB THORNBURY LAKE              : Well_name    - WELL
LOC .         00/05-19-078-12W4/0            : Location     - LOCATION
UWI .         00/05-19-078-12W4/0            : Uwi          - UNIQUE WELL ID
ENTR.         JHS                            : Entered      - ENTERED BY
SRVC.         SCHLUMBERGER                   : Scn          - SERVICE COMPANY
STRT.M        243.84                         : top_depth    - START DEPTH
STOP.M        456.84                         : bot_depth    - STOP DEPTH
STEP.M        0.25                           : increment    - STEP LENGTH
 NULL. -999.2500:NULL Value
~CURVE INFORMATION BLOCK
#MNEM UNIT       ERCB CURVE CODE    CURVE DESCRIPTION
#-----------   ------------------   ----------------------------------
DEPT.M        00 001 00 00         : DEPTH        - DEPTH
RHOB.KG/M3    00 350 00 00         : DENS         - BULK DENSITY
GR  .API      00 310 00 00         : GR           - GAMMA RAY
DPHI.V/V      00 890 00 00         : PHID         - DENSITY POROSITY (SANDSTONE)
NPHI.V/V      00 330 00 00         : PHIN         - NEUTRON POROSITY (SANDSTONE)
ILD .OHMM     00 120 00 00         : RESD         - DEEP RESISTIVITY (DIL)
~PARAMETER INFORMATION
#MNEM.UNIT           DATA             DESCRIPTION OF MNEMONIC
#---------         -----------     ------------------------------
GL  .M        685.19               : gl           - GROUND LEVEL ELEVATION
EREF.M        685.19               : kb           - ELEVATION OF DEPTH REFERENCE
DATM.M        685.19               : datum        - DATUM ELEVATION
TDD .M        466.344              : tdd          - TOTAL DEPTH DRILLER
RUN .         ONE                  : Run          - RUN NUMBER
ENG .         BILL                 : Engineer     - RECORDING ENGINEER
WIT .         JIM                  : Witness      - WITNESSED BY
MUD .         GEL                  : Mud_type     - MUD TYPE
MATR.         SANDSTONE            : Logunit      - NEUTRON MATRIX
TMAX.C        26.6667              : BHT          - MAXIMUM RECORDED TEMPERATURE
BHTD.M        466.344              : BHTDEP       - MAXIMUM RECORDED TEMPERATURE
MATR.         1                    : LOGUNIT      - NEUTRON MATRIX
RMT .C        25                   : MDTP         - TEMPERATURE OF MUD
NEUT.         1                    : NEUTRON      - NEUTRON TYPE
RESI.         0                    : RESIST       - RESISTIVITY TYPE
RMC .OHMM     0.25                 : RMC          - RESISTIVITY OF MUD CAKE
RMF .OHMM     0.25                 : RMF          - RESISTIVITY OF MUD FILTRATE
SUFT.C        15                   : SUFT         - SURFACE TEMPERATURE
~A  DEPTH     DENS       GR     PHID     PHIN     RESD
# ...
  389.840   -0.000   66.252    0.283    0.473    6.008
  390.090   -0.000   66.305    0.293    0.467    5.942
  390.340   -0.000   65.469    0.300    0.456    5.916
  390.590    0.000   65.179    0.286    0.460    5.812
  390.840    0.000   62.816    0.289    0.466    5.821
  391.090    0.000   62.786    0.300    0.467    5.693
  391.340   -0.000   63.817    0.301    0.477    5.804
  391.590   -0.000   64.597    0.288    0.488    5.830
  391.840   -0.000   64.559    0.291    0.467    5.714
  392.090    0.000   65.004    0.288    0.470    5.723
  392.340    0.000   66.193    0.276    0.481    5.691
  392.590    0.000   68.238    0.288    0.466    5.628
  392.840   -0.000   68.490    0.289    0.480    5.633
  393.090   -0.000   67.408    0.287    0.477    5.644
  393.340    0.000   67.611    0.293    0.473    5.543
  393.590    0.000   68.484    0.304    0.473    5.607
  393.840    0.000   66.203    0.298    0.468    5.652
  394.090   -0.000   65.876    0.295    0.462    5.567
  394.340   -0.000   67.426    0.281    0.475    5.397
  394.590   -0.000   69.013    0.308    0.490    5.370
  394.840    0.000   69.184    0.297    0.500    5.465
  395.090    0.000   67.658    0.297    0.481    5.466
  395.340    0.000   67.787    0.301    0.482    5.470
  395.590   -0.000   68.410    0.297    0.498    5.484
  395.840   -0.000   68.310    0.301    0.504    5.365
  396.090    0.000   69.602    0.298    0.508    5.384
  396.340    0.000   71.761    0.286    0.515    5.279
  396.590    0.000   73.393    0.298    0.501    5.291
  396.840   -0.000   73.874    0.296    0.487    5.296
  397.090   -0.000   73.626    0.293    0.490    5.301
  397.340   -0.000   71.734    0.291    0.485    5.305
  397.590    0.000   70.237    0.295    0.472    5.310
  397.840    0.000   70.279    0.304    0.468    5.313
  398.090    0.000   70.267    0.311    0.468    5.317
  398.340   -0.000   69.770    0.299    0.466    5.322
  398.590   -0.000   69.248    0.293    0.478    5.326
  398.840   -0.000   70.370    0.298    0.485    5.330
  399.090    0.000   70.003    0.282    0.471    5.331
  399.340    0.000   69.072    0.284    0.473    5.311
  399.590   -0.000   70.332    0.296    0.479    5.245
  399.840   -0.000   72.462    0.279    0.487    5.309
  400.090   -0.000   71.938    0.279    0.478    5.351
  400.340    0.000   70.528    0.270    0.481    5.349
  400.590    0.000   70.209    0.256    0.490    5.471
  400.840    0.000   73.796    0.275    0.479    5.466
  401.090   -0.000   76.738    0.256    0.476    5.468
  401.340   -0.000   78.379    0.252    0.484    5.428
  401.590   -0.000   79.755    0.237    0.497    5.369
  401.840    0.000   84.931    0.226    0.508    5.064
  402.090    0.000   88.339    0.219    0.513    4.557
  402.340   -0.000   85.631    0.249    0.473    4.392
  402.590   -0.000   80.690    0.282    0.462    4.587
  402.840   -0.000   78.717    0.272    0.477    4.917
  403.090    0.000   75.686    0.247    0.492    5.485
  403.340    0.000   68.547    0.222    0.459    5.846
  403.590    0.000   66.450    0.206    0.437    6.075
  403.840   -0.000   68.563    0.236    0.440    6.184
  404.090   -0.006   69.564    0.250    0.456    6.062
  404.340   -0.020   68.147    0.261    0.463    5.948
  404.590    0.307   69.213    0.250    0.467    5.984
  404.840    3.828   69.244    0.253    0.458    5.739
  405.090    4.419   72.636    0.260    0.447    5.533
  405.340 -245.448   77.174    0.237    0.446    5.429
  405.590 2574.970   81.070    0.223    0.457    5.558
  405.840 2354.830   82.220    0.205    0.472    5.652
  406.090 2409.800   78.729    0.173    0.476    5.923
  406.340 2501.340   72.034    0.122    0.406    6.363
  406.590 2553.080   70.959    0.092    0.342    6.458
  406.840 2575.210   77.966    0.079    0.358    6.343
  407.090 2505.050   86.389    0.120    0.414    6.219
  407.340 2368.960   88.237    0.199    0.461    5.945
  407.590 2381.650   88.794    0.192    0.468    5.798
  407.840 2372.140   92.499    0.198    0.475    5.685
  408.090 2367.240   88.615    0.200    0.470    5.662
  408.340 2361.910   87.176    0.204    0.459    5.849
  408.590 2375.340   84.740    0.196    0.443    6.037
  408.840 2401.520   83.733    0.180    0.451    6.310
  409.090 2417.370   83.709    0.171    0.452    6.553
  409.340 2416.210   84.697    0.172    0.430    6.639
  409.590 2444.820   87.982    0.155    0.418    6.859
  409.840 2427.230   91.115    0.165    0.411    6.909
  410.090 2421.390   92.614    0.169    0.403    6.804
  410.340 2446.870   92.887    0.154    0.415    6.535
  410.590 2418.940   94.767    0.170    0.432    6.421
  410.840 2389.580   97.429    0.187    0.407    6.217
  411.090 2390.610   97.980    0.187    0.411    5.988
  411.340 2390.270   96.887    0.187    0.423    5.868
  411.590 2383.010   95.313    0.191    0.440    5.609
  411.840 2388.040   93.308    0.188    0.445    5.367
  412.090 2407.030   91.581    0.177    0.454    5.070
  412.340 2390.430   89.919    0.187    0.455    4.818
  412.590 2419.350   90.015    0.170    0.455    4.510
  412.840 2386.940   91.110    0.189    0.459    4.090
  413.090 2347.950   88.552    0.212    0.467    3.739
  413.340 2318.770   85.962    0.229    0.475    3.342
  413.590 2259.570   85.828    0.263    0.494    2.964
  413.840 2268.920   81.783    0.258    0.528    2.534
  414.090 2245.890   81.497    0.271    0.541    2.229
  414.340 2255.460   83.119    0.266    0.555    2.032
  414.590 2245.360   84.092    0.272    0.563    1.934
  414.840 2259.030   85.083    0.264    0.558    1.942
  415.090 2266.560   87.438    0.259    0.556    1.942
  415.340 2307.580   90.400    0.235    0.541    2.004
  415.590 2346.240   90.617    0.213    0.518    2.094
  415.840 2367.860   89.331    0.200    0.464    2.247
  416.090 2403.220   93.504    0.179    0.456    2.468
  416.340 2409.980   95.467    0.175    0.472    2.940
  416.590 2412.830   92.896    0.174    0.469    3.394
  416.840 2434.970   88.031    0.161    0.449    4.103
  417.090 2461.990   88.325    0.145    0.433    4.716
  417.340 2458.560   83.706    0.147    0.417    5.024
  417.590 2416.780   88.927    0.171    0.422    4.969
  417.840 2411.610   92.243    0.174    0.450    4.856
  418.090 2425.070   93.829    0.167    0.498    4.541
  418.340 2385.710   94.313    0.190    0.496    4.216
  418.590 2400.280   88.795    0.181    0.457    4.079
  418.840 2408.470   83.835    0.176    0.437    4.156
  419.090 2436.800   79.414    0.160    0.420    4.511
  419.340 2466.630   76.342    0.142    0.399    5.288
  419.590 2492.700   75.679    0.127    0.389    5.760
  419.840 2510.200   76.706    0.117    0.394    6.435
  420.090 2419.160   81.645    0.170    0.424    7.019
  420.340 2418.350   88.578    0.171    0.447    7.116
  420.590 2440.490   90.630    0.158    0.455    6.570
  420.840 2440.130   92.170    0.158    0.464    5.924
  421.090 2399.510   92.048    0.182    0.491    3.927
  421.340 2364.440   93.725    0.202    0.521    3.330
  421.590 2380.850   94.833    0.192    0.525    3.205
  421.840 2382.310   96.243    0.192    0.510    3.108
  422.090 2379.540   98.150    0.193    0.494    3.147
  422.340 2358.470  100.807    0.206    0.498    3.189
  422.590 2374.030  100.700    0.196    0.490    3.344
  422.840 2418.010   99.169    0.171    0.479    3.549
  423.090 2420.170   96.086    0.169    0.476    3.768
  423.340 2383.980   94.284    0.191    0.482    3.953
  423.590 2372.240   93.074    0.198    0.485    4.007
  423.840 2393.290   95.256    0.185    0.483    4.058
  424.090 2410.510   95.444    0.175    0.481    4.200
  424.340 2440.920   94.446    0.157    0.483    4.236
  424.590 2450.340   92.844    0.152    0.485    4.380
  424.840 2470.410   91.553    0.140    0.445    4.564
  425.090 2509.630   92.779    0.117    0.418    4.841
  425.340 2555.750   96.340    0.090    0.440    5.084
  425.590 2420.410   97.710    0.169    0.440    5.091
  425.840 2412.070   92.559    0.174    0.419    5.899
  426.090 2383.600   83.433    0.191    0.391    6.639
