~VERSION INFORMATION
 VERS.                 2.0:   CWLS LOG ASCII STANDARD -VERSION 2.0
 WRAP.                  NO:   ONE LINE PER DEPTH STEP
~WELL INFORMATION BLOCK
#MNEM.UNIT           DATA                    DESCRIPTION OF MNEMONIC
#---------    -------------------            -------------------------------
# Generated from Intellog Unique Number	CW_79_81/WELL/2443
WELL.         04-01-080-22W4                 : Well_name    - WELL
LOC .         00/04-01-080-22W4/0            : Location     - LOCATION
UWI .         00/04-01-080-22W4/0            : Uwi          - UNIQUE WELL ID
ENTR.         MAX                            : Entered      - ENTERED BY
SRVC.         COMPUTALOG                     : Scn          - SERVICE COMPANY
STRT.M        215                            : top_depth    - START DEPTH
STOP.M        474.75                         : bot_depth    - STOP DEPTH
STEP.M        0.25                           : increment    - STEP LENGTH
 NULL. -999.2500:NULL Value
~CURVE INFORMATION BLOCK
#MNEM UNIT       ERCB CURVE CODE    CURVE DESCRIPTION
#-----------   ------------------   ----------------------------------
DEPT.M        00 001 00 00         : DEPTH        - DEPTH
ILD .OHMM     00 120 00 00         : RESD         - DEEP RESISTIVITY (DIL)
NPHI.V/V      00 330 00 00         : PHIN         - NEUTRON POROSITY (SANDSTONE)
DPHI.V/V      00 890 00 00         : PHID         - DENSITY POROSITY (SANDSTONE)
GR  .API      00 310 00 00         : GR           - GAMMA RAY
CALI.MM       00 280 01 00         : CAL          - CALIPER
~PARAMETER INFORMATION
#MNEM.UNIT           DATA             DESCRIPTION OF MNEMONIC
#---------         -----------     ------------------------------
GL  .M        585.4                : gl           - GROUND LEVEL ELEVATION
EREF.M        590                  : kb           - ELEVATION OF DEPTH REFERENCE
DATM.M        585.4                : datum        - DATUM ELEVATION
TDD .M        477                  : tdd          - TOTAL DEPTH DRILLER
RUN .         ONE                  : Run          - RUN NUMBER
ENG .         BILL                 : Engineer     - RECORDING ENGINEER
WIT .         JIM                  : Witness      - WITNESSED BY
MUD .         GEL                  : Mud_type     - MUD TYPE
MATR.         SANDSTONE            : Logunit      - NEUTRON MATRIX
TMAX.C        30                   : BHT          - MAXIMUM RECORDED TEMPERATURE
BHTD.M        477                  : BHTDEP       - MAXIMUM RECORDED TEMPERATURE
MATR.         1                    : LOGUNIT      - NEUTRON MATRIX
RMT .C        20                   : MDTP         - TEMPERATURE OF MUD
NEUT.         1                    : NEUTRON      - NEUTRON TYPE
RESI.         0                    : RESIST       - RESISTIVITY TYPE
RMC .OHMM     8                    : RMC          - RESISTIVITY OF MUD CAKE
RMF .OHMM     10                   : RMF          - RESISTIVITY OF MUD FILTRATE
SUFT.C        -20                  : SUFT         - SURFACE TEMPERATURE
~A  DEPTH     RESD     PHIN     PHID       GR      CAL
  215.000    6.469    0.495    0.286   96.816  225.911
  215.250    6.420    0.523    0.296   96.047  226.289
  215.500    6.269    0.543    0.303   99.115  226.342
  215.750    6.019    0.572    0.305   98.376  225.910
  216.000    5.794    0.594    0.304   91.942  225.278
  216.250    5.888    0.549    0.306   82.126  225.158
  216.500    6.411    0.462    0.297   75.112  224.710
  216.750    7.046    0.421    0.311   77.492  224.677
  217.000    7.225    0.490    0.323   83.105  227.041
  217.250    7.011    0.534    0.335   85.724  231.605
  217.500    6.599    0.513    0.341   82.829  238.568
  217.750    6.131    0.488    0.324   76.209  248.105
  218.000    5.902    0.475    0.300   79.187  245.989
  218.250    5.902    0.515    0.289   80.124  241.956
  218.500    6.231    0.516    0.291   78.009  242.421
  218.750    7.358    0.496    0.306   74.274  243.190
  219.000    9.630    0.462    0.325   68.738  242.362
  219.250   11.924    0.407    0.331   58.402  240.572
  219.500   15.082    0.401    0.324   52.389  241.783
  219.750   18.947    0.413    0.336   46.374  242.955
  220.000   23.668    0.392    0.344   47.551  242.024
  220.250   26.872    0.389    0.331   51.009  240.790
  220.500   27.172    0.413    0.309   51.591  241.654
  220.750   27.131    0.420    0.315   43.194  247.364
  221.000   26.925    0.380    0.325   39.674  246.077
  221.250   26.925    0.411    0.338   41.576  243.649
  221.500   27.074    0.477    0.348   48.870  247.215
  221.750   27.374    0.524    0.352   56.883  258.376
  222.000   27.781    0.516    0.344   60.879  273.629
  222.250   28.365    0.421    0.318   55.110  280.629
  222.500   29.251    0.382    0.290   50.346  261.865
  222.750   29.903    0.350    0.295   41.934  257.036
  223.000   30.570    0.366    0.302   41.074  254.607
  223.250   31.253    0.400    0.304   43.932  253.576
  223.500   31.894    0.426    0.306   47.570  251.444
  223.750   32.467    0.417    0.324   49.145  245.455
  224.000   32.970    0.360    0.306   45.130  251.664
  224.250   32.971    0.353    0.282   51.102  248.041
  224.500   33.153    0.359    0.295   54.741  249.508
  224.750   33.398    0.368    0.319   54.123  253.271
  225.000   33.397    0.381    0.333   49.427  257.034
  225.250   32.417    0.416    0.324   43.077  257.496
  225.500   31.203    0.462    0.298   43.805  249.969
  225.750   30.296    0.468    0.315   43.069  243.538
  226.000   29.416    0.447    0.317   41.432  238.308
  226.250   28.240    0.386    0.288   44.049  234.879
  226.500   26.723    0.291    0.231   51.282  234.649
  226.750   24.670    0.202    0.155   60.790  240.141
  227.000   23.037    0.234    0.096   71.261  241.774
  227.250   19.385    0.347    0.131   88.988  239.343
  227.500   16.045    0.396    0.196   99.337  240.508
  227.750   13.360    0.418    0.235  103.993  242.673
  228.000   11.069    0.436    0.237  104.457  242.739
  228.250    8.533    0.464    0.233  100.734  236.604
  228.500    6.970    0.486    0.230   94.221  234.071
  228.750    5.910    0.510    0.245   93.961  234.441
  229.000    5.351    0.519    0.254   87.767  234.206
  229.250    4.955    0.517    0.262   84.511  234.374
  229.500    4.623    0.520    0.269   87.728  235.543
  229.750    4.361    0.552    0.272   93.715  238.398
  230.000    4.361    0.513    0.286   84.204  240.868
  230.250    4.590    0.474    0.278   80.350  238.033
  230.500    4.962    0.439    0.261   81.349  234.605
  230.750    5.420    0.427    0.253   83.366  232.376
  231.000    5.943    0.436    0.257   83.885  232.344
  231.250    6.723    0.448    0.263   80.758  234.778
  231.500    7.435    0.463    0.270   75.994  235.163
  231.750    9.085    0.463    0.285   70.698  234.736
  232.000   10.752    0.443    0.304   65.044  231.305
  232.250   12.673    0.427    0.320   62.266  228.874
  232.500   15.355    0.436    0.336   60.927  228.544
  232.750   20.707    0.481    0.362   55.358  231.171
  233.000   27.702    0.464    0.373   57.585  244.457
  233.250   35.768    0.433    0.326   59.720  242.428
  233.500   43.120    0.434    0.309   58.804  233.499
  233.750   47.140    0.445    0.309   56.149  226.070
  234.000   47.926    0.447    0.316   53.612  222.943
  234.250   49.586    0.427    0.323   53.534  221.307
  234.500   52.742    0.401    0.324   53.268  221.268
  234.750   54.710    0.407    0.318   52.770  221.641
  235.000   57.373    0.420    0.321   55.687  221.709
  235.250   59.548    0.429    0.324   59.145  221.272
  235.500   60.770    0.429    0.323   60.564  220.636
  235.750   61.388    0.418    0.325   57.809  220.603
  236.000   59.997    0.428    0.329   58.539  220.571
  236.250   57.393    0.426    0.328   55.883  220.931
  236.500   53.983    0.409    0.324   54.487  221.300
  236.750   50.328    0.403    0.316   53.987  221.471
  237.000   46.495    0.419    0.307   54.385  221.340
  237.250   41.215    0.457    0.307   56.041  220.897
  237.500   36.516    0.478    0.314   56.020  220.869
  237.750   35.717    0.498    0.320   53.603  220.026
  238.000   34.937    0.492    0.325   54.242  219.199
  238.250   34.684    0.464    0.327   55.541  218.369
  238.500   35.131    0.433    0.324   55.883  217.635
  238.750   36.185    0.427    0.314   53.522  217.198
  239.000   36.186    0.443    0.315   49.003  217.167
  239.250   35.657    0.420    0.315   50.906  217.133
  239.500   34.746    0.405    0.318   54.783  217.402
  239.750   33.992    0.394    0.325   56.320  217.970
  240.000   33.621    0.397    0.330   55.700  218.536
  240.250   33.673    0.442    0.319   56.899  218.582
  240.500   33.933    0.451    0.309   53.381  218.959
  240.750   33.934    0.443    0.315   49.762  218.926
  241.000   33.374    0.426    0.317   52.800  219.194
  241.250   32.890    0.410    0.316   59.135  219.762
  241.500   32.589    0.400    0.315   64.451  220.328
  241.750   31.659    0.406    0.312   62.822  220.371
  242.000   29.564    0.434    0.306   59.552  220.752
  242.250   27.244    0.437    0.303   57.853  220.722
  242.500   25.549    0.421    0.314   57.235  220.691
  242.750   24.642    0.414    0.320   57.337  220.658
  243.000   24.506    0.427    0.319   57.138  220.623
  243.250   25.355    0.452    0.326   54.353  220.506
  243.500   26.969    0.446    0.328   51.333  220.051
  243.750   27.368    0.428    0.319   53.717  219.225
  244.000   27.470    0.421    0.317   55.197  218.094
  244.250   27.471    0.425    0.318   54.817  217.061
  244.500   27.522    0.436    0.322   52.938  216.228
  244.750   28.057    0.451    0.327   51.284  215.305
  245.000   29.843    0.459    0.333   51.517  214.854
  245.250   31.869    0.434    0.333   49.819  214.424
  245.500   32.958    0.428    0.336   50.278  213.987
  245.750   33.327    0.439    0.338   53.974  213.753
  246.000   33.266    0.455    0.334   57.909  213.825
  246.250   32.922    0.438    0.323   54.112  214.104
  246.500   32.422    0.411    0.325   49.593  213.649
  246.750   31.948    0.407    0.329   49.097  213.219
  247.000   31.482    0.401    0.325   52.195  212.487
  247.250   31.022    0.390    0.295   57.691  211.055
  247.500   30.627    0.371    0.227   60.789  210.023
  247.750   30.309    0.347    0.127   52.692  213.150
  248.000   29.850    0.399    0.202   50.673  218.947
  248.250   29.197    0.415    0.297   58.807  220.515
  248.500   28.400    0.440    0.326   56.690  220.879
  248.750   27.887    0.448    0.333   52.472  220.846
  249.000   27.785    0.435    0.341   51.371  220.816
  249.250   27.991    0.411    0.352   55.718  220.695
  249.500   27.992    0.408    0.352   55.945  220.244
  249.750   28.199    0.409    0.341   54.009  220.210
  250.000   28.877    0.412    0.336   52.788  219.577
  250.250   29.203    0.423    0.332   52.288  219.146
  250.500   28.437    0.439    0.327   53.108  219.014
  250.750   25.349    0.445    0.319   59.093  218.321
  251.000   21.639    0.415    0.303   72.311  217.037
  251.250   17.254    0.402    0.249   83.802  217.410
