~VERSION INFORMATION
 VERS.                 2.0:   CWLS LOG ASCII STANDARD -VERSION 2.0
 WRAP.                  NO:   ONE LINE PER DEPTH STEP
~WELL INFORMATION BLOCK
#MNEM.UNIT           DATA                    DESCRIPTION OF MNEMONIC
#---------    -------------------            -------------------------------
# Generated from Intellog Unique Number	CS_73_76/WELL/2809
WELL.         ESSO WINEFRED LAKR             : Well_name    - WELL
LOC .         00/03-31-075-03W4/0            : Location     - LOCATION
UWI .         00/03-31-075-03W4/0            : Uwi          - UNIQUE WELL ID
ENTR.         TIM                            : Entered      - ENTERED BY
SRVC.         SCHLUMBERGER                   : Scn          - SERVICE COMPANY
STRT.M        250                            : top_depth    - START DEPTH
STOP.M        495                            : bot_depth    - STOP DEPTH
STEP.M        0.25                           : increment    - STEP LENGTH
 NULL. -999.2500:NULL Value
~CURVE INFORMATION BLOCK
#MNEM UNIT       ERCB CURVE CODE    CURVE DESCRIPTION
#-----------   ------------------   ----------------------------------
DEPT.M        00 001 00 00         : DEPTH        - DEPTH
ILD .OHMM     00 120 00 00         : RESD         - DEEP RESISTIVITY (DIL)
DPHI.V/V      00 890 00 00         : PHID         - DENSITY POROSITY (SANDSTONE)
NPHI.V/V      00 330 00 00         : PHIN         - NEUTRON POROSITY (SANDSTONE)
GR  .API      00 310 00 00         : GR           - GAMMA RAY
~PARAMETER INFORMATION
#MNEM.UNIT           DATA             DESCRIPTION OF MNEMONIC
#---------         -----------     ------------------------------
GL  .M        623.9                : gl           - GROUND LEVEL ELEVATION
EREF.M        627.65               : kb           - ELEVATION OF DEPTH REFERENCE
DATM.M        627.65               : datum        - DATUM ELEVATION
TDD .M        505                  : tdd          - TOTAL DEPTH DRILLER
RUN .         ONE                  : Run          - RUN NUMBER
ENG .         BILL                 : Engineer     - RECORDING ENGINEER
WIT .         JIM                  : Witness      - WITNESSED BY
MUD .         GEL                  : Mud_type     - MUD TYPE
MATR.         SANDSTONE            : Logunit      - NEUTRON MATRIX
TMAX.C        32                   : BHT          - MAXIMUM RECORDED TEMPERATURE
BHTD.M        505                  : BHTDEP       - MAXIMUM RECORDED TEMPERATURE
RMT .C        20                   : MDTP         - TEMPERATURE OF MUD
MUDD.KG/M     1160                 : MWT          - MUD DENSITY
NEUT.         1                    : NEUTRON      - NEUTRON TYPE
RESI.         0                    : RESIST       - RESISTIVITY TYPE
RM  .OHMM     1.5                  : RM           - RESISTIVITY OF MUD
RMC .OHMM     2.2                  : RMC          - RESISTIVITY OF MUD CAKE
RMF .OHMM     3.1                  : RMF          - RESISTIVITY OF MUD FILTRATE
SUFT.C        4                    : SUFT         - SURFACE TEMPERATURE
~A  DEPTH     RESD     PHID     PHIN       GR
# ...
  337.000   13.316    0.352    0.418   47.522
  337.250   13.329    0.354    0.415   48.155
  337.500   13.346    0.352    0.415   50.667
  337.750   13.363    0.351    0.418   51.309
  338.000   13.630    0.347    0.422   48.189
  338.250   13.908    0.344    0.431   45.698
  338.500   13.930    0.336    0.437   49.461
  338.750   13.948    0.326    0.444   52.599
  339.000   13.966    0.312    0.449   55.114
  339.250   13.722    0.301    0.458   57.627
  339.500   12.294    0.292    0.481   60.762
  339.750    9.674    0.278    0.512   65.151
  340.000    7.754    0.271    0.542   72.042
  340.250    6.451    0.276    0.531   78.933
  340.500    4.712    0.305    0.507   84.575
  340.750    4.547    0.311    0.483   80.833
  341.000    4.637    0.334    0.456   72.087
  341.250    5.693    0.350    0.440   63.340
  341.500    7.814    0.348    0.429   56.471
  341.750   10.332    0.347    0.427   52.105
  342.000   11.350    0.347    0.444   50.868
  342.250   11.581    0.347    0.455   50.873
  342.500   11.592    0.339    0.418   50.258
  342.750   11.614    0.250    0.380   49.643
  343.000   12.294    0.224    0.284   47.777
  343.250   13.014    0.100    0.244   43.412
  343.500   14.296    0.069    0.239   40.918
  343.750   15.137    0.121    0.290   38.427
  344.000   15.147    0.280    0.328   40.942
  344.250   14.355    0.341    0.365   42.829
  344.500   13.846    0.341    0.366   42.211
  344.750   13.355    0.342    0.367   40.345
  345.000   12.421    0.342    0.370   42.237
  345.250   11.980    0.343    0.371   42.873
  345.500   11.354    0.344    0.373   41.636
  345.750   11.152    0.345    0.376   41.646
  346.000   11.167    0.347    0.378   42.277
  346.250   10.976    0.345    0.383   44.164
  346.500   10.990    0.343    0.389   46.051
  346.750   11.217    0.339    0.394   48.563
  347.000   11.231    0.338    0.401   51.076
  347.250   11.242    0.339    0.411   54.839
  347.500   11.256    0.343    0.420   56.104
  347.750   11.271    0.345    0.427   53.609
  348.000   11.289    0.349    0.436   54.246
  348.250   11.300    0.349    0.442   56.138
  348.500   10.909    0.350    0.437   54.272
  348.750   10.920    0.351    0.431   54.282
  349.000   10.730    0.356    0.431   55.547
  349.250   10.172    0.358    0.432   56.177
  349.500    9.631    0.361    0.439   57.441
  349.750    9.286    0.356    0.450   59.328
  350.000    8.637    0.343    0.444   59.965
  350.250    8.177    0.327    0.437   59.972
  350.500    7.465    0.298    0.434   60.608
  350.750    6.939    0.283    0.443   61.870
  351.000    6.453    0.271    0.456   63.132
  351.250    6.112    0.270    0.469   63.767
  351.500    6.005    0.274    0.481   65.660
  351.750    5.796    0.275    0.491   66.296
  352.000    5.695    0.275    0.497   66.306
  352.250    5.601    0.272    0.492   66.317
  352.500    5.607    0.272    0.481   65.702
  352.750    5.612    0.273    0.470   64.462
  353.000    5.623    0.277    0.460   63.847
  353.250    5.626    0.278    0.445   63.855
  353.500    5.635    0.279    0.433   64.493
  353.750    5.643    0.281    0.423   64.501
  354.000    5.756    0.282    0.418   65.137
  354.250    5.983    0.285    0.417   65.773
  354.500    6.214    0.287    0.416   65.161
  354.750    6.582    0.288    0.418   64.543
  355.000    6.710    0.288    0.422   63.303
  355.250    7.238    0.288    0.427   62.691
  355.500    7.380    0.283    0.435   62.076
  355.750    7.964    0.280    0.440   62.091
  356.000    7.969    0.276    0.447   62.097
  356.250    8.286    0.272    0.452   62.107
  356.500    8.294    0.272    0.452   62.746
  356.750    8.304    0.272    0.448   62.759
  357.000    8.315    0.274    0.446   62.764
  357.250    8.328    0.278    0.451   62.775
  357.500    8.188    0.279    0.456   62.163
  357.750    8.194    0.281    0.451   62.170
  358.000    8.053    0.281    0.431   61.558
  358.250    8.064    0.283    0.437   61.569
  358.500    7.928    0.281    0.452   62.202
  358.750    7.936    0.280    0.438   64.097
  359.000    7.662    0.277    0.443   65.356
  359.250    7.667    0.276    0.457   66.617
  359.500    7.266    0.276    0.470   67.876
  359.750    7.139    0.278    0.483   69.763
  360.000    7.015    0.278    0.493   73.529
  360.250    6.406    0.276    0.500   76.042
  360.500    6.064    0.268    0.493   77.929
  360.750    5.432    0.262    0.487   79.190
  361.000    4.604    0.255    0.485   81.075
  361.250    4.124    0.251    0.494   87.340
  361.500    3.696    0.247    0.491   89.855
  361.750    3.500    0.245    0.487   90.494
  362.000    3.257    0.244    0.489   91.132
  362.250    3.141    0.244    0.500   91.138
  362.500    3.086    0.242    0.508   91.148
  362.750    2.978    0.242    0.519   91.161
  363.000    2.873    0.242    0.523   91.175
  363.250    2.825    0.243    0.524   91.180
  363.500    2.776    0.243    0.526   91.193
  363.750    2.778    0.247    0.527   91.204
  364.000    2.785    0.254    0.521   91.212
  364.250    2.787    0.258    0.515   91.222
  364.500    2.842    0.265    0.506   88.105
  364.750    3.011    0.271    0.475   80.610
  365.000    3.069    0.267    0.431   76.870
  365.250    3.189    0.264    0.429   75.002
  365.500    3.315    0.265    0.458   73.138
  365.750    3.443    0.271    0.504   71.898
  366.000    3.713    0.275    0.526   70.660
  366.250    4.156    0.281    0.550   71.296
  366.500    4.654    0.275    0.549   76.933
  366.750    5.017    0.256    0.537   85.701
  367.000    5.309    0.256    0.491  102.599
  367.250    6.168    0.265    0.459  101.359
  367.500    6.649    0.274    0.426   95.740
  367.750    7.306    0.282    0.410   88.870
  368.000    7.876    0.293    0.404   76.371
  368.250    8.345    0.299    0.404   63.247
  368.500    8.668    0.306    0.405   55.129
  368.750    9.007    0.307    0.405   55.139
  369.000    8.218    0.299    0.405   56.401
  369.250    7.365    0.276    0.404   58.913
  369.500    6.975    0.259    0.404   62.679
  369.750    6.856    0.263    0.400   63.943
  370.000    6.991    0.269    0.394   64.574
  370.250    7.131    0.268    0.388   64.585
  370.500    7.410    0.271    0.384   64.598
  370.750    7.560    0.279    0.381   64.606
  371.000    7.709    0.287    0.381   64.616
  371.250    7.863    0.297    0.385   64.004
  371.500    8.021    0.308    0.394   63.386
  371.750    8.034    0.319    0.408   61.520
  372.000    8.046    0.324    0.407   60.280
  372.250    8.057    0.321    0.409   59.668
  372.500    8.064    0.314    0.414   59.678
  372.750    8.077    0.311    0.417   60.314
  373.000    7.793    0.317    0.420   59.699
  373.250    7.660    0.320    0.425   59.084
  373.500    7.529    0.304    0.430   59.095
  373.750    7.264    0.288    0.439   63.484
  374.000    7.142    0.270    0.444   66.624
  374.250    6.889    0.261    0.444   66.632
  374.500    6.769    0.258    0.442   66.020
  374.750    6.653    0.258    0.439   67.907
  375.000    6.668    0.258    0.436   71.045
  375.250    6.799    0.257    0.430   72.932
  375.500    6.933    0.253    0.418   73.568
  375.750    7.341    0.248    0.410   72.953
  376.000    7.486    0.246    0.399   72.964
  376.250    7.638    0.242    0.388   72.977
  376.500    7.789    0.242    0.381   72.985
  376.750    7.799    0.242    0.376   73.621
  377.000    7.386    0.243    0.388   74.257
  377.250    6.745    0.245    0.405   76.147
  377.500    6.387    0.245    0.408   74.281
  377.750    6.049    0.242    0.421   71.164
  378.000    5.834    0.246    0.450   69.923
  378.250    5.229    0.249    0.467   69.931
  378.500    4.684    0.255    0.486   71.193
  378.750    4.195    0.260    0.522   74.959
  379.000    3.759    0.264    0.542   77.474
  379.250    3.367    0.266    0.560   78.730
  379.500    3.132    0.270    0.562   79.997
  379.750    2.967    0.273    0.557   80.007
  380.000    2.914    0.277    0.546   79.390
  380.250    2.812    0.272    0.529   76.904
