~VERSION INFORMATION
 VERS.                 2.0:   CWLS LOG ASCII STANDARD -VERSION 2.0
 WRAP.                  NO:   ONE LINE PER DEPTH STEP
~WELL INFORMATION BLOCK
#MNEM.UNIT           DATA                    DESCRIPTION OF MNEMONIC
#---------    -------------------            -------------------------------
# Generated from Intellog Unique Number	CW_82_90/WELL/288
WELL.         04-19-083-23W4                 : Well_name    - WELL
LOC .         00/04-19-083-23W4/0            : Location     - LOCATION
UWI .         00/04-19-083-23W4/0            : Uwi          - UNIQUE WELL ID
ENTR.         JAYE                           : Entered      - ENTERED BY
SRVC.         SCHLUMBERGER                   : Scn          - SERVICE COMPANY
DATE.         22 JAN 76                      : Date         - LOG DATE
STRT.M        207.264                        : top_depth    - START DEPTH
STOP.M        417.514                        : bot_depth    - STOP DEPTH
STEP.M        0.25                           : increment    - STEP LENGTH
 NULL. -999.2500:NULL Value
~CURVE INFORMATION BLOCK
#MNEM UNIT       ERCB CURVE CODE    CURVE DESCRIPTION
#-----------   ------------------   ----------------------------------
DEPT.M        00 001 00 00         : DEPTH        - DEPTH
CALI.MM       00 280 01 00         : CAL          - CALIPER
GR  .API      00 310 00 00         : GR           - GAMMA RAY
NPHI.V/V      00 330 00 00         : PHIN         - NEUTRON POROSITY (SANDSTONE)
DPHI.V/V      00 890 00 00         : PHID         - DENSITY POROSITY (SANDSTONE)
ILD .OHMM     00 120 00 00         : RESD         - DEEP RESISTIVITY (DIL)
~PARAMETER INFORMATION
#MNEM.UNIT           DATA             DESCRIPTION OF MNEMONIC
#---------         -----------     ------------------------------
GL  .M        592.531              : gl           - GROUND LEVEL ELEVATION
EREF.M        595.884              : kb           - ELEVATION OF DEPTH REFERENCE
DATM.M        592.531              : datum        - DATUM ELEVATION
TDD .M        421.234              : tdd          - TOTAL DEPTH DRILLER
ENG .         DODSWORTH            : Engineer     - RECORDING ENGINEER
WIT .         7658                 : Witness      - WITNESSED BY
BASE.         EDMONTON             : Branch       - HOME BASE OF LOGGING UNIT
MUD .         GEL CHEM             : Mud_type     - MUD TYPE
MATR.         SANDSTONE            : Logunit      - NEUTRON MATRIX
TMAX.C        26.6667              : BHT          - MAXIMUM RECORDED TEMPERATURE
BHTD.M        421.234              : BHTDEP       - MAXIMUM RECORDED TEMPERATURE
RMT .C        -17.7778             : MDTP         - TEMPERATURE OF MUD
MUDD.KG/M     9000                 : MWT          - MUD DENSITY
NEUT.         1                    : NEUTRON      - NEUTRON TYPE
RESI.         0                    : RESIST       - RESISTIVITY TYPE
RM  .OHMM     0                    : RM           - RESISTIVITY OF MUD
RMC .OHMM     0                    : RMC          - RESISTIVITY OF MUD CAKE
RMF .OHMM     64.91                : RMF          - RESISTIVITY OF MUD FILTRATE
SUFT.C        -17.7778             : SUFT         - SURFACE TEMPERATURE
~A  DEPTH      CAL       GR     PHIN     PHID     RESD
  207.264  191.821   94.386    0.570    0.429    3.072
  207.514  195.077   92.753    0.586    0.442    2.935
  207.764  200.826   90.572    0.598    0.449    2.858
  208.014  193.811   89.068    0.601    0.453    2.849
  208.264  182.342   89.395    0.590    0.461    2.846
  208.514  178.755   89.117    0.572    0.478    2.897
  208.764  194.976   87.245    0.555    0.505    2.948
  209.014  202.073   86.594    0.551    0.493    3.005
  209.264  192.470   87.475    0.563    0.482    3.037
  209.514  193.755   89.403    0.575    0.471    3.067
  209.764  200.645   90.894    0.582    0.431    3.133
  210.014  206.908   92.020    0.587    0.436    3.212
  210.264  187.763   94.189    0.581    0.426    3.305
  210.514  174.427   98.014    0.565    0.428    3.433
  210.764  172.397   99.816    0.558    0.434    3.619
  211.014  175.239   99.531    0.558    0.428    3.744
  211.264  183.476   98.332    0.559    0.412    3.882
  211.514  194.408   96.888    0.555    0.408    3.980
  211.764  198.700   96.606    0.559    0.399    4.065
  212.014  175.113   97.733    0.551    0.422    4.069
  212.264  172.960   98.617    0.540    0.415    3.990
  212.514  174.674   97.538    0.550    0.391    3.899
  212.764  178.545   97.442    0.558    0.402    3.816
  213.014  188.748   96.731    0.566    0.417    3.750
  213.264  200.095   94.614    0.557    0.412    3.787
  213.514  207.602   90.472    0.544    0.378    3.898
  213.764  204.331   71.940    0.528    0.369    4.240
  214.014  185.081   61.002    0.504    0.345    4.958
  214.264  174.026   49.941    0.335    0.305    6.151
  214.514  163.593   38.699    0.322    0.289    7.978
  214.764  160.420   37.071    0.351    0.317   15.211
  215.014  158.909   41.139    0.382    0.345   28.627
  215.264  157.497   42.509    0.412    0.379   34.806
  215.514  155.894   41.069    0.417    0.391   35.092
  215.764  155.407   40.171    0.413    0.392   33.285
  216.014  156.203   39.096    0.417    0.398   29.374
  216.264  156.111   38.934    0.432    0.410   25.490
  216.514  156.260   38.963    0.451    0.409   22.579
  216.764  157.756   39.596    0.456    0.405   21.983
  217.014  158.934   40.355    0.450    0.404   22.039
  217.264  159.292   42.098    0.441    0.411   23.707
  217.514  159.226   42.614    0.437    0.417   25.552
  217.764  159.090   42.150    0.442    0.415   25.719
  218.014  159.103   42.538    0.442    0.412   23.770
  218.264  158.732   44.279    0.437    0.405   23.012
  218.514  159.416   45.896    0.434    0.398   22.481
  218.764  159.656   45.679    0.424    0.392   22.380
  219.014  159.720   45.517    0.420    0.384   22.690
  219.264  159.730   46.767    0.426    0.383   23.263
  219.514  159.569   46.608    0.440    0.391   23.894
  219.764  159.121   44.736    0.451    0.398   24.632
  220.014  158.721   43.047    0.455    0.401   25.491
  220.264  158.558   41.783    0.454    0.411   26.327
  220.514  157.247   39.971    0.453    0.417   26.994
  220.764  155.118   38.283    0.445    0.416   27.215
  221.014  153.707   38.428    0.435    0.411   27.652
  221.264  153.137   38.516    0.434    0.413   27.987
  221.514  152.954   37.008    0.434    0.409   28.163
  221.764  153.207   34.586    0.434    0.414   28.343
  222.014  153.356   33.324    0.435    0.412   28.524
  222.264  153.733   32.615    0.435    0.410   28.810
  222.514  153.643   32.455    0.425    0.407   29.162
  222.764  153.789   32.418    0.423    0.400   29.458
  223.014  155.181   32.263    0.419    0.405   29.590
  223.264  156.570   31.980    0.421    0.407   29.730
  223.514  156.612   32.188    0.424    0.409   29.866
  223.764  155.829   32.092    0.427    0.402   29.557
  224.014  155.360   32.666    0.434    0.396   30.021
  224.264  155.080   33.489    0.432    0.397   30.053
  224.514  154.915   34.981    0.415    0.397   30.073
  224.764  155.063   35.742    0.416    0.397   30.105
  225.014  155.829   35.583    0.426    0.399   29.908
  225.264  158.049   35.791    0.440    0.403   29.821
  225.514  155.291   36.796    0.448    0.402   29.569
  225.764  153.989   37.925    0.453    0.400   29.544
  226.014  153.095   37.278    0.446    0.389   29.407
  226.264  153.451   36.872    0.443    0.391   29.154
  226.514  154.855   36.840    0.439    0.387   29.019
  226.764  157.477   37.044    0.431    0.399   29.100
  227.014  155.236   37.561    0.424    0.396   29.174
  227.264  153.418   38.502    0.423    0.403   29.416
  227.514  152.830   38.774    0.425    0.405   29.772
  227.764  153.298   38.919    0.432    0.405   30.076
  228.014  154.486   39.373    0.422    0.404   30.218
  228.264  156.794   39.644    0.414    0.402   30.411
  228.514  154.667   39.974    0.415    0.399   30.432
  228.764  153.872   40.552    0.417    0.388   30.463
  229.014  154.536   41.190    0.423    0.382   30.436
  229.264  156.467   42.990    0.434    0.379   30.455
  229.514  156.696   45.343    0.449    0.364   30.150
  229.764  158.292   49.592    0.464    0.364   30.115
  230.014  158.039   51.089    0.476    0.383   30.033
  230.264  157.758   45.357    0.472    0.374   29.942
  230.514  157.610   39.685    0.464    0.366   29.914
  230.764  157.740   35.301    0.449    0.376   29.827
  231.014  158.503   34.896    0.434    0.402   29.579
  231.264  158.753   35.230    0.426    0.412   29.390
  231.514  157.657   35.498    0.433    0.410   29.390
  231.764  156.245   35.890    0.432    0.415   29.390
  232.014  155.461   36.834    0.434    0.417   29.146
  232.264  156.861   37.780    0.437    0.413   29.271
  232.514  157.411   39.211    0.440    0.410   29.514
  232.764  158.281   42.668    0.444    0.403   29.816
  233.014  158.335   44.225    0.447    0.392   30.174
  233.264  158.369   44.002    0.444    0.384   30.174
  233.514  157.811   44.889    0.439    0.374   30.174
  233.764  157.624   46.320    0.440    0.363   30.826
  234.014  157.145   48.917    0.437    0.354   31.132
  234.264  156.672   52.248    0.440    0.350   31.273
  234.514  157.242   58.948    0.444    0.353   31.530
  234.764  158.629   65.220    0.437    0.358   31.729
  235.014  159.908   69.594    0.430    0.348   32.178
  235.264  159.027   69.619    0.428    0.313   32.262
  235.514  158.853   68.606    0.429    0.286   32.110
  235.764  158.796   70.222    0.437    0.290   32.262
  236.014  158.536   69.694    0.457    0.304   32.105
  236.264  158.875   71.984    0.470    0.306   32.310
  236.514  159.746   70.478    0.478    0.315   32.579
  236.764  160.726   63.092    0.481    0.331   32.366
  237.014  161.318   53.441    0.464    0.349   32.094
  237.264  161.118   45.812    0.435    0.361   31.419
  237.514  161.056   45.532    0.423    0.368   30.810
  237.764  159.752   46.718    0.422    0.369   30.101
  238.014  159.302   49.317    0.425    0.375   29.255
  238.264  159.835   50.687    0.433    0.387   28.581
  238.514  160.915   54.024    0.443    0.408   27.616
  238.764  161.890   56.678    0.456    0.414   26.931
  239.014  161.934   59.769    0.450    0.411   26.117
  239.264  161.048   58.444    0.453    0.409   25.423
  239.514  160.774   56.325    0.456    0.408   24.611
  239.764  159.692   56.534    0.459    0.398   23.521
  240.014  159.522   59.253    0.464    0.389   22.935
  240.264  159.552   65.958    0.468    0.374   21.754
  240.514  160.322   69.103    0.473    0.354   19.995
  240.764  161.400   72.621    0.484    0.367   18.141
  241.014  161.858   75.832    0.494    0.382   15.255
  241.264  163.148   87.247    0.510    0.366   12.047
  241.514  165.260   91.987    0.529    0.375    9.744
  241.764  169.248   93.058    0.543    0.387    7.279
  242.014  168.558   94.609    0.552    0.371    5.986
  242.264  167.151   95.552    0.553    0.371    5.128
  242.514  167.511   84.858    0.543    0.366    4.636
  242.764  165.892   77.534    0.520    0.352    4.406
  243.014  163.542   70.209    0.483    0.343    4.344
  243.264  159.956   64.356    0.454    0.334    4.372
  243.514  156.585   59.358    0.439    0.325    4.558
