~VERSION INFORMATION
 VERS.                 2.0:   CWLS LOG ASCII STANDARD -VERSION 2.0
 WRAP.                  NO:   ONE LINE PER DEPTH STEP
~WELL INFORMATION BLOCK
#MNEM.UNIT           DATA                    DESCRIPTION OF MNEMONIC
#---------    -------------------            -------------------------------
# Generated from Intellog Unique Number	CW_73_75/WELL/416
WELL.         ULSTER MARTEN HILLS 03-09      : Well_name    - WELL
LOC .         00/03-09-075-23W4/0            : Location     - LOCATION
UWI .         00/03-09-075-23W4/0            : Uwi          - UNIQUE WELL ID
ENTR.         JAYE                           : Entered      - ENTERED BY
SRVC.         WESTERN ATLAS                  : Scn          - SERVICE COMPANY
DATE.         22 MAR 88                      : Date         - LOG DATE
STRT.M        400                            : top_depth    - START DEPTH
STOP.M        600                            : bot_depth    - STOP DEPTH
STEP.M        0.25                           : increment    - STEP LENGTH
 NULL. -999.2500:NULL Value
~CURVE INFORMATION BLOCK
#MNEM UNIT       ERCB CURVE CODE    CURVE DESCRIPTION
#-----------   ------------------   ----------------------------------
DEPT.M        00 001 00 00         : DEPTH        - DEPTH
ILD .OHMM     00 120 00 00         : RESD         - DEEP RESISTIVITY (DIL)
NPHI.V/V      00 330 00 00         : PHIN         - NEUTRON POROSITY (SANDSTONE)
DPHI.V/V      00 890 00 00         : PHID         - DENSITY POROSITY (SANDSTONE)
GR  .API      00 310 00 00         : GR           - GAMMA RAY
CALI.MM       00 280 01 00         : CAL          - CALIPER
~PARAMETER INFORMATION
#MNEM.UNIT           DATA             DESCRIPTION OF MNEMONIC
#---------         -----------     ------------------------------
GL  .M        686.6                : gl           - GROUND LEVEL ELEVATION
EREF.M        689.9                : kb           - ELEVATION OF DEPTH REFERENCE
DATM.M        686.6                : datum        - DATUM ELEVATION
TDD .M        609                  : tdd          - TOTAL DEPTH DRILLER
RUN .         ONE                  : Run          - RUN NUMBER
ENG .         SELINGER             : Engineer     - RECORDING ENGINEER
WIT .         OLIVER               : Witness      - WITNESSED BY
BASE.         RDD                  : Branch       - HOME BASE OF LOGGING UNIT
MUD .         GEL CHEM             : Mud_type     - MUD TYPE
MATR.         SANDSTONE            : Logunit      - NEUTRON MATRIX
TMAX.C        27                   : BHT          - MAXIMUM RECORDED TEMPERATURE
BHTD.M        602.6                : BHTDEP       - MAXIMUM RECORDED TEMPERATURE
RMT .C        18                   : MDTP         - TEMPERATURE OF MUD
MUDD.KG/M     1110                 : MWT          - MUD DENSITY
NEUT.         1                    : NEUTRON      - NEUTRON TYPE
RESI.         0                    : RESIST       - RESISTIVITY TYPE
RM  .OHMM     3.18                 : RM           - RESISTIVITY OF MUD
RMC .OHMM     3.98                 : RMC          - RESISTIVITY OF MUD CAKE
RMF .OHMM     3.65                 : RMF          - RESISTIVITY OF MUD FILTRATE
SUFT.C        0                    : SUFT         - SURFACE TEMPERATURE
~A  DEPTH     RESD     PHIN     PHID       GR      CAL
# ...
  509.500    6.156    0.318    0.169   63.779  201.996
  509.750    6.129    0.384    0.232   70.994  203.262
  510.000    6.012    0.412    0.241   76.856  204.117
  510.250    5.726    0.441    0.231   78.047  204.771
  510.500    5.504    0.448    0.232   79.791  204.901
  510.750    5.449    0.440    0.243   80.489  204.740
  511.000    5.674    0.435    0.249   76.022  204.359
  511.250    6.051    0.443    0.245   71.371  203.786
  511.500    6.812    0.449    0.204   65.735  202.903
  511.750    7.739    0.284    0.134   60.716  202.423
  512.000    8.614    0.214    0.047   58.587  203.074
  512.250    9.499    0.213    0.064   54.982  204.441
  512.500   10.001    0.281    0.124   52.050  207.448
  512.750   10.015    0.364    0.403   51.212  213.019
  513.000    9.808    0.510    0.371   56.090  262.753
  513.250    9.514    0.447    0.314   60.600  229.792
  513.500    8.813    0.355    0.206   60.746  207.182
  513.750    8.743    0.297    0.166   63.657  202.718
  514.000    8.984    0.305    0.135   73.208  201.825
  514.250    9.199    0.361    0.172   72.740  201.762
  514.500    9.262    0.399    0.210   64.340  201.794
  514.750    9.222    0.468    0.233   56.797  201.837
  515.000    8.998    0.446    0.176   60.200  201.970
  515.250    8.474    0.385    0.146   72.334  202.323
  515.500    7.605    0.373    0.150   80.535  202.768
  515.750    7.110    0.372    0.181   77.666  203.009
  516.000    6.859    0.380    0.202   77.195  203.252
  516.250    6.805    0.357    0.193   81.093  203.183
  516.500    6.738    0.346    0.173   80.129  203.217
  516.750    6.610    0.341    0.170   80.334  203.248
  517.000    6.449    0.350    0.171   84.785  203.390
  517.250    6.187    0.408    0.176   86.895  203.224
  517.500    6.003    0.432    0.187   85.934  203.058
  517.750    5.878    0.408    0.205   88.599  202.677
  518.000    5.788    0.383    0.203   91.326  202.413
  518.250    5.638    0.415    0.195   89.383  202.031
  518.500    5.530    0.424    0.201   97.150  201.866
  518.750    5.415    0.393    0.203  100.738  201.707
  519.000    5.264    0.376    0.196   99.591  201.730
  519.250    5.183    0.399    0.193   97.891  201.463
  519.500    5.123    0.445    0.192   96.622  201.502
  519.750    5.130    0.486    0.185  101.255  201.639
  520.000    5.184    0.494    0.186  101.153  201.569
  520.250    5.259    0.453    0.180  100.253  201.606
  520.500    5.335    0.435    0.173  101.074  202.158
  520.750    5.411    0.430    0.174  100.667  203.319
  521.000    5.520    0.408    0.179   95.339  205.102
  521.250    5.610    0.428    0.179   97.020  206.361
  521.500    5.660    0.440    0.177   94.215  207.730
  521.750    5.668    0.430    0.177   89.686  208.077
  522.000    5.706    0.444    0.178   90.878  207.297
  522.250    5.692    0.461    0.179   93.972  206.917
  522.500    5.647    0.490    0.176   95.286  206.645
  522.750    5.583    0.505    0.180   94.815  206.175
  523.000    5.620    0.458    0.204   96.068  204.979
  523.250    5.895    0.449    0.212   87.542  203.483
  523.500    6.347    0.443    0.210   80.678  202.486
  523.750    6.582    0.428    0.197   76.333  201.504
  524.000    6.727    0.422    0.170   70.022  201.033
  524.250    6.761    0.374    0.152   72.627  200.956
  524.500    6.783    0.317    0.140   76.646  200.685
  524.750    6.729    0.337    0.171   79.926  200.620
  525.000    6.589    0.404    0.200   84.191  200.768
  525.250    6.358    0.424    0.208   89.932  200.804
  525.500    6.191    0.429    0.197   94.070  200.834
  525.750    6.098    0.433    0.192   98.150  200.765
  526.000    6.048    0.437    0.192   92.087  200.911
  526.250    5.988    0.445    0.204   88.664  201.148
  526.500    5.920    0.450    0.223   94.834  201.287
  526.750    5.916    0.380    0.217   94.180  201.326
  527.000    5.957    0.383    0.203   91.127  201.460
  527.250    6.009    0.404    0.197   88.935  201.599
  527.500    6.028    0.425    0.188   87.424  201.737
  527.750    6.036    0.438    0.176   84.860  202.396
  528.000    6.090    0.459    0.168   81.561  202.736
  528.250    6.108    0.446    0.178   84.413  203.386
  528.500    6.116    0.434    0.196   89.721  203.939
  528.750    6.101    0.458    0.196   93.127  204.483
  529.000    6.064    0.473    0.188   93.702  204.828
  529.250    6.073    0.465    0.192   92.553  205.275
  529.500    6.059    0.404    0.201   89.746  205.520
  529.750    6.088    0.370    0.202   90.629  205.752
  530.000    6.130    0.388    0.193   94.648  205.690
  530.250    6.172    0.402    0.197   88.644  205.108
  530.500    6.192    0.397    0.197   86.393  204.427
  530.750    6.212    0.449    0.191   89.242  203.747
  531.000    6.266    0.460    0.176   90.001  202.665
  531.250    6.309    0.394    0.169   96.293  202.493
  531.500    6.329    0.349    0.184  105.109  202.323
  531.750    6.374    0.366    0.196  103.409  202.153
  532.000    6.383    0.391    0.169   96.607  203.213
  532.250    6.391    0.405    0.152   91.339  204.478
  532.500    6.388    0.406    0.173   88.963  205.538
  532.750    6.371    0.400    0.183   89.416  206.501
  533.000    6.297    0.409    0.186   91.896  205.305
  533.250    6.200    0.449    0.192   95.609  203.496
  533.500    6.142    0.481    0.202  100.734  203.735
  533.750    6.138    0.463    0.192  104.996  205.619
  534.000    6.156    0.428    0.189  102.067  207.602
  534.250    6.210    0.412    0.190   98.954  209.073
  534.500    6.242    0.428    0.193   95.040  209.108
  534.750    6.285    0.452    0.192   87.746  207.606
  535.000    6.352    0.453    0.183   77.315  205.391
  535.250    6.528    0.438    0.166   89.572  204.195
  535.500    7.226    0.473    0.189   96.665  202.800
  535.750    8.378    0.422    0.177   88.694  201.709
  536.000    9.916    0.287    0.067   80.045  200.932
  536.250   12.177    0.228    0.028   62.052  200.556
  536.500   16.751    0.202    0.015   54.327  200.286
  536.750   20.613    0.214    0.004   50.291  199.909
  537.000   19.198    0.272    0.025   61.872  199.634
  537.250   16.508    0.321    0.111   71.547  199.471
  537.500   14.517    0.366    0.187   69.048  199.295
  537.750   13.295    0.439    0.223   67.472  199.031
  538.000   12.201    0.447    0.238   69.214  199.063
  538.250   11.576    0.427    0.206   73.296  199.001
  538.500   11.147    0.440    0.196   74.361  199.042
  538.750   10.735    0.418    0.203   76.969  199.080
  539.000   10.357    0.356    0.172   79.633  199.216
  539.250    9.955    0.334    0.144   82.973  199.142
  539.500    9.254    0.355    0.134   87.790  199.485
  539.750    8.461    0.387    0.149   93.530  200.032
  540.000    7.896    0.420    0.171   96.012  200.683
  540.250    7.717    0.444    0.183   91.975  201.033
  540.500    8.416    0.315    0.133   81.176  201.176
  540.750    9.813    0.281    0.068   70.316  201.004
  541.000   10.389    0.244    0.052   66.033  201.036
  541.250   10.116    0.277    0.102   72.388  201.071
  541.500    9.670    0.326    0.167   87.105  201.107
  541.750    9.157    0.367    0.186   93.028  201.245
  542.000    8.771    0.432    0.175   86.963  201.495
  542.250    8.606    0.401    0.131   80.778  201.529
  542.500    8.600    0.353    0.105   75.325  201.560
  542.750    8.579    0.334    0.118   76.885  201.495
  543.000    8.512    0.379    0.142   81.333  201.534
  543.250    8.365    0.390    0.148   82.645  201.678
  543.500    8.314    0.369    0.152   80.762  202.017
  543.750    8.372    0.355    0.148   79.369  202.160
  544.000    8.539    0.340    0.139   81.543  202.087
  544.250    8.503    0.356    0.136   84.517  202.023
  544.500    8.204    0.399    0.147   85.155  202.066
  544.750    7.900    0.393    0.174   87.451  202.095
  545.000    7.650    0.387    0.179   91.592  202.238
  545.250    7.507    0.392    0.161   92.046  202.786
  545.500    7.420    0.381    0.155   93.171  203.129
  545.750    7.319    0.423    0.157   95.468  203.473
