~VERSION INFORMATION
 VERS.                 2.0:   CWLS LOG ASCII STANDARD -VERSION 2.0
 WRAP.                  NO:   ONE LINE PER DEPTH STEP
~WELL INFORMATION BLOCK
#MNEM.UNIT           DATA                    DESCRIPTION OF MNEMONIC
#---------    -------------------            -------------------------------
# Generated from Intellog Unique Number	CS_77_79/WELL/874
WELL.         ICGR LOCHIEL CHARD             : Well_name    - WELL
LOC .         00/06-12-079-06W4/0            : Location     - LOCATION
UWI .         00/06-12-079-06W4/0            : Uwi          - UNIQUE WELL ID
ENTR.         JHS                            : Entered      - ENTERED BY
SRVC.         SCHLUMBERGER                   : Scn          - SERVICE COMPANY
STRT.M        125                            : top_depth    - START DEPTH
STOP.M        305                            : bot_depth    - STOP DEPTH
STEP.M        0.25                           : increment    - STEP LENGTH
 NULL. -999.2500:NULL Value
~CURVE INFORMATION BLOCK
#MNEM UNIT       ERCB CURVE CODE    CURVE DESCRIPTION
#-----------   ------------------   ----------------------------------
DEPT.M        00 001 00 00         : DEPTH        - DEPTH
DPHI.V/V      00 890 00 00         : PHID         - DENSITY POROSITY (LIMESTONE)
NPHI.V/V      00 330 00 00         : PHIN         - NEUTRON POROSITY (LIMESTONE)
GR  .API      00 310 00 00         : GR           - GAMMA RAY
ILD .OHMM     00 120 00 00         : RESD         - DEEP RESISTIVITY (DIL)
RHOB.KG/M3    00 350 00 00         : DENS         - BULK DENSITY
~PARAMETER INFORMATION
#MNEM.UNIT           DATA             DESCRIPTION OF MNEMONIC
#---------         -----------     ------------------------------
GL  .M        475.8                : gl           - GROUND LEVEL ELEVATION
EREF.M        479.3                : kb           - ELEVATION OF DEPTH REFERENCE
DATM.M        479.3                : datum        - DATUM ELEVATION
TDD .M        313                  : tdd          - TOTAL DEPTH DRILLER
RUN .         ONE                  : Run          - RUN NUMBER
ENG .         BILL                 : Engineer     - RECORDING ENGINEER
WIT .         JIM                  : Witness      - WITNESSED BY
MUD .         GEL                  : Mud_type     - MUD TYPE
MATR.         LIMESTONE            : Logunit      - NEUTRON MATRIX
TMAX.C        20                   : BHT          - MAXIMUM RECORDED TEMPERATURE
BHTD.M        313                  : BHTDEP       - MAXIMUM RECORDED TEMPERATURE
MATR.         1                    : LOGUNIT      - NEUTRON MATRIX
RMT .C        25                   : MDTP         - TEMPERATURE OF MUD
NEUT.         1                    : NEUTRON      - NEUTRON TYPE
RESI.         0                    : RESIST       - RESISTIVITY TYPE
RMC .OHMM     0.25                 : RMC          - RESISTIVITY OF MUD CAKE
RMF .OHMM     0.25                 : RMF          - RESISTIVITY OF MUD FILTRATE
SUFT.C        15                   : SUFT         - SURFACE TEMPERATURE
~A  DEPTH     PHID     PHIN       GR     RESD     DENS
  125.000    0.340    0.473   61.217   17.672    0.000
  125.250    0.345    0.469   62.480   17.672    0.000
  125.500    0.354    0.454   72.312   17.022    0.000
  125.750    0.356    0.449   74.181   17.022    0.000
  126.000    0.345    0.441   68.103   17.023    0.000
  126.250    0.343    0.420   63.238   17.346    0.000
  126.500    0.340    0.426   60.218   17.346    0.000
  126.750    0.335    0.444   60.253   17.675    0.000
  127.000    0.339    0.459   63.356   17.676    0.000
  127.250    0.337    0.470   60.947   18.011    0.000
  127.500    0.335    0.467   59.758   17.677    0.000
  127.750    0.337    0.439   62.855   17.677    0.000
  128.000    0.332    0.428   63.503   18.012    0.000
  128.250    0.294    0.452   62.314   18.354    0.000
  128.500    0.273    0.457   61.139   18.703    0.000
  128.750    0.276    0.450   61.167   18.703    0.000
  129.000    0.318    0.432   59.367   19.058    0.000
  129.250    0.345    0.427   55.739   19.420    0.000
  129.500    0.351    0.433   56.379   19.788    0.000
  129.750    0.354    0.436   58.868   19.789    0.000
  130.000    0.352    0.433   60.740   19.789    0.000
  130.250    0.341    0.442   59.551   19.790    0.000
  130.500    0.340    0.445   53.472   19.790    0.000
  130.750    0.352    0.427   57.798   19.791    0.000
  131.000    0.356    0.428   59.053   19.791    0.000
  131.250    0.357    0.434   57.865   19.792    0.000
  131.500    0.352    0.435   59.128   19.792    0.000
  131.750    0.348    0.438   58.562   19.425    0.000
  132.000    0.352    0.422   58.593   19.425    0.000
  132.250    0.355    0.423   61.689   19.426    0.000
  132.500    0.350    0.439   61.117   19.065    0.000
  132.750    0.343    0.459   58.706   19.065    0.000
  133.000    0.336    0.434   58.126   19.066    0.000
  133.250    0.333    0.411   58.776   19.067    0.000
  133.500    0.337    0.402   57.590   18.712    0.000
  133.750    0.338    0.400   55.799   18.713    0.000
  134.000    0.351    0.420   55.215   18.713    0.000
  134.250    0.374    0.480   58.323   18.714    0.000
  134.500    0.349    0.462   60.807   18.714    0.000
  134.750    0.339    0.443   60.235   18.025    0.000
  135.000    0.339    0.434   59.044   17.361    0.000
  135.250    0.342    0.434   58.468   16.722    0.000
  135.500    0.347    0.429   57.902   16.723    0.000
  135.750    0.345    0.425   57.929   17.040    0.000
  136.000    0.337    0.436   56.743   17.040    0.000
  136.250    0.262    0.398   54.331   17.041    0.000
  136.500    0.155    0.321   49.472   17.364    0.000
  136.750    0.145    0.323   57.463   17.365    0.000
  137.000    0.298    0.407   61.185   17.365    0.000
  137.250    0.326    0.441   59.997   17.043    0.000
  137.500    0.358    0.462   60.639   16.110    0.000
  137.750    0.345    0.455   62.519   14.667    0.000
  138.000    0.338    0.471   64.999   12.387    0.000
  138.250    0.335    0.456   69.317    8.672    0.000
  138.500    0.330    0.443   79.768    6.794    0.000
  138.750    0.309    0.450   85.921    6.303    0.000
  139.000    0.291    0.481   93.303    5.958    0.000
  139.250    0.286    0.462   98.851    5.739    0.000
  139.500    0.301    0.476   92.768    5.739    0.000
  139.750    0.321    0.467   77.500    5.958    0.000
  140.000    0.315    0.487   87.338    6.186    0.000
  140.250    0.304    0.540   95.330    6.795    0.000
  140.500    0.313    0.496   89.250    7.325    0.000
  140.750    0.312    0.448   82.560    7.897    0.000
  141.000    0.305    0.427   86.262    8.047    0.000
  141.250    0.293    0.423   91.816    8.047    0.000
  141.500    0.283    0.447   94.290    7.898    0.000
  141.750    0.280    0.474   93.718    7.898    0.000
  142.000    0.278    0.474   91.930    7.607    0.000
  142.250    0.275    0.452   91.954    7.607    0.000
  142.500    0.283    0.448   95.677    7.327    0.000
  142.750    0.289    0.464   98.148    7.057    0.000
  143.000    0.270    0.442  100.024    6.797    0.000
  143.250    0.255    0.460   98.233    6.547    0.000
  143.500    0.241    0.473   95.203    6.306    0.000
  143.750    0.234    0.467   99.527    5.961    0.000
  144.000    0.255    0.457  103.852    5.635    0.000
  144.250    0.273    0.445  105.726    5.427    0.000
  144.500    0.255    0.463  108.819    5.227    0.000
  144.750    0.241    0.495  114.369    5.035    0.000
  145.000    0.224    0.486  117.469    4.759    0.000
  145.250    0.217    0.501  117.505    4.584    0.000
  145.500    0.212    0.511  116.322    4.415    0.000
  145.750    0.231    0.491  113.906    4.096    0.000
  146.000    0.258    0.502  110.269    3.945    0.000
  146.250    0.250    0.528  105.412    3.592    0.000
  146.500    0.250    0.541  104.840    3.395    0.000
  146.750    0.264    0.520  108.548    3.209    0.000
  147.000    0.254    0.506  112.265    3.150    0.000
  147.250    0.246    0.506  113.514    3.270    0.000
  147.500    0.243    0.528  109.271    3.332    0.000
  147.750    0.241    0.528  104.411    3.526    0.000
  148.000    0.245    0.512  105.056    3.946    0.000
  148.250    0.258    0.523  106.317    4.585    0.000
  148.500    0.259    0.540  102.683    5.229    0.000
  148.750    0.266    0.526   98.442    5.744    0.000
  149.000    0.290    0.517  102.148    6.310    0.000
  149.250    0.283    0.514  104.018    6.192    0.000
  149.500    0.280    0.496   98.549    5.745    0.000
  149.750    0.269    0.486  102.873    4.944    0.000
  150.000    0.246    0.499  109.644    4.098    0.000
  150.250    0.235    0.524  112.140    3.461    0.000
  150.500    0.257    0.574  112.176    3.271    0.000
  150.750    0.263    0.564  110.366    3.334    0.000
  151.000    0.254    0.538  106.734    3.461    0.000
  151.250    0.258    0.548  103.718    3.527    0.000
  151.500    0.263    0.555  103.747    3.662    0.000
  151.750    0.257    0.561  106.228    3.731    0.000
  152.000    0.255    0.558  112.392    3.731    0.000
  152.250    0.245    0.512  114.881    3.732    0.000
  152.500    0.250    0.538  108.799    3.594    0.000
  152.750    0.270    0.565  104.550    3.397    0.000
  153.000    0.290    0.550  108.260    3.334    0.000
  153.250    0.298    0.557  113.808    3.398    0.000
  153.500    0.285    0.565  115.681    3.663    0.000
  153.750    0.276    0.539  107.756    4.764    0.000
  154.000    0.299    0.519   85.754    6.195    0.000
  154.250    0.312    0.501   77.831    7.475    0.000
  154.500    0.312    0.483   77.265    8.686    0.000
  154.750    0.303    0.481   79.750    9.364    0.000
  155.000    0.293    0.484   81.629    9.542    0.000
  155.250    0.291    0.480   81.659    9.542    0.000
  155.500    0.297    0.488   81.697    9.365    0.000
  155.750    0.312    0.503   84.179    9.191    0.000
  156.000    0.319    0.489   82.383    8.688    0.000
  156.250    0.300    0.466   79.362    8.368    0.000
  156.500    0.275    0.494   80.016    7.910    0.000
  156.750    0.266    0.516   88.008    7.477    0.000
  157.000    0.267    0.472   93.547    7.202    0.000
  157.250    0.267    0.451   94.810    7.068    0.000
  157.500    0.250    0.447   87.508    6.937    0.000
  157.750    0.236    0.490   85.092    6.937    0.000
  158.000    0.239    0.502   84.516    6.937    0.000
  158.250    0.255    0.501   89.455    7.069    0.000
  158.500    0.270    0.483   89.489    7.203    0.000
  158.750    0.275    0.460   85.246    7.339    0.000
  159.000    0.265    0.459   86.504    7.340    0.000
  159.250    0.270    0.480   90.222    7.203    0.000
  159.500    0.319    0.477   92.097    7.069    0.000
  159.750    0.260    0.466   92.128    6.938    0.000
  160.000    0.239    0.468   90.936    6.938    0.000
  160.250    0.243    0.488   89.136    6.939    0.000
  160.500    0.256    0.483   89.787    7.204    0.000
  160.750    0.272    0.477   91.058    7.622    0.000
  161.000    0.283    0.474   89.251    8.063    0.000
  161.250    0.268    0.492   86.847    8.857    0.000
