~VERSION INFORMATION
 VERS.                 2.0:   CWLS LOG ASCII STANDARD -VERSION 2.0
 WRAP.                  NO:   ONE LINE PER DEPTH STEP
~WELL INFORMATION BLOCK
#MNEM.UNIT           DATA                    DESCRIPTION OF MNEMONIC
#---------    -------------------            -------------------------------
# Generated from Intellog Unique Number	CW_70_72/WELL/3008
NULL.         -999.25                        : NULL_VALUE
WELL.         CHIEFCO ET AL RANCH 06-18      : Well_name    - WELL              
LOC .         06-18-070-26W4                 : Location     - LOCATION          
UWI .         00/06-18-070-26W4/0            : Uwi          - UNIQUE WELL ID    
ENTR.         J                              : Entered      - ENTERED BY        
SRVC.         SCHLUMBERGER                   : Scn          - SERVICE COMPANY   
DATE.         9 AUG 76                       : Date         - LOG DATE          
STRT.M        454.152                        : top_depth    - START DEPTH       
STOP.M        710.152                        : bot_depth    - STOP DEPTH        
STEP.M        0.25                           : increment    - STEP LENGTH       
~CURVE INFORMATION BLOCK
#MNEM UNIT       ERCB CURVE CODE    CURVE DESCRIPTION
#-----------   ------------------   ----------------------------------
DEPT.M        00 001 00 00         : DEPTH        - DEPTH                       
ILD .OHMM     00 120 00 00         : RESD         - DEEP RESISTIVITY (DIL)      
CALI.MM       00 280 01 00         : CAL          - CALIPER                     
GR  .API      00 310 00 00         : GR           - GAMMA RAY                   
NPHI.V/V      00 330 00 00         : PHIN         - NEUTRON POROSITY (SANDSTONE)
DPHI.V/V      00 890 00 00         : PHID         - DENSITY POROSITY (SANDSTONE)
~PARAMETER INFORMATION       
#MNEM.UNIT           DATA             DESCRIPTION OF MNEMONIC
#---------         -----------     ------------------------------
GL  .M        623.316              : gl           - GROUND LEVEL ELEVATION      
EREF.M        626.059              : kb           - ELEVATION OF DEPTH REFERENCE
DATM.M        623.316              : datum        - DATUM ELEVATION             
TDD .M        723.9                : tdd          - TOTAL DEPTH DRILLER         
RUN .         ONE                  : Run          - RUN NUMBER                  
ENG .         MUNRO/SEDGWICK       : Engineer     - RECORDING ENGINEER          
BASE.         EDM                  : Branch       - HOME BASE OF LOGGING UNIT   
MUD .         GEL                  : Mud_type     - MUD TYPE                    
MATR.         SANDSTONE            : Logunit      - NEUTRON MATRIX              
TMAX.C        28.3333              : BHT          - MAXIMUM RECORDED TEMPERATURE
BHTD.M        722.681              : BHTDEP       - MAXIMUM RECORDED TEMPERATURE
RMT .C        22.2222              : MDTP         - TEMPERATURE OF MUD          
MUDD.KG/M     1116                 : MWT          - MUD DENSITY                 
NEUT.         1                    : NEUTRON      - NEUTRON TYPE                
RESI.         0                    : RESIST       - RESISTIVITY TYPE            
RM  .OHMM     3.29                 : RM           - RESISTIVITY OF MUD          
RMC .OHMM     2.5                  : RMC          - RESISTIVITY OF MUD CAKE     
RMF .OHMM     3.04                 : RMF          - RESISTIVITY OF MUD FILTRATE 
SUFT.C        -17.7778             : SUFT         - SURFACE TEMPERATURE         
~A  DEPTH     RESD      CAL       GR     PHIN     PHID
# ...
  673.152    7.399  152.980   92.516    0.367    0.114
  673.402    7.822  150.145   82.023    0.326    0.084
  673.652    8.104  147.527   80.592    0.295    0.056
  673.902    7.319  147.048   78.258    0.320    0.057
  674.152    6.562  148.212   78.519    0.289    0.095
  674.402    5.642  150.086   96.973    0.248    0.090
  674.652    5.275  152.377  112.586    0.311    0.089
  674.902    4.915  154.964  120.886    0.371    0.081
  675.152    4.768  157.870  123.506    0.415    0.155
  675.402    5.336  159.135  111.924    0.432    0.149
  675.652    6.320  159.270  101.791    0.436    0.129
  675.902    7.283  159.407   92.266    0.414    0.123
  676.152    8.119  159.438   85.817    0.392    0.110
  676.402    9.601  157.121   76.290    0.384    0.245
  676.652   10.452  148.765   66.340    0.375    0.286
  676.902   11.092  142.156   62.130    0.359    0.275
  677.152   10.527  140.039   60.699    0.369    0.270
  677.402    9.334  139.153   62.474    0.367    0.261
  677.652    8.009  138.373   67.029    0.339    0.248
  677.902    7.272  138.195   70.919    0.316    0.233
  678.152    6.726  138.642   74.988    0.306    0.212
  678.402    5.977  140.930   78.996    0.315    0.201
  678.652    5.598  144.543   83.851    0.329    0.190
  678.902    5.112  151.849   88.526    0.332    0.211
  679.152    4.860  156.076   95.438    0.321    0.188
  679.402    4.706  153.458   98.477    0.318    0.170
  679.652    4.523  148.886   86.170    0.329    0.165
  679.902    4.519  143.698   70.781    0.342    0.200
  680.152    4.691  139.955   60.769    0.334    0.248
  680.402    5.024  138.148   62.301    0.324    0.206
  680.652    5.489  137.662   61.777    0.323    0.163
  680.902    5.911  137.192   63.552    0.336    0.161
  681.152    5.797  137.129   70.038    0.315    0.189
  681.402    5.521  137.160   75.560    0.314    0.216
  681.652    5.042  137.295   79.568    0.327    0.212
  681.902    4.785  137.640   85.576    0.339    0.209
  682.152    4.736  138.904   89.582    0.341    0.195
  682.402    4.809  141.802   94.256    0.342    0.209
  682.652    4.975  148.798  104.249    0.346    0.160
  682.902    5.221  153.848  108.564    0.359    0.109
  683.152    5.420  151.732   96.496    0.375    0.092
  683.402    5.772  149.927   86.303    0.364    0.078
  683.652    6.159  150.473   81.249    0.342    0.108
  683.902    6.255  151.431   86.586    0.313    0.166
  684.152    6.260  152.593   93.318    0.306    0.163
  684.402    6.207  154.577  104.698    0.301    0.164
  684.652    6.144  153.893  102.300    0.305    0.160
  684.902    5.971  146.456   86.247    0.322    0.157
  685.152    5.739  142.806   74.301    0.318    0.162
  685.402    5.338  142.536   65.500    0.253    0.160
  685.652    5.056  142.567   74.765    0.218    0.136
  685.902    4.626  143.023   86.334    0.252    0.135
  686.152    4.317  143.153   92.455    0.277    0.192
  686.402    4.075  143.700  100.394    0.302    0.172
  686.652    4.161  145.993  107.061    0.295    0.155
  686.902    4.399  149.306  112.702    0.304    0.139
  687.152    4.825  151.171  104.807    0.317    0.114
  687.402    5.045  154.277   96.549    0.310    0.111
  687.652    4.930  156.565   91.857    0.298    0.119
  687.902    4.316  156.087   83.963    0.289    0.129
  688.152    3.531  152.437   67.964    0.281    0.146
  688.402    2.997  145.316   63.273    0.276    0.167
  688.652    2.590  141.456   65.350    0.319    0.207
  688.902    2.417  138.628   73.648    0.349    0.227
  689.152    2.608  137.340   80.621    0.352    0.239
  689.402    2.919  137.169   84.813    0.316    0.192
  689.652    3.407  137.507   87.068    0.300    0.170
  689.902    4.088  139.700   88.538    0.289    0.151
  690.152    4.394  141.361   90.073    0.292    0.162
  690.402    4.470  148.358   91.545    0.302    0.158
  690.652    4.408  148.494   94.586    0.307    0.148
  690.902    4.323  147.319   97.873    0.307    0.169
  691.152    4.232  147.540   99.641    0.308    0.170
  691.402    3.987  148.600  101.838    0.314    0.131
  691.652    3.735  151.613  105.123    0.327    0.110
  691.902    3.361  153.277  111.791    0.351    0.111
  692.152    3.172  154.747  123.296    0.397    0.099
  692.402    3.010  155.195  122.470    0.438    0.082
  692.652    3.080  155.125  114.455    0.355    0.071
  692.902    3.447  148.509  108.430    0.320    0.087
  693.152    3.800  145.680  104.159    0.285    0.102
  693.402    4.661  145.402  104.906    0.291    0.092
  693.652    5.255  144.939  111.878    0.342    0.083
  693.902    5.946  145.172  122.172    0.375    0.094
  694.152    5.611  145.616  131.137    0.410    0.117
  694.402    3.759  145.957  132.306    0.416    0.128
  694.652    1.899  146.100  124.293    0.398    0.117
  694.902    1.091  146.849  118.994    0.388    0.083
  695.152    0.926  147.289  113.094    0.386    0.028
  695.402    0.852  147.633  111.539    0.399   -0.001
  695.652    1.060  147.876  126.611    0.420    0.022
  695.902    2.671  148.527  132.552    0.430    0.047
  696.152    5.038  149.580  137.652    0.420    0.039
  696.402    6.564  151.253  135.134    0.396    0.085
  696.652    5.864  152.618  130.985    0.371    0.108
  696.902    4.524  154.096  130.163    0.373    0.105
  697.152    3.728  155.047  128.911    0.414    0.073
  697.402    3.163  155.696  128.148    0.440    0.030
  697.652    2.705  156.143  135.601    0.470   -0.006
  697.902    2.567  155.973  144.686    0.505    0.141
  698.152    2.522  155.292  136.249    0.446    0.105
  698.402    2.690  155.219  127.143    0.413    0.090
  698.652    3.118  155.051  126.619    0.395    0.053
  698.902    3.457  155.091  132.319    0.391    0.079
  699.152    3.655  155.135  137.118    0.401    0.102
  699.402    3.520  154.960  137.924    0.422    0.090
  699.652    3.273  154.789  133.111    0.448    0.091
  699.902    2.738  154.819  126.058    0.466    0.072
  700.152    2.491  154.653  117.135    0.448    0.057
  700.402    2.346  154.694  108.755    0.435    0.065
  700.652    2.392  154.523  104.061    0.426    0.026
  700.902    2.623  153.842  111.639    0.416    0.006
  701.152    3.147  153.163  115.528    0.399    0.047
  701.402    3.845  152.880  112.344    0.387    0.075
  701.652    4.194  151.081  106.683    0.354    0.090
  701.902    4.492  149.170  106.100    0.346    0.103
  702.152    4.446  147.974  110.713    0.381    0.085
  702.402    4.113  147.518   94.659    0.394    0.046
  702.652    3.902  147.635   83.924    0.372    0.049
  702.902    3.670  147.574   90.409    0.325    0.067
  703.152    3.540  147.617  106.569    0.378    0.064
  703.402    3.529  148.057  122.663    0.416    0.049
  703.652    3.801  148.493  118.635    0.427    0.081
  703.902    4.115  149.164  110.679    0.418    0.089
  704.152    4.351  149.386  102.422    0.427    0.085
  704.402    4.284  149.426   95.914    0.440    0.080
  704.652    4.117  148.945   92.793    0.426    0.072
  704.902    3.972  148.565   99.401    0.427    0.054
  705.152    3.939  148.565   99.906    0.451    0.023
  705.402    4.149  147.623   92.615    0.433    0.001
  705.652    4.678  147.660   89.128    0.409   -0.012
  705.902    5.121  147.694   90.966    0.408    0.027
  706.152    5.679  148.442   92.917    0.420    0.039
  706.402    6.125  149.804   89.614    0.429    0.041
  706.652    6.175  151.993   79.785    0.440    0.040
  706.902    5.486  153.967   71.286    0.401    0.069
  707.152    5.019  155.638   64.414    0.410    0.049
  707.402    4.789  154.855   53.863    0.374    0.044
  707.652    4.837  148.346   43.608    0.342    0.049
  707.902    5.275  145.717   34.139    0.349    0.039
  708.152    6.146  144.424   27.149    0.374    0.025
  708.402    7.187  143.847   20.703    0.355    0.071
  708.652    7.984  143.263   21.638    0.327    0.086
  708.902    7.251  143.097   23.474    0.321    0.089
  709.152    6.142  142.622   25.003    0.322    0.117
  709.402    5.517  142.250   25.685    0.336    0.115
