~VERSION INFORMATION
 VERS.                 2.0:   CWLS LOG ASCII STANDARD -VERSION 2.0
 WRAP.                  NO:   ONE LINE PER DEPTH STEP
~WELL INFORMATION BLOCK
#MNEM.UNIT           DATA                    DESCRIPTION OF MNEMONIC
#---------    -------------------            -------------------------------
# Generated from Intellog Unique Number	CS_73_76/WELL/1042
WELL.         DOME PETROLEUM                 : Well_name    - WELL
LOC .         00/06-17-076-10W4/0            : Location     - LOCATION
UWI .         00/06-17-076-10W4/0            : Uwi          - UNIQUE WELL ID
ENTR.         SP                             : Entered      - ENTERED BY
SRVC.         SCHLUMBERGER                   : Scn          - SERVICE COMPANY
STRT.M        270.25                         : top_depth    - START DEPTH
STOP.M        505.00                         : bot_depth    - STOP DEPTH
STEP.M        0.25                           : increment    - STEP LENGTH
 NULL. -999.2500:NULL Value
~CURVE INFORMATION BLOCK
#MNEM UNIT       ERCB CURVE CODE    CURVE DESCRIPTION
#-----------   ------------------   ----------------------------------
DEPT.M        00 001 00 00         : DEPTH        - DEPTH
ILD .OHMM     00 120 00 00         : RESD         - DEEP RESISTIVITY (DIL)
DPHI.V/V      00 890 00 00         : PHID         - DENSITY POROSITY (LIMESTONE)
NPHI.V/V      00 330 00 00         : PHIN         - NEUTRON POROSITY (LIMESTONE)
GR  .API      00 310 00 00         : GR           - GAMMA RAY
~PARAMETER INFORMATION
#MNEM.UNIT           DATA             DESCRIPTION OF MNEMONIC
#---------         -----------     ------------------------------
GL  .M        668.26               : gl           - GROUND LEVEL ELEVATION
EREF.M        672.39               : kb           - ELEVATION OF DEPTH REFERENCE
DATM.M        668.26               : datum        - DATUM ELEVATION
TDD .M        517                  : tdd          - TOTAL DEPTH DRILLER
RUN .         ONE                  : Run          - RUN NUMBER
ENG .         BILL                 : Engineer     - RECORDING ENGINEER
WIT .         JIM                  : Witness      - WITNESSED BY
MUD .         GEL                  : Mud_type     - MUD TYPE
MATR.         LIMESTONE            : Logunit      - NEUTRON MATRIX
TMAX.C        23                   : BHT          - MAXIMUM RECORDED TEMPERATURE
BHTD.M        517                  : BHTDEP       - MAXIMUM RECORDED TEMPERATURE
MATR.         1                    : LOGUNIT      - NEUTRON MATRIX
RMT .C        25                   : MDTP         - TEMPERATURE OF MUD
NEUT.         1                    : NEUTRON      - NEUTRON TYPE
RESI.         0                    : RESIST       - RESISTIVITY TYPE
RMC .OHMM     0.25                 : RMC          - RESISTIVITY OF MUD CAKE
RMF .OHMM     0.25                 : RMF          - RESISTIVITY OF MUD FILTRATE
SUFT.C        15                   : SUFT         - SURFACE TEMPERATURE
~A  DEPTH     RESD     PHID     PHIN       GR
# ...
  357.250    3.713    0.253    0.536  100.778
  357.500    3.576    0.246    0.520   99.561
  357.750    3.317    0.240    0.521   97.734
  358.000    3.195    0.251    0.528   97.736
  358.250    3.318    0.245    0.525   98.958
  358.500    3.511    0.235    0.517  101.399
  358.750    3.646    0.242    0.514  105.670
  359.000    3.786    0.229    0.516  106.891
  359.250    3.932    0.217    0.520  102.625
  359.500    4.007    0.212    0.517  102.627
  359.750    4.007    0.230    0.536  103.849
  360.000    3.933    0.239    0.542  106.290
  360.250    3.788    0.230    0.553  106.293
  360.500    3.860    0.229    0.541  105.685
  360.750    4.163    0.233    0.550  101.419
  361.000    4.489    0.228    0.566  102.031
  361.250    5.026    0.236    0.569  102.643
  361.500    5.219    0.257    0.563   98.987
  361.750    5.122    0.274    0.550   97.769
  362.000    4.933    0.293    0.473   94.723
  362.250    4.663    0.298    0.457   90.457
  362.500    4.576    0.285    0.439   94.728
  362.750    4.408    0.258    0.445   98.998
  363.000    4.326    0.242    0.468  103.268
  363.250    4.246    0.234    0.506  106.319
  363.500    4.167    0.230    0.516  103.273
  363.750    3.938    0.225    0.491  102.055
  364.000    3.518    0.239    0.499  103.887
  364.250    3.143    0.246    0.542  105.718
  364.500    2.971    0.263    0.550  109.379
  364.750    2.861    0.282    0.571  111.210
  365.000    3.326    0.277    0.593  112.433
  365.250    3.587    0.273    0.599  111.215
  365.500    4.170    0.264    0.585  108.778
  365.750    4.848    0.260    0.560  104.512
  366.000    5.853    0.257    0.539  103.295
  366.250    6.804    0.267    0.512   97.809
  366.500    7.476    0.279    0.478   92.324
  366.750    8.062    0.291    0.479   84.399
  367.000    8.216    0.288    0.483   85.012
  367.250    8.063    0.280    0.462   86.843
  367.500    7.766    0.269    0.442   87.455
  367.750    7.622    0.240    0.451   89.287
  368.000    7.481    0.234    0.466   89.289
  368.250    7.481    0.237    0.469   89.900
  368.500    7.482    0.244    0.462   90.512
  368.750    7.483    0.252    0.453   91.124
  369.000    7.483    0.262    0.455   92.347
  369.250    7.484    0.261    0.451   92.958
  369.500    7.772    0.258    0.437   92.960
  369.750    7.920    0.271    0.440   89.914
  370.000    7.773    0.264    0.447   88.697
  370.250    7.629    0.252    0.455   87.480
  370.500    7.630    0.271    0.461   87.481
  370.750    7.631    0.287    0.463   86.874
  371.000    7.631    0.289    0.464   89.316
  371.250    7.489    0.266    0.464   90.537
  371.500    7.351    0.264    0.466   89.930
  371.750    7.080    0.257    0.474   89.322
  372.000    6.948    0.256    0.477   88.104
  372.250    6.949    0.263    0.464   87.498
  372.500    7.081    0.251    0.460   87.499
  372.750    7.217    0.262    0.464   91.160
  373.000    7.494    0.255    0.474   91.162
  373.250    8.234    0.242    0.478   90.554
  373.500    9.574    0.223    0.463   89.337
  373.750   10.519    0.204    0.401   83.243
  374.000   10.324    0.156    0.296   80.195
  374.250    9.576    0.102    0.266   73.490
  374.500    8.883    0.113    0.353   74.713
  374.750    8.085    0.245    0.425   81.421
  375.000    7.788    0.261    0.458   94.229
  375.250    7.643    0.245    0.475   94.231
  375.500    7.501    0.251    0.489   94.233
  375.750    7.502    0.229    0.489   94.846
  376.000    7.363    0.235    0.462   95.457
  376.250    7.226    0.236    0.450   96.070
  376.500    7.092    0.235    0.432   96.681
  376.750    6.961    0.234    0.426   97.903
  377.000    6.961    0.229    0.432   99.734
  377.250    6.832    0.236    0.450  100.956
  377.500    6.705    0.242    0.471  100.349
  377.750    6.581    0.244    0.478   99.132
  378.000    6.581    0.236    0.466   99.133
  378.250    6.459    0.231    0.479   99.136
  378.500    6.221    0.224    0.486   99.139
  378.750    6.708    0.231    0.482   99.140
  379.000    6.709    0.232    0.472   99.142
  379.250    6.462    0.232    0.452   98.535
  379.500    5.772    0.226    0.437   99.148
  379.750    4.693    0.221    0.430   99.759
  380.000    3.962    0.245    0.447  101.592
  380.250    2.669    0.262    0.458  102.813
  380.500    2.339    0.269    0.480  104.034
  380.750    2.170    0.280    0.520  106.476
  381.000    2.170    0.295    0.558  107.697
  381.250    2.254    0.299    0.564  106.480
  381.500    2.297    0.295    0.566  103.433
  381.750    2.430    0.289    0.593  100.387
  382.000    2.990    0.278    0.582   96.730
  382.250    3.609    0.270    0.561   94.293
  382.500    4.276    0.274    0.505   93.077
  382.750    5.065    0.282    0.469   93.079
  383.000    5.779    0.283    0.462   94.300
  383.250    6.719    0.278    0.469   99.181
  383.500    7.110    0.259    0.474  101.012
  383.750    7.384    0.275    0.447  105.283
  384.000    7.525    0.288    0.439  109.553
  384.250    7.526    0.299    0.431  107.726
  384.500    7.113    0.309    0.432   94.313
  384.750    7.386    0.317    0.430   78.462
  385.000    7.249    0.316    0.425   68.098
  385.250    7.115    0.311    0.415   60.174
  385.500    7.116    0.324    0.412   57.737
  385.750    7.116    0.338    0.409   56.520
  386.000    6.984    0.342    0.408   55.303
  386.250    6.985    0.344    0.412   54.695
  386.500    7.118    0.337    0.419   55.917
  386.750    7.119    0.333    0.428   56.529
  387.000    7.119    0.333    0.424   57.141
  387.250    7.120    0.332    0.425   57.753
  387.500    7.121    0.327    0.420   57.756
  387.750    7.256    0.321    0.413   57.758
  388.000    7.257    0.324    0.410   57.760
  388.250    7.123    0.318    0.409   58.371
  388.500    7.123    0.311    0.409   58.984
  388.750    7.124    0.320    0.414   60.206
  389.000    6.992    0.331    0.428   60.817
  389.250    6.734    0.335    0.435   61.430
  389.500    6.609    0.329    0.439   61.431
  389.750    6.610    0.329    0.430   61.434
  390.000    6.736    0.329    0.421   61.435
  390.250    6.736    0.329    0.419   61.438
  390.500    6.737    0.329    0.421   61.441
  390.750    6.738    0.332    0.432   59.614
  391.000    6.866    0.335    0.445   57.176
  391.250    6.867    0.344    0.446   54.130
  391.500    6.868    0.348    0.436   55.352
  391.750    6.999    0.351    0.424   56.573
  392.000    6.999    0.355    0.415   59.016
  392.250    7.269    0.350    0.408   59.626
  392.500    7.408    0.342    0.398   59.629
  392.750    6.254    0.333    0.398   58.411
  393.000    6.254    0.335    0.419   58.414
  393.250    6.374    0.337    0.424   58.417
  393.500    6.496    0.337    0.429   59.029
  393.750    6.620    0.335    0.441   59.640
  394.000    6.746    0.334    0.448   60.252
  394.250    6.621    0.329    0.462   60.864
  394.500    6.875    0.318    0.459   60.256
  394.750    6.876    0.331    0.450   57.819
  395.000    6.876    0.343    0.441   59.651
  395.250    7.008    0.345    0.440   61.484
  395.500    7.142    0.324    0.447   62.095
  395.750    7.142    0.311    0.451   62.706
  396.000    7.278    0.311    0.459   63.319
  396.250    7.279    0.311    0.462   62.711
  396.500    7.280    0.310    0.461   62.714
  396.750    7.280    0.315    0.457   62.715
  397.000    7.146    0.318    0.462   63.329
  397.250    7.146    0.327    0.468   63.940
  397.500    6.883    0.327    0.463   65.161
  397.750    6.629    0.322    0.451   66.383
  398.000    6.506    0.317    0.437   64.556
  398.250    6.266    0.316    0.429   64.558
  398.500    6.150    0.322    0.416   69.439
  398.750    6.151    0.301    0.425   71.880
  399.000    6.268    0.284    0.445   76.150
  399.250    6.633    0.258    0.453   81.031
  399.500    6.759    0.236    0.461   85.301
  399.750    6.760    0.257    0.445   84.693
  400.000    6.889    0.268    0.418   76.159
  400.250    6.761    0.274    0.424   69.454
  400.500    6.512    0.291    0.440   65.798
