~VERSION INFORMATION
 VERS.                 2.0:   CWLS LOG ASCII STANDARD -VERSION 2.0
 WRAP.                  NO:   ONE LINE PER DEPTH STEP
~WELL INFORMATION BLOCK
#MNEM.UNIT           DATA                    DESCRIPTION OF MNEMONIC
#---------    -------------------            -------------------------------
# Generated from Intellog Unique Number	CS_69_70/WELL/833
NULL.         -999.25                        : NULL_VALUE
WELL.         GULF CANADA LIMITED            : Well_name    - WELL              
LOC .         00/07-17-070-15W4/0            : Location     - LOCATION          
UWI .         00/07-17-070-15W4/0            : Uwi          - UNIQUE WELL ID    
ENTR.         SP                             : Entered      - ENTERED BY        
SRVC.         SCHLUMBERGER                   : Scn          - SERVICE COMPANY   
STRT.M        245                            : top_depth    - START DEPTH       
STOP.M        509                            : bot_depth    - STOP DEPTH        
STEP.M        0.25                           : increment    - STEP LENGTH       
~CURVE INFORMATION BLOCK
#MNEM UNIT       ERCB CURVE CODE    CURVE DESCRIPTION
#-----------   ------------------   ----------------------------------
DEPT.M        00 001 00 00         : DEPTH        - DEPTH                       
GR  .API      00 310 00 00         : GR           - GAMMA RAY                   
NPHI.V/V      00 330 00 00         : PHIN         - NEUTRON POROSITY (LIMESTONE)
DPHI.V/V      00 890 00 00         : PHID         - DENSITY POROSITY (LIMESTONE)
ILD .OHMM     00 120 00 00         : RESD         - DEEP RESISTIVITY (DIL)      
~PARAMETER INFORMATION       
#MNEM.UNIT           DATA             DESCRIPTION OF MNEMONIC
#---------         -----------     ------------------------------
GL  .M        567.89               : gl           - GROUND LEVEL ELEVATION      
EREF.M        572.24               : kb           - ELEVATION OF DEPTH REFERENCE
DATM.M        567.89               : datum        - DATUM ELEVATION             
TDD .M        519                  : tdd          - TOTAL DEPTH DRILLER         
RUN .         ONE                  : Run          - RUN NUMBER                  
ENG .         BILL                 : Engineer     - RECORDING ENGINEER          
WIT .         JIM                  : Witness      - WITNESSED BY                
MUD .         GEL                  : Mud_type     - MUD TYPE                    
MATR.         LIMESTONE            : Logunit      - NEUTRON MATRIX              
TMAX.C        25.5                 : BHT          - MAXIMUM RECORDED TEMPERATURE
BHTD.M        519                  : BHTDEP       - MAXIMUM RECORDED TEMPERATURE
MATR.         1                    : LOGUNIT      - NEUTRON MATRIX              
RMT .C        25                   : MDTP         - TEMPERATURE OF MUD          
NEUT.         1                    : NEUTRON      - NEUTRON TYPE                
RESI.         0                    : RESIST       - RESISTIVITY TYPE            
RMC .OHMM     0.25                 : RMC          - RESISTIVITY OF MUD CAKE     
RMF .OHMM     0.25                 : RMF          - RESISTIVITY OF MUD FILTRATE 
SUFT.C        15                   : SUFT         - SURFACE TEMPERATURE         
~A  DEPTH       GR     PHIN     PHID     RESD
# ...
  375.500   71.112    0.429    0.283    3.354
  375.750   69.724    0.432    0.294    3.386
  376.000   70.394    0.440    0.301    3.405
  376.250   71.064    0.439    0.298    3.443
  376.500   73.126    0.444    0.295    3.463
  376.750   74.582    0.445    0.292    3.489
  377.000   74.888    0.442    0.286    3.554
  377.250   74.590    0.438    0.286    3.615
  377.500   72.839    0.433    0.286    3.689
  377.750   71.936    0.426    0.282    3.780
  378.000   71.940    0.422    0.269    3.872
  378.250   72.126    0.418    0.254    3.989
  378.500   71.404    0.413    0.253    4.102
  378.750   70.682    0.412    0.255    4.195
  379.000   71.533    0.412    0.261    4.164
  379.250   72.507    0.429    0.275    4.042
  379.500   72.873    0.445    0.283    3.917
  379.750   73.363    0.458    0.273    3.895
  380.000   73.971    0.447    0.275    3.954
  380.250   75.853    0.434    0.278    4.066
  380.500   76.945    0.421    0.261    4.212
  380.750   77.675    0.412    0.240    4.404
  381.000   76.045    0.415    0.244    4.521
  381.250   73.084    0.423    0.274    4.555
  381.500   71.757    0.434    0.295    4.521
  381.750   72.489    0.441    0.302    4.463
  382.000   73.642    0.435    0.279    4.414
  382.250   74.796    0.421    0.265    4.381
  382.500   76.313    0.417    0.256    4.430
  382.750   77.405    0.435    0.244    4.489
  383.000   80.195    0.443    0.221    4.590
  383.250   81.166    0.441    0.207    4.694
  383.500   83.168    0.442    0.221    4.773
  383.750   84.139    0.452    0.231    4.800
  384.000   86.079    0.438    0.234    4.845
  384.250   87.838    0.424    0.221    4.900
  384.500   87.177    0.417    0.215    5.010
  384.750   85.547    0.425    0.214    5.143
  385.000   85.793    0.417    0.223    5.201
  385.250   87.311    0.419    0.223    5.172
  385.500   88.464    0.423    0.218    5.153
  385.750   90.528    0.411    0.220    5.096
  386.000   91.256    0.404    0.220    5.002
  386.250   91.986    0.412    0.214    4.874
  386.500   91.204    0.422    0.208    4.767
  386.750   88.788    0.417    0.204    4.714
  387.000   88.308    0.442    0.209    4.662
  387.250   89.523    0.468    0.216    4.619
  387.500   90.313    0.469    0.211    4.585
  387.750   91.106    0.450    0.202    4.534
  388.000   91.048    0.440    0.196    4.535
  388.250   90.931    0.428    0.212    4.535
  388.500   88.757    0.410    0.223    4.535
  388.750   83.617    0.398    0.227    4.544
  389.000   81.262    0.394    0.233    4.552
  389.250   79.027    0.405    0.243    4.561
  389.500   77.942    0.414    0.250    4.494
  389.750   79.943    0.413    0.256    4.436
  390.000   83.155    0.410    0.262    4.354
  390.250   82.553    0.406    0.266    4.274
  390.500   80.137    0.402    0.266    4.211
  390.750   81.170    0.402    0.260    4.173
  391.000   82.507    0.396    0.262    4.111
  391.250   82.873    0.409    0.269    4.058
  391.500   83.240    0.428    0.269    3.824
  391.750   87.056    0.433    0.252    3.351
  392.000   92.204    0.437    0.234    2.959
  392.250   96.626    0.467    0.239    2.550
  392.500  100.442    0.501    0.284    2.170
  392.750  101.899    0.510    0.322    1.919
  393.000  100.450    0.532    0.345    1.778
  393.250   98.095    0.569    0.342    1.749
  393.500   96.707    0.558    0.310    1.812
  393.750   94.957    0.540    0.257    1.902
  394.000   94.174    0.523    0.221    2.103
  394.250   93.392    0.491    0.202    2.467
  394.500   91.702    0.461    0.218    2.949
  394.750   88.438    0.448    0.221    3.442
  395.000   84.509    0.440    0.212    3.694
  395.250   83.243    0.432    0.211    3.855
  395.500   85.970    0.420    0.214    3.891
  395.750   88.455    0.407    0.205    3.891
  396.000   89.306    0.396    0.200    3.877
  396.250   87.737    0.392    0.220    3.841
  396.500   85.200    0.400    0.243    3.813
  396.750   83.873    0.416    0.237    3.785
  397.000   85.269    0.420    0.229    3.799
  397.250   83.700    0.417    0.235    3.828
  397.500   78.681    0.416    0.262    3.849
  397.750   72.574    0.417    0.255    3.779
  398.000   71.066    0.421    0.229    3.594
  398.250   74.701    0.430    0.231    3.393
  398.500   77.912    0.441    0.272    3.209
  398.750   79.247    0.438    0.262    3.001
  399.000   72.716    0.418    0.283    2.807
  399.250   63.462    0.396    0.326    2.640
  399.500   56.750    0.387    0.327    2.525
  399.750   54.213    0.395    0.326    2.442
  400.000   54.944    0.407    0.323    2.397
  400.250   55.190    0.416    0.324    2.353
  400.500   55.801    0.417    0.328    2.314
  400.750   55.139    0.403    0.331    2.293
  401.000   54.173    0.396    0.330    2.319
  401.250   53.512    0.391    0.321    2.358
  401.500   54.847    0.388    0.315    2.443
  401.750   56.002    0.386    0.324    2.531
  402.000   56.550    0.385    0.333    2.607
  402.250   57.342    0.384    0.332    2.661
  402.500   56.982    0.390    0.330    2.642
  402.750   59.830    0.408    0.324    2.637
  403.000   63.042    0.407    0.316    2.804
  403.250   65.527    0.391    0.297    3.327
  403.500   61.537    0.392    0.115    4.067
  403.750   53.191    0.173    0.052    4.934
  404.000   51.199    0.172    0.050    6.111
  404.250   53.986    0.182    0.153    6.807
  404.500   56.411    0.201    0.211    6.871
  404.750   57.504    0.290    0.254    5.326
  405.000   59.627    0.321    0.269    4.121
  405.250   62.476    0.369    0.273    3.429
  405.500   63.992    0.397    0.258    3.010
  405.750   65.933    0.402    0.237    2.795
  406.000   66.601    0.416    0.258    2.688
  406.250   67.634    0.406    0.287    2.713
  406.500   69.091    0.397    0.308    2.842
  406.750   72.181    0.403    0.300    3.011
  407.000   76.300    0.404    0.284    3.196
  407.250   80.479    0.419    0.262    3.367
  407.500   84.356    0.440    0.236    3.507
  407.750   87.204    0.444    0.210    3.634
  408.000   88.055    0.435    0.221    3.674
  408.250   86.063    0.427    0.232    3.681
  408.500   82.619    0.419    0.239    3.648
  408.750   79.779    0.415    0.243    3.627
  409.000   77.906    0.412    0.239    3.655
  409.250   76.398    0.416    0.234    3.737
  409.500   78.762    0.414    0.235    3.893
  409.750   81.610    0.404    0.245    3.937
  410.000   83.308    0.398    0.252    4.011
  410.250   81.316    0.391    0.252    4.056
  410.500   77.569    0.396    0.241    4.072
  410.750   76.181    0.404    0.235    4.125
  411.000   77.638    0.401    0.225    4.258
  411.250   78.913    0.393    0.220    4.452
  411.500   80.612    0.388    0.212    4.578
  411.750   81.704    0.401    0.207    4.604
  412.000   81.829    0.419    0.202    4.387
  412.250   84.134    0.406    0.195    3.902
  412.500   86.558    0.393    0.201    3.420
  412.750   91.646    0.417    0.222    3.163
  413.000   93.948    0.454    0.241    3.071
  413.250   95.647    0.498    0.250    3.014
  413.500   93.593    0.522    0.236    2.992
  413.750   93.356    0.517    0.238    2.992
  414.000   94.873    0.498    0.249    3.004
  414.250   96.510    0.483    0.252    3.015
  414.500   98.390    0.469    0.251    3.015
  414.750   97.729    0.463    0.249    3.015
  415.000   98.339    0.467    0.248    2.976
  415.250   99.432    0.472    0.240    2.938
  415.500   98.226    0.478    0.231    2.863
  415.750   97.080    0.488    0.223    2.820
  416.000   97.750    0.479    0.230    2.764
  416.250   98.299    0.469    0.240    2.748
  416.500   98.484    0.466    0.243    2.748
  416.750   97.462    0.481    0.233    2.800
  417.000   96.436    0.501    0.247    3.033
  417.250   94.263    0.533    0.244    3.286
  417.500   91.603    0.390    0.233    3.687
  417.750   84.830    0.376    0.223    3.987
  418.000   77.151    0.379    0.225    4.092
  418.250   71.407    0.387    0.215    4.161
  418.500   68.203    0.399    0.192    4.062
  418.750   69.660    0.410    0.200    3.965
