~VERSION INFORMATION
 VERS.                 2.0:   CWLS LOG ASCII STANDARD -VERSION 2.0
 WRAP.                  NO:   ONE LINE PER DEPTH STEP
~WELL INFORMATION BLOCK
#MNEM.UNIT           DATA                    DESCRIPTION OF MNEMONIC
#---------    -------------------            -------------------------------
# Generated from Intellog Unique Number	CX_WELLS/WELL/3016
WELL.         TRITON ET AL DIVIDE            : Well_name    - WELL
LOC .         00/06-22-082-12W4/0            : Location     - LOCATION
UWI .         00/06-22-082-12W400            : Uwi          - UNIQUE WELL ID
ENTR.         T                              : Entered      - ENTERED BY
SRVC.         SCHLUMBERGER                   : Scn          - SERVICE COMPANY
DATE.         03/04/92                       : Date         - LOG DATE
STRT.M        295                            : top_depth    - START DEPTH
STOP.M        515                            : bot_depth    - STOP DEPTH
STEP.M        0.25                           : increment    - STEP LENGTH
 NULL. -999.2500:NULL Value
~CURVE INFORMATION BLOCK
#MNEM UNIT       ERCB CURVE CODE    CURVE DESCRIPTION
#-----------   ------------------   ----------------------------------
DEPT.M        00 001 00 00         : DEPTH        - DEPTH
GR  .API      00 310 00 00         : GR           - GAMMA RAY
NPHI.V/V      00 330 00 00         : PHIN         - NEUTRON POROSITY (SANDSTONE)
DPHI.V/V      00 890 00 00         : PHID         - DENSITY POROSITY (SANDSTONE)
ILD .OHMM     00 120 00 00         : RESD         - DEEP RESISTIVITY (OTHER)
~PARAMETER INFORMATION
#MNEM.UNIT           DATA             DESCRIPTION OF MNEMONIC
#---------         -----------     ------------------------------
GL  .M        740.69               : gl           - GROUND LEVEL ELEVATION
EREF.M        744.42               : kb           - ELEVATION OF DEPTH REFERENCE
DATM.M        744.42               : datum        - DATUM ELEVATION
TDD .M        526                  : tdd          - TOTAL DEPTH DRILLER
RUN .         ONE                  : Run          - RUN NUMBER
ENG .         JO                   : Engineer     - RECORDING ENGINEER
WIT .         TIM                  : Witness      - WITNESSED BY
MUD .         GEL                  : Mud_type     - MUD TYPE
MATR.         SANDSTONE            : Logunit      - NEUTRON MATRIX
TMAX.C        24                   : BHT          - MAXIMUM RECORDED TEMPERATURE
BHTD.M        526                  : BHTDEP       - MAXIMUM RECORDED TEMPERATURE
RMT .C        24                   : MDTP         - TEMPERATURE OF MUD
MUDD.KG/M     1                    : MWT          - MUD DENSITY
NEUT.         1                    : NEUTRON      - NEUTRON TYPE
RESI.         2.65                 : RESIST       - RESISTIVITY TYPE
RM  .OHMM     2.65                 : RM           - RESISTIVITY OF MUD
RMC .OHMM     1.52                 : RMC          - RESISTIVITY OF MUD CAKE
RMF .OHMM     2.86                 : RMF          - RESISTIVITY OF MUD FILTRATE
SUFT.C        4                    : SUFT         - SURFACE TEMPERATURE
~A  DEPTH       GR     PHIN     PHID     RESD
  295.000  104.425    0.458    0.192    4.933
  295.250  105.005    0.444    0.172    5.463
  295.500  107.371    0.428    0.139    6.432
  295.750  100.189    0.405    0.109    7.420
  296.000   84.654    0.383    0.299    9.678
  296.250   70.306    0.343    0.346   13.151
  296.500   70.285    0.312    0.357   21.045
  296.750   75.032    0.296    0.359   30.406
  297.000   77.999    0.292    0.363   31.024
  297.250   83.343    0.294    0.366   29.770
  297.500   83.919    0.301    0.369   27.984
  297.750   81.516    0.306    0.362   27.411
  298.000   80.893    0.315    0.339   26.847
  298.250   83.264    0.321    0.321   26.840
  298.500   86.817    0.327    0.316   26.831
  298.750   83.216    0.327    0.315   26.820
  299.000   79.023    0.332    0.312   25.737
  299.250   76.615    0.339    0.311   25.209
  299.500   78.379    0.334    0.305   23.701
  299.750   80.749    0.323    0.299   22.280
  300.000   80.728    0.355    0.297   20.947
  300.250   64.596    0.359    0.292   19.692
  300.500   74.719    0.368    0.311   19.685
  300.750   81.858    0.382    0.335   19.280
  301.000   80.638    0.376    0.352   18.503
  301.250   77.042    0.354    0.327   17.040
  301.500   74.026    0.372    0.293   16.692
  301.750   79.983    0.383    0.258   15.374
  302.000   96.073    0.392    0.234   15.059
  302.250  103.804    0.403    0.221   14.157
  302.500  101.401    0.410    0.240   14.152
  302.750   97.794    0.415    0.318   14.148
  303.000   99.563    0.430    0.389   14.734
  303.250  100.735    0.452    0.417   15.984
  303.500  101.913    0.521    0.420   17.343
  303.750  101.289    0.503    0.413   19.204
  304.000   94.102    0.245    0.390   21.706
  304.250   91.700    0.263    0.372   23.549
  304.500   91.082    0.338    0.353   23.061
  304.750   97.028    0.387    0.314   22.133
  305.000  114.913    0.440    0.305   20.808
  305.250  125.036    0.459    0.291   19.165
  305.500  122.031    0.425    0.272   18.018
  305.750   97.539    0.395    0.282   17.289
  306.000   67.086    0.381    0.295   18.754
  306.250   64.672    0.382    0.300   19.138
  306.500   64.656    0.388    0.290   20.345
  306.750   67.022    0.393    0.282   21.188
  307.000   73.565    0.393    0.277   21.619
  307.250   78.909    0.392    0.270   20.320
  307.500   81.876    0.398    0.258   19.105
  307.750   86.032    0.404    0.245   17.965
  308.000   89.591    0.411    0.223   15.883
  308.250  103.294    0.422    0.215   14.934
  308.500  119.981    0.430    0.244   14.038
  308.750  102.058    0.437    0.283   13.472
  309.000   87.114    0.423    0.263   13.467
  309.250   89.480    0.415    0.230   13.190
  309.500   93.635    0.415    0.221   13.186
  309.750   99.581    0.415    0.228   13.181
  310.000  104.936    0.415    0.250   13.449
  310.250   90.588    0.415    0.261   13.723
  310.500   75.649    0.415    0.274   14.291
  310.750   67.274    0.410    0.276   15.190
  311.000   59.495    0.398    0.266   16.479
  311.250   55.297    0.381    0.249   17.880
  311.500   51.088    0.371    0.233   19.007
  311.750   48.083    0.363    0.245   20.621
  312.000   45.675    0.360    0.271   23.305
  312.250   46.251    0.361    0.274   24.773
  312.500   48.020    0.363    0.263   26.328
  312.750   58.148    0.368    0.265   25.788
  313.000   76.630    0.386    0.262   24.247
  313.250   84.366    0.426    0.254   21.437
  313.500   92.102    0.421    0.233   18.572
  313.750  103.418    0.418    0.223   17.107
  314.000  103.397    0.416    0.232   16.415
  314.250   99.199    0.414    0.260   17.447
  314.500   97.974    0.414    0.288   18.929
  314.750   96.168    0.407    0.289   20.960
  315.000  103.909    0.407    0.293   22.740
  315.250  111.640    0.408    0.299   24.172
  315.500  105.060    0.413    0.304   24.665
  315.750   96.083    0.419    0.310   25.167
  316.000   89.498    0.424    0.314   25.679
  316.250   85.896    0.423    0.317   25.670
  316.500   86.472    0.417    0.317   25.660
  316.750   90.622    0.418    0.316   25.651
  317.000   90.601    0.421    0.315   25.645
  317.250   91.182    0.424    0.313   25.634
  317.500   89.370    0.428    0.311   25.628
  317.750   86.365    0.430    0.310   25.618
  318.000   83.355    0.431    0.305   25.607
  318.250   82.146    0.428    0.298   25.601
  318.500   85.108    0.421    0.277   25.592
  318.750   94.038    0.417    0.267   25.064
  319.000  102.967    0.408    0.253   24.550
  319.250  108.908    0.401    0.247   22.150
  319.500  106.505    0.392    0.245   21.260
  319.750  101.113    0.392    0.234   19.988
  320.000   95.120    0.402    0.167   18.411
  320.250   93.308    0.434    0.127   16.959
  320.500   98.663    0.459    0.103   15.621
  320.750  106.996    0.473    0.102   14.096
  321.000  118.312    0.457    0.128   12.462
  321.250  125.451    0.485    0.133   11.248
  321.500  130.800    0.500    0.150    9.743
  321.750  134.354    0.502    0.157    9.160
  322.000  134.338    0.495    0.161    8.266
  322.250  131.333    0.477    0.165    7.932
  322.500  126.538    0.461    0.172    7.770
  322.750  122.937    0.462    0.183    7.767
  323.000  127.093    0.470    0.192    7.764
  323.250  128.862    0.491    0.200    7.449
  323.500  131.824    0.516    0.207    7.296
  323.750  134.190    0.522    0.214    7.002
  324.000  134.765    0.537    0.221    6.583
  324.250  134.147    0.549    0.229    6.063
  324.500  137.104    0.525    0.232    5.818
  324.750  133.503    0.512    0.244    5.937
  325.000  130.498    0.503    0.270    6.709
  325.250  125.703    0.465    0.277    7.133
  325.500  117.924    0.435    0.288    8.398
  325.750  108.953    0.412    0.296    9.889
  326.000  101.771    0.419    0.282   11.644
  326.250  101.153    0.421    0.259   13.432
  326.500  101.718    0.415    0.260   14.873
  326.750  101.707    0.410    0.268   15.808
  327.000   98.100    0.415    0.278   15.803
  327.250   89.725    0.418    0.285   14.856
  327.500   84.333    0.421    0.287   14.258
  327.750   78.942    0.423    0.263   13.682
  328.000   83.097    0.427    0.199   13.128
  328.250  109.934    0.429    0.171   12.859
  328.500  126.024    0.433    0.191   12.337
  328.750  127.196    0.432    0.197   12.085
  329.000  122.998    0.431    0.220   12.329
  329.250  114.020    0.427    0.226   12.582
  329.500  107.435    0.424    0.243   13.102
  329.750  100.850    0.421    0.251   13.644
  330.000  118.730    0.418    0.260   14.209
  330.250  119.306    0.413    0.268   14.798
  330.500  107.345    0.408    0.277   15.099
  330.750  101.362    0.402    0.285   15.405
  331.000   92.987    0.403    0.259   15.402
  331.250   84.015    0.403    0.253   15.397
  331.500   82.800    0.405    0.254   15.391
  331.750   80.387    0.405    0.260   15.387
  332.000   77.979    0.403    0.263   15.379
  332.250   77.356    0.403    0.268   15.693
  332.500   79.124    0.406    0.277   15.688
  332.750   76.722    0.409    0.285   15.682
  333.000   73.120    0.413    0.291   15.678
  333.250   67.728    0.417    0.276   15.353
  333.500   65.320    0.419    0.255   15.350
  333.750   73.653    0.420    0.246   15.344
  334.000   78.400    0.422    0.242   15.027
  334.250   78.379    0.423    0.236   15.025
  334.500   83.137    0.424    0.230   14.418
  334.750   87.293    0.427    0.222   13.553
  335.000   93.830    0.428    0.217   13.006
  335.250   99.781    0.429    0.210   12.481
  335.500  103.340    0.432    0.207   11.733
  335.750  106.899    0.432    0.202   10.806
  336.000  108.668    0.433    0.198   10.585
  336.250  114.614    0.435    0.194    9.951
  336.500  126.527    0.439    0.192    9.747
  336.750  126.506    0.441    0.189    9.164
  337.000  128.866    0.445    0.198    8.793
  337.250  128.253    0.447    0.222    8.791
  337.500  115.696    0.449    0.246    9.733
  337.750  104.934    0.444    0.257   10.138
  338.000   99.548    0.444    0.271   11.457
  338.250   85.791    0.448    0.262   12.688
