~VERSION INFORMATION
 VERS.                 2.0:   CWLS LOG ASCII STANDARD -VERSION 2.0
 WRAP.                  NO:   ONE LINE PER DEPTH STEP
~WELL INFORMATION BLOCK
#MNEM.UNIT           DATA                    DESCRIPTION OF MNEMONIC
#---------    -------------------            -------------------------------
# Generated from Intellog Unique Number	CC_80_83/WELL/2296
NULL.         -999.25                        : NULL_VALUE
WELL.         AMOCO B-2A SURMONT             : Well_name    - WELL
LOC .         07-16-083-09W4                 : Location     - LOCATION          
UWI .         00/07-16-083-09W400            : Uwi          - UNIQUE WELL ID    
ENTR.         DW                             : Entered      - ENTERED BY        
SRVC.         SCHLUMBERGER                   : Scn          - SERVICE COMPANY   
DATE.         27 MAR 74                      : Date         - LOG DATE
STRT.M        259.08                         : top_depth    - START DEPTH       
STOP.M        466.35                         : bot_depth    - STOP DEPTH        
STEP.M        0.305                          : increment    - STEP LENGTH       
~CURVE INFORMATION BLOCK
#MNEM UNIT       ERCB CURVE CODE    CURVE DESCRIPTION
#-----------   ------------------   ----------------------------------
DEPT.M        00 001 00 00         : DEPTH        - DEPTH                       
DPHI.V/V      00 890 00 00         : PHID         - DENSITY POROSITY (LIMESTONE)
NPHI.V/V      00 330 00 00         : PHIN         - NEUTRON POROSITY (LIMESTONE)
GR  .API      00 310 00 00         : GR           - GAMMA RAY                   
ILD .OHMM     00 120 00 00         : RESD         - DEEP RESISTIVITY (DIL)      
~PARAMETER INFORMATION       
#MNEM.UNIT           DATA             DESCRIPTION OF MNEMONIC
#---------         -----------     ------------------------------
GL  .M        732.739              : gl           - GROUND LEVEL ELEVATION      
EREF.M        736.397              : kb           - ELEVATION OF DEPTH REFERENCE
DATM.M        736.397              : datum        - DATUM ELEVATION             
TDD .M        466.954              : tdd          - TOTAL DEPTH DRILLER         
RUN .         ONE                  : Run          - RUN NUMBER                  
ENG .         BILL                 : Engineer     - RECORDING ENGINEER          
WIT .         JIM                  : Witness      - WITNESSED BY                
MUD .         GEL                  : Mud_type     - MUD TYPE                    
MATR.         LIMESTONE            : Logunit      - NEUTRON MATRIX              
TMAX.C        23.3333              : BHT          - MAXIMUM RECORDED TEMPERATURE
BHTD.M        466.954              : BHTDEP       - MAXIMUM RECORDED TEMPERATURE
MATR.         1                    : LOGUNIT      - NEUTRON MATRIX              
RMT .C        25                   : MDTP         - TEMPERATURE OF MUD          
NEUT.         1                    : NEUTRON      - NEUTRON TYPE                
RESI.         0                    : RESIST       - RESISTIVITY TYPE            
RMC .OHMM     0.25                 : RMC          - RESISTIVITY OF MUD CAKE     
RMF .OHMM     0.25                 : RMF          - RESISTIVITY OF MUD FILTRATE 
SUFT.C        15                   : SUFT         - SURFACE TEMPERATURE         
~A  DEPTH     PHID     PHIN       GR     RESD
# ...
  365.154    0.252    0.607   95.409    2.803
  365.459    0.276    0.608   94.204    3.016
  365.763    0.246    0.584   96.036    3.186
  366.068    0.244    0.490   98.471    3.623
  366.373    0.274    0.448   97.266    4.779
  366.678    0.296    0.410   91.203    5.962
  366.983    0.317    0.370   88.175    7.167
  367.287    0.359    0.208   84.543    9.110
  367.592    0.473    0.131   82.730   11.795
  367.897    0.472    0.145   80.917   20.919
  368.202    0.463    0.152   72.425   83.773
  368.507    0.454    0.154   66.363   80.633
  368.811    0.450    0.165   65.160   72.105
  369.116    0.444    0.179   66.385   60.961
  369.421    0.443    0.183   66.389   56.569
  369.726    0.458    0.191   64.579   51.527
  370.031    0.458    0.213   66.409   46.063
  370.335    0.447    0.335   61.558   38.965
  370.640    0.424    0.416   61.568   30.040
  370.945    0.355    0.326   65.829   28.924
  371.250    0.137    0.307   65.230   31.699
  371.555    0.115    0.346   59.166   35.388
  371.860    0.133    0.272   52.496   35.357
  372.164    0.154    0.365   48.861   28.288
  372.469    0.343    0.419   51.299   20.249
  372.774    0.346    0.444   50.702   16.810
  373.079    0.341    0.465   53.139   15.308
  373.384    0.347    0.480   58.007   15.019
  373.688    0.334    0.482   60.445   14.457
  373.993    0.323    0.469   60.452   14.711
  374.298    0.315    0.456   58.642   15.258
  374.603    0.299    0.458   58.649   16.109
  374.908    0.291    0.462   61.693   16.100
  375.212    0.302    0.459   62.311   15.496
  375.517    0.333    0.469   60.498   15.197
  375.822    0.331    0.477   61.721   15.757
  376.127    0.310    0.485   62.339   17.270
  376.432    0.284    0.477   61.738   20.384
  376.736    0.168    0.301   59.927   23.616
  377.041    0.028    0.232   59.327   24.032
  377.346    0.173    0.291   59.336   22.295
  377.651    0.283    0.347   52.666   19.206
  377.956    0.317    0.482   47.211   18.159
  378.261    0.324    0.483   53.292   16.227
  378.565    0.325    0.464   59.372   15.919
  378.870    0.325    0.457   60.597   15.908
  379.175    0.313    0.457   59.997   15.888
  379.480    0.311    0.463   61.221   16.174
  379.785    0.325    0.458   58.197   16.463
  380.089    0.341    0.460   57.597   16.139
  380.394    0.336    0.480   59.425   15.540
  380.699    0.338    0.503   68.542   15.245
  381.004    0.340    0.474   60.659   15.224
  381.309    0.318    0.461   58.847   15.494
  381.613    0.306    0.473   60.677   15.482
  381.918    0.324    0.497   58.864   15.472
  382.223    0.313    0.511   63.730   15.176
  382.528    0.303    0.509   63.741   14.881
  382.833    0.324    0.492   61.927   14.597
  383.137    0.315    0.481   63.756   14.854
  383.442    0.310    0.467   63.158   15.117
  383.747    0.320    0.462   56.488   15.388
  384.052    0.327    0.486   54.677   15.371
  384.357    0.326    0.500   55.899   15.641
  384.662    0.327    0.490   57.124   16.218
  384.966    0.338    0.464   57.132   18.106
  385.271    0.335    0.440   59.570   19.843
  385.576    0.326    0.448   62.008   20.964
  385.881    0.319    0.474   60.803   21.334
  386.186    0.328    0.462   56.561   20.163
  386.490    0.333    0.467   54.748   18.023
  386.795    0.326    0.473   55.365   16.411
  387.100    0.326    0.483   57.801   15.807
  387.405    0.338    0.477   60.846   15.214
  387.710    0.330    0.459   63.285   14.924
  388.014    0.320    0.465   66.330   14.636
  388.319    0.328    0.466   63.301   14.356
  388.624    0.336    0.467   60.883   14.081
  388.929    0.327    0.474   63.320   13.806
  389.234    0.300    0.479   65.761   13.797
  389.538    0.327    0.479   65.769   14.037
  389.843    0.325    0.489   65.170   14.029
  390.148    0.298    0.485   60.930   14.009
  390.453    0.310    0.488   58.508   13.999
  390.758    0.304    0.483   58.518   13.989
  391.063    0.311    0.464   60.352   14.239
  391.367    0.339    0.468   60.963   14.488
  391.672    0.324    0.487   60.972   14.743
  391.977    0.316    0.464   60.981   14.457
  392.282    0.327    0.456   62.812   13.925
  392.587    0.323    0.457   63.432   13.404
  392.891    0.315    0.467   64.043   13.149
  393.196    0.330    0.473   63.446   13.380
  393.501    0.332    0.464   60.419   13.870
  393.806    0.334    0.457   62.251   13.861
  394.111    0.307    0.451   63.474   13.591
  394.415    0.244    0.461   64.089   12.843
  394.720    0.279    0.463   63.490   12.601
  395.025    0.306    0.464   62.891   11.475
  395.330    0.313    0.469   66.544   10.452
  395.635    0.302    0.471   70.196    8.841
  395.939    0.276    0.467   73.847    6.942
  396.244    0.241    0.488   69.608    6.205
  396.549    0.222    0.514   78.116    5.977
  396.854    0.213    0.480   84.198    5.754
  397.159    0.215    0.487   81.778    5.643
  397.464    0.211    0.488   85.428    5.333
  397.768    0.212    0.494   88.474    4.948
  398.073    0.193    0.515   91.518    4.341
  398.378    0.202    0.556   92.743    4.104
  398.683    0.222    0.560   90.322    3.951
  398.988    0.234    0.548   89.725    4.251
  399.292    0.247    0.530   92.768    4.834
  399.597    0.279    0.504   94.599    6.377
  399.902    0.255    0.478   94.609    7.251
  400.207    0.263    0.497   91.581    7.802
  400.512    0.256    0.505   93.412    8.089
  400.816    0.203    0.508   95.850    8.232
  401.121    0.183    0.510   94.037    8.534
  401.426    0.141    0.484   89.796    8.370
  401.731    0.130    0.465   86.768    8.059
  402.036    0.196    0.489   82.530    7.616
  402.340    0.214    0.501   81.323    7.331
  402.645    0.219    0.482   90.438    7.061
  402.950    0.206    0.455   96.520    6.549
  403.255    0.198    0.483   96.529    5.856
  403.560    0.214    0.516   98.966    5.235
  403.865    0.225    0.528  100.189    4.511
  404.169    0.229    0.534  100.198    3.609
  404.474    0.236    0.533   97.171    3.109
  404.779    0.243    0.568   91.717    2.780
  405.084    0.245    0.621   93.547    2.628
  405.389    0.220    0.617  100.233    2.577
  405.693    0.248    0.588  104.494    3.041
  405.998    0.254    0.579  103.895    3.656
  406.303    0.249    0.557  103.297    4.477
  406.608    0.203    0.490  102.700    5.484
  406.913    0.229    0.487  101.495    6.354
  407.217    0.237    0.490   99.073    7.092
  407.522    0.202    0.493   94.225    7.491
  407.827    0.175    0.497   97.271    7.768
  408.132    0.176    0.512   98.496    8.357
  408.437    0.243    0.514   97.894    8.992
  408.741    0.229    0.485   96.691    9.850
  409.046    0.179    0.446   97.308   10.405
  409.351    0.187    0.430   99.138   11.835
  409.656    0.188    0.420  102.791   13.208
  409.961    0.124    0.398  101.584   13.448
  410.266    0.073    0.345   99.771   13.432
  410.570    0.120    0.349   97.350   12.934
  410.875    0.189    0.434   94.323   11.565
  411.180    0.206    0.460   84.011    9.782
  411.485    0.211    0.477   89.484    7.824
  411.790    0.211    0.494   93.744    7.261
  412.094    0.219    0.497   88.897    6.735
  412.399    0.215    0.480   89.514    6.604
  412.704    0.197    0.468   92.557    6.723
  413.009    0.222    0.456   98.029    7.102
  413.314    0.240    0.441  106.538    9.365
  413.618    0.228    0.377  110.192   11.903
  413.923    0.246    0.373  108.985   13.537
  414.228    0.242    0.411  101.710   13.273
  414.533    0.255    0.429   93.824   12.783
  414.838    0.242    0.453   90.190   11.856
  415.142    0.229    0.484   92.627   10.601
  415.447    0.227    0.474   93.853    9.479
  415.752    0.218    0.475   92.648    8.633
  416.057    0.209    0.475   92.047    7.862
  416.362    0.198    0.471   94.485    7.294
  416.667    0.205    0.476   99.960    7.288
  416.971    0.173    0.458  100.575    7.555
  417.276    0.201    0.446   98.761    8.129
  417.581    0.206    0.448   96.949    8.908
  417.886    0.223    0.438   95.138    9.760
