~V
VERS. 2.00: Ver 2.00
WRAP. NO:
VEND. PRIZM:GeoGraphix
~W
STRT.M 43.8912:START DEPTH
STOP.M 295.6560:STOP DEPTH
STEP.M 0.3048:STEP
NULL. -999.2500:NULL VALUE
WELL. NUMAC SURMONT :WELL
COMP. :COMPANY
UWI. 00_06-35-082-06W4_0:UNIQUE WELL ID
FLD. :FIELD
CNTY. :COUNTY
STAT. :STATE
CTRY. :COUNTRY
PDAT. :PERMANENT DATUM
LMF. :LOG MEASURED FROM
DMF. :DRILLING MEASURED FROM
LOC1. 06-35-082-06W4:LOCATION LINE 1
LOC2. :LOCATION LINE 2
LOC3. :LOCATION LINE 3
SEC. :SECTION
TWP. :TOWNSHIP
RAN. :RANGE
SRVC. SCHLUMBERGER:Logging Company
BASE. :Logging Unit Location
ENG. BILL:Logging Engineer
WITN. JIM:Witnessed By
DATE. 21 - MAR - 1973:Date
RUN. ONE:Run No.
MUD_TYPE. GEL:Type Fluid in Hole
MUDS. :Source of Mud Sample
RMFS. :Source of Mud Filtrate
RMCS. :Source of Mud Cake
LOC. :LOCATION
~C
DEPT.M :DEPTH
PHID. :Density Pososity
NPHI. :PHIN         - NEUTRON POROSITY (LIMESTONE)
GR.API :GR           - GAMMA RAY
RHOB.KG/M3 :DENS         - BULK DENSITY
ILD.OHMM :RESD         - DEEP RESISTIVITY (DIL)
~P
EKB. 495.6000:ELEVATION OF KELLY BUSHING
EDF. -999.2500:ELEVATION OF DRILLING FLOOR
EGL. 493.7760:ELEVATION OF GROUND LEVEL
EPD. -999.2500:ELEVATION OF PERMANENT DATUM
APD. -999.2500:LMF DISTANCE ABOVE PERMANENT DATUM
LAT. 56.1488:LATITUDE OF WELL LOCATION
LONG. 110.8308:LONGITUDE OF WELL LOCATION
TDD. 296.8750:Total Depth Driller
TDL. -999.2500:Total Depth Logger
LCSG1. -999.2500:Depth of Casing from Logger
CSIZE. -999.2500:Casing Size
CWT. -999.2500:Casing Weight
BS. -999.2500:Bit Size
TLI. 43.8912:Top Logged Interval
BLI. 295.6560:Bottom Logged Interval
MRT. 17.2222:Maximum Recorded Temperature
WMUD. -999.2500:Drilling Mud Density
DFV. -999.2500:Drilling Mud Viscosity
PH. -999.2500:Drilling Mud pH
DFL. -999.2500:Drilling Mud Fluid Loss
RM. -999.2500:Resistivity of Drilling Fluid
RMT. -999.2500:Measured Temp. of Drilling Fluid
RMF. 0.2500:Resistivity of Drilling Fluid Filtrate
RMFT. -999.2500:Measured Temp. of Drilling Fluid Filtrate
RMC. 0.2500:Resistivity of Mud Cake
RMCT. -999.2500:Measured Temp. of Mud Cake
PHImax.V/V 0.3900:Maximum allowable Porosity
RwBnd.OHMM 0.1500:Bound Water Resistivity
RhoHy.KG/MT 1000.0000:Hydrocarbon Bulk density
SwCutoff.V/V 0.7000:Water Saturation Cutoff
PHINsh.V/V 0.4800:New Description
Rw.OHMM 1.0000:Formation Water Resistivity
Rshl.OHMM 5.0000:Resistivity shale
Trw.DEGC 25.0000:Rw measured at Lab conditions
ShaleCutoff.V/V 0.4000:New Description
GRcln.API 45.0000:Gamma Ray clean
RhoM.KG/MT 2650.0000:Bulk Density Matrix
GRshl.API 90.0000:Gamma Ray shale
m. 2.0000:Archie "m"
n. 2.0000:Archie "n"
GasTol.V/V 0.0500:Gas Tollerance
BHTemp.DEGC 25.0000:Bottom Hole Temperature
BHTDepth.M 1000.0000:Bottom Hole Depth
PHIDsh.US/MT 0.1800:New Description
a. 1.0000:Archie "a"
Gas Tol.V/V 0.0500:Gas Tollerance
RhoF.KG/MT 1000.0000:Bulk Density Fluid
RhoShl.KG/MT 2300.0000:Bulk Density Shale
TarCutoff.V/V 0.0300:New Description
SurfTemp.DEGC 10.0000:New Description
HIshl.V/V 0.4000:Neutron Hydrogen Index shale
MATR. 1.0000:
NEUT. 0.0000:
BHTD.M 296.8750:
DATM.M 495.6050:
NULL. -999.2500:
RESI. 0.0000:
SUFT.C 15.0000:
~A
# ...
  153.6192     0.3330     0.3600    60.3990  2100.5701    12.4290 
  153.9240     0.3305     0.3530    61.6370  2104.6899    12.4360 
  154.2288     0.3415     0.3350    62.8870  2086.4700    12.6800 
  154.5336     0.3427     0.3320    64.1220  2084.5000    12.6840 
  154.8384     0.3328     0.3240    64.7480  2100.8301    12.6930 
  155.1432     0.3242     0.3220    65.3780  2115.1101    12.7000 
  155.4480     0.3254     0.3270    64.7890  2113.1599    12.4700 
  155.7528     0.3192     0.3170    63.5940  2123.3799    12.0210 
  156.0576     0.3105     0.3100    63.0050  2137.6799    11.5890 
  156.3624     0.3018     0.2990    63.0240  2151.9600    11.1690 
  156.6672     0.2895     0.2890    63.0430  2172.3601    11.1740 
  156.9720     0.2697     0.2690    63.6710  2204.9500    13.2260 
  157.2768     0.2487     0.2440    63.6940  2239.5701    17.8390 
  157.5816     0.2413     0.2210    58.8350  2251.8401    73.7430 
  157.8864     0.2179     0.1800    58.8560  2290.5200    27.9530 
  158.1912     0.3115     0.1850    61.3150  2136.0901    10.5970 
  158.4960     0.3126     0.3520    64.9930  2134.1299    10.2130 
  158.8008     0.3126     0.3520    67.4580  2134.1799    10.6100 
  159.1056     0.2916     0.3470    69.9240  2168.8101    11.0180 
  159.4104     0.2854     0.3410    69.9350  2179.0300    11.4440 
  159.7152     0.2989     0.3340    67.5120  2156.7400    11.6660 
  160.0200     0.3075     0.3410    65.0940  2142.5801    11.0370 
  160.3248     0.3124     0.3480    66.3440  2134.5200    11.0440 
  160.6296     0.3025     0.3440    66.9670  2150.8501    11.2600 
  160.9344     0.2914     0.3370    66.9920  2169.2000    11.4760 
  161.2392     0.2877     0.3340    66.3990  2175.3601    11.4840 
  161.5440     0.2889     0.3370    65.8060  2173.3899    11.2800 
  161.8488     0.3011     0.3490    64.6070  2153.1399    11.0750 
  162.1536     0.3011     0.3520    65.8490  2153.2000    10.8780 
  162.4584     0.3109     0.3520    67.0950  2137.0000    10.8820 
  162.7632     0.3170     0.3500    67.1130  2126.8999    11.0940 
  163.0680     0.3367     0.3410    66.5220  2094.4399    11.1020 
  163.3728     0.3243     0.3320    66.5470  2114.8301    10.7020 
  163.6776     0.3071     0.3320    66.5590  2143.3601    10.7060 
  163.9824     0.3267     0.3530    67.1940  2110.8899    10.5170 
  164.2872     0.3181     0.3490    67.8270  2125.1899    10.5210 
  164.5920     0.3254     0.3370    69.0670  2113.0601    10.5250 
  164.8968     0.3180     0.3260    69.6940  2125.3201    10.5340 
  165.2016     0.2982     0.3300    70.3240  2157.8999    10.5400 
  165.5064     0.2994     0.3370    70.3440  2155.9399    10.5440 
  165.8112     0.3265     0.3370    70.3600  2111.2800    10.7510 
  166.1160     0.3080     0.3330    70.9930  2141.8401    10.5570 
  166.4208     0.3042     0.3320    71.6280  2148.0000    10.5620 
  166.7256     0.3017     0.3370    72.8680  2152.1299    10.1830 
  167.0304     0.2968     0.3470    74.1100  2160.3301     9.9980 
  167.3352     0.3041     0.3550    74.7300  2148.2100     9.4620 
  167.6400     0.3016     0.3490    75.9760  2152.3301     9.2900 
  167.9448     0.3003     0.3530    75.9900  2154.4299     8.9550 
  168.2496     0.3126     0.3400    73.5790  2134.1599     8.7930 
  168.5544     0.2966     0.3370    72.9940  2160.6699    10.2150 
  168.8592     0.3027     0.3330    73.0050  2150.5601    10.0330 
  169.1640     0.3076     0.3320    74.2470  2142.5000     6.2950 
  169.4688     0.3088     0.3360    74.8720  2140.5300     6.1820 
  169.7736     0.3112     0.3370    76.1150  2136.5200    10.2400 
  170.0784     0.2988     0.3330    76.7470  2156.9199    10.4370 
  170.3832     0.2939     0.3330    77.3820  2165.1101     9.5140 
  170.6880     0.3000     0.3440    77.3960  2155.0200     8.5110 
  170.9928     0.2963     0.3400    78.6400  2161.1799     7.7560 
  171.2976     0.2851     0.3620    80.4890  2179.5400     6.4380 
  171.6024     0.2962     0.3650    82.3340  2161.3000     3.7490 
  171.9072     0.2851     0.3650    86.0140  2179.6599     3.1710 
  172.2120     0.2616     0.3900    90.3010  2218.3501     3.2940 
  172.5168     0.2369     0.3810    93.9810  2259.0701     3.8270 
  172.8216     0.2283     0.3770    95.2260  2273.3799     5.5620 
  173.1264     0.2344     0.3650    94.0240  2263.2900     5.9970 
  173.4312     0.2319     0.3450    93.4320  2267.3999     5.5680 
  173.7360     0.2232     0.3420    92.8450  2281.7000     4.9810 
  174.0408     0.2306     0.3510    92.8650  2269.5601     4.5400 
  174.3456     0.2219     0.3610    96.5490  2283.8501     4.1370 
  174.6504     0.2280     0.3760    99.0060  2273.7600     3.5650 
  174.9552     0.2428     0.4060    99.6400  2249.4399     3.1890 
  175.2600     0.2526     0.4310    99.6590  2233.2300     3.0180 
  175.5648     0.2562     0.4290   102.1250  2227.2000     2.9640 
  175.8696     0.2587     0.4260   103.3560  2223.2000     2.9110 
  176.1744     0.2611     0.4270   103.9910  2219.1899     2.9670 
  176.4792     0.2586     0.4240   103.4020  2223.3201     3.0250 
  176.7840     0.2475     0.4070   102.2000  2241.6899     3.1410 
  177.0888     0.2437     0.3950   100.3900  2247.8501     3.4510 
  177.3936     0.2314     0.3780    99.1890  2268.2300     3.9350 
  177.6984     0.2227     0.3560    99.2120  2282.5400     4.6570 
  178.0032     0.2177     0.3450    99.2360  2290.7200     5.4100 
  178.3080     0.2128     0.3450    98.6380  2298.9299     5.4140 
  178.6128     0.2152     0.3340    96.8340  2294.9299     5.6220 
  178.9176     0.2213     0.3300    95.6350  2284.8301     6.6550 
  179.2224     0.2299     0.3320    93.2170  2270.6699     6.6580 
  179.5272     0.2373     0.3330    91.4010  2258.5300     6.5390 
  179.8320     0.2434     0.3330    89.5940  2248.4299     6.4220 
  180.1368     0.2384     0.3320    90.2280  2256.6399     6.6690 
  180.4416     0.2408     0.3280    90.2430  2252.6299     7.1900 
  180.7464     0.2494     0.3270    90.2690  2238.4600     7.1960 
  181.0512     0.2555     0.3280    90.8980  2228.3601     7.4730 
  181.3560     0.2543     0.3280    90.9180  2230.4600     8.3640 
  181.6608     0.2555     0.3240    91.5500  2228.4900     6.6890 
  181.9656     0.2456     0.3230    92.7850  2244.8101     6.4470 
  182.2704     0.2209     0.3180    94.0260  2285.5400     7.4910 
  182.5752     0.2061     0.3100    95.8760  2309.9900     8.2280 
  182.8800     0.1986     0.2970    97.1180  2322.2700     9.2070 
  183.1848     0.1961     0.2830    97.1360  2326.3899    10.8980 
  183.4896     0.1936     0.2740    93.4970  2330.5200    11.7490 
  183.7944     0.1899     0.2740    92.9080  2336.6799     6.7150 
  184.0992     0.1960     0.2840    91.7130  2326.5901     5.3710 
  184.4040     0.2182     0.3210    92.9500  2290.0500     5.7900 
  184.7088     0.2144     0.3300    95.4160  2296.2300     6.0150 
  185.0136     0.2193     0.3270    97.2610  2288.1599     5.4810 
  185.3184     0.2217     0.3210    97.8900  2284.1599     5.1860 
  185.6232     0.2069     0.3110    99.1320  2308.6201     6.3710 
  185.9280     0.2106     0.3080    99.7590  2302.5901     7.2650 
  186.2328     0.2216     0.3080    99.1690  2284.3601     7.4060 
  186.5376     0.2314     0.3130    94.9250  2268.1599     7.9850 
  186.8424     0.2425     0.3240    93.1150  2249.9199     8.7710 
  187.1472     0.2437     0.3330    92.5280  2247.9600     8.2980 
  187.4520     0.2424     0.3350    93.1580  2250.0601     5.8230 
  187.7568     0.2399     0.3400    94.3970  2254.1799     4.9260 
  188.0616     0.2374     0.3550    96.2470  2258.3201     4.0140 
  188.3664     0.2324     0.3640    97.4820  2266.5200     3.7980 
  188.6712     0.2299     0.3710    99.3310  2270.6499     4.5790 
  188.9760     0.2311     0.3740   100.5820  2268.6699     4.4970 
  189.2808     0.2237     0.3690   100.5950  2280.9299     4.0990 
  189.5856     0.2175     0.3500    98.1790  2291.1599     4.0250 
  189.8904     0.2322     0.3490    98.8130  2266.8301     4.6760 
