~VERSION INFORMATION
 VERS.                 2.0:   CWLS LOG ASCII STANDARD -VERSION 2.0
 WRAP.                  NO:   ONE LINE PER DEPTH STEP
~WELL INFORMATION BLOCK
#MNEM.UNIT           DATA                    DESCRIPTION OF MNEMONIC
#---------    -------------------            -------------------------------
# Generated from Intellog Unique Number	CW_76_78/WELL/3586
WELL.         06-28-076-19W4                 : Well_name    - WELL
LOC .         00/06-28-076-19W4/0            : Location     - LOCATION
UWI .         00/06-28-076-19W4/0            : Uwi          - UNIQUE WELL ID
ENTR.         JOETTE                         : Entered      - ENTERED BY
SRVC.         SCHLUMBERGER                   : Scn          - SERVICE COMPANY
DATE.         08-26-92                       : Date         - LOG DATE
STRT.M        185                            : top_depth    - START DEPTH
STOP.M        445                            : bot_depth    - STOP DEPTH
STEP.M        0.25                           : increment    - STEP LENGTH
 NULL. -999.2500:NULL Value
~CURVE INFORMATION BLOCK
#MNEM UNIT       ERCB CURVE CODE    CURVE DESCRIPTION
#-----------   ------------------   ----------------------------------
DEPT.M        00 001 00 00         : DEPTH        - DEPTH
ILD .OHMM     00 120 00 00         : RESD         - DEEP RESISTIVITY (DIL)
DPHI.V/V      00 890 00 00         : PHID         - DENSITY POROSITY (SANDSTONE)
NPHI.V/V      00 330 00 00         : PHIN         - NEUTRON POROSITY (SANDSTONE)
GR  .API      00 310 00 00         : GR           - GAMMA RAY
~PARAMETER INFORMATION
#MNEM.UNIT           DATA             DESCRIPTION OF MNEMONIC
#---------         -----------     ------------------------------
GL  .M        573.1                : gl           - GROUND LEVEL ELEVATION
EREF.M        576.4                : kb           - ELEVATION OF DEPTH REFERENCE
DATM.M        576.4                : datum        - DATUM ELEVATION
TDD .M        448                  : tdd          - TOTAL DEPTH DRILLER
RUN .         \                    : Run          - RUN NUMBER
ENG .         BILL                 : Engineer     - RECORDING ENGINEER
WIT .         JIM                  : Witness      - WITNESSED BY
MUD .         GEL                  : Mud_type     - MUD TYPE
MATR.         SANDSTONE            : Logunit      - NEUTRON MATRIX
TMAX.C        23                   : BHT          - MAXIMUM RECORDED TEMPERATURE
BHTD.M        448                  : BHTDEP       - MAXIMUM RECORDED TEMPERATURE
MATR.         1                    : LOGUNIT      - NEUTRON MATRIX
RMT .C        19                   : MDTP         - TEMPERATURE OF MUD
NEUT.         1                    : NEUTRON      - NEUTRON TYPE
RESI.         0                    : RESIST       - RESISTIVITY TYPE
RMC .OHMM     3.53                 : RMC          - RESISTIVITY OF MUD CAKE
RMF .OHMM     7.87                 : RMF          - RESISTIVITY OF MUD FILTRATE
SUFT.C        5                    : SUFT         - SURFACE TEMPERATURE
~A  DEPTH     RESD     PHID     PHIN       GR
# ...
  402.500   83.331    0.029    0.435   27.458
  402.750   70.709    0.016    0.440   32.110
  403.000   73.381    0.088    0.453   49.550
  403.250   77.538    0.124    0.461   49.554
  403.500  100.224    0.140    0.463   45.487
  403.750  105.933    0.151    0.454   39.096
  404.000  111.956    0.172    0.440   33.286
  404.250  125.024    0.113    0.430   29.802
  404.500  129.711    0.080    0.429   28.061
  404.750  137.100    0.047    0.420   25.739
  405.000  147.571    0.036    0.413   18.185
  405.250  153.133    0.031    0.418   15.283
  405.500  158.889    0.025    0.426   15.285
  405.750  167.939    0.029    0.431   17.032
  406.000  180.784    0.036    0.429   18.779
  406.250  184.159    0.047    0.425   20.525
  406.500  194.648    0.056    0.417   25.759
  406.750  205.696    0.050    0.414   22.274
  407.000  221.407    0.031    0.425   18.790
  407.250  229.751    0.017    0.435   15.887
  407.500  217.601    0.055    0.435   15.308
  407.750  206.034    0.053    0.428   14.148
  408.000  195.082    0.047    0.429   13.570
  408.250  171.705    0.042    0.432   15.316
  408.500  162.577    0.045    0.432   19.969
  408.750  151.187    0.062    0.429   16.484
  409.000  154.010    0.095    0.420   13.582
  409.250  162.782    0.090    0.420   13.584
  409.500  162.845    0.052    0.424   14.749
  409.750  148.661    0.040    0.434   18.240
  410.000  133.237    0.014    0.451   20.567
  410.250  110.994    0.051    0.443   17.083
  410.500   78.421    0.072    0.438   16.505
  410.750   66.536    0.097    0.440   20.576
  411.000   54.423    0.067    0.440   25.810
  411.250   37.073    0.037    0.440   34.532
  411.500   33.840    0.020    0.435   44.997
  411.750   30.335    0.018    0.440   58.368
  412.000   28.728    0.058    0.452   61.279
  412.250   28.734    0.074    0.457   61.280
  412.500   30.370    0.074    0.454   59.539
  412.750   32.690    0.095    0.434   52.567
  413.000   35.834    0.057    0.435   46.757
  413.250   46.318    0.025    0.436   42.691
  413.500   94.620    0.068    0.434   36.300
  413.750   92.940    0.136    0.429   29.328
  414.000   59.922    0.120    0.430   18.288
  414.250   49.013    0.095    0.430   18.290
  414.500   26.798    0.068    0.427   25.268
  414.750   22.737    0.057    0.431   31.665
  415.000   21.928   -0.018    0.433   36.898
  415.250   24.938   -0.008    0.432   42.714
  415.500   28.881    0.007    0.429   40.392
  415.750   34.696    0.019    0.424   35.745
  416.000   41.686    0.015    0.421   30.516
  416.250   47.398    0.004    0.426   27.613
  416.500   46.556   -0.022    0.420   22.965
  416.750   42.501   -0.029    0.420   20.643
  417.000   32.906   -0.025    0.436   28.203
  417.250   25.948   -0.015    0.437   32.856
  417.500   22.838    0.031    0.436   39.835
  417.750   25.039    0.086    0.442   39.837
  418.000   26.947    0.168    0.446   39.258
  418.250   32.375    0.203    0.443   37.518
  418.500   45.862    0.202    0.443   32.288
  418.750   50.267    0.116    0.442   25.898
  419.000   60.388    0.068    0.441   21.832
  419.250   71.230    0.010    0.435   19.510
  419.500   73.921    0.009    0.432   18.351
  419.750   71.292    0.018    0.431   18.354
  420.000   66.278    0.030    0.431   18.937
  420.250   58.330    0.054    0.432   21.265
  420.500   50.404    0.066    0.433   24.174
  420.750   48.615    0.097    0.436   28.826
  421.000   53.290    0.109    0.436   32.317
  421.250   58.420    0.080    0.431   31.738
  421.500   67.666    0.060    0.428   29.998
  421.750   75.550    0.049    0.422   28.256
  422.000   85.910    0.046    0.427   24.771
  422.250   94.180    0.070    0.438   13.731
  422.500   92.517    0.060    0.442   11.409
  422.750   87.608    0.032    0.436    9.668
  423.000   84.483    0.026    0.430    8.509
  423.250   78.549    0.043    0.436    8.512
  423.500   71.721    0.126    0.439   10.839
  423.750   64.274    0.132    0.444   15.492
  424.000   56.572    0.097    0.447   19.564
  424.250   52.593    0.060    0.449   19.566
  424.500   50.722    0.040    0.454   17.826
  424.750   52.644    0.036    0.454   16.666
  425.000   53.627    0.042    0.447   12.601
  425.250   53.653    0.035    0.442   11.440
  425.500   50.805    0.019    0.433    8.537
  425.750   47.241    0.052    0.438    8.539
  426.000   43.915    0.044    0.445   10.287
  426.250   40.090    0.030    0.445   12.614
  426.500   38.663    0.033    0.443    9.712
  426.750   38.678    0.060    0.438    9.714
  427.000   39.412    0.085    0.436    9.136
  427.250   40.152    0.114    0.436    9.719
  427.500   40.909    0.133    0.440   11.465
  427.750   40.925    0.110    0.442   14.374
  428.000   38.753    0.103    0.447   19.608
  428.250   35.378    0.092    0.455   26.005
  428.500   30.016    0.105    0.456   34.145
  428.750   25.467    0.115    0.454   38.218
  429.000   23.249    0.100    0.450   37.639
  429.250   21.616    0.089    0.451   37.062
  429.500   20.471    0.080    0.450   35.901
  429.750   20.105    0.083    0.440   34.160
  430.000   20.865    0.088    0.439   31.837
  430.250   21.651    0.080    0.447   27.773
  430.500   22.470    0.078    0.442   25.450
  430.750   23.312    0.076    0.436   24.290
  431.000   23.754    0.075    0.431   25.456
  431.250   23.337    0.082    0.433   26.620
  431.500   22.504    0.099    0.439   28.948
  431.750   21.702    0.109    0.440   30.114
  432.000   20.177    0.103    0.434   30.118
  432.250   18.420    0.099    0.434   30.119
  432.500   16.514    0.098    0.433   29.541
  432.750   15.925    0.097    0.428   29.543
  433.000   15.642    0.090    0.434   30.709
  433.250   15.935    0.081    0.438   31.293
  433.500   17.152    0.077    0.433   33.620
  433.750   18.463    0.075    0.435   36.529
  434.000   18.135    0.069    0.442   39.439
  434.250   17.176    0.069    0.440   41.186
  434.500   16.563    0.150    0.440   40.607
  434.750   16.267    0.106    0.443   36.542
  435.000   15.406    0.083    0.439   33.638
  435.250   15.131    0.056    0.432   31.316
  435.500   14.594    0.086    0.426   30.157
  435.750   14.868    0.097    0.423   30.160
  436.000   15.150    0.067    0.420   29.581
  436.250   15.719    0.047    0.417   28.421
  436.500   16.313    0.040    0.421   26.099
  436.750   16.621    0.050    0.435   23.196
  437.000   16.326    0.076    0.435   22.617
  437.250   15.745    0.083    0.434   22.620
  437.500   14.910    0.090    0.440   24.366
  437.750   14.120    0.084    0.439   24.950
  438.000   13.866    0.078    0.437   22.629
  438.250   13.132    0.075    0.434   22.631
  438.500   12.663    0.081    0.430   22.634
  438.750   11.775    0.087    0.428   25.543
  439.000   11.566    0.093    0.429   30.195
  439.250   11.785    0.101    0.439   36.011
  439.500   12.007    0.101    0.440   38.920
  439.750   12.925    0.096    0.435   42.992
  440.000   13.657    0.103    0.433   47.063
  440.250   14.975    0.103    0.435   51.134
  440.500   15.826    0.094    0.437   53.463
  440.750   16.727    0.082    0.438   51.722
  441.000   17.041    0.071    0.440   49.982
  441.250   17.048    0.063    0.438   49.402
  441.500   16.744    0.049    0.432   48.243
  441.750   16.150    0.022    0.427   45.920
  442.000   15.291    0.031    0.423   47.086
  442.250   13.706    0.077    0.423   50.577
  442.500   12.979    0.060    0.428   54.066
  442.750   13.225    0.033    0.433   60.463
  443.000   14.767    0.020    0.428   58.141
  443.250   15.321    0.004    0.424   54.075
  443.500   16.192    0.012    0.425   51.172
  443.750   16.501    0.035    0.436   48.850
  444.000   16.204    0.050    0.429   45.947
  444.250   15.068    0.068    0.421   43.042
  444.500   13.504    0.068    0.424   40.140
  444.750   12.104    0.067    0.438   38.980
  445.000   12.110    0.071    0.444   38.403
