~VERSION INFORMATION
 VERS.                 2.0:   CWLS LOG ASCII STANDARD -VERSION 2.0
 WRAP.                  NO:   ONE LINE PER DEPTH STEP
~WELL INFORMATION BLOCK
#MNEM.UNIT           DATA                    DESCRIPTION OF MNEMONIC
#---------    -------------------            -------------------------------
# Generated from Intellog Unique Number	CS_77_79/WELL/919
WELL.         NOVALTA WINEFRED               : Well_name    - WELL
LOC .         00/08-17-078-03W4/0            : Location     - LOCATION
UWI .         00/08-17-078-03W4/0            : Uwi          - UNIQUE WELL ID
ENTR.         JHS                            : Entered      - ENTERED BY
SRVC.         SCHLUMBERGER                   : Scn          - SERVICE COMPANY
STRT.M        150                            : top_depth    - START DEPTH
STOP.M        430                            : bot_depth    - STOP DEPTH
STEP.M        0.25                           : increment    - STEP LENGTH
 NULL. -999.2500:NULL Value
~CURVE INFORMATION BLOCK
#MNEM UNIT       ERCB CURVE CODE    CURVE DESCRIPTION
#-----------   ------------------   ----------------------------------
DEPT.M        00 001 00 00         : DEPTH        - DEPTH
DPHI.V/V      00 890 00 00         : PHID         - DENSITY POROSITY (LIMESTONE)
NPHI.V/V      00 330 00 00         : PHIN         - NEUTRON POROSITY (LIMESTONE)
GR  .API      00 310 00 00         : GR           - GAMMA RAY
ILD .OHMM     00 120 00 00         : RESD         - DEEP RESISTIVITY (DIL)
RHOB.KG/M3    00 350 00 00         : DENS         - BULK DENSITY
~PARAMETER INFORMATION
#MNEM.UNIT           DATA             DESCRIPTION OF MNEMONIC
#---------         -----------     ------------------------------
GL  .M        567                  : gl           - GROUND LEVEL ELEVATION
EREF.M        570                  : kb           - ELEVATION OF DEPTH REFERENCE
DATM.M        570                  : datum        - DATUM ELEVATION
TDD .M        428                  : tdd          - TOTAL DEPTH DRILLER
RUN .         ONE                  : Run          - RUN NUMBER
ENG .         BILL                 : Engineer     - RECORDING ENGINEER
WIT .         JIM                  : Witness      - WITNESSED BY
MUD .         GEL                  : Mud_type     - MUD TYPE
MATR.         LIMESTONE            : Logunit      - NEUTRON MATRIX
TMAX.C        25                   : BHT          - MAXIMUM RECORDED TEMPERATURE
BHTD.M        428                  : BHTDEP       - MAXIMUM RECORDED TEMPERATURE
MATR.         1                    : LOGUNIT      - NEUTRON MATRIX
RMT .C        25                   : MDTP         - TEMPERATURE OF MUD
NEUT.         1                    : NEUTRON      - NEUTRON TYPE
RESI.         0                    : RESIST       - RESISTIVITY TYPE
RMC .OHMM     0.25                 : RMC          - RESISTIVITY OF MUD CAKE
RMF .OHMM     0.25                 : RMF          - RESISTIVITY OF MUD FILTRATE
SUFT.C        15                   : SUFT         - SURFACE TEMPERATURE
~A  DEPTH     PHID     PHIN       GR     RESD     DENS
# ...
  369.000    0.277    0.368   59.718    2.659 2236.180
  369.250    0.252    0.351   71.119    2.759 2279.610
  369.500    0.269    0.350   73.520    2.810 2250.640
  369.750    0.296    0.363   68.721    2.708 2203.060
  370.000    0.353    0.368   46.522    2.562 2105.830
  370.250    0.374    0.361   38.724    2.335 2070.660
  370.500    0.376    0.357   38.125    2.052 2066.510
  370.750    0.339    0.367   51.926    2.052 2130.630
  371.000    0.290    0.370   60.327    2.209 2213.360
  371.250    0.269    0.369   63.328    2.250 2250.590
  371.500    0.293    0.376   56.730    2.378 2209.210
  371.750    0.339    0.356   48.331    2.378 2130.600
  372.000    0.336    0.338   42.332    2.334 2134.720
  372.250    0.315    0.321   45.933    2.249 2171.950
  372.500    0.282    0.322   56.134    2.249 2227.790
  372.750    0.293    0.352   65.135    2.291 2209.170
  373.000    0.300    0.344   59.136    2.466 2196.750
  373.250    0.293    0.353   57.938    2.512 2209.150
  373.500    0.300    0.373   53.739    2.466 2196.730
  373.750    0.339    0.356   42.940    2.421 2130.530
  374.000    0.349    0.343   44.141    2.333 2113.980
  374.250    0.328    0.362   49.542    2.333 2149.130
  374.500    0.315    0.362   47.143    2.376 2171.880
  374.750    0.304    0.346   42.345    2.376 2190.490
  375.000    0.301    0.335   39.346    2.420 2194.620
  375.250    0.303    0.336   39.347    2.420 2192.540
  375.500    0.316    0.344   41.748    2.375 2169.780
  375.750    0.322    0.324   42.949    2.332 2159.430
  376.000    0.324    0.315   39.950    2.206 2155.280
  376.250    0.324    0.314   34.551    2.126 2155.270
  376.500    0.322    0.322   37.552    2.126 2159.400
  376.750    0.315    0.316   45.354    2.165 2171.810
  377.000    0.304    0.345   52.555    2.205 2190.420
  377.250    0.310    0.351   57.956    2.165 2180.070
  377.500    0.330    0.341   57.357    2.165 2144.890
  377.750    0.334    0.330   58.558    2.125 2138.680
  378.000    0.335    0.356   60.359    2.125 2136.600
  378.250    0.339    0.364   57.961    2.047 2130.390
  378.500    0.344    0.360   53.762    1.973 2122.110
  378.750    0.345    0.362   50.763    1.937 2120.030
  379.000    0.345    0.355   50.164    1.937 2120.020
  379.250    0.340    0.338   47.765    1.973 2128.290
  379.500    0.337    0.334   47.766    1.973 2134.490
  379.750    0.333    0.339   47.768    2.009 2140.680
  380.000    0.328    0.344   45.368    2.009 2148.950
  380.250    0.322    0.335   39.370    2.046 2159.290
  380.500    0.331    0.315   30.371    2.046 2144.800
  380.750    0.338    0.311   30.372    2.009 2132.380
  381.000    0.334    0.316   32.173    2.008 2138.580
  381.250    0.326    0.327   28.574    1.972 2153.050
  381.500    0.323    0.329   26.776    1.971 2157.180
  381.750    0.327    0.315   27.977    1.971 2150.960
  382.000    0.334    0.310   27.378    1.971 2138.550
  382.250    0.335    0.303   26.779    1.935 2136.470
  382.500    0.331    0.300   27.380    1.935 2144.740
  382.750    0.328    0.309   26.181    1.935 2148.860
  383.000    0.326    0.315   25.582    1.935 2152.990
  383.250    0.321    0.312   26.183    1.934 2161.260
  383.500    0.321    0.305   27.385    1.934 2161.250
  383.750    0.325    0.300   27.386    1.970 2155.040
  384.000    0.318    0.302   27.387    1.970 2165.370
  384.250    0.315    0.309   27.388    2.007 2171.570
  384.500    0.315    0.317   27.389    2.006 2171.560
  384.750    0.310    0.319   29.790    2.044 2179.830
  385.000    0.306    0.327   32.792    2.082 2186.030
  385.250    0.311    0.322   32.193    2.120 2177.750
  385.500    0.315    0.310   30.394    2.160 2171.530
  385.750    0.314    0.302   26.795    2.160 2173.590
  386.000    0.310    0.303   24.396    2.120 2179.790
  386.250    0.310    0.312   24.998    2.081 2179.780
  386.500    0.302    0.315   26.198    2.081 2194.250
  386.750    0.296    0.306   29.200    2.119 2204.590
  387.000    0.288    0.306   32.201    2.159 2216.990
  387.250    0.304    0.313   29.802    2.240 2190.090
  387.500    0.314    0.304   29.203    2.324 2173.540
  387.750    0.283    0.291   33.404    2.411 2225.240
  388.000    0.269    0.277   39.405    2.548 2250.060
  388.250    0.253    0.269   46.607    2.644 2276.940
  388.500    0.256    0.268   51.408    2.644 2272.790
  388.750    0.277    0.276   49.609    2.548 2235.550
  389.000    0.305    0.306   43.610    2.455 2187.970
  389.250    0.328    0.343   43.611    2.366 2148.660
  389.500    0.313    0.352   47.812    2.238 2175.540
  389.750    0.298    0.319   42.413    2.157 2200.350
  390.000    0.279    0.296   36.414    2.157 2233.440
  390.250    0.268    0.286   40.016    2.238 2252.050
  390.500    0.285    0.309   48.417    2.238 2223.090
  390.750    0.325    0.339   39.418    2.157 2154.820
  391.000    0.343    0.323   29.819    2.040 2123.780
  391.250    0.328    0.309   28.620    1.966 2148.590
  391.500    0.326    0.305   28.622    1.860 2152.720
  391.750    0.330    0.321   29.223    1.826 2146.510
  392.000    0.331    0.322   29.224    1.792 2144.430
  392.250    0.328    0.313   28.625    1.792 2148.560
  392.500    0.316    0.309   27.426    1.825 2169.240
  392.750    0.305    0.310   28.627    1.894 2187.850
  393.000    0.308    0.313   29.829    1.965 2183.700
  393.250    0.322    0.315   29.830    2.002 2158.870
  393.500    0.333    0.322   29.231    1.965 2140.250
  393.750    0.343    0.331   29.832    1.929 2123.690
  394.000    0.339    0.339   30.433    1.929 2129.890
  394.250    0.308    0.321   33.434    2.115 2183.660
  394.500    0.255    0.308   47.235    2.277 2274.670
  394.750    0.192    0.299   67.636    2.451 2382.230
  395.000    0.187    0.328   74.838    2.543 2390.500
  395.250    0.263    0.362   73.639    2.543 2260.170
  395.500    0.343    0.383   40.640    2.496 2123.640
  395.750    0.373    0.399   31.041    2.451 2071.920
  396.000    0.359    0.382   26.242    2.193 2096.730
  396.250    0.356    0.361   22.643    1.927 2100.860
  396.500    0.344    0.342   21.445    1.693 2121.540
  396.750    0.246    0.322   25.646    1.757 2289.080
  397.000    0.186    0.313   71.847    1.963 2392.500
  397.250    0.108    0.345   94.048    2.495 2524.880
  397.500    0.065    0.388  100.650    3.001 2599.340
  397.750    0.065    0.373  102.451    3.816 2599.330
  398.000    0.135    0.362  107.251    4.675 2479.350
  398.250    0.170    0.367  114.453    5.320 2419.350
  398.500    0.175    0.388  122.254    5.834 2411.070
  398.750    0.171    0.425  118.055    5.726 2417.270
  399.000    0.168    0.445  120.457    5.519 2423.460
  399.250    0.171    0.449  121.057    5.318 2417.250
  399.500    0.168    0.446  117.458    5.318 2423.450
  399.750    0.159    0.423  109.660    5.620 2437.920
  400.000    0.164    0.400  106.061    5.725 2429.640
  400.250    0.249    0.387  109.062    5.619 2284.830
  400.500    0.284    0.448  115.663    5.123 2224.840
  400.750    0.269    0.493  116.265    4.847 2249.650
  401.000    0.226    0.557  117.465    4.585 2324.110
  401.250    0.192    0.540  121.667    4.419 2382.020
  401.500    0.174    0.464  120.468    4.585 2413.040
  401.750    0.165    0.414  107.269    4.845 2427.510
  402.000    0.156    0.378   92.870    5.027 2444.050
  402.250    0.147    0.349   83.271    5.216 2458.530
  402.500    0.163    0.325   81.472    4.935 2431.630
  402.750    0.220    0.310   79.674    4.668 2334.400
  403.000    0.243    0.309   76.075    4.102 2295.090
  403.250    0.256    0.315   83.877    3.810 2272.330
  403.500    0.278    0.344   83.277    3.740 2235.090
  403.750    0.320    0.412   80.878    4.255 2162.680
  404.000    0.391    0.441   74.879    4.933 2040.630
  404.250    0.471    0.545   80.880    5.510 1904.100
  404.500    0.402    0.555   97.081    5.933 2021.990
  404.750    0.321    0.460  110.883    6.270 2160.580
  405.000    0.174    0.383  117.484    6.155 2412.930
  405.250    0.158    0.367  116.885    5.823 2439.810
