~VERSION INFORMATION
 VERS.                 2.0:   CWLS LOG ASCII STANDARD -VERSION 2.0
 WRAP.                  NO:   ONE LINE PER DEPTH STEP
~WELL INFORMATION BLOCK
#MNEM.UNIT           DATA                    DESCRIPTION OF MNEMONIC
#---------    -------------------            -------------------------------
# Generated from Intellog Unique Number	CS_73_76/WELL/3218
WELL.         CANADIAN OCCIDENTAL            : Well_name    - WELL
LOC .         00/08-24-076-02W4/0            : Location     - LOCATION
UWI .         00/08-24-076-02W4/0            : Uwi          - UNIQUE WELL ID
ENTR.         SP                             : Entered      - ENTERED BY
SRVC.         SCHLUMBERGER                   : Scn          - SERVICE COMPANY
STRT.M        237.744                        : top_depth    - START DEPTH
STOP.M        524.244                        : bot_depth    - STOP DEPTH
STEP.M        0.25                           : increment    - STEP LENGTH
 NULL. -999.2500:NULL Value
~CURVE INFORMATION BLOCK
#MNEM UNIT       ERCB CURVE CODE    CURVE DESCRIPTION
#-----------   ------------------   ----------------------------------
DEPT.M        00 001 00 00         : DEPTH        - DEPTH
DPHI.V/V      00 890 00 00         : PHID         - DENSITY POROSITY (SANDSTONE)
NPHI.V/V      00 330 00 00         : PHIN         - NEUTRON POROSITY (SANDSTONE)
ILD .OHMM     00 120 00 00         : RESD         - DEEP RESISTIVITY (DIL)
GR  .API      00 310 00 00         : GR           - GAMMA RAY
~PARAMETER INFORMATION
#MNEM.UNIT           DATA             DESCRIPTION OF MNEMONIC
#---------         -----------     ------------------------------
GL  .M        630.326              : gl           - GROUND LEVEL ELEVATION
EREF.M        633.832              : kb           - ELEVATION OF DEPTH REFERENCE
DATM.M        630.326              : datum        - DATUM ELEVATION
TDD .M        536.143              : tdd          - TOTAL DEPTH DRILLER
RUN .         ONE                  : Run          - RUN NUMBER
ENG .         BILL                 : Engineer     - RECORDING ENGINEER
WIT .         JIM                  : Witness      - WITNESSED BY
MUD .         GEL                  : Mud_type     - MUD TYPE
MATR.         SANDSTONE            : Logunit      - NEUTRON MATRIX
TMAX.C        22.2222              : BHT          - MAXIMUM RECORDED TEMPERATURE
BHTD.M        536.143              : BHTDEP       - MAXIMUM RECORDED TEMPERATURE
MATR.         1                    : LOGUNIT      - NEUTRON MATRIX
RMT .C        25                   : MDTP         - TEMPERATURE OF MUD
NEUT.         1                    : NEUTRON      - NEUTRON TYPE
RESI.         0                    : RESIST       - RESISTIVITY TYPE
RMC .OHMM     0.25                 : RMC          - RESISTIVITY OF MUD CAKE
RMF .OHMM     0.25                 : RMF          - RESISTIVITY OF MUD FILTRATE
SUFT.C        15                   : SUFT         - SURFACE TEMPERATURE
~A  DEPTH     PHID     PHIN     RESD       GR
# ...
  455.244    0.262    0.314    1.996   30.123
  455.494    0.286    0.339    1.902   32.059
  455.744    0.294    0.359    1.844   33.809
  455.994    0.312    0.374    1.827   34.722
  456.244    0.308    0.369    1.796   35.796
  456.494    0.308    0.364    1.759   35.217
  456.744    0.313    0.369    1.762   34.665
  456.994    0.318    0.361    1.743   32.907
  457.244    0.319    0.358    1.733   31.363
  457.494    0.326    0.358    1.702   30.429
  457.744    0.316    0.350    1.699   29.680
  457.994    0.300    0.349    1.695   30.421
  458.244    0.309    0.346    1.667   30.418
  458.494    0.306    0.340    1.669   29.706
  458.744    0.309    0.344    1.670   26.015
  458.994    0.297    0.343    1.701   24.632
  459.244    0.307    0.349    1.700   25.424
  459.494    0.314    0.353    1.699   26.716
  459.744    0.302    0.359    1.730   28.376
  459.994    0.303    0.355    1.772   28.562
  460.244    0.296    0.351    1.825   29.607
  460.494    0.295    0.354    1.885   29.832
  460.744    0.309    0.359    1.901   31.540
  460.994    0.316    0.359    1.933   32.898
  461.244    0.304    0.341    1.948   35.350
  461.494    0.305    0.334    1.965   35.454
  461.744    0.295    0.337    1.970   33.939
  461.994    0.296    0.355    1.930   32.937
  462.244    0.306    0.365    1.894   34.283
  462.494    0.309    0.365    1.813   34.221
  462.744    0.287    0.344    1.742   35.710
  462.994    0.293    0.341    1.669   39.485
  463.244    0.297    0.359    1.588   46.533
  463.494    0.319    0.371    1.544   49.185
  463.744    0.317    0.375    1.496   46.901
  463.994    0.317    0.368    1.480   44.064
  464.244    0.322    0.367    1.464   43.557
  464.494    0.328    0.373    1.442   43.014
  464.744    0.329    0.375    1.412   41.837
  464.994    0.327    0.374    1.415   36.773
  465.244    0.320    0.375    1.416   34.012
  465.494    0.333    0.380    1.424   30.645
  465.744    0.317    0.375    1.441   33.421
  465.994    0.305    0.370    1.461   34.319
  466.244    0.307    0.377    1.482   35.161
  466.494    0.308    0.374    1.521   35.207
  466.744    0.311    0.378    1.604   31.607
  466.994    0.314    0.374    1.619   29.770
  467.244    0.311    0.359    1.689   30.707
  467.494    0.306    0.345    1.858   33.770
  467.744    0.282    0.308    1.864   38.354
  467.994    0.264    0.315    1.923   39.991
  468.244    0.268    0.323    1.985   43.659
  468.494    0.259    0.332    2.004   48.849
  468.744    0.262    0.325    2.042   53.175
  468.994    0.262    0.301    2.040   56.406
  469.244    0.250    0.306    2.039   54.078
  469.494    0.260    0.317    2.040   44.062
  469.744    0.282    0.323    2.040   34.067
  469.994    0.273    0.323    2.010   31.452
  470.244    0.271    0.318    1.947   32.422
  470.494    0.263    0.310    1.922   36.328
  470.744    0.250    0.303    1.867   40.763
  470.994    0.240    0.298    1.807   44.770
  471.244    0.243    0.299    1.785   44.054
  471.494    0.281    0.346    1.663   41.626
  471.744    0.296    0.365    1.622   43.851
  471.994    0.292    0.371    1.608   48.588
  472.244    0.286    0.354    1.557   65.244
  472.494    0.289    0.358    1.551   79.445
  472.744    0.301    0.372    1.551   71.343
  472.994    0.294    0.373    1.584   60.371
  473.244    0.291    0.367    1.650   55.188
  473.494    0.284    0.364    1.725   51.494
  473.744    0.285    0.357    1.833   46.925
  473.994    0.286    0.356    1.906   45.560
  474.244    0.280    0.366    1.966   48.525
  474.494    0.270    0.374    2.009   52.720
  474.744    0.262    0.365    1.962   59.951
  474.994    0.261    0.363    1.841   65.648
  475.244    0.275    0.375    1.820   61.734
  475.494    0.305    0.367    1.762   57.717
  475.744    0.313    0.358    1.727   54.200
  475.994    0.295    0.362    1.780   53.412
  476.244    0.280    0.368    1.858   53.981
  476.494    0.268    0.371    1.970   57.615
  476.744    0.268    0.381    2.088   67.808
  476.994    0.259    0.399    2.116   74.423
  477.244    0.250    0.411    2.116   78.310
  477.494    0.259    0.418    2.115   71.717
  477.744    0.275    0.422    2.115   64.894
  477.994    0.284    0.424    2.103   64.603
  478.244    0.279    0.428    2.038   70.701
  478.494    0.272    0.442    1.939   74.650
  478.744    0.297    0.436    1.879   75.745
  478.994    0.327    0.404    1.733   75.300
  479.244    0.334    0.392    1.660   75.886
  479.494    0.318    0.377    1.632   77.789
  479.744    0.306    0.390    1.632   79.295
  479.994    0.304    0.397    1.676   78.844
  480.244    0.298    0.396    1.799   76.827
  480.494    0.295    0.412    1.849   74.356
  480.744    0.276    0.413    1.861   70.919
  480.994    0.284    0.403    1.824   67.311
  481.244    0.304    0.405    1.690   65.718
  481.494    0.319    0.399    1.627   65.778
  481.744    0.331    0.390    1.608   66.771
  481.994    0.315    0.392    1.617   68.791
  482.244    0.304    0.387    1.512   62.010
  482.494    0.307    0.380    1.548   56.714
  482.744    0.308    0.376    1.579   54.590
  482.994    0.313    0.379    1.616   55.491
  483.244    0.303    0.380    1.636   56.440
  483.494    0.310    0.368    1.671   57.219
  483.744    0.295    0.364    1.668   55.608
  483.994    0.301    0.365    1.667   54.047
  484.244    0.282    0.372    1.656   58.959
  484.494    0.275    0.376    1.638   60.001
  484.744    0.286    0.382    1.638   56.489
  484.994    0.290    0.391    1.640   54.289
  485.244    0.286    0.391    1.609   52.250
  485.494    0.290    0.391    1.591   49.998
  485.744    0.297    0.383    1.581   45.051
  485.994    0.301    0.379    1.553   41.094
  486.244    0.306    0.372    1.551   41.413
  486.494    0.306    0.363    1.550   43.967
  486.744    0.293    0.353    1.551   45.983
  486.994    0.283    0.349    1.564   47.014
  487.244    0.293    0.357    1.580   48.002
  487.494    0.300    0.377    1.631   49.944
  487.744    0.298    0.380    1.689   51.609
  487.994    0.291    0.377    1.795   54.429
  488.244    0.284    0.374    1.934   58.960
  488.494    0.276    0.367    2.212   66.847
  488.744    0.242    0.367    2.576   88.752
  488.994    0.208    0.411    2.830  105.260
  489.244    0.235    0.444    3.080   99.635
  489.494    0.291    0.468    3.315   94.709
  489.744    0.332    0.478    3.676   91.183
  489.994    0.357    0.491    3.801   88.535
  490.244    0.388    0.527    4.043   85.743
  490.494    0.420    0.549    4.249   80.071
  490.744    0.444    0.588    4.478   74.222
  490.994    0.470    0.617    4.623   64.558
  491.244    0.425    0.656    4.630   54.890
  491.494    0.241    0.632    4.319   47.694
  491.744    0.179    0.274    4.235   45.168
  491.994    0.169    0.296    4.236   52.957
  492.244    0.152    0.305    4.235   62.129
  492.494    0.138    0.311    4.203   74.205
  492.744    0.131    0.320    3.961   77.987
  492.994    0.164    0.354    3.674   65.531
  493.244    0.184    0.338    3.392   48.058
  493.494    0.221    0.336    3.273   40.764
  493.744    0.251    0.344    3.259   43.508
  493.994    0.256    0.347    3.359   51.217
  494.244    0.228    0.354    3.531   63.003
  494.494    0.220    0.423    3.746   75.058
  494.744    0.218    0.460    3.949   68.547
  494.994    0.183    0.511    3.938   57.848
  495.244    0.192    0.507    3.722   46.020
  495.494    0.189    0.372    3.304   43.558
  495.744    0.195    0.360    3.167   60.540
  495.994    0.210    0.382    3.342   86.656
  496.244    0.187    0.406    3.621   94.964
  496.494    0.186    0.418    4.095   73.557
  496.744    0.168    0.429    4.592   57.916
  496.994    0.149    0.380    4.807   49.731
  497.244    0.190    0.360    4.390   38.418
  497.494    0.221    0.341    3.950   33.038
  497.744    0.238    0.327    3.664   31.658
  497.994    0.239    0.324    3.518   35.145
  498.244    0.234    0.325    3.624   38.493
  498.494    0.208    0.318    3.854   42.627
