~VERSION INFORMATION
 VERS.                 2.0:   CWLS LOG ASCII STANDARD -VERSION 2.0
 WRAP.                  NO:   ONE LINE PER DEPTH STEP
~WELL INFORMATION BLOCK
#MNEM.UNIT           DATA                    DESCRIPTION OF MNEMONIC
#---------    -------------------            -------------------------------
# Generated from Intellog Unique Number	CS_67_68/WELL/2180
WELL.         07-33-067-04W4                 : Well_name    - WELL
LOC .         00/07-33-067-04W4/0            : Location     - LOCATION
UWI .         00/07-33-067-04W4/0            : Uwi          - UNIQUE WELL ID
ENTR.         SP                             : Entered      - ENTERED BY
SRVC.         SCHLUMBERGER                   : Scn          - SERVICE COMPANY
STRT.M        345                            : top_depth    - START DEPTH
STOP.M        571                            : bot_depth    - STOP DEPTH
STEP.M        0.25                           : increment    - STEP LENGTH
 NULL. -999.2500:NULL Value
~CURVE INFORMATION BLOCK
#MNEM UNIT       ERCB CURVE CODE    CURVE DESCRIPTION
#-----------   ------------------   ----------------------------------
DEPT.M        00 001 00 00         : DEPTH        - DEPTH
ILD .OHMM     00 120 00 00         : RESD         - DEEP RESISTIVITY (DIL)
DPHI.V/V      00 890 00 00         : PHID         - DENSITY POROSITY (LIMESTONE)
NPHI.V/V      00 330 00 00         : PHIN         - NEUTRON POROSITY (LIMESTONE)
GR  .API      00 310 00 00         : GR           - GAMMA RAY
CALI.MM       00 280 01 00         : CAL          - CALIPER
~PARAMETER INFORMATION
#MNEM.UNIT           DATA             DESCRIPTION OF MNEMONIC
#---------         -----------     ------------------------------
GL  .M        697.8                : gl           - GROUND LEVEL ELEVATION
EREF.M        701.6                : kb           - ELEVATION OF DEPTH REFERENCE
DATM.M        701.6                : datum        - DATUM ELEVATION
TDD .M        577                  : tdd          - TOTAL DEPTH DRILLER
RUN .         ONE                  : Run          - RUN NUMBER
ENG .         BILL                 : Engineer     - RECORDING ENGINEER
WIT .         JIM                  : Witness      - WITNESSED BY
MUD .         GEL                  : Mud_type     - MUD TYPE
MATR.         LIMESTONE            : Logunit      - NEUTRON MATRIX
TMAX.C        22.7                 : BHT          - MAXIMUM RECORDED TEMPERATURE
BHTD.M        577                  : BHTDEP       - MAXIMUM RECORDED TEMPERATURE
MATR.         1                    : LOGUNIT      - NEUTRON MATRIX
RMT .C        25                   : MDTP         - TEMPERATURE OF MUD
NEUT.         1                    : NEUTRON      - NEUTRON TYPE
RESI.         0                    : RESIST       - RESISTIVITY TYPE
RMC .OHMM     0.25                 : RMC          - RESISTIVITY OF MUD CAKE
RMF .OHMM     0.25                 : RMF          - RESISTIVITY OF MUD FILTRATE
SUFT.C        15                   : SUFT         - SURFACE TEMPERATURE
~A  DEPTH     RESD     PHID     PHIN       GR      CAL
# ...
  381.500    6.664    0.269    0.443  103.598  183.334
  381.750    6.624    0.258    0.447  103.417  185.573
  382.000    6.595    0.282    0.454  102.626  186.796
  382.250    6.630    0.290    0.457  102.506  184.868
  382.500    6.803    0.288    0.458  102.935  181.620
  382.750    7.140    0.278    0.461   99.218  179.591
  383.000    7.341    0.268    0.465   94.586  178.578
  383.250    7.662    0.275    0.473   91.417  177.667
  383.500    7.877    0.283    0.461   95.444  176.959
  383.750    8.008    0.285    0.450  101.666  176.556
  384.000    8.095    0.285    0.441  103.741  176.052
  384.250    8.136    0.284    0.440  103.804  175.750
  384.500    8.148    0.290    0.438  101.611  175.753
  384.750    7.993    0.295    0.433   99.296  175.758
  385.000    7.753    0.298    0.423   96.859  175.760
  385.250    7.463    0.291    0.410   97.471  175.561
  385.500    7.431    0.288    0.436   95.644  175.463
  385.750    7.655    0.283    0.445   93.573  175.771
  386.000    8.004    0.282    0.444   91.745  176.181
  386.250    8.385    0.286    0.451   88.576  177.201
  386.500    9.103    0.295    0.443   91.688  178.220
  386.750    9.995    0.298    0.443   94.678  179.952
  387.000   11.309    0.305    0.461   90.717  181.378
  387.250   12.142    0.315    0.437   82.853  183.109
  387.500   13.207    0.326    0.414   81.270  184.941
  387.750   14.151    0.314    0.431   84.748  186.876
  388.000   15.508    0.302    0.443   89.933  189.115
  388.250   17.947    0.317    0.455   83.959  191.456
  388.500   20.156    0.333    0.466   76.339  193.899
  388.750   22.467    0.341    0.479   69.512  195.732
  389.000   25.042    0.341    0.470   73.234  197.056
  389.250   27.036    0.337    0.455   77.443  197.974
  389.500   28.536    0.334    0.454   83.360  199.096
  389.750   27.575    0.359    0.463   85.008  199.607
  390.000   25.373    0.377    0.465   77.510  199.713
  390.250   24.061    0.365    0.472   73.915  199.512
  390.500   23.514    0.355    0.471   72.088  199.008
  390.750   23.194    0.348    0.462   68.553  197.792
  391.000   22.968    0.347    0.467   64.165  196.474
  391.250   22.614    0.349    0.460   65.265  194.750
  391.500   22.100    0.352    0.453   68.986  192.721
  391.750   20.997    0.369    0.466   72.769  189.777
  392.000   18.998    0.372    0.466   74.478  187.850
  392.250   16.586    0.325    0.445   74.663  186.024
  392.500   15.007    0.299    0.454   71.678  183.893
  392.750   16.018    0.292    0.470   65.643  181.966
  393.000   16.686    0.316    0.456   60.401  178.820
  393.250   17.156    0.341    0.438   56.501  176.180
  393.500   17.213    0.353    0.438   52.417  172.221
  393.750   15.457    0.356    0.441   55.529  169.886
  394.000   12.948    0.357    0.428   57.971  166.536
  394.250   10.118    0.351    0.419   60.595  164.101
  394.500    8.523    0.344    0.415   63.829  162.072
  394.750    8.053    0.338    0.414   66.940  160.551
  395.000    7.694    0.343    0.419   71.516  159.131
  395.250    7.462    0.344    0.429   76.335  157.712
  395.500    7.403    0.342    0.443   80.849  156.293
  395.750    7.315    0.341    0.445   85.058  155.585
  396.000    7.244    0.340    0.435   91.219  155.589
  396.250    7.172    0.342    0.429   93.660  155.998
  396.500    7.157    0.351    0.419   92.687  156.408
  396.750    7.153    0.346    0.408   96.957  156.920
  397.000    7.204    0.336    0.396   96.227  157.330
  397.250    7.269    0.332    0.396   90.864  157.435
  397.500    7.389    0.328    0.422   89.097  157.540
  397.750    7.413    0.321    0.452   85.868  157.849
  398.000    7.410    0.318    0.470   81.967  158.158
  398.250    7.420    0.323    0.464   85.567  158.466
  398.500    7.529    0.326    0.448   88.374  158.875
  398.750    7.625    0.328    0.452   86.669  159.285
  399.000    7.825    0.330    0.451   82.647  159.899
  399.250    8.000    0.325    0.445   78.258  160.715
  399.500    8.086    0.323    0.433   74.053  162.954
  399.750    8.159    0.301    0.430   76.494  164.685
  400.000    8.079    0.282    0.434   83.874  165.705
  400.250    7.392    0.283    0.434   87.108  166.827
  400.500    6.828    0.280    0.430   86.561  167.846
  400.750    6.536    0.251    0.436   89.734  170.493
  401.000    6.509    0.227    0.467   93.944  171.308
  401.250    6.654    0.280    0.462   85.226  171.210
  401.500    6.815    0.297    0.425   79.070  168.876
  401.750    7.047    0.300    0.401   74.133  164.104
  402.000    7.578    0.288    0.403   76.086  162.887
  402.250    7.940    0.283    0.419   75.966  163.196
  402.500    8.539    0.291    0.430   72.615  163.504
  402.750    9.662    0.282    0.400   67.983  163.914
  403.000   11.036    0.274    0.388   63.777  164.324
  403.250   13.014    0.296    0.390   60.609  164.430
  403.500   14.864    0.314    0.408   57.989  164.331
  403.750   16.352    0.327    0.425   55.613  164.132
  404.000   17.489    0.330    0.423   54.273  164.033
  404.250   18.564    0.323    0.416   54.215  163.630
  404.500   19.158    0.314    0.415   54.461  163.329
  404.750   19.041    0.326    0.418   56.170  162.824
  405.000   18.399    0.332    0.423   58.062  162.116
  405.250   17.712    0.334    0.427   59.467  161.104
  405.500   15.639    0.335    0.428   58.432  159.989
  405.750   13.125    0.337    0.431   59.471  159.078
  406.000   11.632    0.339    0.429   60.449  158.573
  406.250   10.041    0.343    0.418   59.902  158.780
  406.500    8.883    0.345    0.407   57.953  159.495
  406.750    8.360    0.341    0.396   58.504  160.007
  407.000    8.155    0.336    0.386   60.945  160.417
  407.250    7.984    0.334    0.374   63.081  160.522
  407.500    7.801    0.331    0.385   63.754  160.830
  407.750    7.667    0.332    0.394   66.256  161.139
  408.000    7.564    0.333    0.398   68.697  161.345
  408.250    7.532    0.337    0.401   66.017  161.349
  408.500    7.614    0.340    0.403   64.006  160.945
  408.750    7.739    0.348    0.408   63.947  160.543
  409.000    7.736    0.341    0.420   64.376  160.444
  409.250    7.747    0.330    0.417   62.854  160.347
  409.500    7.831    0.339    0.414   62.002  160.146
  409.750    7.842    0.337    0.410   62.736  159.947
  410.000    7.854    0.334    0.408   65.665  159.950
  410.250    7.821    0.342    0.416   66.582  159.852
  410.500    7.758    0.338    0.425   65.242  159.550
  410.750    7.653    0.333    0.404   63.598  159.351
  411.000    7.535    0.343    0.380   60.856  159.253
  411.250    7.336    0.348    0.379   61.041  159.358
  411.500    7.196    0.348    0.397   63.117  159.362
  411.750    7.099    0.345    0.418   66.046  159.365
  412.000    6.951    0.341    0.410   68.121  159.572
  412.250    6.869    0.331    0.408   69.403  159.677
  412.500    6.852    0.331    0.427   69.954  159.782
  412.750    6.850    0.328    0.427   66.603  159.684
  413.000    6.872    0.326    0.415   64.410  159.382
  413.250    6.895    0.332    0.427   62.705  158.979
  413.500    6.879    0.339    0.436   62.280  158.677
  413.750    6.837    0.343    0.443   61.489  158.173
  414.000    6.821    0.345    0.431   58.869  157.974
  414.250    6.780    0.345    0.416   56.615  157.876
  414.500    6.738    0.348    0.405   54.910  157.980
  414.750    6.734    0.356    0.418   53.571  158.187
  415.000    6.719    0.361    0.421   52.536  158.190
  415.250    6.666    0.355    0.422   52.538  157.788
  415.500    6.625    0.355    0.423   53.760  156.876
  415.750    6.585    0.365    0.425   54.433  155.457
  416.000    6.508    0.371    0.427   55.837  154.647
  416.250    6.348    0.363    0.442   54.620  153.939
  416.500    6.031    0.359    0.452   57.793  153.536
  416.750    5.498    0.351    0.437   64.441  154.455
  417.000    4.728    0.324    0.421   71.821  158.828
  417.250    4.351    0.292    0.440   81.153  168.689
  417.500    3.951    0.260    0.482   93.777  177.229
  417.750    4.024    0.284    0.519   98.779  183.432
