~VERSION INFORMATION
 VERS.                 2.0:   CWLS LOG ASCII STANDARD -VERSION 2.0
 WRAP.                  NO:   ONE LINE PER DEPTH STEP
~WELL INFORMATION BLOCK
#MNEM.UNIT           DATA                    DESCRIPTION OF MNEMONIC
#---------    -------------------            -------------------------------
# Generated from Intellog Unique Number	CS_73_76/WELL/1043
WELL.         BOW VALLEY EXPLORATION         : Well_name    - WELL
LOC .         00/06-18-076-13W4/0            : Location     - LOCATION
UWI .         00/06-18-076-13W4/0            : Uwi          - UNIQUE WELL ID
ENTR.         SP                             : Entered      - ENTERED BY
SRVC.         SCHLUMBERGER                   : Scn          - SERVICE COMPANY
STRT.M        300                            : top_depth    - START DEPTH
STOP.M        540                            : bot_depth    - STOP DEPTH
STEP.M        0.25                           : increment    - STEP LENGTH
 NULL. -999.2500:NULL Value
~CURVE INFORMATION BLOCK
#MNEM UNIT       ERCB CURVE CODE    CURVE DESCRIPTION
#-----------   ------------------   ----------------------------------
DEPT.M        00 001 00 00         : DEPTH        - DEPTH
ILD .OHMM     00 120 00 00         : RESD         - DEEP RESISTIVITY (DIL)
DPHI.V/V      00 890 00 00         : PHID         - DENSITY POROSITY (LIMESTONE)
NPHI.V/V      00 330 00 00         : PHIN         - NEUTRON POROSITY (LIMESTONE)
GR  .API      00 310 00 00         : GR           - GAMMA RAY
~PARAMETER INFORMATION
#MNEM.UNIT           DATA             DESCRIPTION OF MNEMONIC
#---------         -----------     ------------------------------
GL  .M        674.43               : gl           - GROUND LEVEL ELEVATION
EREF.M        677.88               : kb           - ELEVATION OF DEPTH REFERENCE
DATM.M        674.43               : datum        - DATUM ELEVATION
TDD .M        547                  : tdd          - TOTAL DEPTH DRILLER
RUN .         ONE                  : Run          - RUN NUMBER
ENG .         BILL                 : Engineer     - RECORDING ENGINEER
WIT .         JIM                  : Witness      - WITNESSED BY
MUD .         GEL                  : Mud_type     - MUD TYPE
MATR.         LIMESTONE            : Logunit      - NEUTRON MATRIX
TMAX.C        23                   : BHT          - MAXIMUM RECORDED TEMPERATURE
BHTD.M        547                  : BHTDEP       - MAXIMUM RECORDED TEMPERATURE
MATR.         1                    : LOGUNIT      - NEUTRON MATRIX
RMT .C        25                   : MDTP         - TEMPERATURE OF MUD
NEUT.         1                    : NEUTRON      - NEUTRON TYPE
RESI.         0                    : RESIST       - RESISTIVITY TYPE
RMC .OHMM     0.25                 : RMC          - RESISTIVITY OF MUD CAKE
RMF .OHMM     0.25                 : RMF          - RESISTIVITY OF MUD FILTRATE
SUFT.C        15                   : SUFT         - SURFACE TEMPERATURE
~A  DEPTH     RESD     PHID     PHIN       GR
# ...
  343.500    5.998    0.305    0.439   92.982
  343.750    5.777    0.293    0.432  101.557
  344.000    5.885    0.269    0.450  108.294
  344.250    5.995    0.248    0.475  116.257
  344.500    6.108    0.240    0.492  118.708
  344.750    6.460    0.262    0.486  114.426
  345.000    6.705    0.277    0.475  116.266
  345.250    7.092    0.259    0.469  120.554
  345.500    7.361    0.245    0.454  119.333
  345.750    7.932    0.239    0.464  116.275
  346.000    8.389    0.251    0.450  110.155
  346.250    8.873    0.262    0.432  103.423
  346.500    9.384    0.254    0.415  100.365
  346.750    9.560    0.241    0.416  104.043
  347.000    9.559    0.241    0.430  106.494
  347.250    9.380    0.252    0.442  103.436
  347.500    9.034    0.263    0.453  100.990
  347.750    8.866    0.252    0.470   99.156
  348.000    8.225    0.235    0.483   97.936
  348.250    7.489    0.221    0.481   97.938
  348.500    7.213    0.220    0.471  101.615
  348.750    7.212    0.213    0.481  104.066
  349.000    7.627    0.197    0.475  104.070
  349.250    8.219    0.198    0.464  102.236
  349.500    8.693    0.212    0.455   98.565
  349.750   10.095    0.221    0.426   90.609
  350.000   11.725    0.226    0.416   78.367
  350.250   13.117    0.212    0.399   67.350
  350.500   14.135    0.251    0.414   60.006
  350.750   14.672    0.289    0.426   55.724
  351.000   14.947    0.308    0.392   53.277
  351.250   14.944    0.307    0.393   50.832
  351.500   14.943    0.320    0.400   50.222
  351.750   14.663    0.324    0.384   51.450
  352.000   14.662    0.316    0.374   55.126
  352.250   14.387    0.316    0.376   56.966
  352.500   14.118    0.323    0.379   53.908
  352.750   14.116    0.333    0.395   52.686
  353.000   14.115    0.340    0.399   52.077
  353.250   14.113    0.330    0.404   52.081
  353.500   14.111    0.333    0.418   56.369
  353.750   14.109    0.338    0.428   58.210
  354.000   14.107    0.336    0.426   58.212
  354.250   14.105    0.330    0.394   55.153
  354.500   13.841    0.333    0.388   53.320
  354.750   13.582    0.328    0.390   56.385
  355.000   13.581    0.326    0.390   55.775
  355.250   13.579    0.320    0.391   53.941
  355.500   13.576    0.309    0.395   54.557
  355.750   13.575    0.301    0.408   55.173
  356.000   13.573    0.312    0.405   56.400
  356.250   13.571    0.322    0.401   57.016
  356.500   13.569    0.326    0.400   57.631
  356.750   13.568    0.329    0.395   57.021
  357.000   13.565    0.335    0.388   55.187
  357.250   13.564    0.331    0.388   55.804
  357.500   13.562    0.335    0.400   55.806
  357.750   13.560    0.344    0.416   57.033
  358.000   13.557    0.335    0.406   58.261
  358.250   13.556    0.329    0.400   57.651
  358.500   13.554    0.324    0.395   57.042
  358.750   13.552    0.319    0.402   57.657
  359.000   13.550    0.318    0.418   58.885
  359.250   13.548    0.323    0.438   57.664
  359.500   13.547    0.341    0.448   56.443
  359.750   13.544    0.341    0.433   57.671
  360.000   13.543    0.339    0.410   58.897
  360.250   13.540    0.329    0.406   60.126
  360.500   13.539    0.325    0.407   61.353
  360.750   13.286    0.326    0.410   63.193
  361.000   13.284    0.329    0.412   64.420
  361.250   13.036    0.330    0.412   66.260
  361.500   13.034    0.332    0.416   68.713
  361.750   13.033    0.329    0.412   68.103
  362.000   12.788    0.325    0.403   66.882
  362.250   12.787    0.316    0.414   65.047
  362.500   12.548    0.331    0.418   63.826
  362.750   12.546    0.336    0.418   66.890
  363.000   12.311    0.346    0.412   66.893
  363.250   12.082    0.335    0.423   63.224
  363.500   11.855    0.343    0.434   61.389
  363.750   11.854    0.348    0.449   63.230
  364.000   11.853    0.342    0.466   65.069
  364.250   11.851    0.335    0.444   68.747
  364.500   11.629    0.346    0.423   69.974
  364.750   11.848    0.349    0.408   71.813
  365.000   11.847    0.348    0.402   69.979
  365.250   11.845    0.353    0.413   71.819
  365.500   11.842    0.349    0.429   75.496
  365.750   11.841    0.343    0.433   78.560
  366.000   11.840    0.333    0.436   73.665
  366.250   11.838    0.329    0.440   71.219
  366.500   12.060    0.321    0.430   73.060
  366.750   12.287    0.315    0.425   74.899
  367.000   12.516    0.311    0.419   73.065
  367.250   12.752    0.322    0.419   76.741
  367.500   12.991    0.324    0.423   85.928
  367.750   12.989    0.316    0.431   95.115
  368.000   13.482    0.319    0.446   98.179
  368.250   13.735    0.324    0.462   88.998
  368.500   14.526    0.317    0.461   77.370
  368.750   14.798    0.309    0.446   75.536
  369.000   15.077    0.308    0.452   74.314
  369.250   15.359    0.317    0.441   72.481
  369.500   14.793    0.317    0.434   70.035
  369.750   14.516    0.314    0.435   67.588
  370.000   14.245    0.304    0.445   66.366
  370.250   13.719    0.303    0.451   67.597
  370.500   13.717    0.322    0.445   68.212
  370.750   13.461    0.333    0.444   68.826
  371.000   13.459    0.338    0.446   68.829
  371.250   13.207    0.337    0.448   68.831
  371.500   13.206    0.336    0.440   68.222
  371.750   13.204    0.330    0.430   66.388
  372.000   13.203    0.332    0.429   64.555
  372.250   13.449    0.331    0.432   63.945
  372.500   13.448    0.323    0.440   64.561
  372.750   13.197    0.323    0.448   66.401
  373.000   13.444    0.328    0.466   67.016
  373.250   13.697    0.322    0.466   65.794
  373.500   14.760    0.320    0.462   62.124
  373.750   16.512    0.301    0.453   60.905
  374.000   18.472    0.282    0.399   60.907
  374.250   21.055    0.211    0.262   59.685
  374.500   20.662    0.070    0.211   56.626
  374.750   18.464    0.069    0.185   52.343
  375.000   16.500    0.180    0.225   54.796
  375.250   14.204    0.311    0.441   59.084
  375.500   12.457    0.350    0.463   65.821
  375.750   11.556    0.345    0.462   66.437
  376.000   11.130    0.339    0.452   68.278
  376.250   11.339    0.327    0.443   68.280
  376.500   11.552    0.329    0.448   66.446
  376.750   11.768    0.325    0.441   68.286
  377.000   11.989    0.334    0.447   68.289
  377.250   11.987    0.344    0.457   68.905
  377.500   11.986    0.338    0.460   70.132
  377.750   11.762    0.332    0.453   72.584
  378.000   11.327    0.340    0.445   70.140
  378.250   11.116    0.329    0.448   68.918
  378.500   11.115    0.339    0.474   67.695
  378.750   11.113    0.344    0.471   65.862
  379.000   10.905    0.338    0.467   64.641
  379.250   10.904    0.351    0.469   65.868
  379.500   10.903    0.360    0.445   68.933
  379.750   10.901    0.353    0.438   70.159
  380.000   10.900    0.328    0.447   71.999
  380.250   10.898    0.313    0.465   72.614
  380.500   10.897    0.310    0.458   71.393
  380.750   10.895    0.324    0.457   70.172
  381.000   10.692    0.337    0.458   70.787
  381.250   10.690    0.326    0.462   70.790
  381.500   10.489    0.331    0.458   69.568
  381.750   10.488    0.322    0.462   67.735
  382.000   10.486    0.327    0.462   68.962
  382.250   10.485    0.322    0.449   70.191
  382.500   10.483    0.332    0.459   70.194
  382.750   10.482    0.344    0.452   70.196
  383.000   10.481    0.353    0.447   68.975
  383.250   10.480    0.349    0.448   68.978
  383.500   10.284    0.342    0.455   70.817
  383.750   10.477    0.337    0.448   71.433
  384.000   10.475    0.337    0.452   71.437
  384.250   10.473    0.340    0.462   71.440
  384.500   10.669    0.346    0.463   72.055
  384.750   10.669    0.348    0.461   72.057
  385.000   10.869    0.333    0.460   72.061
  385.250   11.495    0.335    0.459   72.064
  385.500   11.494    0.341    0.454   72.067
  385.750   11.070    0.344    0.447   72.683
  386.000   10.863    0.348    0.458   72.685
  386.250   10.078    0.345    0.464   72.075
  386.500    9.176    0.339    0.464   70.242
  386.750    8.200    0.327    0.461   73.307
