~VERSION INFORMATION
 VERS.                 2.0:   CWLS LOG ASCII STANDARD -VERSION 2.0
 WRAP.                  NO:   ONE LINE PER DEPTH STEP
~WELL INFORMATION BLOCK
#MNEM.UNIT           DATA                    DESCRIPTION OF MNEMONIC
#---------    -------------------            -------------------------------
# Generated from Intellog Unique Number	CS_77_79/WELL/888
WELL.         CDN-SUP THORNBURY              : Well_name    - WELL
LOC .         00/06-34-078-13W4/0            : Location     - LOCATION
UWI .         00/06-34-078-13W4/0            : Uwi          - UNIQUE WELL ID
ENTR.         JHS                            : Entered      - ENTERED BY
SRVC.         SCHLUMBERGER                   : Scn          - SERVICE COMPANY
STRT.M        250                            : top_depth    - START DEPTH
STOP.M        475                            : bot_depth    - STOP DEPTH
STEP.M        0.25                           : increment    - STEP LENGTH
 NULL. -999.2500:NULL Value
~CURVE INFORMATION BLOCK
#MNEM UNIT       ERCB CURVE CODE    CURVE DESCRIPTION
#-----------   ------------------   ----------------------------------
DEPT.M        00 001 00 00         : DEPTH        - DEPTH
DPHI.V/V      00 890 00 00         : PHID         - DENSITY POROSITY (LIMESTONE)
NPHI.V/V      00 330 00 00         : PHIN         - NEUTRON POROSITY (LIMESTONE)
GR  .API      00 310 00 00         : GR           - GAMMA RAY
ILD .OHMM     00 120 00 00         : RESD         - DEEP RESISTIVITY (DIL)
~PARAMETER INFORMATION
#MNEM.UNIT           DATA             DESCRIPTION OF MNEMONIC
#---------         -----------     ------------------------------
GL  .M        662.5                : gl           - GROUND LEVEL ELEVATION
EREF.M        668                  : kb           - ELEVATION OF DEPTH REFERENCE
DATM.M        668                  : datum        - DATUM ELEVATION
TDD .M        473                  : tdd          - TOTAL DEPTH DRILLER
RUN .         ONE                  : Run          - RUN NUMBER
ENG .         BILL                 : Engineer     - RECORDING ENGINEER
WIT .         JIM                  : Witness      - WITNESSED BY
MUD .         GEL                  : Mud_type     - MUD TYPE
MATR.         LIMESTONE            : Logunit      - NEUTRON MATRIX
TMAX.C        23                   : BHT          - MAXIMUM RECORDED TEMPERATURE
BHTD.M        473                  : BHTDEP       - MAXIMUM RECORDED TEMPERATURE
MATR.         1                    : LOGUNIT      - NEUTRON MATRIX
RMT .C        25                   : MDTP         - TEMPERATURE OF MUD
NEUT.         1                    : NEUTRON      - NEUTRON TYPE
RESI.         0                    : RESIST       - RESISTIVITY TYPE
RMC .OHMM     0.25                 : RMC          - RESISTIVITY OF MUD CAKE
RMF .OHMM     0.25                 : RMF          - RESISTIVITY OF MUD FILTRATE
SUFT.C        15                   : SUFT         - SURFACE TEMPERATURE
~A  DEPTH     PHID     PHIN       GR     RESD
  250.000    0.268    0.529  100.586    4.057
  250.250    0.271    0.560  103.000    3.984
  250.500    0.268    0.550  103.590    3.912
  250.750    0.259    0.541  102.343    3.770
  251.000    0.252    0.549   99.274    3.566
  251.250    0.266    0.549   96.814    3.437
  251.500    0.260    0.538   97.402    3.312
  251.750    0.260    0.526   98.600    3.192
  252.000    0.270    0.526   97.968    3.020
  252.250    0.276    0.571   99.775    2.911
  252.500    0.282    0.592   97.924    2.912
  252.750    0.288    0.572  104.607    2.859
  253.000    0.285    0.570  103.975    2.861
  253.250    0.279    0.565  101.516    2.862
  253.500    0.277    0.550  103.314    2.863
  253.750    0.280    0.535  105.120    2.919
  254.000    0.281    0.527  105.713    2.920
  254.250    0.270    0.546  105.687    2.921
  254.500    0.270    0.578  104.450    2.923
  254.750    0.286    0.598  101.381    2.870
  255.000    0.262    0.556   98.312    2.871
  255.250    0.243    0.540   97.679    2.927
  255.500    0.240    0.553   95.824    2.928
  255.750    0.263    0.554   93.978    2.985
  256.000    0.267    0.548   98.830    2.986
  256.250    0.253    0.544   98.199    2.987
  256.500    0.253    0.552   97.569    2.988
  256.750    0.268    0.567   98.764    2.990
  257.000    0.261    0.555   96.911    2.991
  257.250    0.244    0.540   94.453    3.049
  257.500    0.249    0.530   92.600    3.108
  257.750    0.238    0.532   94.397    3.168
  258.000    0.227    0.546   94.997    3.290
  258.250    0.226    0.556   94.974    3.354
  258.500    0.242    0.548   95.553    3.419
  258.750    0.240    0.556   96.754    3.485
  259.000    0.231    0.557   99.171    3.551
  259.250    0.223    0.540  101.581    3.553
  259.500    0.222    0.532  101.568    3.622
  259.750    0.230    0.538  100.325    3.692
  260.000    0.248    0.537  100.297    3.693
  260.250    0.255    0.548  100.888    3.835
  260.500    0.213    0.516  100.260    3.983
  260.750    0.188    0.506  100.228    4.137
  261.000    0.184    0.487  100.824    4.297
  261.250    0.203    0.469  103.848    4.298
  261.500    0.219    0.491  106.264    4.382
  261.750    0.218    0.515  104.413    4.383
  262.000    0.199    0.505  101.951    4.385
  262.250    0.216    0.505  100.102    4.307
  262.500    0.228    0.519   98.859    4.308
  262.750    0.226    0.518  104.324    4.152
  263.000    0.224    0.495  107.349    4.002
  263.250    0.228    0.493  106.106    3.930
  263.500    0.244    0.518  104.258    3.859
  263.750    0.247    0.534  102.403    3.789
  264.000    0.244    0.545   99.943    3.790
  264.250    0.228    0.542   98.094    3.937
  264.500    0.230    0.535   94.417    4.088
  264.750    0.228    0.508   90.732    4.407
  265.000    0.239    0.479   90.709    4.409
  265.250    0.217    0.490   90.078    4.329
  265.500    0.202    0.489   85.789    4.252
  265.750    0.218    0.482   82.113    4.416
  266.000    0.218    0.471   79.040    4.585
  266.250    0.173    0.438   74.752    5.427
  266.500    0.136    0.374   68.633    6.422
  266.750    0.196    0.357   63.125    8.345
  267.000    0.258    0.389   69.197   10.252
  267.250    0.247    0.411   72.224   11.910
  267.500    0.261    0.403   73.416   12.601
  267.750    0.244    0.399   74.620   12.144
  268.000    0.240    0.399   77.031   11.488
  268.250    0.253    0.405   75.789   10.667
  268.500    0.253    0.427   74.550   10.282
  268.750    0.268    0.428   73.308   10.481
  269.000    0.285    0.420   72.679   10.484
  269.250    0.287    0.414   70.827   10.889
  269.500    0.254    0.409   72.023   11.099
  269.750    0.284    0.401   70.784   11.526
  270.000    0.268    0.404   70.150   11.748
  270.250    0.269    0.413   72.561   11.975
  270.500    0.275    0.406   73.147   11.759
  270.750    0.247    0.397   74.960   11.546
  271.000    0.239    0.408   79.204   10.923
  271.250    0.258    0.421   79.182   10.726
  271.500    0.276    0.418   77.327   10.730
  271.750    0.229    0.423   76.086   10.735
  272.000    0.246    0.440   76.068   10.943
  272.250    0.272    0.452   76.042   11.153
  272.500    0.246    0.433   76.019   11.368
  272.750    0.254    0.409   76.609   11.373
  273.000    0.262    0.407   79.023   11.380
  273.250    0.265    0.420   80.220   11.174
  273.500    0.269    0.408   78.981   11.179
  273.750    0.258    0.403   76.521   11.185
  274.000    0.250    0.416   77.107   11.190
  274.250    0.244    0.418   78.917   11.194
  274.500    0.237    0.418   78.282   11.199
  274.750    0.248    0.428   75.822   11.203
  275.000    0.276    0.418   75.801   11.002
  275.250    0.259    0.408   78.218   10.804
  275.500    0.267    0.422   78.192   10.608
  275.750    0.247    0.422   75.734   10.614
  276.000    0.230    0.406   74.487   10.422
  276.250    0.245    0.396   74.468   10.426
  276.500    0.262    0.401   75.662   10.829
  276.750    0.236    0.387   75.640   10.833
  277.000    0.233    0.387   78.059   10.637
  277.250    0.247    0.404   82.307   10.062
  277.500    0.249    0.428   81.062    9.343
  277.750    0.250    0.440   76.161    9.004
  278.000    0.267    0.431   73.700    8.361
  278.250    0.279    0.416   69.414    8.210
  278.500    0.239    0.403   72.439    7.912
  278.750    0.235    0.413   79.125    7.625
  279.000    0.246    0.431   78.492    7.350
  279.250    0.259    0.437   70.541    7.491
  279.500    0.279    0.423   65.033    8.867
  279.750    0.300    0.412   59.529    9.738
  280.000    0.294    0.404   56.456   10.898
  280.250    0.280    0.413   58.263   11.747
  280.500    0.292    0.456   56.406   12.903
  280.750    0.307    0.457   55.776   13.400
  281.000    0.304    0.435   56.368   13.407
  281.250    0.286    0.419   60.609   13.412
  281.500    0.269    0.423   66.075   12.688
  281.750    0.255    0.432   70.929   11.780
  282.000    0.271    0.450   75.173   10.341
  282.250    0.260    0.442   75.149    8.584
  282.500    0.249    0.426   72.692    8.274
  282.750    0.262    0.438   69.014    8.593
  283.000    0.241    0.414   66.550    9.262
  283.250    0.215    0.412   74.455   10.173
  283.500    0.223    0.434   79.309   11.386
  283.750    0.259    0.416   76.236   11.823
  284.000    0.245    0.414   72.552   12.278
  284.250    0.228    0.414   73.144   13.237
  284.500    0.260    0.405   76.780   14.007
  284.750    0.247    0.402   79.200   14.546
  285.000    0.228    0.397   85.881   14.283
  285.250    0.201    0.403   92.565   13.765
  285.500    0.157    0.431   99.249   12.312
  285.750    0.159    0.450  104.100   10.808
  286.000    0.173    0.467  110.178    9.313
  286.250    0.180    0.490  111.985    8.025
  286.500    0.180    0.467  109.522    7.177
  286.750    0.201    0.453  114.377    6.420
  287.000    0.189    0.463  116.795    6.073
  287.250    0.171    0.485  114.941    5.745
  287.500    0.198    0.507  113.087    5.536
  287.750    0.184    0.514  115.509    5.336
  288.000    0.183    0.504  116.096    5.439
  288.250    0.172    0.509  114.242    5.755
  288.500    0.150    0.519  111.778    5.977
  288.750    0.161    0.526  112.981    6.207
  289.000    0.199    0.519  123.930    5.872
  289.250    0.210    0.514  129.395    5.252
  289.500    0.219    0.521  132.419    4.698
  289.750    0.215    0.540  128.129    4.281
  290.000    0.220    0.560  123.840    3.901
  290.250    0.231    0.579  120.772    3.555
  290.500    0.243    0.564  118.917    3.491
  290.750    0.257    0.527  118.287    3.625
  291.000    0.258    0.477  112.170    4.623
  291.250    0.263    0.448  107.270    6.353
  291.500    0.255    0.420  105.416    8.410
  291.750    0.222    0.405  105.393   10.140
  292.000    0.211    0.415  104.149   11.348
  292.250    0.214    0.441  102.305   12.234
  292.500    0.247    0.464   99.230   12.469
  292.750    0.259    0.465   99.213   12.951
  293.000    0.245    0.468  105.894   12.481
  293.250    0.218    0.485  112.580   10.754
