~VERSION INFORMATION
 VERS.                 2.0:   CWLS LOG ASCII STANDARD -VERSION 2.0
 WRAP.                  NO:   ONE LINE PER DEPTH STEP
~WELL INFORMATION BLOCK
#MNEM.UNIT           DATA                    DESCRIPTION OF MNEMONIC
#---------    -------------------            -------------------------------
# Generated from Intellog Unique Number	CS_77_79/WELL/880
WELL.         CWWE HARDY                     : Well_name    - WELL
LOC .         00/06-22-078-04W4/0            : Location     - LOCATION
UWI .         00/06-22-078-04W4/0            : Uwi          - UNIQUE WELL ID
ENTR.         JHS                            : Entered      - ENTERED BY
SRVC.         SCHLUMBERGER                   : Scn          - SERVICE COMPANY
STRT.M        140                            : top_depth    - START DEPTH
STOP.M        400                            : bot_depth    - STOP DEPTH
STEP.M        0.25                           : increment    - STEP LENGTH
 NULL. -999.2500:NULL Value
~CURVE INFORMATION BLOCK
#MNEM UNIT       ERCB CURVE CODE    CURVE DESCRIPTION
#-----------   ------------------   ----------------------------------
DEPT.M        00 001 00 00         : DEPTH        - DEPTH
DPHI.V/V      00 890 00 00         : PHID         - DENSITY POROSITY (LIMESTONE)
NPHI.V/V      00 330 00 00         : PHIN         - NEUTRON POROSITY (LIMESTONE)
GR  .API      00 310 00 00         : GR           - GAMMA RAY
ILD .OHMM     00 120 00 00         : RESD         - DEEP RESISTIVITY (DIL)
RHOB.KG/M3    00 350 00 00         : DENS         - BULK DENSITY
~PARAMETER INFORMATION
#MNEM.UNIT           DATA             DESCRIPTION OF MNEMONIC
#---------         -----------     ------------------------------
GL  .M        554.5                : gl           - GROUND LEVEL ELEVATION
EREF.M        558.4                : kb           - ELEVATION OF DEPTH REFERENCE
DATM.M        558.4                : datum        - DATUM ELEVATION
TDD .M        410                  : tdd          - TOTAL DEPTH DRILLER
RUN .         ONE                  : Run          - RUN NUMBER
ENG .         BILL                 : Engineer     - RECORDING ENGINEER
WIT .         JIM                  : Witness      - WITNESSED BY
MUD .         GEL                  : Mud_type     - MUD TYPE
MATR.         LIMESTONE            : Logunit      - NEUTRON MATRIX
TMAX.C        26                   : BHT          - MAXIMUM RECORDED TEMPERATURE
BHTD.M        410                  : BHTDEP       - MAXIMUM RECORDED TEMPERATURE
MATR.         1                    : LOGUNIT      - NEUTRON MATRIX
RMT .C        25                   : MDTP         - TEMPERATURE OF MUD
NEUT.         1                    : NEUTRON      - NEUTRON TYPE
RESI.         0                    : RESIST       - RESISTIVITY TYPE
RMC .OHMM     0.25                 : RMC          - RESISTIVITY OF MUD CAKE
RMF .OHMM     0.25                 : RMF          - RESISTIVITY OF MUD FILTRATE
SUFT.C        15                   : SUFT         - SURFACE TEMPERATURE
~A  DEPTH     PHID     PHIN       GR     RESD     DENS
  140.000    0.265    0.502  120.499    3.892    0.000
  140.250    0.260    0.527  121.142    3.892    0.000
  140.500    0.251    0.522  119.274    3.892    0.000
  140.750    0.247    0.499  117.410    3.819    0.000
  141.000    0.263    0.484  113.030    3.748    0.000
  141.250    0.280    0.502  113.046    3.609    0.000
  141.500    0.284    0.520  116.201    3.410    0.000
  141.750    0.255    0.516  112.451    3.284    0.000
  142.000    0.274    0.513  110.584    3.103    0.000
  142.250    0.292    0.529  115.622    3.045    0.000
  142.500    0.291    0.516  115.009    2.988    0.000
  142.750    0.266    0.485  114.395    2.932    0.000
  143.000    0.264    0.484  113.158    2.932    0.000
  143.250    0.269    0.513  106.270    2.878    0.000
  143.500    0.274    0.512  103.773    2.878    0.000
  143.750    0.276    0.497  107.556    2.878    0.000
  144.000    0.276    0.481  111.337    2.878    0.000
  144.250    0.276    0.464  106.961    2.932    0.000
  144.500    0.270    0.498  105.719    2.988    0.000
  144.750    0.257    0.504  103.226    3.045    0.000
  145.000    0.234    0.492  103.869    3.162    0.000
  145.250    0.223    0.471  105.765    3.223    0.000
  145.500    0.205    0.477  100.132    3.223    0.000
  145.750    0.251    0.496  103.914    3.223    0.000
  146.000    0.267    0.520  108.950    3.162    0.000
  146.250    0.249    0.525  107.083    3.103    0.000
  146.500    0.250    0.524  107.101    3.103    0.000
  146.750    0.244    0.506  110.881    3.045    0.000
  147.000    0.240    0.489  108.389    2.988    0.000
  147.250    0.255    0.514  105.893    3.045    0.000
  147.500    0.262    0.537  109.672    3.103    0.000
  147.750    0.257    0.540  112.826    3.223    0.000
  148.000    0.253    0.519  114.099    3.284    0.000
  148.250    0.251    0.514  115.368    3.410    0.000
  148.500    0.247    0.512  111.617    3.475    0.000
  148.750    0.249    0.505  106.613    3.541    0.000
  149.000    0.244    0.491  109.139    3.609    0.000
  149.250    0.236    0.489  111.665    3.609    0.000
  149.500    0.241    0.494  111.680    3.541    0.000
  149.750    0.249    0.485  111.068    3.541    0.000
  150.000    0.244    0.470  109.202    3.475    0.000
  150.250    0.232    0.462  111.101    3.475    0.000
  150.500    0.228    0.465  111.116    3.475    0.000
  150.750    0.239    0.502  112.387    3.410    0.000
  151.000    0.259    0.518  116.799    3.475    0.000
  151.250    0.249    0.495  115.557    3.541    0.000
  151.500    0.232    0.460  108.668    3.819    0.000
  151.750    0.242    0.416   95.505    4.359    0.000
  152.000    0.226    0.401   61.629    5.264    0.000
  152.250    0.176    0.361   50.350    6.007    0.000
  152.500    0.130    0.317   62.289    6.357    0.000
  152.750    0.182    0.307   80.504    6.357    0.000
  153.000    0.218    0.336  103.113    6.122    0.000
  153.250    0.230    0.413  109.406    5.571    0.000
  153.500    0.243    0.435  106.285    4.700    0.000
  153.750    0.247    0.440  102.537    4.700    0.000
  154.000    0.240    0.440  101.921    4.974    0.000
  154.250    0.233    0.423   90.012    5.785    0.000
  154.500    0.244    0.389   73.710    7.255    0.000
  154.750    0.263    0.367   67.453    8.929    0.000
  155.000    0.276    0.370   63.702   10.990    0.000
  155.250    0.290    0.378   63.717   12.542    0.000
  155.500    0.282    0.357   71.892   13.525    0.000
  155.750    0.267    0.348   75.044   13.783    0.000
  156.000    0.251    0.350   72.549   13.525    0.000
  156.250    0.268    0.341   64.406   13.024    0.000
  156.500    0.285    0.338   61.911   12.077    0.000
  156.750    0.284    0.350   76.992   10.784    0.000
  157.000    0.267    0.366   87.675    9.450    0.000
  157.250    0.236    0.380   95.851    8.125    0.000
  157.500    0.220    0.390   98.376    7.255    0.000
  157.750    0.217    0.400  104.668    6.728    0.000
  158.000    0.212    0.407  108.450    6.602    0.000
  158.250    0.220    0.410  106.585    6.602    0.000
  158.500    0.231    0.404  104.715    6.602    0.000
  158.750    0.225    0.396  102.222    6.728    0.000
  159.000    0.231    0.385  103.490    7.120    0.000
  159.250    0.263    0.386  107.271    7.534    0.000
  159.500    0.259    0.378  107.914    8.280    0.000
  159.750    0.250    0.364   99.774    9.273    0.000
  160.000    0.224    0.355   92.258   10.784    0.000
  160.250    0.198    0.343   82.857   12.542    0.000
  160.500    0.158    0.332   69.067   14.313    0.000
  160.750    0.149    0.323   73.476   15.147    0.000
  161.000    0.245    0.321   76.628   15.436    0.000
  161.250    0.260    0.342   79.158   15.147    0.000
  161.500    0.267    0.383   79.799   14.864    0.000
  161.750    0.235    0.381   78.563   15.730    0.000
  162.000    0.202    0.366   81.713   16.335    0.000
  162.250    0.215    0.352   89.889   16.646    0.000
  162.500    0.281    0.354   95.552   16.963    0.000
  162.750    0.288    0.360  100.593   17.286    0.000
  163.000    0.281    0.377  101.232   17.286    0.000
  163.250    0.276    0.373  103.762   16.963    0.000
  163.500    0.284    0.363  109.422   16.963    0.000
  163.750    0.293    0.384  115.087   16.335    0.000
  164.000    0.288    0.416  111.964   16.029    0.000
  164.250    0.266    0.405  108.839   15.730    0.000
  164.500    0.246    0.376  106.973   15.436    0.000
  164.750    0.237    0.345  110.757   15.147    0.000
  165.000    0.251    0.331  110.775   14.864    0.000
  165.250    0.262    0.330  112.040   14.586    0.000
  165.500    0.256    0.343  117.704   14.586    0.000
  165.750    0.235    0.341  120.230   14.586    0.000
  166.000    0.221    0.330  122.756   14.586    0.000
  166.250    0.214    0.347  106.456   14.586    0.000
  166.500    0.232    0.372   92.036   15.147    0.000
  166.750    0.265    0.379   80.755   15.436    0.000
  167.000    0.288    0.375   91.441   15.436    0.000
  167.250    0.310    0.373   99.617   14.586    0.000
  167.500    0.290    0.381  107.790   13.525    0.000
  167.750    0.264    0.388  114.708   11.630    0.000
  168.000    0.243    0.396  117.864   10.191    0.000
  168.250    0.238    0.410  116.622    9.099    0.000
  168.500    0.229    0.424  110.991    8.438    0.000
  168.750    0.211    0.436  107.239    7.973    0.000
  169.000    0.208    0.458  107.255    7.973    0.000
  169.250    0.219    0.465  111.667    7.973    0.000
  169.500    0.235    0.459  114.816    8.125    0.000
  169.750    0.250    0.411  111.069    8.438    0.000
  170.000    0.261    0.386   79.704    9.273    0.000
  170.250    0.267    0.375   55.870   13.783    0.000
  170.500    0.334    0.370   50.239   19.359    0.000
  170.750    0.338    0.350   53.393   23.380    0.000
  171.000    0.334    0.340   59.055   25.694    0.000
  171.250    0.335    0.339   63.464   26.184    0.000
  171.500    0.343    0.343   65.363   26.184    0.000
  171.750    0.347    0.349   65.383   26.184    0.000
  172.000    0.354    0.357   66.652   24.742    0.000
  172.250    0.352    0.365   66.039   23.826    0.000
  172.500    0.341    0.370   64.800   22.093    0.000
  172.750    0.336    0.374   66.069   21.275    0.000
  173.000    0.334    0.381   71.104   20.487    0.000
  173.250    0.394    0.456   93.716   20.487    0.000
  173.500    0.477    0.499   94.984   20.487    0.000
  173.750    0.537    0.535   62.366   22.093    0.000
  174.000    0.476    0.508   50.458   23.380    0.000
  174.250    0.383    0.409   50.476   24.742    0.000
  174.500    0.356    0.384   51.745   25.214    0.000
  174.750    0.348    0.369   51.134   26.683    0.000
  175.000    0.359    0.368   54.914   27.709    0.000
  175.250    0.362    0.358   53.674   28.237    0.000
  175.500    0.353    0.361   47.413   28.775    0.000
  175.750    0.343    0.364   41.781   29.323    0.000
  176.000    0.338    0.368   48.700   28.775    0.000
  176.250    0.343    0.376   60.014   28.237    0.000
