~VERSION INFORMATION
 VERS.                 2.0:   CWLS LOG ASCII STANDARD -VERSION 2.0
 WRAP.                  NO:   ONE LINE PER DEPTH STEP
~WELL INFORMATION BLOCK
#MNEM.UNIT           DATA                    DESCRIPTION OF MNEMONIC
#---------    -------------------            -------------------------------
# Generated from Intellog Unique Number	CW_76_78/WELL/2570
WELL.         ATCOR ET AL PELICAN            : Well_name    - WELL
LOC .         00/06-34-078-25W4/0            : Location     - LOCATION
UWI .         00/06-34-078-25W4/0            : Uwi          - UNIQUE WELL ID
ENTR.         MAX                            : Entered      - ENTERED BY
SRVC.         COMPUTALOG                     : Scn          - SERVICE COMPANY
STRT.M        270                            : top_depth    - START DEPTH
STOP.M        490                            : bot_depth    - STOP DEPTH
STEP.M        0.25                           : increment    - STEP LENGTH
 NULL. -999.2500:NULL Value
~CURVE INFORMATION BLOCK
#MNEM UNIT       ERCB CURVE CODE    CURVE DESCRIPTION
#-----------   ------------------   ----------------------------------
DEPT.M        00 001 00 00         : DEPTH        - DEPTH
ILD .OHMM     00 120 00 00         : RESD         - DEEP RESISTIVITY (DIL)
NPHI.V/V      00 330 00 00         : PHIN         - NEUTRON POROSITY (SANDSTONE)
DPHI.V/V      00 890 00 00         : PHID         - DENSITY POROSITY (SANDSTONE)
CALI.MM       00 280 01 00         : CAL          - CALIPER
GR  .API      00 310 00 00         : GR           - GAMMA RAY
~PARAMETER INFORMATION
#MNEM.UNIT           DATA             DESCRIPTION OF MNEMONIC
#---------         -----------     ------------------------------
GL  .M        581                  : gl           - GROUND LEVEL ELEVATION
EREF.M        584.7                : kb           - ELEVATION OF DEPTH REFERENCE
DATM.M        581                  : datum        - DATUM ELEVATION
TDD .M        491.9                : tdd          - TOTAL DEPTH DRILLER
RUN .         ONE                  : Run          - RUN NUMBER
ENG .         BILL                 : Engineer     - RECORDING ENGINEER
WIT .         JIM                  : Witness      - WITNESSED BY
MUD .         GEL                  : Mud_type     - MUD TYPE
MATR.         SANDSTONE            : Logunit      - NEUTRON MATRIX
TMAX.C        30                   : BHT          - MAXIMUM RECORDED TEMPERATURE
BHTD.M        491.9                : BHTDEP       - MAXIMUM RECORDED TEMPERATURE
RMT .C        19                   : MDTP         - TEMPERATURE OF MUD
MUDD.KG/M     1120                 : MWT          - MUD DENSITY
NEUT.         1                    : NEUTRON      - NEUTRON TYPE
RESI.         0                    : RESIST       - RESISTIVITY TYPE
RM  .OHMM     4.4                  : RM           - RESISTIVITY OF MUD
RMC .OHMM     0.25                 : RMC          - RESISTIVITY OF MUD CAKE
RMF .OHMM     4.1                  : RMF          - RESISTIVITY OF MUD FILTRATE
SUFT.C        -10                  : SUFT         - SURFACE TEMPERATURE
~A  DEPTH     RESD     PHIN     PHID      CAL       GR
# ...
  343.000   11.102    0.251    0.052  199.829   47.007
  343.250   12.316    0.222    0.036  200.455   47.355
  343.500   12.684    0.238    0.027  201.024   49.520
  343.750   12.585    0.266    0.118  201.627   52.563
  344.000   12.485    0.292    0.190  201.719   53.823
  344.250   12.735    0.261    0.132  202.299   51.476
  344.500   13.611    0.222    0.077  202.414   45.544
  344.750   14.544    0.194   -0.004  202.008   41.700
  345.000   15.833    0.155   -0.015  202.089   39.360
  345.250   17.558    0.136   -0.016  202.680   38.517
  345.500   20.027    0.128   -0.017  202.796   38.586
  345.750   21.200    0.129   -0.020  202.888   38.628
  346.000   22.873    0.131   -0.021  202.980   38.690
  346.250   23.326    0.128   -0.018  203.073   39.352
  346.500   23.153    0.126   -0.012  203.165   40.298
  346.750   22.133    0.143   -0.000  203.235   41.252
  347.000   20.773    0.196    0.030  202.840   44.301
  347.250   17.444    0.268    0.111  201.446   49.454
  347.500   16.675    0.320    0.246  199.044   54.000
  347.750   14.532    0.390    0.280  197.651   54.376
  348.000   12.664    0.416    0.288  198.242   53.213
  348.250   11.776    0.398    0.293  198.810   50.880
  348.500   11.776    0.391    0.301  199.912   52.140
  348.750   11.284    0.400    0.305  200.991   53.094
  349.000   11.085    0.404    0.301  201.617   53.142
  349.250   11.003    0.403    0.288  202.186   54.395
  349.500   11.221    0.397    0.276  202.777   56.561
  349.750   11.556    0.395    0.262  202.870   59.011
  350.000   11.902    0.397    0.246  202.974   62.061
  350.250   11.919    0.406    0.234  202.567   67.513
  350.500   11.824    0.401    0.234  201.650   70.855
  350.750   11.519    0.412    0.233  200.245   76.606
  351.000   11.324    0.426    0.230  199.850   79.955
  351.250   11.236    0.416    0.225  200.430   71.926
  351.500   11.148    0.406    0.220  203.029   60.298
  351.750   10.858    0.403    0.205  205.152   56.154
  352.000   10.576    0.387    0.191  205.221   59.218
  352.250   10.110    0.371    0.189  205.325   62.574
  352.500    9.401    0.378    0.216  203.909   64.718
  352.750    8.581    0.394    0.242  200.996   66.271
  353.000    7.761    0.405    0.262  200.090   65.727
  353.250    6.892    0.443    0.267  199.208   63.986
  353.500    6.590    0.439    0.262  199.289   63.151
  353.750    6.477    0.410    0.237  199.381   64.995
  354.000    6.485    0.398    0.217  200.472   68.644
  354.250    6.678    0.417    0.230  200.575   69.618
  354.500    6.751    0.454    0.239  200.157   69.360
  354.750    6.953    0.463    0.248  200.261   68.518
  355.000    7.027    0.424    0.252  200.342   68.873
  355.250    7.038    0.401    0.253  200.435   70.132
  355.500    6.982    0.415    0.258  201.026   71.386
  355.750    6.865    0.429    0.256  201.130   72.040
  356.000    6.865    0.445    0.240  201.733   73.001
  356.250    6.822    0.442    0.238  201.837   74.254
  356.500    6.583    0.426    0.240  201.918   74.602
  356.750    6.531    0.418    0.242  201.999   73.466
  357.000    6.544    0.424    0.242  202.126   74.726
  357.250    6.553    0.458    0.239  202.195   75.673
  357.500    6.561    0.466    0.230  202.287   75.436
  357.750    6.573    0.459    0.227  202.391   75.784
  358.000    6.573    0.456    0.228  202.971   76.146
  358.250    6.593    0.486    0.222  203.075   76.494
  358.500    6.601    0.492    0.212  203.168   77.148
  358.750    6.549    0.479    0.209  203.248   79.007
  359.000    6.498    0.466    0.213  203.364   80.260
  359.250    6.330    0.457    0.216  203.433   80.615
  359.500    6.164    0.458    0.212  203.537   81.568
  359.750    6.006    0.469    0.203  203.630   83.720
  360.000    5.902    0.473    0.199  203.722   88.879
  360.250    5.857    0.468    0.207  203.838   84.736
  360.500    5.920    0.459    0.221  202.932   75.502
  360.750    6.096    0.448    0.222  202.015   72.578
  361.000    6.276    0.421    0.219  201.620   72.327
  361.250    6.465    0.425    0.217  201.689   72.083
  361.500    6.595    0.439    0.219  201.306   72.438
  361.750    6.792    0.433    0.221  201.398   73.391
  362.000    6.992    0.417    0.222  201.490   73.746
  362.250    7.404    0.409    0.223  201.571   72.604
  362.500    7.912    0.404    0.207  201.165   68.767
  362.750    8.695    0.396    0.184  200.781   59.833
  363.000    9.463    0.380    0.190  200.386   56.902
  363.250   10.208    0.362    0.215  199.956   56.950
  363.500   10.609    0.362    0.245  199.561   58.809
  363.750   10.240    0.371    0.209  199.654   66.357
  364.000    9.611    0.388    0.211  199.758   70.597
  364.250    9.017    0.404    0.214  200.326   75.150
  364.500    8.005    0.410    0.219  201.428   79.098
  364.750    7.241    0.401    0.224  201.509   79.154
  365.000    6.859    0.427    0.227  202.100   76.229
  365.250    6.813    0.438    0.223  202.715   73.583
  365.500    6.629    0.450    0.217  203.295   73.339
  365.750    6.515    0.452    0.207  204.374   75.490
  366.000    6.526    0.438    0.200  205.476   80.043
  366.250    6.535    0.427    0.199  205.080   80.997
  366.500    6.608    0.426    0.218  203.165   73.874
  366.750    6.803    0.440    0.227  200.763   70.023
  367.000    7.005    0.415    0.240  198.871   65.281
  367.250    7.416    0.403    0.255  198.452   64.445
  367.500    8.149    0.408    0.272  199.543   63.602
  367.750    8.791    0.423    0.272  200.134   61.263
  368.000    9.219    0.426    0.276  200.227   63.713
  368.250    9.582    0.429    0.276  200.319   64.068
  368.500    9.688    0.431    0.272  200.922   62.627
  368.750    9.701    0.435    0.268  201.026   62.389
  369.000    9.717    0.449    0.268  201.107   60.642
  369.250   10.097    0.454    0.270  201.710   59.799
  369.500   10.993    0.440    0.276  202.290   61.351
  369.750   11.639    0.418    0.280  202.893   63.217
  370.000   11.876    0.430    0.281  202.985   63.572
  370.250   12.114    0.433    0.280  202.567   63.022
  370.500   12.019    0.426    0.273  202.671   63.084
  370.750   11.926    0.415    0.260  202.786   67.630
  371.000   11.402    0.391    0.250  202.856   67.686
  371.250   10.505    0.385    0.239  203.447   67.741
  371.500    8.501    0.416    0.240  203.551   69.893
  371.750    8.358    0.449    0.239  203.632   75.338
  372.000    8.217    0.450    0.229  203.736   80.204
  372.250    8.305    0.458    0.224  203.318   79.048
  372.500    8.550    0.465    0.241  201.925   75.810
  372.750    8.969    0.450    0.223  201.042   71.381
  373.000    9.677    0.415    0.182  201.111   71.729
  373.250   10.341    0.419    0.194  201.227   72.983
  373.500   10.646    0.425    0.211  201.308   72.147
  373.750   10.861    0.428    0.223  201.400   71.297
  374.000   10.980    0.431    0.225  201.980   74.353
  374.250   11.000    0.437    0.218  202.084   77.110
  374.500   10.808    0.448    0.210  201.178   78.064
  374.750   10.337    0.477    0.212  200.284   78.120
  375.000   10.067    0.450    0.208  199.889   75.780
  375.250   10.179    0.401    0.206  199.460   75.236
  375.500   10.381    0.403    0.211  196.581   76.183
  375.750   10.493    0.412    0.223  194.654   75.347
  376.000   10.411    0.412    0.214  194.747   75.403
  376.250   10.049    0.416    0.213  199.841   77.554
  376.500    9.608    0.415    0.192  202.428   81.216
  376.750    9.184    0.407    0.179  202.521   82.170
  377.000    9.184    0.397    0.149  202.636   81.313
  377.250    8.960    0.402    0.146  202.706   81.369
  377.500    8.255    0.406    0.166  202.879   82.928
  377.750    8.040    0.409    0.184  202.414   81.786
  378.000    7.904    0.417    0.208  202.484   78.861
  378.250    7.841    0.436    0.216  202.089   79.209
  378.500    7.854    0.444    0.213  201.682   80.156
  378.750    7.940    0.427    0.208  201.287   81.715
  379.000    7.950    0.426    0.207  200.892   79.974
  379.250    8.036    0.438    0.206  200.961   77.328
