~VERSION INFORMATION
 VERS.                 2.0:   CWLS LOG ASCII STANDARD -VERSION 2.0
 WRAP.                  NO:   ONE LINE PER DEPTH STEP
~WELL INFORMATION BLOCK
#MNEM.UNIT           DATA                    DESCRIPTION OF MNEMONIC
#---------    -------------------            -------------------------------
# Generated from Intellog Unique Number	CS_73_76/WELL/772
WELL.         BOW VALLEY INDUSTRIES LTD      : Well_name    - WELL
LOC .         00/07-27-073-18W4/0            : Location     - LOCATION
UWI .         00/07-27-073-18W4/0            : Uwi          - UNIQUE WELL ID
ENTR.         SP                             : Entered      - ENTERED BY
SRVC.         SCHLUMBERGER                   : Scn          - SERVICE COMPANY
STRT.M        204.216                        : top_depth    - START DEPTH
STOP.M        444.716                        : bot_depth    - STOP DEPTH
STEP.M        0.25                           : increment    - STEP LENGTH
 NULL. -999.2500:NULL Value
~CURVE INFORMATION BLOCK
#MNEM UNIT       ERCB CURVE CODE    CURVE DESCRIPTION
#-----------   ------------------   ----------------------------------
DEPT.M        00 001 00 00         : DEPTH        - DEPTH
GR  .API      00 310 00 00         : GR           - GAMMA RAY
DPHI.V/V      00 890 00 00         : PHID         - DENSITY POROSITY (SANDSTONE)
NPHI.V/V      00 330 00 00         : PHIN         - NEUTRON POROSITY (SANDSTONE)
ILD .OHMM     00 120 00 00         : RESD         - DEEP RESISTIVITY (DIL)
~PARAMETER INFORMATION
#MNEM.UNIT           DATA             DESCRIPTION OF MNEMONIC
#---------         -----------     ------------------------------
GL  .M        582.168              : gl           - GROUND LEVEL ELEVATION
EREF.M        585.216              : kb           - ELEVATION OF DEPTH REFERENCE
DATM.M        582.168              : datum        - DATUM ELEVATION
TDD .M        443.789              : tdd          - TOTAL DEPTH DRILLER
RUN .         ONE                  : Run          - RUN NUMBER
ENG .         BILL                 : Engineer     - RECORDING ENGINEER
WIT .         JIM                  : Witness      - WITNESSED BY
MUD .         GEL                  : Mud_type     - MUD TYPE
MATR.         SANDSTONE            : Logunit      - NEUTRON MATRIX
TMAX.C        22.2222              : BHT          - MAXIMUM RECORDED TEMPERATURE
BHTD.M        443.179              : BHTDEP       - MAXIMUM RECORDED TEMPERATURE
MATR.         1                    : LOGUNIT      - NEUTRON MATRIX
RMT .C        25                   : MDTP         - TEMPERATURE OF MUD
NEUT.         1                    : NEUTRON      - NEUTRON TYPE
RESI.         0                    : RESIST       - RESISTIVITY TYPE
RMC .OHMM     0.25                 : RMC          - RESISTIVITY OF MUD CAKE
RMF .OHMM     0.25                 : RMF          - RESISTIVITY OF MUD FILTRATE
SUFT.C        15                   : SUFT         - SURFACE TEMPERATURE
~A  DEPTH       GR     PHID     PHIN     RESD
# ...
  247.716   70.386    0.231    0.516    2.158
  247.966   70.673    0.224    0.524    2.181
  248.216   68.633    0.219    0.534    2.275
  248.466   66.638    0.212    0.541    2.407
  248.716   64.654    0.205    0.552    2.530
  248.966   63.708    0.188    0.550    2.529
  249.216   63.770    0.167    0.538    2.531
  249.466   61.732    0.142    0.537    2.531
  249.716   59.165    0.087    0.521    2.517
  249.966   65.365    0.101    0.503    2.696
  250.216   68.678    0.198    0.508    2.770
  250.466   69.820    0.217    0.533    2.858
  250.716   70.084    0.208    0.522    2.949
  250.966   69.632    0.204    0.527    2.994
  251.216   68.208    0.199    0.528    3.060
  251.466   68.343    0.188    0.514    3.054
  251.716   68.929    0.178    0.503    3.048
  251.966   69.661    0.181    0.493    3.114
  252.216   68.981    0.171    0.502    3.169
  252.466   67.598    0.171    0.508    3.161
  252.716   66.286    0.180    0.513    3.224
  252.966   64.704    0.181    0.505    3.174
  253.216   64.100    0.195    0.497    3.112
  253.466   63.610    0.202    0.506    3.048
  253.716   65.772    0.195    0.507    2.905
  253.966   66.102    0.187    0.536    2.869
  254.216   67.167    0.182    0.557    2.836
  254.466   67.146    0.183    0.560    2.837
  254.716   67.165    0.179    0.548    2.850
  254.966   67.157    0.191    0.523    2.944
  255.216   68.172    0.197    0.515    3.041
  255.466   69.184    0.189    0.515    3.056
  255.716   69.644    0.200    0.520    3.057
  255.966   68.913    0.205    0.520    3.058
  256.216   69.834    0.205    0.509    3.058
  256.466   71.430    0.202    0.516    3.054
  256.716   70.249    0.200    0.512    3.126
  256.966   68.983    0.211    0.522    3.050
  257.216   69.483    0.213    0.539    2.998
  257.466   69.230    0.200    0.527    2.979
  257.716   67.145    0.206    0.522    2.945
  257.966   65.591    0.237    0.522    2.888
  258.216   63.844    0.260    0.518    2.892
  258.466   63.022    0.290    0.518    2.892
  258.716   57.226    0.344    0.545    3.082
  258.966   48.976    0.368    0.566    3.438
  259.216   42.107    0.401    0.587    4.148
  259.466   38.553    0.461    0.605    5.138
  259.716   41.426    0.576    0.559    7.227
  259.966   43.949    0.377    0.426    9.995
  260.216   45.639    0.346    0.395   12.877
  260.466   46.594    0.340    0.402   15.069
  260.716   48.196    0.310    0.413   14.477
  260.966   49.112    0.284    0.433   12.795
  261.216   50.785    0.274    0.423   11.780
  261.466   51.167    0.272    0.412   10.542
  261.716   51.350    0.271    0.409    9.409
  261.966   51.961    0.271    0.411    8.766
  262.216   52.949    0.257    0.400    8.144
  262.466   54.913    0.248    0.389    7.916
  262.716   58.031    0.235    0.407    7.824
  262.966   59.630    0.222    0.421    7.431
  263.216   61.283    0.214    0.439    7.214
  263.466   62.957    0.214    0.454    6.909
  263.716   63.186    0.200    0.465    6.276
  263.966   64.242    0.206    0.455    5.999
  264.216   64.592    0.216    0.444    5.637
  264.466   65.362    0.213    0.437    5.468
  264.716   64.255    0.225    0.427    5.568
  264.966   64.613    0.233    0.414    6.153
  265.216   64.659    0.245    0.402    6.889
  265.466   65.322    0.250    0.402    7.901
  265.716   66.030    0.241    0.411    8.512
  265.966   66.666    0.234    0.421    8.957
  266.216   66.064    0.228    0.431    9.082
  266.466   66.106    0.231    0.435    9.081
  266.716   65.348    0.237    0.423    9.083
  266.966   62.876    0.241    0.414    8.950
  267.216   58.205    0.252    0.404    8.898
  267.466   53.260    0.258    0.383    9.259
  267.716   47.306    0.269    0.332   10.264
  267.966   40.491    0.283    0.299   11.576
  268.216   35.852    0.296    0.284   14.082
  268.466   32.090    0.282    0.273   17.672
  268.716   37.643    0.272    0.302   21.186
  268.966   44.175    0.278    0.343   21.671
  269.216   49.848    0.263    0.367   19.377
  269.466   52.296    0.254    0.384   14.919
  269.716   55.933    0.231    0.392   11.278
  269.966   58.438    0.215    0.399    8.766
  270.216   63.258    0.188    0.410    7.341
  270.466   67.362    0.160    0.422    5.977
  270.716   69.924    0.136    0.444    5.274
  270.966   73.450    0.142    0.461    4.816
  271.216   75.831    0.159    0.482    4.245
  271.466   77.994    0.168    0.496    3.938
  271.716   77.818    0.176    0.506    3.645
  271.966   76.344    0.180    0.507    3.431
  272.216   77.419    0.179    0.512    3.235
  272.466   76.275    0.167    0.518    3.083
  272.716   74.074    0.157    0.528    3.026
  272.966   74.271    0.147    0.528    2.897
  273.216   76.938    0.179    0.513    2.852
  273.466   78.041    0.187    0.500    2.796
  273.716   78.390    0.183    0.508    2.745
  273.966   78.393    0.176    0.519    2.802
  274.216   78.355    0.192    0.522    2.910
  274.466   78.994    0.199    0.489    3.234
  274.716   77.405    0.208    0.465    3.896
  274.966   74.437    0.222    0.440    4.578
  275.216   72.492    0.206    0.433    5.416
  275.466   70.697    0.213    0.442    6.522
  275.716   70.513    0.240    0.452    7.262
  275.966   70.035    0.232    0.449    6.797
  276.216   68.983    0.238    0.462    6.433
  276.466   67.212    0.255    0.467    6.249
  276.716   60.427    0.274    0.480    6.270
  276.966   54.210    0.294    0.456    7.354
  277.216   50.424    0.294    0.421    8.911
  277.466   49.176    0.276    0.410   13.252
  277.716   50.327    0.263    0.427   18.377
  277.966   48.697    0.250    0.437   21.890
  278.216   47.115    0.242    0.446   21.005
  278.466   49.576    0.234    0.438   18.357
  278.716   52.085    0.225    0.427   16.791
  278.966   53.161    0.211    0.418   15.853
  279.216   53.408    0.211    0.419   15.049
  279.466   52.824    0.239    0.429   14.650
  279.716   52.796    0.265    0.438   13.978
  279.966   53.477    0.264    0.454   13.742
  280.216   52.718    0.261    0.453   13.344
  280.466   54.543    0.256    0.454   12.524
  280.716   55.886    0.252    0.444   11.857
  280.966   57.551    0.259    0.438   10.776
  281.216   58.424    0.248    0.427   10.275
  281.466   58.363    0.247    0.439    9.654
  281.716   58.109    0.250    0.455    9.391
  281.966   57.054    0.252    0.462    8.927
  282.216   56.533    0.254    0.460    8.822
  282.466   56.525    0.227    0.460    8.538
  282.716   57.255    0.204    0.450    8.460
  282.966   59.220    0.221    0.437    8.471
  283.216   62.032    0.220    0.439    8.242
  283.466   66.330    0.204    0.453    7.998
  283.716   69.653    0.222    0.463    7.505
  283.966   70.709    0.225    0.461    7.221
  284.216   72.876    0.226    0.453    6.787
  284.466   75.884    0.216    0.449    6.303
  284.716   77.784    0.212    0.450    6.132
  284.966   74.060    0.211    0.455    5.950
  285.216   70.020    0.212    0.461    5.802
  285.466   66.787    0.220    0.470    5.942
  285.716   62.771    0.211    0.448    6.227
  285.966   60.956    0.215    0.426    6.525
  286.216   62.739    0.205    0.422    7.031
  286.466   64.491    0.195    0.430    7.390
  286.716   67.597    0.203    0.437    7.602
  286.966   69.996    0.199    0.443    7.174
  287.216   72.376    0.195    0.445    6.257
  287.466   74.608    0.188    0.441    5.581
  287.716   76.548    0.183    0.446    4.854
  287.966   76.429    0.204    0.477    4.398
  288.216   70.015    0.226    0.504    3.897
  288.466   63.301    0.240    0.517    3.723
  288.716   60.081    0.253    0.505    3.873
  288.966   57.747    0.257    0.496    4.253
  289.216   57.003    0.243    0.489    4.889
  289.466   58.051    0.227    0.478    5.566
  289.716   59.717    0.211    0.466    6.282
  289.966   61.414    0.223    0.454    6.920
  290.216   61.554    0.233    0.458    7.218
  290.466   61.012    0.240    0.449    7.707
  290.716   59.324    0.243    0.437    7.709
  290.966   59.432    0.238    0.424    7.696
