~VERSION INFORMATION
 VERS.                 2.0:   CWLS LOG ASCII STANDARD -VERSION 2.0
 WRAP.                  NO:   ONE LINE PER DEPTH STEP
~WELL INFORMATION BLOCK
#MNEM.UNIT           DATA                    DESCRIPTION OF MNEMONIC
#---------    -------------------            -------------------------------
# Generated from Intellog Unique Number	CN_91_93/WELL/2999
WELL.         PARAMOUNT RESOURCES LTD.       : Well_name    - WELL
LOC .         00/07-36-093-19W4/0            : Location     - LOCATION
UWI .         00/07-36-093-19W4/0            : Uwi          - UNIQUE WELL ID
ENTR.         JOETTE                         : Entered      - ENTERED BY
SRVC.         COMPUTALOG                     : Scn          - SERVICE COMPANY
DATE.         04/07/92                       : Date         - LOG DATE
STRT.M        110                            : top_depth    - START DEPTH
STOP.M        241                            : bot_depth    - STOP DEPTH
STEP.M        0.25                           : increment    - STEP LENGTH
 NULL. -999.2500:NULL Value
~CURVE INFORMATION BLOCK
#MNEM UNIT       ERCB CURVE CODE    CURVE DESCRIPTION
#-----------   ------------------   ----------------------------------
DEPT.M        00 001 00 00         : DEPTH        - DEPTH
CALI.MM       00 280 01 00         : CAL          - CALIPER
GR  .API      00 310 00 00         : GR           - GAMMA RAY
NPHI.V/V      00 330 00 00         : PHIN         - NEUTRON POROSITY (SANDSTONE)
DPHI.V/V      00 890 00 00         : PHID         - DENSITY POROSITY (SANDSTONE)
ILD .OHMM     00 120 00 00         : RESD         - DEEP RESISTIVITY (DIL)
~PARAMETER INFORMATION
#MNEM.UNIT           DATA             DESCRIPTION OF MNEMONIC
#---------         -----------     ------------------------------
GL  .M        521.1                : gl           - GROUND LEVEL ELEVATION
EREF.M        524.6                : kb           - ELEVATION OF DEPTH REFERENCE
DATM.M        524.6                : datum        - DATUM ELEVATION
TDD .M        240.8                : tdd          - TOTAL DEPTH DRILLER
RUN .         ONE                  : Run          - RUN NUMBER
ENG .         JO                   : Engineer     - RECORDING ENGINEER
WIT .         TIM                  : Witness      - WITNESSED BY
MUD .         GEL                  : Mud_type     - MUD TYPE
MATR.         SANDSTONE            : Logunit      - NEUTRON MATRIX
TMAX.C        25                   : BHT          - MAXIMUM RECORDED TEMPERATURE
BHTD.M        240.8                : BHTDEP       - MAXIMUM RECORDED TEMPERATURE
RMT .C        15.5                 : MDTP         - TEMPERATURE OF MUD
MUDD.KG/M     1110                 : MWT          - MUD DENSITY
NEUT.         1                    : NEUTRON      - NEUTRON TYPE
RESI.         0                    : RESIST       - RESISTIVITY TYPE
RM  .OHMM     3                    : RM           - RESISTIVITY OF MUD
RMC .OHMM     3                    : RMC          - RESISTIVITY OF MUD CAKE
RMF .OHMM     3                    : RMF          - RESISTIVITY OF MUD FILTRATE
SUFT.C        4                    : SUFT         - SURFACE TEMPERATURE
~A  DEPTH      CAL       GR     PHIN     PHID     RESD
# ...
  146.500  157.610   80.475    0.378    0.290    9.864
  146.750  157.671   84.642    0.393    0.254    9.967
  147.000  161.693   88.808    0.401    0.238    9.625
  147.250  165.216   93.575    0.412    0.249    9.120
  147.500  167.737   93.912    0.423    0.236    7.471
  147.750  169.769   90.136    0.421    0.226    7.282
  148.000  169.369   88.719    0.423    0.227    7.356
  148.250  167.018   90.238    0.427    0.231    7.234
  148.500  164.627   97.641    0.424    0.225    7.049
  148.750  158.825  103.872    0.429    0.216    6.682
  149.000  156.954  107.162    0.424    0.217    6.393
  149.250  157.525  105.446    0.410    0.225    6.342
  149.500  159.566   99.016    0.425    0.242    6.528
  149.750  161.108   94.652    0.432    0.262    7.226
  150.000  162.179   87.046    0.433    0.270    8.299
  150.250  161.779   77.681    0.407    0.294   10.157
  150.500  160.869   72.723    0.379    0.273   10.551
  150.750  161.450   68.065    0.365    0.230   10.771
  151.000  162.501   62.524    0.364    0.194   10.973
  151.250  163.572   58.754    0.379    0.176   11.090
  151.500  163.172   65.868    0.409    0.213   10.705
  151.750  161.281   70.623    0.411    0.258    9.967
  152.000  158.920   72.731    0.391    0.279    9.025
  152.250  157.030   73.367    0.391    0.286    6.936
  152.500  156.130   74.886    0.395    0.246    5.479
  152.750  157.191   89.354    0.418    0.227    4.962
  153.000  159.722   97.351    0.446    0.226    4.661
  153.250  161.774  102.694    0.463    0.237    4.460
  153.500  161.875  103.925    0.473    0.239    4.507
  153.750  162.916  100.437    0.468    0.223    4.724
  154.000  162.916   93.426    0.445    0.208    5.089
  154.250  164.077   95.828    0.449    0.210    5.242
  154.500  165.618  100.294    0.462    0.215    6.014
  154.750  166.259  102.414    0.468    0.215    6.189
  155.000  167.270  103.338    0.466    0.213    6.312
  155.250  167.341  105.452    0.451    0.211    6.263
  155.500  166.921  106.683    0.445    0.215    6.047
  155.750  164.060  106.425    0.444    0.232    5.839
  156.000  162.679  105.591    0.449    0.255    5.848
  156.250  160.318  102.697    0.447    0.256    6.072
  156.500  158.918   93.332    0.438    0.258    6.602
  156.750  157.538   90.151    0.439    0.263    7.309
  157.000  157.538   89.611    0.403    0.236    8.164
  157.250  157.709   84.064    0.351    0.193    9.638
  157.500  159.240   76.464    0.345    0.170    9.638
  157.750  159.351   79.454    0.365    0.215    9.848
  158.000  157.460   80.685    0.405    0.239    9.945
  158.250  156.080   82.198    0.418    0.253    9.779
  158.500  155.670   95.214    0.414    0.227    9.355
  158.750  156.721   97.597    0.404    0.208    9.032
  159.000  160.233  100.593    0.396    0.201    9.127
  159.250  163.255   97.406    0.394    0.205   10.873
  159.500  162.365   85.093    0.365    0.184   11.711
  159.750  161.455   73.081    0.337    0.129   12.967
  160.000  160.565   68.416    0.336    0.073   13.221
  160.250  159.665   67.876    0.388    0.128   13.119
  160.500  159.735   84.422    0.411    0.167   12.553
  160.750  160.816   85.935    0.417    0.228   11.792
  161.000  161.397   84.800    0.413    0.240   11.077
  161.250  161.478   88.385    0.411    0.246   10.599
  161.500  161.538   90.498    0.415    0.249   10.142
  161.750  161.538   90.835    0.428    0.253    9.790
  162.000  161.709   92.654    0.427    0.239    9.452
  162.250  162.270   96.232    0.412    0.220    8.877
  162.500  162.851   95.698    0.410    0.223    8.265
  162.750  163.431   92.799    0.439    0.230    7.763
  163.000  163.992   90.212    0.447    0.234    7.095
  163.250  164.072   90.254    0.438    0.234    6.197
  163.500  164.153   92.355    0.432    0.229    5.412
  163.750  164.724  104.182    0.458    0.232    4.812
  164.000  164.824  102.459    0.483    0.237    4.439
  164.250  164.905  103.396    0.502    0.240    4.208
  164.500  165.956  104.327    0.500    0.240    4.533
  164.750  168.007  101.133    0.485    0.242    5.206
  165.000  167.107   85.297    0.462    0.207    6.429
  165.250  164.236   73.573    0.416    0.112    8.313
  165.500  159.424   62.143    0.387    0.115   10.750
  165.750  158.023   68.380    0.389    0.184   11.267
  166.000  158.114   74.894    0.411    0.255   11.809
  166.250  161.136   78.773    0.414    0.258   10.892
  166.500  160.736   82.351    0.406    0.252    8.763
  166.750  161.807   94.478    0.406    0.252    7.377
  167.000  163.829  100.991    0.415    0.248    6.155
  167.250  164.409  102.805    0.423    0.227    5.781
  167.500  161.058   99.035    0.428    0.228    5.531
  167.750  158.687   93.488    0.436    0.230    5.541
  168.000  159.258   91.777    0.444    0.225    5.599
  168.250  161.800   90.355    0.456    0.223    5.599
  168.500  162.861   88.632    0.444    0.227    5.664
  168.750  163.932   86.333    0.438    0.238    5.991
  169.000  163.522   87.852    0.431    0.252    6.574
  169.250  161.151   89.377    0.393    0.264    7.972
  169.500  157.299   85.590    0.352    0.270    7.972
  169.750  157.380   77.696    0.341    0.277    9.959
  170.000  160.402   76.273    0.348    0.155   10.726
  170.250  163.454   88.094    0.366    0.115   10.353
  170.500  164.495   99.914    0.382    0.123    9.994
  170.750  164.576  103.198    0.396    0.159    9.826
  171.000  164.166  101.188    0.408    0.208    9.487
  171.250  163.776   94.770    0.403    0.213    8.593
  171.500  163.356   91.301    0.387    0.220    7.998
  171.750  163.427   90.743    0.377    0.244    8.084
  172.000  164.017   87.267    0.377    0.269    8.023
  172.250  164.578   94.969    0.400    0.226    7.399
  172.500  165.149   96.483    0.409    0.217    6.640
  172.750  165.300   95.942    0.415    0.215    6.239
  173.000  165.330  100.703    0.416    0.210    6.254
  173.250  165.891  103.399    0.443    0.207    6.201
  173.500  165.971  104.624    0.453    0.210    6.150
  173.750  165.571  112.326    0.459    0.216    5.884
  174.000  165.662  116.205    0.465    0.212    5.378
  174.250  165.232  115.083    0.469    0.187    5.007
  174.500  164.822  107.765    0.429    0.173    4.922
  174.750  163.432   79.856    0.290    0.127    5.254
  175.000  161.551   54.600    0.258    0.066    7.375
  175.250  160.681   52.590    0.251   -0.003    8.787
  175.500  161.722   73.529    0.286    0.163    8.640
  175.750  163.774   97.122    0.328    0.190    8.570
  176.000  164.835  106.884    0.390    0.212    8.570
  176.250  163.935  106.938    0.400    0.218    8.681
  176.500  162.554  107.869    0.394    0.222    9.008
  176.750  161.154  108.217    0.379    0.218    9.794
  177.000  161.234  100.317    0.375    0.211   10.265
  177.250  161.805   99.483    0.375    0.212   10.564
  177.500  163.377  100.120    0.372    0.215   10.876
  177.750  163.927   98.697    0.352    0.212   11.089
  178.000  164.528   93.739    0.346    0.219   11.106
  178.250  164.598   89.969    0.338    0.160   10.817
  178.500  164.189   89.429    0.345    0.144   10.256
  178.750  163.789  102.126    0.386    0.160   10.086
  179.000  164.830  106.887    0.420    0.180    9.914
  179.250  165.411  103.417    0.428    0.188    9.403
  179.500  165.491  104.342    0.421    0.190    8.833
  179.750  164.611  107.332    0.417    0.195    8.525
  180.000  163.201  110.916    0.415    0.199    8.010
  180.250  161.830  110.670    0.413    0.172    7.663
  180.500  161.421  108.954    0.414    0.172    7.602
  180.750  161.491  104.878    0.411    0.186    8.041
  181.000  162.542   93.166    0.393    0.208   10.118
  181.250  163.133   82.318    0.359    0.216   10.705
  181.500  161.252   69.717    0.288    0.182   11.633
  181.750  158.401   56.222    0.216    0.119   14.504
  182.000  159.462   49.511    0.161    0.031   17.915
  182.250  161.974   62.796    0.143   -0.003   21.934
  182.500  165.506   74.029    0.169   -0.015   21.371
  182.750  166.557   87.026    0.189    0.063   17.662
