~VERSION INFORMATION
 VERS.                 2.0:   CWLS LOG ASCII STANDARD -VERSION 2.0
 WRAP.                  NO:   ONE LINE PER DEPTH STEP
~WELL INFORMATION BLOCK
#MNEM.UNIT           DATA                    DESCRIPTION OF MNEMONIC
#---------    -------------------            -------------------------------
# Generated from Intellog Unique Number	CS_77_79/WELL/899
WELL.         BRALORNE RESOURCES LIMITED     : Well_name    - WELL
LOC .         00/07-16-077-14W4/0            : Location     - LOCATION
UWI .         00/07-16-077-14W4/0            : Uwi          - UNIQUE WELL ID
ENTR.         SP                             : Entered      - ENTERED BY
SRVC.         SCHLUMBERGER                   : Scn          - SERVICE COMPANY
STRT.M        280                            : top_depth    - START DEPTH
STOP.M        530                            : bot_depth    - STOP DEPTH
STEP.M        0.25                           : increment    - STEP LENGTH
 NULL. -999.2500:NULL Value
~CURVE INFORMATION BLOCK
#MNEM UNIT       ERCB CURVE CODE    CURVE DESCRIPTION
#-----------   ------------------   ----------------------------------
DEPT.M        00 001 00 00         : DEPTH        - DEPTH
ILD .OHMM     00 120 00 00         : RESD         - DEEP RESISTIVITY (DIL)
DPHI.V/V      00 890 00 00         : PHID         - DENSITY POROSITY (LIMESTONE)
NPHI.V/V      00 330 00 00         : PHIN         - NEUTRON POROSITY (LIMESTONE)
GR  .API      00 310 00 00         : GR           - GAMMA RAY
~PARAMETER INFORMATION
#MNEM.UNIT           DATA             DESCRIPTION OF MNEMONIC
#---------         -----------     ------------------------------
GL  .M        683.2                : gl           - GROUND LEVEL ELEVATION
EREF.M        686.9                : kb           - ELEVATION OF DEPTH REFERENCE
DATM.M        683.2                : datum        - DATUM ELEVATION
TDD .M        530                  : tdd          - TOTAL DEPTH DRILLER
RUN .         ONE                  : Run          - RUN NUMBER
ENG .         BILL                 : Engineer     - RECORDING ENGINEER
WIT .         JIM                  : Witness      - WITNESSED BY
MUD .         GEL                  : Mud_type     - MUD TYPE
MATR.         LIMESTONE            : Logunit      - NEUTRON MATRIX
TMAX.C        30                   : BHT          - MAXIMUM RECORDED TEMPERATURE
BHTD.M        530                  : BHTDEP       - MAXIMUM RECORDED TEMPERATURE
MATR.         1                    : LOGUNIT      - NEUTRON MATRIX
RMT .C        25                   : MDTP         - TEMPERATURE OF MUD
NEUT.         1                    : NEUTRON      - NEUTRON TYPE
RESI.         0                    : RESIST       - RESISTIVITY TYPE
RMC .OHMM     0.25                 : RMC          - RESISTIVITY OF MUD CAKE
RMF .OHMM     0.25                 : RMF          - RESISTIVITY OF MUD FILTRATE
SUFT.C        15                   : SUFT         - SURFACE TEMPERATURE
~A  DEPTH     RESD     PHID     PHIN       GR
# ...
  454.000    6.021    0.255    0.408   79.372
  454.250    6.022    0.259    0.391   73.260
  454.500    6.024    0.274    0.383   68.373
  454.750    6.258    0.290    0.387   65.935
  455.000    6.882    0.283    0.395   71.456
  455.250    7.286    0.264    0.385   76.368
  455.500    7.715    0.241    0.376   73.928
  455.750    7.865    0.216    0.363   73.327
  456.000    7.868    0.196    0.342   70.278
  456.250    7.870    0.181    0.326   68.450
  456.500    7.725    0.200    0.344   72.138
  456.750    7.582    0.218    0.370   78.882
  457.000    7.167    0.227    0.382   86.243
  457.250    7.169    0.237    0.390   86.862
  457.500    7.172    0.241    0.385   83.202
  457.750    7.311    0.247    0.391   81.375
  458.000    7.453    0.248    0.402   87.509
  458.250    7.598    0.243    0.409   91.810
  458.500    7.747    0.237    0.401   94.268
  458.750    8.048    0.237    0.393   96.115
  459.000    8.204    0.238    0.380   91.226
  459.250    8.363    0.238    0.374   88.176
  459.500    8.687    0.238    0.369   87.577
  459.750    9.025    0.238    0.367   86.976
  460.000    9.200    0.233    0.367   84.536
  460.250    9.559    0.231    0.362   85.160
  460.500    9.744    0.222    0.354   89.459
  460.750    9.747    0.209    0.349   90.079
  461.000    9.568    0.200    0.357   88.866
  461.250    9.391    0.191    0.375   91.330
  461.500    8.876    0.182    0.378   93.787
  461.750    8.389    0.187    0.383   94.411
  462.000    8.234    0.190    0.378   96.873
  462.250    8.236    0.195    0.362  100.560
  462.500    8.086    0.207    0.352  102.403
  462.750    7.936    0.218    0.356  104.863
  463.000    7.938    0.227    0.366  105.487
  463.250    7.792    0.235    0.372  104.273
  463.500    7.364    0.239    0.366  105.510
  463.750    6.830    0.231    0.353  102.458
  464.000    6.454    0.219    0.363   97.571
  464.250    5.986    0.208    0.379   93.297
  464.500    5.448    0.217    0.389   93.924
  464.750    5.148    0.230    0.387   95.157
  465.000    4.685    0.255    0.400   94.563
  465.250    3.953    0.275    0.420   94.573
  465.500    3.398    0.288    0.448   95.194
  465.750    2.922    0.289    0.468   95.813
  466.000    2.659    0.279    0.480   95.211
  466.250    2.513    0.276    0.495   90.939
  466.500    2.421    0.274    0.507   87.276
  466.750    2.421    0.274    0.500   87.899
  467.000    2.468    0.263    0.480   92.195
  467.250    2.564    0.255    0.471   96.492
  467.500    2.664    0.234    0.440  100.177
  467.750    2.986    0.215    0.424  100.189
  468.000    3.345    0.195    0.411   97.750
  468.250    3.820    0.180    0.399   95.313
  468.500    4.363    0.169    0.386   98.387
  468.750    5.375    0.156    0.374  102.074
  469.000    6.023    0.141    0.359  103.305
  469.250    6.749    0.127    0.352   99.031
  469.500    7.012    0.153    0.349   93.531
  469.750    6.883    0.199    0.354   88.643
  470.000    6.756    0.215    0.363   88.042
  470.250    6.631    0.223    0.378   91.117
  470.500    6.509    0.222    0.384   96.032
  470.750    6.511    0.220    0.373   97.879
  471.000    6.894    0.210    0.342   99.107
  471.250    7.873    0.164    0.296   88.714
  471.500    9.163    0.131    0.275   83.214
  471.750   10.867    0.120    0.262   78.936
  472.000   13.136    0.184    0.277   72.213
  472.250   14.173    0.195    0.321   68.552
  472.500   13.912    0.188    0.342   67.951
  472.750   12.424    0.204    0.356   67.959
  473.000   11.521    0.211    0.369   80.219
  473.250    9.905    0.208    0.370   88.191
  473.500    8.517    0.200    0.372   91.875
  473.750    8.203    0.205    0.381   93.109
  474.000    7.325    0.201    0.371   91.282
  474.250    6.922    0.200    0.355   88.844
  474.500    6.543    0.203    0.350   90.079
  474.750    6.184    0.211    0.365   89.481
  475.000    5.845    0.217    0.383   89.491
  475.250    5.736    0.221    0.392   91.951
  475.500    5.525    0.222    0.399   94.409
  475.750    5.527    0.221    0.393   99.319
  476.000    5.426    0.219    0.387  101.166
  476.250    5.427    0.219    0.400   98.117
  476.500    5.327    0.216    0.406   99.967
  476.750    5.328    0.212    0.410  102.427
  477.000    5.642    0.199    0.398  104.274
  477.250    6.087    0.191    0.374  105.508
  477.500    6.821    0.169    0.360  106.131
  477.750    7.644    0.159    0.340  104.306
  478.000    9.241    0.173    0.330  100.030
  478.250   10.160    0.198    0.337   92.697
  478.500   12.281    0.225    0.328   89.652
  478.750   13.504    0.247    0.320   88.435
  479.000   15.421    0.270    0.334   85.380
  479.250   17.948    0.283    0.344   69.475
  479.500   20.889    0.283    0.342   69.486
  479.750   20.897    0.279    0.346   72.557
  480.000   17.299    0.271    0.353   71.959
  480.250   14.595    0.268    0.358   73.805
  480.500   12.788    0.266    0.366   84.838
  480.750   12.317    0.271    0.378   89.133
  481.000   12.089    0.270    0.384   87.308
  481.250   12.561    0.267    0.395   86.093
  481.500   13.552    0.261    0.359   86.104
  481.750   13.815    0.247    0.341   79.381
  482.000   12.105    0.234    0.345   78.167
  482.250   10.810    0.222    0.368   84.301
  482.500   10.610    0.218    0.360  105.129
  482.750   10.414    0.221    0.375  112.488
  483.000   10.618    0.246    0.378  113.111
  483.250   11.241    0.263    0.373  108.836
  483.500   13.847    0.277    0.354  102.114
  483.750   16.114    0.283    0.351   95.388
  484.000   20.230    0.290    0.354   87.439
  484.250   25.882    0.285    0.365   79.491
  484.500   30.696    0.282    0.360   77.057
  484.750   33.755    0.272    0.346   77.680
  485.000   33.767    0.264    0.339   78.915
  485.250   32.521    0.263    0.333   80.149
  485.500   30.736    0.259    0.330   80.774
  485.750   28.508    0.257    0.323   82.008
  486.000   26.437    0.256    0.318   81.407
  486.250   24.985    0.254    0.310   78.358
  486.500   24.066    0.255    0.307   74.695
  486.750   25.003    0.264    0.318   68.584
  487.000   26.473    0.268    0.339   65.532
  487.250   28.563    0.275    0.350   65.545
  487.500   29.671    0.276    0.345   70.455
  487.750   30.827    0.266    0.343   69.852
  488.000   30.841    0.259    0.343   64.966
  488.250   30.848    0.243    0.342   63.138
  488.500   29.714    0.231    0.333   67.440
  488.750   27.555    0.231    0.329   71.121
  489.000   25.073    0.238    0.330   80.318
  489.250   20.368    0.253    0.338   87.674
  489.500   17.846    0.281    0.343  102.992
  489.750   16.551    0.296    0.345   97.492
  490.000   15.942    0.295    0.341   79.748
  490.250   15.946    0.288    0.325   60.166
  490.500   16.884    0.270    0.317   57.116
  490.750   18.217    0.244    0.303   57.740
  491.000   22.869    0.248    0.295   54.079
  491.250   44.364    0.267    0.322   51.027
  491.500   58.947    0.287    0.334   46.755
  491.750   54.669    0.291    0.324   44.315
  492.000   46.123    0.275    0.313   51.063
  492.250   41.184    0.269    0.312   57.807
  492.500   35.408    0.261    0.320   59.042
  492.750   31.026    0.255    0.309   63.340
  493.000   26.175    0.264    0.319   71.921
  493.250   23.373    0.280    0.324   88.463
  493.500   23.828    0.286    0.321   86.642
  493.750   24.754    0.281    0.320   83.588
  494.000   27.741    0.270    0.344   69.519
  494.250   31.681    0.265    0.356   63.406
  494.500   32.912    0.263    0.359   66.478
  494.750   29.391    0.266    0.358   78.737
  495.000   26.245    0.252    0.342   83.644
  495.250   23.882    0.239    0.334   86.104
  495.500   22.149    0.228    0.337   86.115
  495.750   21.333    0.215    0.342   86.130
  496.000   20.546    0.204    0.342   87.975
  496.250   19.422    0.189    0.334   93.499
  496.500   19.061    0.176    0.315   98.410
  496.750   17.019    0.167    0.309   99.640
  497.000   14.913    0.181    0.306  100.263
  497.250   13.831    0.194    0.315  102.726
