~VERSION INFORMATION
 VERS.                 2.0:   CWLS LOG ASCII STANDARD -VERSION 2.0
 WRAP.                  NO:   ONE LINE PER DEPTH STEP
~WELL INFORMATION BLOCK
#MNEM.UNIT           DATA                    DESCRIPTION OF MNEMONIC
#---------    -------------------            -------------------------------
# Generated from Intellog Unique Number	CS_73_76/WELL/3218
WELL.         CANADIAN OCCIDENTAL            : Well_name    - WELL
LOC .         00/08-24-076-02W4/0            : Location     - LOCATION
UWI .         00/08-24-076-02W4/0            : Uwi          - UNIQUE WELL ID
ENTR.         SP                             : Entered      - ENTERED BY
SRVC.         SCHLUMBERGER                   : Scn          - SERVICE COMPANY
STRT.M        237.744                        : top_depth    - START DEPTH
STOP.M        524.244                        : bot_depth    - STOP DEPTH
STEP.M        0.25                           : increment    - STEP LENGTH
 NULL. -999.2500:NULL Value
~CURVE INFORMATION BLOCK
#MNEM UNIT       ERCB CURVE CODE    CURVE DESCRIPTION
#-----------   ------------------   ----------------------------------
DEPT.M        00 001 00 00         : DEPTH        - DEPTH
DPHI.V/V      00 890 00 00         : PHID         - DENSITY POROSITY (SANDSTONE)
NPHI.V/V      00 330 00 00         : PHIN         - NEUTRON POROSITY (SANDSTONE)
ILD .OHMM     00 120 00 00         : RESD         - DEEP RESISTIVITY (DIL)
GR  .API      00 310 00 00         : GR           - GAMMA RAY
~PARAMETER INFORMATION
#MNEM.UNIT           DATA             DESCRIPTION OF MNEMONIC
#---------         -----------     ------------------------------
GL  .M        630.326              : gl           - GROUND LEVEL ELEVATION
EREF.M        633.832              : kb           - ELEVATION OF DEPTH REFERENCE
DATM.M        630.326              : datum        - DATUM ELEVATION
TDD .M        536.143              : tdd          - TOTAL DEPTH DRILLER
RUN .         ONE                  : Run          - RUN NUMBER
ENG .         BILL                 : Engineer     - RECORDING ENGINEER
WIT .         JIM                  : Witness      - WITNESSED BY
MUD .         GEL                  : Mud_type     - MUD TYPE
MATR.         SANDSTONE            : Logunit      - NEUTRON MATRIX
TMAX.C        22.2222              : BHT          - MAXIMUM RECORDED TEMPERATURE
BHTD.M        536.143              : BHTDEP       - MAXIMUM RECORDED TEMPERATURE
MATR.         1                    : LOGUNIT      - NEUTRON MATRIX
RMT .C        25                   : MDTP         - TEMPERATURE OF MUD
NEUT.         1                    : NEUTRON      - NEUTRON TYPE
RESI.         0                    : RESIST       - RESISTIVITY TYPE
RMC .OHMM     0.25                 : RMC          - RESISTIVITY OF MUD CAKE
RMF .OHMM     0.25                 : RMF          - RESISTIVITY OF MUD FILTRATE
SUFT.C        15                   : SUFT         - SURFACE TEMPERATURE
~A  DEPTH     PHID     PHIN     RESD       GR
# ...
  411.744    0.202    0.368    6.360   87.130
  411.994    0.205    0.363    6.087   80.211
  412.244    0.211    0.380    5.649   70.659
  412.494    0.258    0.406    5.154   62.566
  412.744    0.288    0.418    4.820   55.930
  412.994    0.313    0.421    4.387   50.243
  413.244    0.332    0.450    4.219   44.477
  413.494    0.318    0.477    3.974   51.517
  413.744    0.278    0.389    3.854   57.879
  413.994    0.271    0.364    3.810   60.847
  414.244    0.250    0.359    3.851   62.771
  414.494    0.235    0.361    3.899   62.429
  414.744    0.245    0.344    3.889   65.668
  414.994    0.251    0.348    3.847   65.163
  415.244    0.266    0.368    3.735   63.845
  415.494    0.280    0.376    3.515   60.712
  415.744    0.297    0.371    3.327   57.493
  415.994    0.306    0.379    3.229   56.807
  416.244    0.291    0.379    3.132   57.879
  416.494    0.261    0.345    3.094   61.725
  416.744    0.260    0.335    3.035   67.277
  416.994    0.247    0.331    2.977   71.198
  417.244    0.254    0.342    2.942   67.487
  417.494    0.266    0.348    2.878   62.885
  417.744    0.275    0.348    2.765   56.580
  417.994    0.280    0.345    2.688   51.750
  418.244    0.283    0.340    2.626   51.362
  418.494    0.287    0.341    2.530   50.283
  418.744    0.293    0.348    2.500   51.479
  418.994    0.292    0.361    2.477   49.271
  419.244    0.303    0.376    2.396   47.391
  419.494    0.292    0.389    2.370   46.397
  419.744    0.296    0.395    2.345   45.427
  419.994    0.304    0.385    2.310   43.902
  420.244    0.311    0.385    2.246   42.659
  420.494    0.312    0.389    2.181   40.676
  420.744    0.311    0.379    2.144   39.258
  420.994    0.314    0.369    2.131   38.251
  421.244    0.317    0.357    2.107   39.583
  421.494    0.307    0.352    2.071   40.865
  421.744    0.306    0.358    2.028   42.603
  421.994    0.317    0.370    2.032   42.496
  422.244    0.308    0.383    2.032   44.308
  422.494    0.295    0.380    2.032   48.925
  422.744    0.275    0.367    2.032   54.469
  422.994    0.267    0.359    2.033   58.360
  423.244    0.273    0.371    2.034   58.164
  423.494    0.284    0.390    2.002   52.247
  423.744    0.290    0.368    1.996   47.353
  423.994    0.278    0.376    1.994   50.343
  424.244    0.284    0.390    1.958   52.179
  424.494    0.288    0.400    1.962   46.968
  424.744    0.286    0.382    1.925   38.911
  424.994    0.287    0.373    1.928   34.635
  425.244    0.286    0.364    1.878   33.523
  425.494    0.293    0.367    1.855   33.521
  425.744    0.300    0.359    1.836   34.525
  425.994    0.297    0.342    1.817   34.748
  426.244    0.290    0.342    1.791   39.395
  426.494    0.292    0.353    1.753   43.131
  426.744    0.288    0.363    1.755   39.870
  426.994    0.304    0.361    1.700   39.275
  427.244    0.314    0.365    1.708   36.443
  427.494    0.309    0.356    1.726   32.204
  427.744    0.309    0.353    1.760   30.457
  427.994    0.298    0.354    1.759   30.558
  428.244    0.299    0.356    1.757   29.939
  428.494    0.296    0.364    1.794   29.860
  428.744    0.285    0.376    1.797   30.506
  428.994    0.280    0.365    1.825   31.167
  429.244    0.305    0.363    1.841   29.841
  429.494    0.314    0.369    1.852   33.730
  429.744    0.322    0.363    1.822   37.395
  429.994    0.322    0.375    1.808   35.018
  430.244    0.314    0.387    1.789   34.544
  430.494    0.309    0.379    1.756   36.606
  430.744    0.311    0.369    1.751   39.315
  430.994    0.321    0.384    1.696   38.157
  431.244    0.323    0.397    1.705   34.441
  431.494    0.329    0.395    1.731   32.206
  431.744    0.339    0.384    1.728   31.697
  431.994    0.328    0.386    1.693   31.386
  432.244    0.319    0.392    1.696   31.897
  432.494    0.314    0.398    1.696   36.977
  432.744    0.309    0.398    1.696   40.400
  432.994    0.306    0.387    1.696   36.881
  433.244    0.318    0.376    1.693   40.359
  433.494    0.313    0.364    1.732   44.950
  433.744    0.313    0.363    1.729   45.761
  433.994    0.321    0.374    1.761   39.001
  434.244    0.325    0.384    1.757   34.373
  434.494    0.327    0.387    1.792   31.608
  434.744    0.322    0.392    1.809   31.610
  434.994    0.327    0.378    1.860   33.761
  435.244    0.334    0.360    1.888   36.183
  435.494    0.335    0.372    1.932   41.761
  435.744    0.304    0.374    1.933   47.629
  435.994    0.282    0.388    1.971   42.455
  436.244    0.294    0.398    1.871   29.523
  436.494    0.314    0.368    1.858   28.096
  436.744    0.308    0.376    1.823   31.199
  436.994    0.295    0.380    1.814   32.792
  437.244    0.289    0.369    1.793   33.897
  437.494    0.288    0.363    1.796   33.796
  437.744    0.298    0.362    1.757   31.456
  437.994    0.306    0.357    1.761   29.078
  438.244    0.302    0.357    1.760   31.637
  438.494    0.303    0.353    1.755   34.408
  438.744    0.307    0.357    1.728   36.867
  438.994    0.310    0.363    1.714   34.618
  439.244    0.328    0.379    1.699   33.825
  439.494    0.339    0.389    1.695   32.847
  439.744    0.341    0.394    1.733   31.321
  439.994    0.339    0.382    1.730   32.112
  440.244    0.331    0.382    1.726   36.466
  440.494    0.340    0.380    1.765   40.681
  440.744    0.324    0.375    1.762   45.636
  440.994    0.308    0.369    1.761   48.745
  441.244    0.300    0.368    1.754   46.518
  441.494    0.293    0.362    1.730   39.017
  441.744    0.292    0.356    1.736   32.683
  441.994    0.294    0.339    1.659   31.214
  442.244    0.289    0.341    1.614   29.181
  442.494    0.289    0.340    1.576   28.419
  442.744    0.298    0.343    1.577   29.181
  442.994    0.307    0.348    1.549   30.036
  443.244    0.301    0.350    1.550   32.758
  443.494    0.298    0.348    1.551   35.649
  443.744    0.297    0.355    1.531   38.184
  443.994    0.301    0.361    1.523   39.988
  444.244    0.310    0.363    1.522   37.415
  444.494    0.317    0.361    1.506   37.274
  444.744    0.315    0.365    1.495   33.103
  444.994    0.314    0.363    1.497   29.291
  445.244    0.317    0.355    1.466   26.245
  445.494    0.312    0.344    1.473   28.685
  445.744    0.306    0.350    1.548   31.164
  445.994    0.293    0.355    1.625   32.920
  446.244    0.287    0.350    1.800   35.493
  446.494    0.259    0.342    2.142   40.165
  446.744    0.211    0.340    2.485   47.718
  446.994    0.179    0.351    2.935   69.713
  447.244    0.196    0.356    3.339   78.132
  447.494    0.196    0.323    3.865   76.577
  447.744    0.199    0.317    4.149   78.472
  447.994    0.145    0.320    4.284   84.787
  448.244    0.159    0.348    4.313   93.224
  448.494    0.167    0.373    4.314  100.755
  448.744    0.176    0.402    4.311  107.549
  448.994    0.177    0.418    4.302  109.011
  449.244    0.212    0.435    4.107  104.085
  449.494    0.232    0.427    3.748   91.123
  449.744    0.254    0.417    3.093   75.362
  449.994    0.242    0.385    2.703   65.018
  450.244    0.250    0.330    2.356   54.829
  450.494    0.279    0.359    2.123   45.982
  450.744    0.304    0.368    1.923   41.561
  450.994    0.321    0.372    1.779   36.642
  451.244    0.301    0.361    1.762   34.550
  451.494    0.282    0.347    1.775   33.427
  451.744    0.275    0.343    1.829   33.777
  451.994    0.279    0.328    1.829   34.304
  452.244    0.278    0.323    1.766   34.617
  452.494    0.278    0.334    1.696   34.966
  452.744    0.276    0.346    1.667   36.033
  452.994    0.286    0.364    1.671   36.407
  453.244    0.293    0.373    1.828   38.468
  453.494    0.304    0.368    2.135   41.194
  453.744    0.274    0.330    2.306   43.502
  453.994    0.230    0.297    2.490   38.313
  454.244    0.227    0.270    2.496   32.132
  454.494    0.226    0.269    2.442   30.271
  454.744    0.220    0.274    2.298   28.331
  454.994    0.235    0.289    2.092   28.046
