~VERSION INFORMATION
 VERS.                 2.0:   CWLS LOG ASCII STANDARD -VERSION 2.0
 WRAP.                  NO:   ONE LINE PER DEPTH STEP
~WELL INFORMATION BLOCK
#MNEM.UNIT           DATA                    DESCRIPTION OF MNEMONIC
#---------    -------------------            -------------------------------
# Generated from Intellog Unique Number	CC_80_83/WELL/1043
WELL.         01-25-083-02W4                 : Well_name    - WELL
LOC .         00/01-25-083-02W4/0            : Location     - LOCATION
UWI .         00/01-25-083-02W400            : Uwi          - UNIQUE WELL ID
ENTR.         DW                             : Entered      - ENTERED BY
SRVC.         SCHLUMBERGER                   : Scn          - SERVICE COMPANY
STRT.M        90                             : top_depth    - START DEPTH
STOP.M        304.75                         : bot_depth    - STOP DEPTH
STEP.M        0.25                           : increment    - STEP LENGTH
 NULL. -999.2500:NULL Value
~CURVE INFORMATION BLOCK
#MNEM UNIT       ERCB CURVE CODE    CURVE DESCRIPTION
#-----------   ------------------   ----------------------------------
DEPT.M        00 001 00 00         : DEPTH        - DEPTH
GR  .API      00 310 00 00         : GR           - GAMMA RAY
DPHI.V/V      00 890 00 00         : PHID         - DENSITY POROSITY (LIMESTONE)
NPHI.V/V      00 330 00 00         : PHIN         - NEUTRON POROSITY (LIMESTONE)
ILD .OHMM     00 120 00 00         : RESD         - DEEP RESISTIVITY (DIL)
~PARAMETER INFORMATION
#MNEM.UNIT           DATA             DESCRIPTION OF MNEMONIC
#---------         -----------     ------------------------------
GL  .M        477.33               : gl           - GROUND LEVEL ELEVATION
EREF.M        480.33               : kb           - ELEVATION OF DEPTH REFERENCE
DATM.M        480.33               : datum        - DATUM ELEVATION
TDD .M        318                  : tdd          - TOTAL DEPTH DRILLER
RUN .         ONE                  : Run          - RUN NUMBER
ENG .         BILL                 : Engineer     - RECORDING ENGINEER
WIT .         JIM                  : Witness      - WITNESSED BY
MUD .         GEL                  : Mud_type     - MUD TYPE
MATR.         LIMESTONE            : Logunit      - NEUTRON MATRIX
TMAX.C        28                   : BHT          - MAXIMUM RECORDED TEMPERATURE
BHTD.M        318                  : BHTDEP       - MAXIMUM RECORDED TEMPERATURE
MATR.         1                    : LOGUNIT      - NEUTRON MATRIX
RMT .C        25                   : MDTP         - TEMPERATURE OF MUD
NEUT.         1                    : NEUTRON      - NEUTRON TYPE
RESI.         0                    : RESIST       - RESISTIVITY TYPE
RMC .OHMM     0.25                 : RMC          - RESISTIVITY OF MUD CAKE
RMF .OHMM     0.25                 : RMF          - RESISTIVITY OF MUD FILTRATE
SUFT.C        15                   : SUFT         - SURFACE TEMPERATURE
~A  DEPTH       GR     PHID     PHIN     RESD
# ...
  264.000   73.947    0.268    0.352    3.780
  264.250   75.058    0.301    0.341    3.606
  264.500   75.711    0.305    0.329    3.519
  264.750   75.554    0.295    0.351    3.482
  265.000   75.135    0.289    0.378    3.418
  265.250   75.246    0.282    0.379    3.380
  265.500   79.457    0.270    0.362    3.381
  265.750   93.795    0.252    0.339    3.328
  266.000   98.480    0.235    0.355    3.313
  266.250  100.605    0.241    0.357    3.326
  266.500   74.941    0.263    0.335    3.304
  266.750   32.789    0.280    0.317    3.248
  267.000   33.775    0.288    0.302    3.199
  267.250   40.071    0.300    0.293    3.150
  267.500   44.943    0.307    0.300    3.101
  267.750   43.173    0.313    0.309    3.055
  268.000   37.194    0.310    0.316    3.004
  268.250   34.114    0.298    0.326    2.967
  268.500   33.260    0.297    0.330    2.970
  268.750   32.601    0.293    0.318    2.973
  269.000   33.796    0.295    0.321    2.961
  269.250   35.124    0.299    0.325    3.019
  269.500   34.792    0.301    0.316    3.122
  269.750   33.780    0.300    0.304    3.225
  270.000   33.319    0.299    0.297    3.384
  270.250   32.297    0.299    0.305    3.560
  270.500   32.209    0.303    0.320    3.586
  270.750   36.875    0.308    0.330    3.602
  271.000   45.408    0.305    0.331    3.678
  271.250   52.797    0.295    0.327    3.718
  271.500   54.734    0.291    0.325    3.717
  271.750   52.372    0.289    0.321    3.776
  272.000   60.480    0.285    0.346    3.820
  272.250   69.615    0.290    0.345    3.975
  272.500   71.361    0.288    0.335    4.299
  272.750   85.366    0.277    0.377    4.608
  273.000  118.752    0.259    0.433    4.736
  273.250  121.521    0.198    0.444    4.812
  273.500  116.374    0.176    0.439    4.856
  273.750  113.618    0.179    0.430    4.697
  274.000  112.990    0.174    0.419    4.311
  274.250  115.079    0.167    0.405    3.959
  274.500  117.664    0.163    0.403    3.791
  274.750  119.409    0.165    0.435    3.551
  275.000  113.842    0.170    0.455    3.499
  275.250  111.146    0.174    0.465    3.538
  275.500  112.528    0.178    0.463    3.650
  275.750  112.148    0.178    0.447    3.809
  276.000  112.847    0.168    0.438    3.792
  276.250  115.998    0.159    0.440    3.683
  276.500  116.912    0.156    0.439    3.518
  276.750  113.191    0.166    0.429    3.385
  277.000  109.508    0.171    0.420    3.290
  277.250  109.327    0.161    0.423    3.188
  277.500  111.069    0.164    0.438    3.091
  277.750  115.737    0.179    0.462    2.994
  278.000  118.327    0.189    0.475    2.933
  278.250  117.961    0.189    0.484    2.920
  278.500  116.835    0.184    0.483    2.922
  278.750  116.718    0.178    0.473    2.926
  279.000  117.848    0.171    0.466    2.978
  279.250  119.348    0.171    0.455    3.114
  279.500  121.060    0.173    0.462    3.324
  279.750  121.648    0.172    0.466    3.716
  280.000  120.022    0.169    0.466    4.004
  280.250  117.497    0.169    0.474    4.013
  280.500  116.692    0.169    0.478    4.014
  280.750  117.692    0.167    0.471    3.954
  281.000  118.622    0.165    0.458    3.897
  281.250  120.117    0.167    0.445    3.803
  281.500  116.565    0.163    0.430    3.681
  281.750  111.907    0.176    0.409    3.567
  282.000  102.243    0.232    0.378    3.460
  282.250   53.863    0.271    0.339    3.410
  282.500   43.695    0.269    0.319    3.311
  282.750   57.201    0.250    0.317    3.244
  283.000   69.953    0.236    0.329    3.169
  283.250   82.628    0.230    0.341    3.094
  283.500   86.914    0.233    0.342    3.153
  283.750   87.588    0.255    0.353    3.160
  284.000   86.590    0.252    0.365    3.115
  284.250   81.353    0.236    0.356    3.073
  284.500   75.241    0.245    0.337    3.000
  284.750   75.545    0.268    0.325    2.921
  285.000   81.474    0.266    0.315    2.928
  285.250   83.283    0.257    0.309    2.926
  285.500   83.362    0.242    0.301    2.962
  285.750   80.791    0.233    0.297    3.024
  286.000   82.045    0.229    0.309    3.331
  286.250   85.685    0.238    0.316    3.919
  286.500   71.785    0.288    0.309    4.412
  286.750   40.494    0.382    0.357    4.712
  287.000   41.583    0.517    0.466    4.857
  287.250   59.227    0.589    0.560    4.724
  287.500   64.479    0.577    0.586    4.523
  287.750   55.287    0.537    0.560    4.365
  288.000   47.445    0.429    0.475    4.021
  288.250   59.892    0.179    0.304    3.669
  288.500   75.258    0.100    0.293    3.314
  288.750   90.140    0.098    0.342    3.164
  289.000  100.136    0.079    0.352    3.147
  289.250  100.959    0.079    0.356    3.378
  289.500   98.747    0.080    0.355    4.176
  289.750   96.115    0.092    0.353    4.932
  290.000   93.997    0.132    0.345    5.237
  290.250   86.814    0.173    0.329    5.522
  290.500   76.749    0.189    0.325    5.819
  290.750   71.467    0.192    0.342    5.815
  291.000   71.968    0.195    0.356    5.627
  291.250   73.511    0.186    0.352    5.476
  291.500   74.998    0.175    0.354    5.094
  291.750   76.690    0.159    0.362    4.815
  292.000   77.721    0.163    0.368    4.725
  292.250   77.345    0.192    0.376    4.669
  292.500   76.902    0.203    0.397    4.761
  292.750   77.637    0.210    0.409    5.056
  293.000   74.496    0.222    0.365    5.413
  293.250   62.565    0.247    0.344    5.641
  293.500   50.768    0.265    0.353    5.815
  293.750   46.438    0.265    0.347    5.972
  294.000   44.020    0.271    0.344    5.955
  294.250   42.526    0.284    0.354    5.859
  294.500   39.876    0.294    0.358    5.839
  294.750   31.494    0.311    0.346    5.849
  295.000   24.926    0.319    0.329    5.844
  295.250   21.383    0.301    0.309    5.851
  295.500   25.780    0.266    0.319    5.847
  295.750   71.653    0.216    0.438    5.752
  296.000  103.036    0.190    0.483    5.741
  296.250  123.057    0.182    0.471    5.699
  296.500  135.704    0.182    0.454    5.597
  296.750  111.747    0.192    0.389    5.515
  297.000   58.780    0.206    0.299    5.430
  297.250   48.286    0.218    0.341    5.347
  297.500   49.944    0.263    0.392    5.292
  297.750   49.012    0.272    0.371    5.485
  298.000   44.901    0.254    0.348    5.672
  298.250   37.118    0.258    0.352    5.625
  298.500   29.558    0.267    0.322    5.534
  298.750   22.300    0.284    0.306    5.294
  299.000   16.974    0.295    0.304    4.982
  299.250   14.089    0.300    0.301    4.693
  299.500   12.642    0.296    0.297    4.587
  299.750   13.792    0.284    0.291    4.720
  300.000   20.467    0.271    0.295    5.044
  300.250   32.836    0.249    0.354    5.632
  300.500   52.307    0.224    0.422    6.124
  300.750   61.522    0.214    0.438    6.654
  301.000   61.571    0.211    0.415    7.679
  301.250   59.685    0.231    0.379    8.831
  301.500   47.366    0.285    0.337    9.682
  301.750   28.334    0.300    0.335   11.360
  302.000   19.735    0.306    0.344   12.612
  302.250   17.151    0.299    0.330   15.071
  302.500   15.024    0.274    0.303   20.340
  302.750   14.463    0.269    0.294   25.871
  303.000   15.095    0.297    0.305   27.479
  303.250   17.335    0.292    0.296   25.942
  303.500   24.436    0.249    0.285   24.073
  303.750   45.330    0.200    0.288   23.585
  304.000   57.903    0.221    0.308   23.638
  304.250   48.153    0.286    0.327   23.822
  304.500   35.894    0.287    0.325   25.045
  304.750   22.779    0.282    0.330   25.938
