~VERSION INFORMATION
 VERS.                 2.0:   CWLS LOG ASCII STANDARD -VERSION 2.0
 WRAP.                  NO:   ONE LINE PER DEPTH STEP
~WELL INFORMATION BLOCK
#MNEM.UNIT           DATA                    DESCRIPTION OF MNEMONIC
#---------    -------------------            -------------------------------
# Generated from Intellog Unique Number	CS_77_79/WELL/3286
WELL.         ALLIED ROXANA MINERALS LTD.    : Well_name    - WELL
LOC .         00/06-12-079-18W4/0            : Location     - LOCATION
UWI .         00/06-12-079-18W4/0            : Uwi          - UNIQUE WELL ID
ENTR.         JOETTE                         : Entered      - ENTERED BY
SRVC.         SCHLUMBERGER                   : Scn          - SERVICE COMPANY
DATE.         08-24-92                       : Date         - LOG DATE
STRT.M        198.12                         : top_depth    - START DEPTH
STOP.M        411.37                         : bot_depth    - STOP DEPTH
STEP.M        0.25                           : increment    - STEP LENGTH
 NULL. -999.2500:NULL Value
~CURVE INFORMATION BLOCK
#MNEM UNIT       ERCB CURVE CODE    CURVE DESCRIPTION
#-----------   ------------------   ----------------------------------
DEPT.M        00 001 00 00         : DEPTH        - DEPTH
ILD .OHMM     00 120 00 00         : RESD         - DEEP RESISTIVITY (DIL)
DPHI.V/V      00 890 00 00         : PHID         - DENSITY POROSITY (SANDSTONE)
NPHI.V/V      00 330 00 00         : PHIN         - NEUTRON POROSITY (SANDSTONE)
GR  .API      00 310 00 00         : GR           - GAMMA RAY
~PARAMETER INFORMATION
#MNEM.UNIT           DATA             DESCRIPTION OF MNEMONIC
#---------         -----------     ------------------------------
GL  .M        541.477              : gl           - GROUND LEVEL ELEVATION
EREF.M        544.525              : kb           - ELEVATION OF DEPTH REFERENCE
DATM.M        544.525              : datum        - DATUM ELEVATION
TDD .M        411.48               : tdd          - TOTAL DEPTH DRILLER
RUN .         ONE                  : Run          - RUN NUMBER
ENG .         BILL                 : Engineer     - RECORDING ENGINEER
WIT .         JIM                  : Witness      - WITNESSED BY
MUD .         GEL                  : Mud_type     - MUD TYPE
MATR.         SANDSTONE            : Logunit      - NEUTRON MATRIX
TMAX.C        23.3333              : BHT          - MAXIMUM RECORDED TEMPERATURE
BHTD.M        411.48               : BHTDEP       - MAXIMUM RECORDED TEMPERATURE
MATR.         1                    : LOGUNIT      - NEUTRON MATRIX
RMT .C        18.3333              : MDTP         - TEMPERATURE OF MUD
NEUT.         1                    : NEUTRON      - NEUTRON TYPE
RESI.         0                    : RESIST       - RESISTIVITY TYPE
RMC .OHMM     1.73                 : RMC          - RESISTIVITY OF MUD CAKE
RMF .OHMM     1.24                 : RMF          - RESISTIVITY OF MUD FILTRATE
SUFT.C        5                    : SUFT         - SURFACE TEMPERATURE
~A  DEPTH     RESD     PHID     PHIN       GR
# ...
  328.620   11.342    0.156    0.408   90.390
  328.870   11.159    0.184    0.411   96.589
  329.120   10.165    0.184    0.406  101.575
  329.370    9.170    0.163    0.407   98.565
  329.620    8.379    0.164    0.418   98.624
  329.870    8.196    0.177    0.413   98.683
  330.120    8.419    0.210    0.385   96.302
  330.370    8.636    0.201    0.376   93.291
  330.620    9.062    0.204    0.374   92.722
  330.870   10.101    0.203    0.373   91.568
  331.120   11.348    0.180    0.366   91.613
  331.370   11.561    0.187    0.353   92.900
  331.620   11.581    0.187    0.351   94.202
  331.870   10.998    0.166    0.388   94.876
  332.120   10.409    0.195    0.393   93.108
  332.370   10.023    0.201    0.379   91.940
  332.620    9.835    0.191    0.376   93.841
  332.870    9.865    0.188    0.379   95.742
  333.120    9.875    0.222    0.384   95.188
  333.370    9.910    0.210    0.383   92.791
  333.620    9.925    0.205    0.380   94.692
  333.870    9.737    0.190    0.379   99.664
  334.120    9.361    0.199    0.385  104.650
  334.370    8.976    0.189    0.396  105.323
  334.620    8.585    0.186    0.420  104.154
  334.870    8.194    0.169    0.438  105.442
  335.120    7.210    0.167    0.438  110.413
  335.370    6.819    0.207    0.424  112.314
  335.620    6.428    0.203    0.422  109.304
  335.870    5.641    0.225    0.433  105.679
  336.120    5.261    0.245    0.447  100.827
  336.370    5.068    0.247    0.459   95.975
  336.620    4.479    0.251    0.454   91.123
  336.870    3.890    0.246    0.465   86.285
  337.120    3.104    0.259    0.495   83.260
  337.370    2.510    0.326    0.535   79.650
  337.620    1.729    0.441    0.579   81.552
  337.870    1.338    0.418    0.598   83.453
  338.120    1.363    0.407    0.620   83.497
  338.370    1.388    0.373    0.517   81.715
  338.620    1.804    0.330    0.483   78.719
  338.870    2.437    0.283    0.438   76.323
  339.120    3.066    0.256    0.387   75.154
  339.370    3.897    0.229    0.375   73.986
  339.620    4.931    0.229    0.381   72.817
  339.870    6.777    0.226    0.388   68.594
  340.120    8.217    0.224    0.363   70.480
  340.370   12.097    0.171    0.327   76.679
  340.620   12.725    0.139    0.301   83.507
  340.870   13.556    0.151    0.328   89.706
  341.120   12.968    0.176    0.359   98.990
  341.370    9.336    0.210    0.406  101.505
  341.620    6.110    0.221    0.442   96.668
  341.870    4.913    0.220    0.419   94.271
  342.120    3.721    0.219    0.423   94.930
  342.370    3.132    0.214    0.456   94.989
  342.620    2.543    0.207    0.498   94.435
  342.870    2.361    0.199    0.493   94.494
  343.120    2.376    0.216    0.423   92.726
  343.370    2.598    0.206    0.399   89.701
  343.620    2.826    0.174    0.388   84.849
  343.870    3.455    0.154    0.368   84.923
  344.120    4.494    0.080    0.351   90.508
  344.370    5.320    0.104    0.324  102.847
  344.620    5.751    0.148    0.376  108.476
  344.870    5.370    0.145    0.404  110.992
  345.120    4.777    0.191    0.448  111.021
  345.370    4.386    0.208    0.462  109.868
  345.620    3.599    0.204    0.458  108.684
  345.870    3.614    0.215    0.429  106.902
  346.120    3.639    0.212    0.423  106.362
  346.370    4.476    0.182    0.415  106.422
  346.620    5.307    0.182    0.407  108.338
  346.870    5.530    0.195    0.403  107.768
  347.120    5.545    0.154    0.359  101.688
  347.370    4.961    0.141    0.361   99.306
  347.620    4.570    0.160    0.391   96.296
  347.870    4.392    0.197    0.420   92.657
  348.120    4.412    0.173    0.429   90.889
  348.370    4.437    0.176    0.445   93.404
  348.620    4.858    0.193    0.443   94.677
  348.870    5.902    0.181    0.414   97.851
  349.120    6.526    0.205    0.407   99.737
  349.370    7.971    0.231    0.377  101.010
  349.620    8.594    0.230    0.366  104.169
  349.870    9.223    0.206    0.361  104.812
  350.120    9.446    0.197    0.366  105.500
  350.370   10.683    0.193    0.368  105.575
  350.620   13.548    0.232    0.363  100.094
  350.870   16.205    0.259    0.353   78.035
  351.120   21.708    0.259    0.322   66.415
  351.370   26.601    0.255    0.307   68.945
  351.620   32.104    0.258    0.303   73.302
  351.870   19.739    0.249    0.300   78.887
  352.120   15.904    0.224    0.327   86.943
  352.370   13.490    0.227    0.360   93.756
  352.620   11.887    0.250    0.376   96.271
  352.870   10.893    0.238    0.387  101.257
  353.120   10.309    0.223    0.399  106.228
  353.370    9.918    0.211    0.386  111.828
  353.620    9.136    0.202    0.390  115.571
  353.870    8.741    0.196    0.405  118.087
  354.120    8.355    0.187    0.408  111.392
  354.370    8.172    0.179    0.433  113.294
  354.620    7.994    0.172    0.446  114.596
  354.870    8.014    0.242    0.399  112.199
  355.120    8.034    0.267    0.394  109.174
  355.370    8.252    0.255    0.388  104.337
  355.620    8.890    0.240    0.387  106.238
  355.870    9.118    0.228    0.386  111.209
  356.120    9.133    0.229    0.383  114.952
  356.370    9.153    0.222    0.379  116.854
  356.620    8.965    0.212    0.366  116.299
  356.870    8.782    0.204    0.373  111.447
  357.120    8.604    0.156    0.385  100.470
  357.370    8.827    0.118    0.361   93.775
  357.620    8.847    0.120    0.347   90.750
  357.870    8.263    0.105    0.338   92.052
  358.120    7.472    0.046    0.368   97.023
  358.370    7.284    0.099    0.400  106.906
  358.620    6.898    0.136    0.458  111.877
  358.870    6.918    0.147    0.409  115.621
  359.120    7.552    0.186    0.383  113.224
  359.370    7.775    0.189    0.380  107.758
  359.620    8.403    0.199    0.383  101.678
  359.870    9.032    0.195    0.380   93.141
  360.120    9.863    0.197    0.373   83.377
  360.370   11.105    0.207    0.374   74.841
  360.620   11.729    0.212    0.342   74.302
  360.870   15.410    0.239    0.325   74.975
  361.120   16.044    0.229    0.352   68.266
  361.370   16.662    0.221    0.385   59.715
  361.620   18.310    0.310    0.394   46.282
  361.870   19.958    0.306    0.371   48.782
  362.120   21.398    0.293    0.366   54.382
  362.370   21.621    0.267    0.361   58.754
  362.620   20.825    0.252    0.351   60.656
  362.870   19.221    0.230    0.336   57.630
  363.120   17.821    0.252    0.348   52.164
  363.370   17.441    0.306    0.361   44.856
  363.620   18.267    0.313    0.362   46.143
  363.870   19.915    0.321    0.356   49.886
  364.120   20.746    0.285    0.361   53.645
  364.370   20.563    0.292    0.372   55.546
  364.620   19.975    0.290    0.373   58.061
  364.870   18.575    0.282    0.370   61.804
  365.120   14.542    0.286    0.370   60.022
  365.370   13.340    0.316    0.368   59.497
  365.620   11.539    0.307    0.355   62.012
  365.870   10.342    0.285    0.356   65.141
  366.120    9.145    0.285    0.356   70.098
  366.370    8.348    0.291    0.351   76.312
  366.620    7.161    0.303    0.350   80.055
  366.870    7.171    0.310    0.355   84.427
  367.120    8.007    0.305    0.363   86.328
  367.370    9.041    0.286    0.369   88.229
  367.620   10.274    0.292    0.374   91.359
  367.870   12.124    0.280    0.368   95.102
  368.120   13.159    0.220    0.352   99.459
  368.370   13.386    0.199    0.341  106.287
  368.620   12.387    0.180    0.338  109.416
  368.870   11.190    0.188    0.350  110.089
  369.120   10.195    0.178    0.355  110.149
  369.370   10.423    0.179    0.345  110.837
  369.620   10.646    0.198    0.350  102.900
  369.870   10.671    0.229    0.341   95.592
  370.120   10.295    0.218    0.329   98.721
  370.370    9.904    0.199    0.324  111.689
  370.620    9.306    0.166    0.331  115.447
  370.870    8.717    0.136    0.397  121.047
  371.120    7.530    0.136    0.385  119.249
  371.370    7.134    0.130    0.377  110.084
  371.620    6.550    0.092    0.357  103.390
  371.870    6.570    0.045    0.347   96.711
