~VERSION INFORMATION
 VERS.                 2.0:   CWLS LOG ASCII STANDARD -VERSION 2.0
 WRAP.                  NO:   ONE LINE PER DEPTH STEP
~WELL INFORMATION BLOCK
#MNEM.UNIT           DATA                    DESCRIPTION OF MNEMONIC
#---------    -------------------            -------------------------------
# Generated from Intellog Unique Number	CS_67_68/WELL/2166
WELL.         MURPHY ET AL ATMORE            : Well_name    - WELL
LOC .         00/06-11-067-17W4/0            : Location     - LOCATION
UWI .         00/06-11-067-17W4/0            : Uwi          - UNIQUE WELL ID
ENTR.         SP                             : Entered      - ENTERED BY
SRVC.         SCHLUMBERGER                   : Scn          - SERVICE COMPANY
STRT.M        381                            : top_depth    - START DEPTH
STOP.M        554.50                         : bot_depth    - STOP DEPTH
STEP.M        0.25                           : increment    - STEP LENGTH
 NULL. -999.2500:NULL Value
~CURVE INFORMATION BLOCK
#MNEM UNIT       ERCB CURVE CODE    CURVE DESCRIPTION
#-----------   ------------------   ----------------------------------
DEPT.M        00 001 00 00         : DEPTH        - DEPTH
CALI.MM       00 280 01 00         : CAL          - CALIPER
GR  .API      00 310 00 00         : GR           - GAMMA RAY
DPHI.V/V      00 890 00 00         : PHID         - DENSITY POROSITY (SANDSTONE)
NPHI.V/V      00 330 00 00         : PHIN         - NEUTRON POROSITY (SANDSTONE)
ILD .OHMM     00 120 00 00         : RESD         - DEEP RESISTIVITY (DIL)
~PARAMETER INFORMATION
#MNEM.UNIT           DATA             DESCRIPTION OF MNEMONIC
#---------         -----------     ------------------------------
GL  .M        608.076              : gl           - GROUND LEVEL ELEVATION
EREF.M        611.124              : kb           - ELEVATION OF DEPTH REFERENCE
DATM.M        611.124              : datum        - DATUM ELEVATION
TDD .M        566.928              : tdd          - TOTAL DEPTH DRILLER
RUN .         `                    : Run          - RUN NUMBER
ENG .         BILL                 : Engineer     - RECORDING ENGINEER
WIT .         JIM                  : Witness      - WITNESSED BY
MUD .         GEL                  : Mud_type     - MUD TYPE
MATR.         SANDSTONE            : Logunit      - NEUTRON MATRIX
TMAX.C        24.4444              : BHT          - MAXIMUM RECORDED TEMPERATURE
BHTD.M        567.538              : BHTDEP       - MAXIMUM RECORDED TEMPERATURE
MATR.         1                    : LOGUNIT      - NEUTRON MATRIX
RMT .C        25                   : MDTP         - TEMPERATURE OF MUD
NEUT.         1                    : NEUTRON      - NEUTRON TYPE
RESI.         0                    : RESIST       - RESISTIVITY TYPE
RMC .OHMM     0.25                 : RMC          - RESISTIVITY OF MUD CAKE
RMF .OHMM     0.25                 : RMF          - RESISTIVITY OF MUD FILTRATE
SUFT.C        15                   : SUFT         - SURFACE TEMPERATURE
~A  DEPTH      CAL       GR     PHID     PHIN     RESD
# ...
  417.500  166.824   99.354    0.209    0.477    2.522
  417.750  166.353   98.333    0.218    0.466    2.457
  418.000  165.838   96.615    0.230    0.458    2.427
  418.250  165.155   92.354    0.242    0.462    2.394
  418.500  164.827   86.348    0.253    0.467    2.364
  418.750  164.550   83.074    0.266    0.470    2.345
  419.000  164.033   82.289    0.282    0.471    2.374
  419.250  164.026   82.663    0.279    0.469    2.413
  419.500  163.407   82.801    0.269    0.459    2.426
  419.750  163.296   81.284    0.270    0.452    2.394
  420.000  163.115   79.173    0.253    0.452    2.303
  420.250  162.993   76.844    0.251    0.458    2.243
  420.500  162.866   75.578    0.258    0.461    2.181
  420.750  162.765   74.746    0.256    0.455    2.220
  421.000  163.024   72.172    0.258    0.428    2.738
  421.250  163.674   67.675    0.247    0.397    3.827
  421.500  164.662   62.759    0.138    0.210    5.341
  421.750  166.375   58.883    0.034    0.191   12.681
  422.000  167.443   57.034    0.013    0.182   14.711
  422.250  169.080   58.263    0.055    0.226   15.507
  422.500  169.815   62.585    0.126    0.330   13.716
  422.750  169.522   70.302    0.184    0.413   11.402
  423.000  167.667   76.722    0.265    0.452    9.282
  423.250  164.903   81.319    0.292    0.486    7.382
  423.500  161.034   85.003    0.276    0.516    4.709
  423.750  160.240   83.502    0.260    0.475    3.394
  424.000  161.357   81.369    0.244    0.442    3.025
  424.250  160.547   87.878    0.233    0.430    2.902
  424.500  161.589   91.091    0.245    0.443    2.733
  424.750  162.204   94.588    0.254    0.454    2.675
  425.000  162.290   96.880    0.243    0.464    2.703
  425.250  161.869   99.479    0.226    0.464    2.781
  425.500  161.563  101.906    0.218    0.466    2.826
  425.750  161.492  104.651    0.218    0.471    2.849
  426.000  162.159  105.806    0.222    0.466    2.810
  426.250  163.249  105.178    0.229    0.457    2.679
  426.500  164.342  104.294    0.237    0.461    2.527
  426.750  163.604  102.403    0.233    0.467    2.540
  427.000  161.947  106.493    0.231    0.475    2.633
  427.250  161.654  109.769    0.216    0.482    2.792
  427.500  163.037  112.921    0.197    0.487    2.912
  427.750  167.673  115.592    0.182    0.491    3.071
  428.000  172.669  117.768    0.169    0.478    3.237
  428.250  176.954  116.180    0.177    0.467    3.402
  428.500  176.156  114.424    0.189    0.460    3.512
  428.750  175.931  114.414    0.202    0.472    3.557
  429.000  176.626  111.200    0.215    0.475    3.524
  429.250  175.258  107.107    0.207    0.474    3.477
  429.500  173.944  109.351    0.179    0.473    3.383
  429.750  174.666  111.236    0.153    0.469    3.331
  430.000  174.369  111.123    0.148    0.469    3.334
  430.250  174.644  109.906    0.160    0.486    3.313
  430.500  174.331  109.747    0.171    0.501    3.189
  430.750  174.426  110.338    0.184    0.491    2.936
  431.000  174.358  112.130    0.186    0.502    2.840
  431.250  174.638  114.308    0.194    0.532    2.771
  431.500  175.635  117.045    0.190    0.546    2.790
  431.750  178.168  119.761    0.184    0.534    3.027
  432.000  180.389  120.756    0.177    0.513    3.381
  432.250  179.254  118.359    0.183    0.497    3.535
  432.500  174.309  117.279    0.176    0.485    3.793
  432.750  170.900  118.768    0.189    0.474    3.967
  433.000  170.020  121.057    0.196    0.467    4.054
  433.250  170.468  123.368    0.187    0.465    4.134
  433.500  172.220  123.299    0.173    0.468    4.204
  433.750  173.353  123.716    0.171    0.475    4.201
  434.000  173.297  122.862    0.172    0.469    4.117
  434.250  172.301  119.022    0.172    0.459    3.909
  434.500  170.944  113.308    0.181    0.458    3.668
  434.750  170.916  109.058    0.165    0.459    3.528
  435.000  168.693  104.921    0.182    0.449    3.419
  435.250  163.772  104.902    0.186    0.437    3.408
  435.500  160.074  108.600    0.194    0.432    3.507
  435.750  162.017  111.532    0.183    0.441    3.814
  436.000  165.775  110.182    0.179    0.451    4.263
  436.250  167.771  100.720    0.250    0.417    4.578
  436.500  167.533   92.625    0.303    0.351    4.812
  436.750  164.915   86.010    0.350    0.297    4.997
  437.000  163.127   86.953    0.376    0.260    5.007
  437.250  163.825   89.253    0.384    0.268    3.946
  437.500  165.015   90.386    0.370    0.294    2.906
  437.750  165.816   89.466    0.349    0.318    2.392
  438.000  166.136   83.667    0.331    0.371    2.117
  438.250  166.284   79.466    0.316    0.417    1.881
  438.500  165.552   78.914    0.299    0.438    1.730
  438.750  164.936   80.234    0.293    0.453    1.676
  439.000  163.893   81.590    0.285    0.444    1.710
  439.250  162.683   85.268    0.274    0.438    1.800
  439.500  161.948   87.528    0.261    0.435    1.902
  439.750  161.924   82.779    0.257    0.431    1.852
  440.000  162.589   80.069    0.290    0.433    1.704
  440.250  163.545   81.244    0.290    0.448    1.619
  440.500  164.086   83.651    0.285    0.463    1.624
  440.750  164.715   84.939    0.277    0.478    1.643
  441.000  164.979   84.619    0.287    0.471    1.641
  441.250  165.126   82.505    0.292    0.465    1.581
  441.500  165.017   80.674    0.284    0.468    1.616
  441.750  164.442   79.311    0.280    0.472    1.669
  442.000  164.063   78.737    0.271    0.468    1.712
  442.250  163.789   78.960    0.277    0.462    1.754
  442.500  163.682   80.265    0.288    0.464    1.795
  442.750  163.461   81.839    0.290    0.472    1.815
  443.000  163.114   82.936    0.279    0.468    1.829
  443.250  162.744   82.371    0.269    0.463    1.840
  443.500  162.643   84.900    0.281    0.458    1.860
  443.750  162.470   88.522    0.280    0.448    1.949
  444.000  162.339   93.114    0.267    0.438    2.087
  444.250  162.235   97.426    0.257    0.428    2.289
  444.500  163.289  101.730    0.231    0.417    2.540
  444.750  164.904  106.205    0.199    0.415    2.831
  445.000  167.801  109.777    0.170    0.431    3.151
  445.250  169.632  113.447    0.174    0.428    3.408
  445.500  169.071  115.491    0.187    0.423    3.657
  445.750  168.673  112.939    0.195    0.432    3.743
  446.000  168.549  111.369    0.193    0.441    3.492
  446.250  168.163  112.539    0.194    0.456    3.265
  446.500  167.516  113.339    0.200    0.462    3.202
  446.750  166.476  113.586    0.194    0.458    3.220
  447.000  168.009  115.928    0.185    0.454    3.315
  447.250  170.113  118.591    0.173    0.448    3.479
  447.500  172.415  121.157    0.164    0.440    3.673
  447.750  173.075  123.007    0.156    0.430    3.790
  448.000  172.531  124.181    0.149    0.424    3.883
  448.250  174.265  124.723    0.142    0.437    3.805
  448.500  175.316  124.816    0.147    0.452    3.344
  448.750  175.034  121.182    0.158    0.461    2.449
  449.000  171.926  108.031    0.169    0.455    2.158
  449.250  164.997  102.035    0.201    0.464    1.980
  449.500  160.296   94.898    0.249    0.470    1.779
  449.750  156.994   86.372    0.283    0.471    1.634
  450.000  156.439   86.415    0.271    0.466    1.605
  450.250  160.052   94.790    0.262    0.463    1.716
  450.500  164.469  100.882    0.250    0.464    1.862
  450.750  169.886  106.565    0.221    0.476    2.006
  451.000  174.779  111.950    0.199    0.496    2.217
  451.250  177.990  112.318    0.215    0.530    2.408
  451.500  170.664  110.829    0.215    0.521    2.515
  451.750  167.583  111.509    0.190    0.503    2.483
  452.000  166.513  106.265    0.195    0.507    2.283
  452.250  166.021   99.849    0.218    0.499    2.106
  452.500  165.003   94.394    0.243    0.478    2.038
  452.750  165.652   90.931    0.259    0.457    2.040
  453.000  163.602   93.409    0.251    0.451    2.076
  453.250  162.453   95.884    0.244    0.452    2.112
  453.500  162.487   94.237    0.242    0.452    2.136
  453.750  162.347   91.984    0.238    0.450    2.135
