~VERSION INFORMATION
 VERS.                 2.0:   CWLS LOG ASCII STANDARD -VERSION 2.0
 WRAP.                  NO:   ONE LINE PER DEPTH STEP
~WELL INFORMATION BLOCK
#MNEM.UNIT           DATA                    DESCRIPTION OF MNEMONIC
#---------    -------------------            -------------------------------
# Generated from Intellog Unique Number	CX_WELLS/WELL/2736
WELL.         THORNBURY                      : Well_name    - WELL
LOC .         00/07-26-080-12W4/0            : Location     - LOCATION
UWI .         00/07-26-080-12W4/0            : Uwi          - UNIQUE WELL ID
ENTR.         TIM                            : Entered      - ENTERED BY
SRVC.         SCHLUMBERGER                   : Scn          - SERVICE COMPANY
STRT.M        270                            : top_depth    - START DEPTH
STOP.M        500                            : bot_depth    - STOP DEPTH
STEP.M        0.25                           : increment    - STEP LENGTH
 NULL. -999.2500:NULL Value
~CURVE INFORMATION BLOCK
#MNEM UNIT       ERCB CURVE CODE    CURVE DESCRIPTION
#-----------   ------------------   ----------------------------------
DEPT.M        00 001 00 00         : DEPTH        - DEPTH
GR  .API      00 310 00 00         : GR           - GAMMA RAY
NPHI.V/V      00 330 00 00         : PHIN         - NEUTRON POROSITY (SANDSTONE)
DPHI.V/V      00 890 00 00         : PHID         - DENSITY POROSITY (SANDSTONE)
ILD .OHMM     00 120 00 00         : RESD         - DEEP RESISTIVITY (DLL)
~PARAMETER INFORMATION
#MNEM.UNIT           DATA             DESCRIPTION OF MNEMONIC
#---------         -----------     ------------------------------
GL  .M        698.9                : gl           - GROUND LEVEL ELEVATION
EREF.M        702.6                : kb           - ELEVATION OF DEPTH REFERENCE
DATM.M        702.6                : datum        - DATUM ELEVATION
TDD .M        513                  : tdd          - TOTAL DEPTH DRILLER
RUN .         ONE                  : Run          - RUN NUMBER
ENG .         BILL                 : Engineer     - RECORDING ENGINEER
WIT .         JIM                  : Witness      - WITNESSED BY
MUD .         GEL                  : Mud_type     - MUD TYPE
MATR.         SANDSTONE            : Logunit      - NEUTRON MATRIX
TMAX.C        26                   : BHT          - MAXIMUM RECORDED TEMPERATURE
BHTD.M        513                  : BHTDEP       - MAXIMUM RECORDED TEMPERATURE
MATR.         1                    : LOGUNIT      - NEUTRON MATRIX
RMT .C        14.4                 : MDTP         - TEMPERATURE OF MUD
NEUT.         1                    : NEUTRON      - NEUTRON TYPE
RESI.         3                    : RESIST       - RESISTIVITY TYPE
RMC .OHMM     2.6                  : RMC          - RESISTIVITY OF MUD CAKE
RMF .OHMM     3.2                  : RMF          - RESISTIVITY OF MUD FILTRATE
SUFT.C        4                    : SUFT         - SURFACE TEMPERATURE
~A  DEPTH       GR     PHIN     PHID     RESD
# ...
  357.000   61.344    0.430    0.320   13.174
  357.250   61.414    0.429    0.318   12.958
  357.500   61.442    0.431    0.317   12.518
  357.750   63.283    0.438    0.319   12.081
  358.000   65.082    0.445    0.325   11.462
  358.250   67.508    0.454    0.328   10.853
  358.500   69.307    0.468    0.329   10.097
  358.750   70.520    0.459    0.328    9.399
  359.000   72.947    0.444    0.288    8.749
  359.250   74.732    0.448    0.271    8.444
  359.500   78.301    0.454    0.266    8.145
  359.750   81.885    0.469    0.265    7.723
  360.000   80.198    0.456    0.264    7.457
  360.250   79.641    0.445    0.273    7.472
  360.500   77.969    0.451    0.303    7.346
  360.750   76.240    0.449    0.310    7.361
  361.000   72.783    0.452    0.316    7.376
  361.250   70.497    0.459    0.318    7.255
  361.500   69.382    0.456    0.321    7.136
  361.750   68.853    0.446    0.325    7.424
  362.000   69.508    0.446    0.331    8.789
  362.250   69.551    0.441    0.338    9.843
  362.500   69.021    0.433    0.341   10.826
  362.750   67.920    0.425    0.344   11.252
  363.000   67.377    0.413    0.348   11.919
  363.250   66.862    0.404    0.349   12.394
  363.500   67.489    0.414    0.349   12.664
  363.750   68.745    0.441    0.344   12.463
  364.000   69.387    0.447    0.338   12.475
  364.250   69.457    0.453    0.337   12.507
  364.500   69.499    0.448    0.337   12.532
  364.750   69.555    0.444    0.332   12.557
  365.000   69.611    0.443    0.332   12.576
  365.250   69.668    0.442    0.333   12.382
  365.500   70.295    0.440    0.330   12.395
  365.750   70.951    0.440    0.320   12.191
  366.000   72.207    0.441    0.309   11.771
  366.250   72.834    0.444    0.292   11.578
  366.500   74.047    0.447    0.280   11.185
  366.750   74.104    0.450    0.276   10.800
  367.000   74.746    0.452    0.287    9.863
  367.250   76.558    0.454    0.287    9.172
  367.500   80.114    0.455    0.272    8.068
  367.750   92.481    0.462    0.260    6.593
  368.000  104.848    0.478    0.245    5.388
  368.250  109.588    0.492    0.231    4.243
  368.500  113.172    0.499    0.225    3.530
  368.750  114.971    0.506    0.220    2.780
  369.000  115.027    0.515    0.214    2.687
  369.250  114.526    0.521    0.216    2.689
  369.500  114.582    0.536    0.222    2.695
  369.750  114.024    0.564    0.224    2.751
  370.000  113.495    0.577    0.225    2.607
  370.250  112.966    0.558    0.225    2.426
  370.500  111.879    0.549    0.224    2.257
  370.750  110.750    0.546    0.224    1.914
  371.000  109.621    0.557    0.225    1.716
  371.250  108.506    0.562    0.229    1.658
  371.500  107.391    0.557    0.236    1.723
  371.750  106.276    0.554    0.241    1.894
  372.000  106.347    0.562    0.247    2.202
  372.250  106.403    0.563    0.254    2.465
  372.500  105.288    0.518    0.256    2.812
  372.750  103.002    0.496    0.256    3.395
  373.000  100.130    0.483    0.254    3.800
  373.250   97.259    0.475    0.252    4.256
  373.500   94.387    0.476    0.251    5.041
  373.750   91.516    0.476    0.251    5.542
  374.000   89.230    0.473    0.258    6.325
  374.250   86.929    0.466    0.273    6.457
  374.500   85.229    0.462    0.283    6.594
  374.750   86.470    0.458    0.278    6.601
  375.000   87.684    0.463    0.266    6.499
  375.250   93.024    0.471    0.255    6.386
  375.500   98.921    0.479    0.248    5.941
  375.750  102.491    0.491    0.244    5.531
  376.000  106.674    0.502    0.245    5.146
  376.250  108.487    0.510    0.247    4.877
  376.500  108.529    0.516    0.250    4.535
  376.750  108.585    0.518    0.252    3.994
  377.000  108.656    0.527    0.254    3.852
  377.250  108.698    0.543    0.259    3.584
  377.500  108.183    0.542    0.267    3.399
  377.750  107.653    0.512    0.262    3.161
  378.000  106.538    0.509    0.248    2.631
  378.250  105.423    0.514    0.244    1.888
  378.500  104.880    0.522    0.244    1.432
  378.750  104.351    0.533    0.244    1.087
  379.000  103.821    0.538    0.243    0.824
  379.250  103.306    0.524    0.242    0.661
  379.500  102.191    0.493    0.242    0.713
  379.750  101.076    0.486    0.245    0.910
  380.000  100.533    0.478    0.246    1.182
  380.250   98.832    0.467    0.244    1.991
  380.500   96.546    0.464    0.244    2.945
  380.750   91.347    0.459    0.244    4.278
  381.000   89.046    0.455    0.239    5.454
  381.250   86.775    0.451    0.239    7.356
  381.500   86.245    0.446    0.237    7.512
  381.750   86.887    0.444    0.236    7.668
  382.000   87.515    0.442    0.236    7.542
  382.250   87.571    0.441    0.235    7.557
  382.500   88.826    0.438    0.234    7.430
  382.750   89.454    0.438    0.234    7.174
  383.000   90.096    0.439    0.235    6.927
  383.250   90.723    0.451    0.237    6.565
  383.500   91.979    0.465    0.239    6.108
  383.750   92.593    0.480    0.240    5.476
  384.000   93.834    0.473    0.243    5.004
  384.250   94.476    0.476    0.246    4.832
  384.500   93.946    0.488    0.247    4.665
  384.750   93.417    0.498    0.247    4.674
  385.000   92.888    0.495    0.243    4.771
  385.250   94.115    0.489    0.238    4.870
  385.500   95.328    0.480    0.230    4.969
  385.750   98.926    0.476    0.223    5.264
  386.000  100.153    0.477    0.225    5.787
  386.250   99.038    0.487    0.235    6.133
  386.500   96.752    0.491    0.239    6.260
  386.750   97.394    0.486    0.244    6.273
  387.000   99.221    0.485    0.238    6.282
  387.250   99.835    0.488    0.231    6.179
  387.500   99.319    0.491    0.233    5.860
  387.750   96.462    0.494    0.240    5.761
  388.000   94.747    0.497    0.247    5.365
  388.250   92.447    0.501    0.255    5.275
  388.500   90.747    0.500    0.262    5.188
  388.750   88.461    0.491    0.260    5.296
  389.000   86.746    0.486    0.257    5.406
  389.250   84.474    0.485    0.250    5.621
  389.500   83.345    0.481    0.245    6.301
  389.750   81.645    0.475    0.234    6.672
  390.000   84.643    0.466    0.225    7.334
  390.250   89.983    0.453    0.198    7.919
  390.500   92.953    0.460    0.197    8.075
  390.750   95.351    0.466    0.217    8.251
  391.000   95.407    0.477    0.221    8.263
  391.250   96.049    0.484    0.220    8.276
  391.500   96.106    0.481    0.220    8.292
  391.750   95.576    0.479    0.221    8.156
  392.000   94.475    0.477    0.221    8.023
  392.250   93.946    0.469    0.222    7.891
  392.500   94.588    0.461    0.223    7.766
  392.750   98.729    0.457    0.224    7.781
  393.000  102.326    0.455    0.226    7.650
  393.250  102.369    0.454    0.232    7.390
  393.500  100.111    0.455    0.236    7.265
  393.750   99.553    0.456    0.240    6.763
  394.000   99.024    0.457    0.239    6.527
  394.250   99.080    0.458    0.233    5.961
  394.500   99.164    0.458    0.232    5.152
  394.750   99.221    0.458    0.232    4.881
  395.000   99.263    0.465    0.234    4.541
  395.250   99.904    0.483    0.237    4.385
  395.500   99.947    0.495    0.242    4.158
  395.750  100.588    0.496    0.248    4.090
  396.000  100.645    0.490    0.251    4.098
  396.250   98.944    0.485    0.251    4.183
  396.500   96.672    0.481    0.250    4.431
  396.750   94.972    0.476    0.247    4.869
  397.000   94.442    0.475    0.242    5.352
  397.250   95.656    0.477    0.241    5.782
  397.500   98.654    0.478    0.240    5.687
  397.750  100.452    0.482    0.240    5.491
  398.000  102.265    0.487    0.240    5.401
  398.250  103.507    0.491    0.240    5.409
  398.500  103.549    0.495    0.242    5.320
  398.750  104.205    0.492    0.250    5.334
  399.000  103.703    0.486    0.256    5.442
  399.250  103.160    0.480    0.250    5.661
  399.500  102.045    0.458    0.244    5.997
  399.750  102.087    0.446    0.236    6.469
  400.000  102.157    0.439    0.229    7.525
  400.250  102.200    0.425    0.211    7.963
