~VERSION INFORMATION
 VERS.                 2.0:   CWLS LOG ASCII STANDARD -VERSION 2.0
 WRAP.                  NO:   ONE LINE PER DEPTH STEP
~WELL INFORMATION BLOCK
#MNEM.UNIT           DATA                    DESCRIPTION OF MNEMONIC
#---------    -------------------            -------------------------------
# Generated from Intellog Unique Number	CS_73_76/WELL/2168
WELL.         BOW VALLEY INDUSTRIES          : Well_name    - WELL
LOC .         00/06-25-074-17W4/0            : Location     - LOCATION
UWI .         00/06-25-074-17W4/0            : Uwi          - UNIQUE WELL ID
ENTR.         SP                             : Entered      - ENTERED BY
SRVC.         SCHLUMBERGER                   : Scn          - SERVICE COMPANY
STRT.M        228.600                        : top_depth    - START DEPTH
STOP.M        453.850                        : bot_depth    - STOP DEPTH
STEP.M        0.25                           : increment    - STEP LENGTH
 NULL. -999.2500:NULL Value
~CURVE INFORMATION BLOCK
#MNEM UNIT       ERCB CURVE CODE    CURVE DESCRIPTION
#-----------   ------------------   ----------------------------------
DEPT.M        00 001 00 00         : DEPTH        - DEPTH
GR  .API      00 310 00 00         : GR           - GAMMA RAY
DPHI.V/V      00 890 00 00         : PHID         - DENSITY POROSITY (SANDSTONE)
NPHI.V/V      00 330 00 00         : PHIN         - NEUTRON POROSITY (SANDSTONE)
ILD .OHMM     00 120 00 00         : RESD         - DEEP RESISTIVITY (DIL)
~PARAMETER INFORMATION
#MNEM.UNIT           DATA             DESCRIPTION OF MNEMONIC
#---------         -----------     ------------------------------
GL  .M        614                  : gl           - GROUND LEVEL ELEVATION
EREF.M        616.61               : kb           - ELEVATION OF DEPTH REFERENCE
DATM.M        616                  : datum        - DATUM ELEVATION
TDD .M        484.937              : tdd          - TOTAL DEPTH DRILLER
RUN .         ONE                  : Run          - RUN NUMBER
ENG .         BILL                 : Engineer     - RECORDING ENGINEER
WIT .         JIM                  : Witness      - WITNESSED BY
MUD .         GEL                  : Mud_type     - MUD TYPE
MATR.         SANDSTONE            : Logunit      - NEUTRON MATRIX
TMAX.C        13.8889              : BHT          - MAXIMUM RECORDED TEMPERATURE
BHTD.M        484.937              : BHTDEP       - MAXIMUM RECORDED TEMPERATURE
MATR.         1                    : LOGUNIT      - NEUTRON MATRIX
RMT .C        25                   : MDTP         - TEMPERATURE OF MUD
NEUT.         1                    : NEUTRON      - NEUTRON TYPE
RESI.         0                    : RESIST       - RESISTIVITY TYPE
RMC .OHMM     0.25                 : RMC          - RESISTIVITY OF MUD CAKE
RMF .OHMM     0.25                 : RMF          - RESISTIVITY OF MUD FILTRATE
SUFT.C        15                   : SUFT         - SURFACE TEMPERATURE
~A  DEPTH       GR     PHID     PHIN     RESD
# ...
  359.100   99.955    0.184    0.499    4.691
  359.350   96.991    0.199    0.533    4.432
  359.600   93.883    0.245    0.523    4.340
  359.850   93.871    0.285    0.502    4.347
  360.100   97.512    0.244    0.462    4.282
  360.350  100.394    0.216    0.485    4.186
  360.600  101.610    0.223    0.506    4.095
  360.850  103.076    0.228    0.528    3.918
  361.100  104.013    0.216    0.516    3.645
  361.350  103.311    0.209    0.502    3.480
  361.600  103.094    0.213    0.494    3.273
  361.850  102.993    0.226    0.500    3.167
  362.100  101.016    0.222    0.511    3.011
  362.350   96.727    0.222    0.505    3.008
  362.600   93.953    0.231    0.485    3.094
  362.850   92.506    0.234    0.485    3.449
  363.100   93.528    0.228    0.492    3.879
  363.350   92.094    0.220    0.485    4.577
  363.600   89.243    0.233    0.477    5.142
  363.850   83.794    0.256    0.481    5.663
  364.100   79.693    0.282    0.474    6.061
  364.350   77.081    0.302    0.482    6.461
  364.600   77.034    0.309    0.463    6.618
  364.850   78.034    0.301    0.456    6.605
  365.100   78.703    0.295    0.457    6.604
  365.350   77.731    0.300    0.470    6.603
  365.600   75.675    0.290    0.493    6.603
  365.850   74.263    0.302    0.455    6.602
  366.100   73.713    0.303    0.457    6.603
  366.350   73.692    0.308    0.456    6.594
  366.600   75.003    0.281    0.466    6.750
  366.850   76.369    0.279    0.477    6.598
  367.100   78.186    0.296    0.482    6.521
  367.350   75.367    0.306    0.461    6.367
  367.600   77.486    0.308    0.451    6.247
  367.850   78.678    0.302    0.461    6.247
  368.100   76.701    0.296    0.463    6.444
  368.350   75.609    0.284    0.448    6.836
  368.600   70.006    0.274    0.451    7.784
  368.850   62.604    0.232    0.335    9.845
  369.100   57.424    0.189    0.263   11.883
  369.350   51.527    0.128    0.218   15.182
  369.600   48.008    0.027    0.183   17.651
  369.850   48.924    0.009    0.194   19.057
  370.100   53.858    0.026    0.223   18.437
  370.350   61.175    0.042    0.262   15.409
  370.600   68.441    0.093    0.474   11.749
  370.850   76.859    0.238    0.511    8.982
  371.100   83.360    0.320    0.518    7.646
  371.350   84.058    0.368    0.509    6.760
  371.600   88.255    0.299    0.487    6.328
  371.850   89.281    0.255    0.467    6.254
  372.100   88.248    0.232    0.465    6.189
  372.350   87.544    0.242    0.461    6.146
  372.600   87.493    0.231    0.462    6.146
  372.850   87.371    0.241    0.435    6.201
  373.100   84.111    0.260    0.417    6.263
  373.350   80.184    0.253    0.420    6.551
  373.600   76.683    0.252    0.426    6.922
  373.850   76.195    0.265    0.439    7.123
  374.100   76.194    0.279    0.438    7.265
  374.350   76.279    0.253    0.428    7.070
  374.600   77.966    0.242    0.437    6.863
  374.850   77.014    0.247    0.440    6.651
  375.100   75.139    0.271    0.441    6.618
  375.350   75.982    0.268    0.451    6.608
  375.600   76.023    0.259    0.455    6.752
  375.850   72.214    0.271    0.431    6.756
  376.100   70.755    0.296    0.424    6.866
  376.350   71.915    0.293    0.420    6.851
  376.600   73.101    0.295    0.417    6.996
  376.850   68.891    0.290    0.423    7.002
  377.100   67.516    0.305    0.427    6.857
  377.350   65.467    0.317    0.420    6.736
  377.600   65.106    0.318    0.414    6.611
  377.850   65.090    0.318    0.422    6.619
  378.100   64.930    0.304    0.420    6.615
  378.350   64.052    0.303    0.417    6.815
  378.600   62.581    0.322    0.427    7.022
  378.850   64.723    0.331    0.423    7.234
  379.100   66.406    0.341    0.426    7.400
  379.350   67.294    0.330    0.444    7.394
  379.600   67.290    0.317    0.455    7.277
  379.850   67.868    0.322    0.468    7.215
  380.100   70.958    0.313    0.465    6.987
  380.350   73.099    0.329    0.457    6.780
  380.600   74.011    0.347    0.456    6.580
  380.850   74.996    0.351    0.452    6.386
  381.100   74.989    0.331    0.453    6.273
  381.350   74.997    0.329    0.437    6.143
  381.600   75.008    0.319    0.431    6.156
  381.850   75.331    0.314    0.430    6.156
  382.100   75.588    0.315    0.427    6.157
  382.350   75.548    0.320    0.431    6.149
  382.600   76.212    0.318    0.436    6.326
  382.850   76.870    0.315    0.434    6.517
  383.100   77.355    0.303    0.444    6.718
  383.350   78.144    0.295    0.449    6.933
  383.600   76.770    0.280    0.458    7.002
  383.850   76.641    0.255    0.453    7.139
  384.100   78.984    0.243    0.443    7.128
  384.350   81.472    0.253    0.442    7.137
  384.600   84.202    0.283    0.442    6.706
  384.850   86.961    0.286    0.440    6.436
  385.100   92.047    0.269    0.451    5.495
  385.350   95.748    0.248    0.462    4.750
  385.600  100.912    0.256    0.481    4.311
  385.850  103.548    0.245    0.470    4.051
  386.100  100.994    0.234    0.462    3.925
  386.350   98.174    0.226    0.472    3.972
  386.600   99.644    0.227    0.484    4.008
  386.850  101.418    0.223    0.483    4.222
  387.100  102.967    0.230    0.467    4.430
  387.350  104.630    0.218    0.454    4.623
  387.600  104.744    0.207    0.456    4.815
  387.850  101.944    0.220    0.471    4.950
  388.100  100.740    0.231    0.490    4.990
  388.350   97.266    0.234    0.454    5.141
  388.600   95.944    0.232    0.440    5.482
  388.850   95.414    0.240    0.436    5.708
  389.100   96.462    0.233    0.441    6.070
  389.350   96.286    0.247    0.446    6.248
  389.600   98.947    0.244    0.446    6.416
  389.850  101.834    0.234    0.441    6.278
  390.100  102.487    0.217    0.453    6.202
  390.350  100.694    0.209    0.468    6.172
  390.600   97.098    0.200    0.452    6.164
  390.850   95.096    0.232    0.435    6.294
  391.100   93.936    0.222    0.453    6.305
  391.350   95.634    0.216    0.468    6.400
  391.600   98.049    0.205    0.437    6.399
  391.850   98.873    0.221    0.430    6.399
  392.100   98.915    0.219    0.430    6.389
  392.350   98.419    0.208    0.431    6.532
  392.600   96.370    0.192    0.424    6.523
  392.850   95.282    0.179    0.420    6.729
  393.100   97.085    0.169    0.438    6.940
  393.350   99.405    0.219    0.447    7.014
  393.600   99.030    0.210    0.444    7.039
  393.850   97.966    0.216    0.428    6.712
  394.100   98.685    0.224    0.418    6.531
  394.350  100.127    0.223    0.428    6.417
  394.600   99.283    0.218    0.436    6.150
  394.850   98.276    0.237    0.445    6.182
  395.100   98.289    0.241    0.442    6.040
  395.350   97.596    0.235    0.443    6.187
  395.600   97.170    0.239    0.450    6.390
  395.850   95.791    0.244    0.448    6.486
  396.100   93.439    0.242    0.431    6.770
  396.350   92.977    0.190    0.418    7.055
  396.600   93.542    0.152    0.409    7.438
  396.850   93.443    0.128    0.424    7.415
  397.100   94.470    0.209    0.444    7.347
  397.350   94.634    0.216    0.445    6.897
  397.600   94.635    0.234    0.447    6.410
  397.850   94.343    0.220    0.440    6.170
  398.100   91.304    0.220    0.422    5.953
  398.350   81.399    0.222    0.412    6.348
  398.600   78.956    0.224    0.402    6.879
  398.850   77.336    0.242    0.406    8.011
  399.100   76.469    0.263    0.419    8.563
  399.350   74.083    0.279    0.426    9.397
  399.600   72.599    0.273    0.436    9.588
  399.850   71.679    0.294    0.442    8.822
  400.100   73.673    0.296    0.453    8.038
  400.350   70.467    0.278    0.467    7.578
  400.600   65.847    0.254    0.395    7.181
  400.850   57.816    0.203    0.322    7.571
  401.100   52.406    0.093    0.223   10.831
  401.350   49.356    0.005    0.167   18.016
  401.600   48.816    0.013    0.151   25.248
  401.850   49.519    0.014    0.164   27.698
  402.100   53.632    0.041    0.201   26.155
  402.350   59.815    0.070    0.242   18.256
