~VERSION INFORMATION
 VERS.                 2.0:   CWLS LOG ASCII STANDARD -VERSION 2.0
 WRAP.                  NO:   ONE LINE PER DEPTH STEP
~WELL INFORMATION BLOCK
#MNEM.UNIT           DATA                    DESCRIPTION OF MNEMONIC
#---------    -------------------            -------------------------------
# Generated from Intellog Unique Number	CW_70_72/WELL/3011
NULL.         -999.25                        : NULL_VALUE
WELL.         PEX CANAL 06-31                : Well_name    - WELL              
LOC .         06-31-070-23W4                 : Location     - LOCATION          
UWI .         00/06-31-070-23W4/0            : Uwi          - UNIQUE WELL ID    
ENTR.         jj                             : Entered      - ENTERED BY        
SRVC.         SCHLUMBERGER                   : Scn          - SERVICE COMPANY   
DATE.         13 MAR 83                      : Date         - LOG DATE          
STRT.M        405                            : top_depth    - START DEPTH       
STOP.M        610                            : bot_depth    - STOP DEPTH        
STEP.M        0.25                           : increment    - STEP LENGTH       
~CURVE INFORMATION BLOCK
#MNEM UNIT       ERCB CURVE CODE    CURVE DESCRIPTION
#-----------   ------------------   ----------------------------------
DEPT.M        00 001 00 00         : DEPTH        - DEPTH                       
ILD .OHMM     00 120 00 00         : RESD         - DEEP RESISTIVITY (DIL)      
CALI.MM       00 280 01 00         : CAL          - CALIPER                     
GR  .API      00 310 00 00         : GR           - GAMMA RAY                   
NPHI.V/V      00 330 00 00         : PHIN         - NEUTRON POROSITY (SANDSTONE)
DPHI.V/V      00 890 00 00         : PHID         - DENSITY POROSITY (SANDSTONE)
~PARAMETER INFORMATION       
#MNEM.UNIT           DATA             DESCRIPTION OF MNEMONIC
#---------         -----------     ------------------------------
GL  .M        627.8                : gl           - GROUND LEVEL ELEVATION      
EREF.M        631                  : kb           - ELEVATION OF DEPTH REFERENCE
DATM.M        627.8                : datum        - DATUM ELEVATION             
TDD .M        611                  : tdd          - TOTAL DEPTH DRILLER         
RUN .         ONE                  : Run          - RUN NUMBER                  
ENG .         BRADSHAW             : Engineer     - RECORDING ENGINEER          
WIT .         DENYAR               : Witness      - WITNESSED BY                
BASE.         EDM                  : Branch       - HOME BASE OF LOGGING UNIT   
MUD .         GEL CHEM             : Mud_type     - MUD TYPE                    
MATR.         SANDSTONE            : Logunit      - NEUTRON MATRIX              
TMAX.C        28.9                 : BHT          - MAXIMUM RECORDED TEMPERATURE
BHTD.M        612.1                : BHTDEP       - MAXIMUM RECORDED TEMPERATURE
RMT .C        26.1                 : MDTP         - TEMPERATURE OF MUD          
MUDD.KG/M     1130                 : MWT          - MUD DENSITY                 
NEUT.         1                    : NEUTRON      - NEUTRON TYPE                
RESI.         0                    : RESIST       - RESISTIVITY TYPE            
RM  .OHMM     4.08                 : RM           - RESISTIVITY OF MUD          
RMC .OHMM     0.25                 : RMC          - RESISTIVITY OF MUD CAKE     
RMF .OHMM     3.17                 : RMF          - RESISTIVITY OF MUD FILTRATE 
SUFT.C        0                    : SUFT         - SURFACE TEMPERATURE         
~A  DEPTH     RESD      CAL       GR     PHIN     PHID
# ...
  551.000    4.657  186.555   71.068    0.422    0.178
  551.250    4.669  186.649   71.691    0.409    0.182
  551.500    4.649  186.953   79.983    0.405    0.185
  551.750    4.661  187.257   79.914    0.407    0.182
  552.000    4.674  188.610   76.451    0.416    0.175
  552.250    4.678  190.693   75.312    0.431    0.166
  552.500    4.691  191.523   75.873    0.446    0.175
  552.750    4.652  192.457   76.684    0.439    0.172
  553.000    4.560  193.285   70.580    0.418    0.161
  553.250    4.455  193.799   70.574    0.404    0.147
  553.500    4.376  194.208   75.723    0.422    0.168
  553.750    4.323  194.615   73.893    0.405    0.185
  554.000    4.319  194.816   69.928    0.376    0.196
  554.250    4.404  195.121   65.835    0.364    0.191
  554.500    4.474  194.796   65.892    0.378    0.173
  554.750    4.588  194.796   66.263    0.389    0.158
  555.000    4.575  194.039   65.315    0.396    0.140
  555.250    4.478  193.508   61.662    0.404    0.147
  555.500    4.424  192.976   63.228    0.417    0.163
  555.750    4.395  192.233   66.428    0.408    0.161
  556.000    4.390  191.279   70.320    0.397    0.161
  556.250    4.386  190.745   71.949    0.397    0.165
  556.500    4.406  190.526   68.925    0.405    0.175
  556.750    4.443  191.660   71.621    0.393    0.171
  557.000    4.472  191.972   72.433    0.403    0.160
  557.250    4.526  193.325   72.427    0.410    0.139
  557.500    4.582  194.783   72.044    0.411    0.149
  557.750    4.638  195.923   71.787    0.405    0.168
  558.000    4.685  196.019   71.907    0.389    0.162
  558.250    4.751  194.646   69.512    0.397    0.138
  558.500    4.881  193.064   80.066    0.402    0.122
  558.750    5.033  191.903   81.444    0.400    0.149
  559.000    5.309  191.579   77.415    0.393    0.150
  559.250    5.725  193.035   72.254    0.378    0.145
  559.500    6.327  193.758   69.105    0.360    0.166
  559.750    6.939  193.958   66.772    0.357    0.189
  560.000    4.618  194.472   61.360    0.375    0.172
  560.250    4.804  194.566   54.313    0.361    0.136
  560.500    5.909  194.453   47.958    0.326    0.114
  560.750    6.626  193.815   53.547    0.325    0.142
  561.000    7.368  193.176   57.879    0.379    0.174
  561.250    8.262  191.593   55.107    0.400    0.138
  561.500    8.930  188.755   39.196    0.373    0.115
  561.750    9.211  184.449   40.070    0.318    0.091
  562.000    9.234  181.714   50.751    0.332    0.115
  562.250    9.097  181.182   56.214    0.372    0.174
  562.500    8.639  181.905   60.168    0.404    0.176
  562.750    8.122  183.360   60.541    0.417    0.168
  563.000    7.293  184.502   60.220    0.411    0.176
  563.250    6.365  185.123   61.345    0.393    0.177
  563.500    5.768  186.056   63.163    0.374    0.164
  563.750    4.857  186.780   64.980    0.398    0.150
  564.000    4.741  187.503   65.224    0.416    0.150
  564.250    4.670  188.330   64.590    0.401    0.134
  564.500    4.643  189.158   64.521    0.393    0.142
  564.750    4.613  190.092   63.384    0.413    0.150
  565.000    4.590  190.187   55.960    0.409    0.129
  565.250    4.606  190.073   54.822    0.367    0.096
  565.500    4.625  189.853   57.394    0.362    0.104
  565.750    4.633  189.214   63.737    0.373    0.119
  566.000    4.735  188.785   65.869    0.385    0.137
  566.250    4.840  188.565   64.857    0.399    0.152
  566.500    4.724  188.241   64.788    0.415    0.145
  566.750    4.441  187.603   68.491    0.401    0.139
  567.000    4.214  187.068   67.794    0.392    0.136
  567.250    3.819  187.164   65.147    0.381    0.128
  567.500    3.429  189.458   65.519    0.368    0.121
  567.750    3.141  191.754   68.592    0.357    0.133
  568.000    3.176  193.736   70.096    0.366    0.140
  568.250    3.370  194.249   70.782    0.402    0.135
  568.500    3.540  194.761   68.449    0.415    0.129
  568.750    3.901  194.963   63.728    0.391    0.112
  569.000    4.027  195.475   61.523    0.353    0.081
  569.250    3.967  195.570   61.579    0.338    0.101
  569.500    3.831  195.666   66.727    0.359    0.134
  569.750    3.193  195.342   71.876    0.378    0.147
  570.000    2.711  195.018   74.952    0.393    0.138
  570.250    2.505  194.797   70.734    0.368    0.098
  570.500    2.443  195.101   62.430    0.311    0.082
  570.750    2.616  194.987   62.110    0.315    0.104
  571.000    3.015  195.081   64.932    0.330    0.121
  571.250    3.320  195.073   62.034    0.344    0.086
  571.500    3.722  195.271   62.092    0.319    0.091
  571.750    3.990  195.575   64.663    0.342    0.128
  572.000    3.856  195.672   67.736    0.361    0.149
  572.250    3.692  195.973   71.564    0.372    0.151
  572.500    3.539  195.861   74.641    0.372    0.147
  572.750    3.551  195.954   79.348    0.356    0.153
  573.000    3.696  195.842   82.989    0.354    0.158
  573.250    3.919  195.727   86.630    0.386    0.147
  573.500    4.197  195.820   83.858    0.388    0.127
  573.750    4.663  196.230   74.862    0.365    0.091
  574.000    5.133  196.638   72.593    0.352    0.097
  574.250    5.393  196.735   75.541    0.346    0.126
  574.500    5.567  196.723   74.152    0.364    0.148
  574.750    5.690  196.505   70.878    0.382    0.149
  575.000    5.709  196.284   67.099    0.390    0.151
  575.250    5.629  194.914   64.391    0.366    0.141
  575.500    5.536  193.017   63.880    0.351    0.133
  575.750    5.306  191.541   66.138    0.339    0.135
  576.000    5.039  192.473   69.591    0.329    0.139
  576.250    4.825  197.596   75.116    0.416    0.148
  576.500    4.578  198.740   78.882    0.452    0.164
  576.750    4.307  196.111   82.648    0.474    0.193
  577.000    4.087  193.901   82.391    0.469    0.186
  577.250    3.917  192.319   84.774    0.449    0.183
  577.500    3.750  191.576   84.894    0.456    0.195
  577.750    3.564  191.355   77.908    0.477    0.167
  578.000    3.506  191.242   72.937    0.456    0.142
  578.250    3.425  192.591   67.714    0.406    0.095
  578.500    3.402  194.049   68.651    0.290    0.049
  578.750    3.414  195.297   77.069    0.305    0.076
  579.000    3.425  196.859   88.127    0.338    0.116
  579.250    3.469  198.209   90.259    0.371    0.129
  579.500    3.481  198.725   84.280    0.356    0.141
  579.750    3.525  199.867   78.427    0.376    0.136
  580.000    3.508  201.115   76.096    0.402    0.125
  580.250    3.487  201.942   75.650    0.420    0.125
  580.500    3.404  202.456   77.466    0.419    0.134
  580.750    3.379  202.238   80.038    0.405    0.138
  581.000    3.244  200.971   81.730    0.417    0.124
  581.250    3.193  196.559   72.923    0.394    0.039
  581.500    3.143  194.036   52.486    0.221   -0.034
  581.750    3.093  192.451   40.975    0.162   -0.059
  582.000    3.053  191.603   40.277    0.282   -0.025
  582.250    3.089  190.963   54.794    0.340    0.012
  582.500    3.154  190.641   65.223    0.381    0.051
  582.750    3.289  190.422   67.984    0.405    0.117
  583.000    3.358  189.993   66.405    0.363    0.127
  583.250    3.534  189.774   67.908    0.341    0.128
  583.500    3.716  189.239   70.795    0.364    0.139
  583.750    3.792  188.914   73.932    0.382    0.144
  584.000    3.947  188.697   71.725    0.401    0.106
  584.250    4.112  188.580   72.097    0.381    0.093
  584.500    4.284  188.468   73.537    0.368    0.125
  584.750    4.375  188.248   71.833    0.371    0.146
  585.000    4.516  188.447   75.159    0.363    0.148
  585.250    4.616  189.275   74.398    0.379    0.131
  585.500    4.593  193.247   72.758    0.381    0.098
  585.750    4.559  195.647   74.323    0.383    0.079
  586.000    4.495  197.208   77.650    0.418    0.110
  586.250    4.469  197.619   83.050    0.427    0.138
  586.500    4.526  198.132   87.005    0.414    0.143
  586.750    4.711  198.332   80.084    0.406    0.135
  587.000    4.904  197.692   75.425    0.397    0.128
  587.250    5.152  197.472   72.276    0.383    0.141
