~VERSION INFORMATION
 VERS.                 2.0:   CWLS LOG ASCII STANDARD -VERSION 2.0
 WRAP.                  NO:   ONE LINE PER DEPTH STEP
~WELL INFORMATION BLOCK
#MNEM.UNIT           DATA                    DESCRIPTION OF MNEMONIC
#---------    -------------------            -------------------------------
# Generated from Intellog Unique Number	CS_69_70/WELL/811
WELL.         WINTERSHALL OIL OF CANADA      : Well_name    - WELL
LOC .         00/07-02-069-14W4/0            : Location     - LOCATION
UWI .         00/07-02-069-14W4/0            : Uwi          - UNIQUE WELL ID
ENTR.         SP                             : Entered      - ENTERED BY
SRVC.         SCHLUMBERGER                   : Scn          - SERVICE COMPANY
STRT.M        283.464                        : top_depth    - START DEPTH
STOP.M        475.214                        : bot_depth    - STOP DEPTH
STEP.M        0.25                           : increment    - STEP LENGTH
 NULL. -999.2500:NULL Value
~CURVE INFORMATION BLOCK
#MNEM UNIT       ERCB CURVE CODE    CURVE DESCRIPTION
#-----------   ------------------   ----------------------------------
DEPT.M        00 001 00 00         : DEPTH        - DEPTH
GR  .API      00 310 00 00         : GR           - GAMMA RAY
DPHI.V/V      00 890 00 00         : PHID         - DENSITY POROSITY (SANDSTONE)
NPHI.V/V      00 330 00 00         : PHIN         - NEUTRON POROSITY (SANDSTONE)
ILD .OHMM     00 120 00 00         : RESD         - DEEP RESISTIVITY (DIL)
~PARAMETER INFORMATION
#MNEM.UNIT           DATA             DESCRIPTION OF MNEMONIC
#---------         -----------     ------------------------------
GL  .M        577.901              : gl           - GROUND LEVEL ELEVATION
EREF.M        580.949              : kb           - ELEVATION OF DEPTH REFERENCE
DATM.M        577.901              : datum        - DATUM ELEVATION
TDD .M        475.488              : tdd          - TOTAL DEPTH DRILLER
RUN .         ONE                  : Run          - RUN NUMBER
ENG .         BILL                 : Engineer     - RECORDING ENGINEER
WIT .         JIM                  : Witness      - WITNESSED BY
MUD .         GEL                  : Mud_type     - MUD TYPE
MATR.         SANDSTONE            : Logunit      - NEUTRON MATRIX
TMAX.C        21.1111              : BHT          - MAXIMUM RECORDED TEMPERATURE
BHTD.M        475.488              : BHTDEP       - MAXIMUM RECORDED TEMPERATURE
MATR.         1                    : LOGUNIT      - NEUTRON MATRIX
RMT .C        25                   : MDTP         - TEMPERATURE OF MUD
NEUT.         1                    : NEUTRON      - NEUTRON TYPE
RESI.         0                    : RESIST       - RESISTIVITY TYPE
RMC .OHMM     0.25                 : RMC          - RESISTIVITY OF MUD CAKE
RMF .OHMM     0.25                 : RMF          - RESISTIVITY OF MUD FILTRATE
SUFT.C        15                   : SUFT         - SURFACE TEMPERATURE
~A  DEPTH       GR     PHID     PHIN     RESD
# ...
  370.464   51.938   -0.008    0.125   19.644
  370.714   59.962    0.013    0.132   13.230
  370.964   68.289    0.110    0.144    8.718
  371.214   73.082    0.217    0.256    5.765
  371.464   79.491    0.263    0.318    4.301
  371.714   83.568    0.282    0.480    3.570
  371.964   81.554    0.273    0.482    3.308
  372.214   76.578    0.288    0.475    3.176
  372.464   73.912    0.290    0.463    3.199
  372.714   72.356    0.287    0.456    3.389
  372.964   71.755    0.276    0.463    3.602
  373.214   73.454    0.269    0.476    3.800
  373.464   74.888    0.240    0.468    3.949
  373.714   76.230    0.225    0.473    4.020
  373.964   77.261    0.231    0.484    4.044
  374.214   75.262    0.233    0.481    4.083
  374.464   73.259    0.231    0.457    4.099
  374.714   72.401    0.245    0.454    4.159
  374.964   76.124    0.254    0.466    4.151
  375.214   78.192    0.237    0.484    4.079
  375.464   78.910    0.223    0.451    3.919
  375.714   79.983    0.226    0.433    3.749
  375.964   81.547    0.243    0.454    3.492
  376.214   82.628    0.258    0.474    3.314
  376.464   83.095    0.249    0.489    3.278
  376.714   82.446    0.231    0.498    3.271
  376.964   79.491    0.224    0.507    3.294
  377.214   78.038    0.216    0.500    3.365
  377.464   78.356    0.212    0.485    3.413
  377.714   79.124    0.228    0.485    3.441
  377.964   80.847    0.244    0.485    3.431
  378.214   82.131    0.265    0.483    3.377
  378.464   79.696    0.228    0.483    3.333
  378.714   77.706    0.227    0.489    3.281
  378.964   76.960    0.245    0.498    3.160
  379.214   76.193    0.256    0.506    3.049
  379.464   75.910    0.272    0.515    2.951
  379.714   75.804    0.280    0.518    2.877
  379.964   76.326    0.292    0.506    2.850
  380.214   76.965    0.304    0.501    2.851
  380.464   77.379    0.307    0.501    2.992
  380.714   77.617    0.284    0.511    3.184
  380.964   77.299    0.222    0.485    3.481
  381.214   75.895    0.176    0.435    3.680
  381.464   72.430    0.121    0.382    3.851
  381.714   68.507    0.091    0.314    3.972
  381.964   67.919    0.092    0.292    4.052
  382.214   76.102    0.151    0.372    4.056
  382.464   84.731    0.222    0.446    3.983
  382.714   87.775    0.234    0.471    3.912
  382.964   88.147    0.209    0.479    3.909
  383.214   85.884    0.212    0.492    3.944
  383.464   82.725    0.227    0.499    4.021
  383.714   80.599    0.231    0.508    4.095
  383.964   81.567    0.218    0.491    4.133
  384.214   83.385    0.206    0.483    4.130
  384.464   82.846    0.204    0.469    4.081
  384.714   81.638    0.217    0.478    4.008
  384.964   79.817    0.218    0.478    3.900
  385.214   76.902    0.231    0.490    3.815
  385.464   73.410    0.245    0.500    3.758
  385.714   76.591    0.257    0.478    3.785
  385.964   79.583    0.267    0.470    3.949
  386.214   81.723    0.241    0.472    4.385
  386.464   82.339    0.218    0.480    4.836
  386.714   81.566    0.194    0.476    5.297
  386.964   79.845    0.176    0.454    6.100
  387.214   79.003    0.166    0.432    7.641
  387.464   76.981    0.157    0.430   10.328
  387.714   71.263    0.152    0.444   11.028
  387.964   64.355    0.137    0.389   10.868
  388.214   59.015    0.102    0.351   10.061
  388.464   58.712    0.060    0.254    9.202
  388.714   65.680    0.035    0.335    7.956
  388.964   74.299    0.119    0.397    6.834
  389.214   80.056    0.150    0.423    5.887
  389.464   82.729    0.163    0.442    5.342
  389.714   84.693    0.173    0.455    5.215
  389.964   83.828    0.184    0.461    5.139
  390.214   82.211    0.194    0.462    4.973
  390.464   80.816    0.177    0.464    4.641
  390.714   80.244    0.182    0.465    4.178
  390.964   83.181    0.208    0.465    3.761
  391.214   87.175    0.220    0.492    3.358
  391.464   91.655    0.215    0.535    2.959
  391.714   94.841    0.247    0.574    2.881
  391.964   96.247    0.252    0.601    3.047
  392.214   96.113    0.241    0.573    3.248
  392.464   93.754    0.236    0.547    3.530
  392.714   92.731    0.238    0.525    3.730
  392.964   90.920    0.236    0.503    3.858
  393.214   87.709    0.214    0.504    3.974
  393.464   86.719    0.198    0.508    4.039
  393.714   85.784    0.220    0.487    4.079
  393.964   85.662    0.244    0.475    4.053
  394.214   86.338    0.245    0.485    4.009
  394.464   86.001    0.216    0.494    3.906
  394.714   84.141    0.211    0.493    3.696
  394.964   82.412    0.219    0.493    3.636
  395.214   80.125    0.223    0.474    3.501
  395.464   77.055    0.227    0.454    3.406
  395.714   74.433    0.219    0.465    3.341
  395.964   72.359    0.189    0.476    3.244
  396.214   71.317    0.182    0.479    3.106
  396.464   71.188    0.218    0.456    2.958
  396.714   69.960    0.251    0.458    2.849
  396.964   67.474    0.259    0.466    2.969
  397.214   63.245    0.270    0.450    3.067
  397.464   57.736    0.263    0.423    3.128
  397.714   53.309    0.224    0.396    3.139
  397.964   49.410    0.197    0.363    3.017
  398.214   50.907    0.214    0.381    2.857
  398.464   51.869    0.262    0.444    2.621
  398.714   52.749    0.308    0.466    2.456
  398.964   54.533    0.304    0.477    2.383
  399.214   54.783    0.289    0.478    2.337
  399.464   52.167    0.307    0.467    2.313
  399.714   49.823    0.319    0.463    2.312
  399.964   48.956    0.313    0.474    2.351
  400.214   49.776    0.314    0.474    2.434
  400.464   50.399    0.313    0.461    2.480
  400.714   50.677    0.296    0.463    2.480
  400.964   46.652    0.326    0.482    2.533
  401.214   44.108    0.325    0.485    2.494
  401.464   45.215    0.319    0.471    2.449
  401.714   44.458    0.315    0.481    2.409
  401.964   43.014    0.320    0.462    2.367
  402.214   42.465    0.329    0.445    2.293
  402.464   43.251    0.324    0.442    2.187
  402.714   44.974    0.315    0.443    2.119
  402.964   46.386    0.311    0.442    2.077
  403.214   47.063    0.311    0.453    2.076
  403.464   47.402    0.322    0.463    2.100
  403.714   47.860    0.312    0.472    2.110
  403.964   49.697    0.300    0.484    2.135
  404.214   51.254    0.327    0.489    2.175
  404.464   51.858    0.333    0.471    2.196
  404.714   52.122    0.330    0.458    2.193
  404.964   54.059    0.330    0.459    2.222
  405.214   56.087    0.320    0.468    2.246
  405.464   56.796    0.309    0.463    2.307
  405.714   56.027    0.303    0.469    2.347
  405.964   54.672    0.318    0.481    2.378
  406.214   53.994    0.311    0.475    2.411
  406.464   53.548    0.298    0.456    2.440
  406.714   53.413    0.307    0.446    2.448
  406.964   53.917    0.300    0.445    2.436
  407.214   55.169    0.281    0.461    2.415
  407.464   55.629    0.285    0.473    2.399
  407.714   54.524    0.300    0.468    2.356
  407.964   53.309    0.292    0.472    2.351
  408.214   53.645    0.282    0.471    2.353
  408.464   55.307    0.274    0.459    2.366
  408.714   57.341    0.291    0.450    2.386
  408.964   58.479    0.300    0.439    2.399
  409.214   59.775    0.306    0.434    2.422
  409.464   60.767    0.294    0.442    2.443
  409.714   61.970    0.297    0.463    2.469
  409.964   64.093    0.316    0.481    2.499
  410.214   64.489    0.308    0.482    2.553
  410.464   63.124    0.301    0.466    2.665
  410.714   63.363    0.306    0.454    2.802
  410.964   65.587    0.304    0.467    2.958
  411.214   67.941    0.284    0.486    3.095
  411.464   70.518    0.267    0.505    3.243
  411.714   73.595    0.255    0.480    3.316
  411.964   75.800    0.242    0.479    3.305
  412.214   77.981    0.248    0.493    3.251
  412.464   79.094    0.260    0.502    3.217
  412.714   76.522    0.279    0.486    3.194
  412.964   74.241    0.291    0.477    3.195
  413.214   72.412    0.285    0.476    3.199
  413.464   71.410    0.271    0.486    3.201
  413.714   71.753    0.256    0.489    3.215
