~VERSION INFORMATION
 VERS.                 2.0:   CWLS LOG ASCII STANDARD -VERSION 2.0
 WRAP.                  NO:   ONE LINE PER DEPTH STEP
~WELL INFORMATION BLOCK
#MNEM.UNIT           DATA                    DESCRIPTION OF MNEMONIC
#---------    -------------------            -------------------------------
# Generated from Intellog Unique Number	CW_70_72/WELL/549
NULL.         -999.25                        : NULL_VALUE
WELL.         CZAR ET AL CALLW 06-03         : Well_name    - WELL              
LOC .         06-03-071-19W4                 : Location     - LOCATION          
UWI .         00/06-03-071-19W4/0            : Uwi          - UNIQUE WELL ID    
ENTR.         JAYE                           : Entered      - ENTERED BY        
SRVC.         SCHLUMBERGER                   : Scn          - SERVICE COMPANY   
DATE.         13 DEC 80                      : Date         - LOG DATE          
STRT.M        315                            : top_depth    - START DEPTH       
STOP.M        480                            : bot_depth    - STOP DEPTH        
STEP.M        0.25                           : increment    - STEP LENGTH       
~CURVE INFORMATION BLOCK
#MNEM UNIT       ERCB CURVE CODE    CURVE DESCRIPTION
#-----------   ------------------   ----------------------------------
DEPT.M        00 001 00 00         : DEPTH        - DEPTH                       
DPHI.V/V      00 890 00 00         : PHID         - DENSITY POROSITY (SANDSTONE)
NPHI.V/V      00 330 00 00         : PHIN         - NEUTRON POROSITY (SANDSTONE)
GR  .API      00 310 00 00         : GR           - GAMMA RAY                   
CALI.MM       00 280 01 00         : CAL          - CALIPER                     
ILD .OHMM     00 120 00 00         : RESD         - DEEP RESISTIVITY (DIL)      
~PARAMETER INFORMATION       
#MNEM.UNIT           DATA             DESCRIPTION OF MNEMONIC
#---------         -----------     ------------------------------
GL  .M        586.5                : gl           - GROUND LEVEL ELEVATION      
EREF.M        589.7                : kb           - ELEVATION OF DEPTH REFERENCE
DATM.M        586.5                : datum        - DATUM ELEVATION             
TDD .M        563                  : tdd          - TOTAL DEPTH DRILLER         
RUN .         ONE                  : Run          - RUN NUMBER                  
ENG .         BRANDSTROM           : Engineer     - RECORDING ENGINEER          
WIT .         JOHNSON              : Witness      - WITNESSED BY                
BASE.         EDM                  : Branch       - HOME BASE OF LOGGING UNIT   
MUD .         GEL CHEM             : Mud_type     - MUD TYPE                    
MATR.         SANDSTONE            : Logunit      - NEUTRON MATRIX              
TMAX.C        27.7                 : BHT          - MAXIMUM RECORDED TEMPERATURE
BHTD.M        564                  : BHTDEP       - MAXIMUM RECORDED TEMPERATURE
RMT .C        2.8                  : MDTP         - TEMPERATURE OF MUD          
MUDD.KG/M     1040                 : MWT          - MUD DENSITY                 
NEUT.         1                    : NEUTRON      - NEUTRON TYPE                
RESI.         0                    : RESIST       - RESISTIVITY TYPE            
RM  .OHMM     2.73                 : RM           - RESISTIVITY OF MUD          
RMC .OHMM     0                    : RMC          - RESISTIVITY OF MUD CAKE     
RMF .OHMM     2.35                 : RMF          - RESISTIVITY OF MUD FILTRATE 
SUFT.C        0                    : SUFT         - SURFACE TEMPERATURE         
~A  DEPTH     PHID     PHIN       GR      CAL     RESD
  315.000    0.221    0.529  104.808  205.821    3.044
  315.250    0.224    0.503  101.962  206.253    3.053
  315.500    0.229    0.465  103.524  203.681    3.062
  315.750    0.235    0.474  107.882  198.835    3.077
  316.000    0.242    0.525  110.374  198.334    3.080
  316.250    0.253    0.530  107.279  203.112    2.948
  316.500    0.248    0.522  102.881  210.267    2.897
  316.750    0.240    0.512  103.388  217.011    2.879
  317.000    0.310    0.504  100.666  223.444    2.887
  317.250    0.414    0.515   92.418  234.327    2.901
  317.500    0.478    0.535   91.000  229.997    2.883
  317.750    0.511    0.543   89.396  227.115    2.902
  318.000    0.444    0.553   86.116  218.647    3.010
  318.250    0.430    0.558   86.001  195.172    3.182
  318.500    0.378    0.512   83.031  175.735    3.511
  318.750    0.307    0.455   79.874  162.092    3.889
  319.000    0.285    0.429   75.972  156.934    4.026
  319.250    0.299    0.441   71.947  158.815    3.941
  319.500    0.304    0.449   68.790  161.212    3.829
  319.750    0.311    0.446   66.193  163.092    3.855
  320.000    0.324    0.424   64.030  163.108    4.081
  320.250    0.305    0.432   61.494  162.193    4.395
  320.500    0.248    0.442   56.599  161.901    4.886
  320.750    0.074    0.442   49.593  161.092    5.292
  321.000    0.151    0.437   68.478  160.278    5.378
  321.250    0.205    0.431   79.602  161.019    5.215
  321.500    0.262    0.428   77.130  162.690    4.745
  321.750    0.295    0.415   68.819  164.781    4.278
  322.000    0.319    0.401   59.951  165.104    3.915
  322.250    0.328    0.415   50.336  165.846    3.510
  322.500    0.326    0.419   51.464  166.795    3.123
  322.750    0.320    0.401   57.932  166.809    3.062
  323.000    0.302    0.415   62.599  167.033    3.171
  323.250    0.285    0.416   68.817  167.155    3.364
  323.500    0.257    0.403   81.431  166.861    3.684
  323.750    0.251    0.407   95.846  166.773    4.228
  324.000    0.294    0.414   98.465  166.686    4.614
  324.250    0.285    0.416   98.226  166.912    4.885
  324.500    0.269    0.410   99.479  167.341    5.058
  324.750    0.253    0.401  103.214  168.392    5.188
  325.000    0.238    0.378  108.811  170.892    5.263
  325.250    0.227    0.381  109.256  174.325    5.318
  325.500    0.216    0.407  101.133  179.930    5.414
  325.750    0.231    0.409   94.560  181.085    5.471
  326.000    0.250    0.379   89.355  174.790    5.446
  326.250    0.250    0.357   86.633  170.045    5.233
  326.500    0.262    0.383   83.539  166.233    4.887
  326.750    0.282    0.407   78.271  163.352    4.643
  327.000    0.298    0.404   73.438  160.371    4.503
  327.250    0.304    0.408   69.350  158.939    4.350
  327.500    0.293    0.425   69.112  158.953    4.267
  327.750    0.284    0.437   70.550  161.764    4.232
  328.000    0.288    0.422   72.547  161.988    4.260
  328.250    0.298    0.435   73.800  160.867    4.265
  328.500    0.290    0.448   77.225  161.608    4.293
  328.750    0.286    0.427   80.587  163.488    4.323
  329.000    0.288    0.417   84.571  165.055    4.376
  329.250    0.292    0.415   89.424  166.420    4.430
  329.500    0.287    0.411   93.718  166.642    4.452
  329.750    0.281    0.410   95.528  166.658    4.457
  330.000    0.274    0.405   96.283  166.574    4.469
  330.250    0.265    0.399   98.591  167.313    4.475
  330.500    0.290    0.391   98.601  168.158    4.455
  330.750    0.368    0.382   95.756  171.485    4.353
  331.000    0.477    0.515   93.468  179.159    4.237
  331.250    0.510    0.556   91.119  193.251    4.116
  331.500    0.573    0.554   91.688  205.581    3.969
  331.750    0.576    0.572   90.766  185.937    3.828
  332.000    0.618    0.595   91.645  196.197    3.664
  332.250    0.630    0.578   94.885  215.152    3.513
  332.500    0.592    0.558   98.557  239.073    3.420
  332.750    0.593    0.547  104.901  270.549    3.342
  333.000    0.600    0.550  102.179  287.951    3.253
  333.250    0.552    0.505  102.748  291.382    3.154
  333.500    0.462    0.523  103.875  281.362    3.059
  333.750    0.565    0.555  103.761  280.343    2.978
  334.000    0.657    0.573  103.088  300.953    2.959
  334.250    0.532    0.569  103.161  284.516    3.029
  334.500    0.427    0.448  105.219  221.719    3.102
  334.750    0.272    0.428  107.961  194.933    3.309
  335.000    0.243    0.410  111.883  170.424    3.671
  335.250    0.260    0.429  102.331  171.270    4.143
  335.500    0.288    0.453   95.264  173.355    4.649
  335.750    0.261    0.477   87.263  174.099    5.217
  336.000    0.250    0.432   76.781  172.147    6.332
  336.250    0.280    0.402   62.448  172.063    7.601
  336.500    0.254    0.386   64.755  173.735    8.450
  336.750    0.181    0.394   88.670  175.615    8.058
  337.000    0.282    0.413  105.196  179.976    7.103
  337.250    0.310    0.439  113.401  188.064    6.215
  337.500    0.285    0.448  112.915  181.872    5.816
  337.750    0.259    0.438  108.392  174.130    5.910
  338.000    0.200    0.433  104.739  170.214    6.086
  338.250    0.208    0.435  100.776  169.712    6.372
  338.500    0.215    0.414   97.060  169.521    6.585
  338.750    0.225    0.392   93.593  169.231    6.792
  339.000    0.233    0.390   88.263  168.628    6.902
  339.250    0.238    0.393   90.198  167.297    6.975
  339.500    0.238    0.399   95.114  165.656    6.970
  339.750    0.247    0.408   94.441  164.949    6.952
  340.000    0.255    0.417   89.236  164.448    6.907
  340.250    0.256    0.422   90.984  165.086    6.876
  340.500    0.222    0.398   94.534  163.965    6.858
  340.750    0.203    0.372   98.206  162.016    6.853
  341.000    0.200    0.372   97.782  161.618    6.847
  341.250    0.207    0.378   96.365  162.151    6.843
  341.500    0.214    0.384   94.573  165.376    6.811
  341.750    0.222    0.394   93.217  169.639    6.743
  342.000    0.237    0.401   91.861  170.689    6.687
  342.250    0.247    0.411   89.139  169.464    6.546
  342.500    0.225    0.424   93.247  168.032    6.468
  342.750    0.208    0.435   96.424  167.013    6.500
  343.000    0.222    0.411   89.977  166.719    6.519
  343.250    0.215    0.399   92.656  169.633    6.405
  343.500    0.217    0.430  101.173  175.446    6.073
  343.750    0.287    0.453  104.661  183.636    5.813
  344.000    0.346    0.467  108.581  204.038    5.648
  344.250    0.321    0.451  114.677  191.949    5.601
  344.500    0.293    0.427  110.962  173.236    5.629
  344.750    0.239    0.407  106.252  166.837    5.720
  345.000    0.225    0.429  116.879  165.716    5.769
  345.250    0.213    0.425  125.645  168.421    5.808
  345.500    0.189    0.416  128.697  174.235    5.782
  345.750    0.219    0.448  112.999  176.425    5.756
  346.000    0.289    0.467  107.172  175.613    5.666
  346.250    0.278    0.433  101.097  176.663    5.536
  346.500    0.313    0.388  101.294  167.988    5.260
  346.750    0.450    0.429  102.546  169.452    4.715
  347.000    0.481    0.566  109.199  190.271    4.125
  347.250    0.369    0.580  115.231  222.055    3.483
  347.500    0.302    0.553  117.911  213.897    3.188
  347.750    0.269    0.555  115.003  202.117    3.034
  348.000    0.331    0.571  117.435  205.342    3.020
  348.250    0.310    0.549  119.990  205.257    3.104
  348.500    0.336    0.536  111.682  189.025    3.444
  348.750    0.375    0.556  101.942  189.973    3.751
  349.000    0.407    0.501   92.018  188.645    4.047
  349.250    0.200    0.444   93.768  165.792    4.293
  349.500    0.218    0.446   97.627  163.325    4.667
  349.750    0.233    0.453  100.680  163.965    5.169
  350.000    0.236    0.445  101.682  163.050    5.628
  350.250    0.232    0.429  102.004  162.030    5.795
  350.500    0.222    0.411  102.013  162.771    5.823
  350.750    0.221    0.435  101.527  166.411    5.807
  351.000    0.247    0.469  101.599  168.704    5.760
  351.250    0.265    0.458   99.684  168.825    5.692
