~VERSION INFORMATION
 VERS.                 2.0:   CWLS LOG ASCII STANDARD -VERSION 2.0
 WRAP.                  NO:   ONE LINE PER DEPTH STEP
~WELL INFORMATION BLOCK
#MNEM.UNIT           DATA                    DESCRIPTION OF MNEMONIC
#---------    -------------------            -------------------------------
# Generated from Intellog Unique Number	CS_73_76/WELL/1084
WELL.         BOW VALLEY INDUSTRIES LTD.     : Well_name    - WELL
LOC .         00/06-30-075-13W4/0            : Location     - LOCATION
UWI .         00/06-30-075-13W4/0            : Uwi          - UNIQUE WELL ID
ENTR.         SP                             : Entered      - ENTERED BY
SRVC.         SCHLUMBERGER                   : Scn          - SERVICE COMPANY
STRT.M        360                            : top_depth    - START DEPTH
STOP.M        597                            : bot_depth    - STOP DEPTH
STEP.M        0.25                           : increment    - STEP LENGTH
 NULL. -999.2500:NULL Value
~CURVE INFORMATION BLOCK
#MNEM UNIT       ERCB CURVE CODE    CURVE DESCRIPTION
#-----------   ------------------   ----------------------------------
DEPT.M        00 001 00 00         : DEPTH        - DEPTH
ILD .OHMM     00 120 00 00         : RESD         - DEEP RESISTIVITY (DIL)
DPHI.V/V      00 890 00 00         : PHID         - DENSITY POROSITY (LIMESTONE)
NPHI.V/V      00 330 00 00         : PHIN         - NEUTRON POROSITY (LIMESTONE)
GR  .API      00 310 00 00         : GR           - GAMMA RAY
~PARAMETER INFORMATION
#MNEM.UNIT           DATA             DESCRIPTION OF MNEMONIC
#---------         -----------     ------------------------------
GL  .M        736                  : gl           - GROUND LEVEL ELEVATION
EREF.M        739.2                : kb           - ELEVATION OF DEPTH REFERENCE
DATM.M        736                  : datum        - DATUM ELEVATION
TDD .M        603                  : tdd          - TOTAL DEPTH DRILLER
RUN .         ONE                  : Run          - RUN NUMBER
ENG .         BILL                 : Engineer     - RECORDING ENGINEER
WIT .         JIM                  : Witness      - WITNESSED BY
MUD .         GEL                  : Mud_type     - MUD TYPE
MATR.         LIMESTONE            : Logunit      - NEUTRON MATRIX
TMAX.C        23                   : BHT          - MAXIMUM RECORDED TEMPERATURE
BHTD.M        603                  : BHTDEP       - MAXIMUM RECORDED TEMPERATURE
MATR.         1                    : LOGUNIT      - NEUTRON MATRIX
RMT .C        25                   : MDTP         - TEMPERATURE OF MUD
NEUT.         1                    : NEUTRON      - NEUTRON TYPE
RESI.         0                    : RESIST       - RESISTIVITY TYPE
RMC .OHMM     0.25                 : RMC          - RESISTIVITY OF MUD CAKE
RMF .OHMM     0.25                 : RMF          - RESISTIVITY OF MUD FILTRATE
SUFT.C        15                   : SUFT         - SURFACE TEMPERATURE
~A  DEPTH     RESD     PHID     PHIN       GR
# ...
  534.000    5.091    0.218    0.464   92.191
  534.250    5.583    0.213    0.447   86.706
  534.500    6.351    0.185    0.437   83.048
  534.750    6.836    0.153    0.398   81.818
  535.000    6.834    0.124    0.402   81.193
  535.250    6.706    0.112    0.407   81.174
  535.500    6.704    0.151    0.408   81.769
  535.750    6.580    0.168    0.413   83.568
  536.000    6.338    0.166    0.440   84.156
  536.250    6.337    0.181    0.458   85.359
  536.500    6.219    0.194    0.465   86.559
  536.750    6.217    0.181    0.439   87.149
  537.000    6.215    0.170    0.426   87.130
  537.250    6.329    0.156    0.427   88.327
  537.500    6.565    0.161    0.438   88.921
  537.750    6.937    0.186    0.436   88.892
  538.000    7.329    0.189    0.415   88.879
  538.250    7.465    0.171    0.405   87.653
  538.500    7.743    0.145    0.417   85.211
  538.750    7.741    0.134    0.392   84.584
  539.000    7.597    0.143    0.367   81.530
  539.250    7.319    0.129    0.385   82.124
  539.500    6.922    0.136    0.410   84.537
  539.750    6.547    0.169    0.397   86.337
  540.000    6.192    0.156    0.395   85.110
  540.250    5.748    0.134    0.407   86.305
  540.500    5.539    0.146    0.419   90.536
  540.750    5.436    0.167    0.426   91.740
  541.000    5.237    0.186    0.439   95.970
  541.250    5.236    0.192    0.444   98.992
  541.500    5.532    0.187    0.449   97.757
  541.750    5.738    0.181    0.454   98.958
  542.000    6.176    0.182    0.431   98.939
  542.250    7.157    0.173    0.427   94.065
  542.500    7.994    0.141    0.431   89.800
  542.750    8.765    0.144    0.397   83.097
  543.000    8.924    0.158    0.361   78.835
  543.250    8.759    0.166    0.343   75.787
  543.500    8.596    0.160    0.335   71.518
  543.750    8.130    0.120    0.335   68.465
  544.000    7.689    0.139    0.370   69.057
  544.250    7.408    0.153    0.398  101.219
  544.500    7.270    0.163    0.414  110.309
  544.750    7.682    0.174    0.424  111.507
  545.000    8.580    0.184    0.401  109.060
  545.250   12.877    0.191    0.392  105.401
  545.500   17.298    0.190    0.339  101.743
  545.750   21.187    0.206    0.301   98.686
  546.000   22.806    0.235    0.333   96.246
  546.250   23.223    0.261    0.357   73.155
  546.500   23.216    0.249    0.362   66.460
  546.750   20.772    0.216    0.316   68.874
  547.000   19.289    0.241    0.346   77.963
  547.250   17.259    0.254    0.368   84.625
  547.500   16.628    0.230    0.366   84.608
  547.750   16.319    0.221    0.357   79.124
  548.000   16.618    0.238    0.343   75.467
  548.250   17.559    0.234    0.335   74.238
  548.500   18.900    0.234    0.345   71.790
  548.750   21.500    0.244    0.351   68.130
  549.000   23.143    0.257    0.337   62.650
  549.250   24.452    0.265    0.328   59.599
  549.500   24.446    0.282    0.356   57.761
  549.750   23.989    0.310    0.369   57.135
  550.000   27.772    0.240    0.349   66.178
  550.250   31.591    0.225    0.304   57.045
  550.500   40.138    0.290    0.256   44.877
  550.750   47.381    0.350    0.229   38.174
  551.000   73.765    0.361    0.208   35.113
  551.250  106.669    0.379    0.195   32.656
  551.500  125.905    0.394    0.185   30.811
  551.750  154.187    0.414    0.197   29.563
  552.000  181.985    0.427    0.217   29.542
  552.250  227.018    0.392    0.247   29.509
  552.500  283.186    0.346    0.311   30.087
  552.750  304.761    0.322    0.336   30.678
  553.000  153.816    0.322    0.355   32.465
  553.250   77.632    0.328    0.366   33.666
  553.500   47.127    0.336    0.383   38.497
  553.750   30.801    0.328    0.396   46.358
  554.000   22.912    0.289    0.387   51.805
  554.250   16.424    0.265    0.378   63.923
  554.500   13.399    0.256    0.375   75.436
  554.750   10.930    0.266    0.387   85.122
  555.000    9.779    0.279    0.367   96.025
  555.250   10.522    0.212    0.359  102.073
  555.500   11.536    0.188    0.383   95.972
  555.750   13.613    0.240    0.390   88.662
  556.000   15.486    0.270    0.370   83.782
  556.250   18.279    0.301    0.362   84.361
  556.500   23.226    0.322    0.351   90.402
  556.750   32.371    0.334    0.345   95.849
  557.000   48.568    0.339    0.338  103.716
  557.250   57.326    0.321    0.331   80.617
  557.500   70.191    0.314    0.301   60.557
  557.750   75.548    0.338    0.260   49.602
  558.000   90.816    0.371    0.245   43.496
  558.250   99.570    0.377    0.336   42.873
  558.500   48.430    0.360    0.366   45.872
  558.750   34.718    0.334    0.396   48.285
  559.000   24.430    0.343    0.418   53.114
  559.250   19.566    0.347    0.388   58.555
  559.500   15.962    0.288    0.368   67.638
  559.750   13.260    0.217    0.347   82.186
  560.000   13.014    0.199    0.362   96.121
  560.250   12.771    0.202    0.368   98.525
  560.500   12.764    0.205    0.361  102.138
  560.750   12.996    0.205    0.367  104.543
  561.000   12.989    0.210    0.369   98.445
  561.250   13.224    0.218    0.375   92.352
  561.500   13.464    0.217    0.369   93.537
  561.750   14.219    0.207    0.364   95.338
  562.000   14.748    0.193    0.369   94.705
  562.250   15.300    0.220    0.382   89.814
  562.500   17.084    0.227    0.390   84.328
  562.750   21.705    0.234    0.387   78.839
  563.000   23.799    0.249    0.383   71.528
  563.250   33.169    0.269    0.400   64.821
  563.500   48.852    0.291    0.409   59.936
  563.750   56.609    0.304    0.419   58.093
  564.000   68.054    0.327    0.411   56.242
  564.250   68.020    0.342    0.410   56.826
  564.500   64.317    0.342    0.405   57.406
  564.750   61.966    0.336    0.406   57.384
  565.000   58.601    0.335    0.403   54.320
  565.250   55.394    0.328    0.396   51.864
  565.500   55.374    0.322    0.392   51.240
  565.750   54.348    0.319    0.394   53.636
  566.000   55.323    0.326    0.417   49.358
  566.250   55.307    0.340    0.427   46.911
  566.500   55.279    0.348    0.408   45.664
  566.750   54.231    0.341    0.419   45.647
  567.000   54.209    0.331    0.421   45.620
  567.250   54.174    0.325    0.420   46.806
  567.500   55.152    0.332    0.412   49.212
  567.750   57.209    0.335    0.409   49.795
  568.000   62.713    0.335    0.409   47.335
  568.250   66.268    0.333    0.420   46.096
  568.500   70.002    0.333    0.409   46.074
  568.750   72.594    0.340    0.403   48.473
  569.000   72.559    0.341    0.401   53.298
  569.250   71.207    0.338    0.399   56.927
  569.500   63.711    0.332    0.412   62.969
  569.750   44.833    0.328    0.411   66.589
  570.000   30.403    0.336    0.405   65.347
  570.250   23.038    0.331    0.405   60.458
  570.500   14.783    0.318    0.394   59.229
  570.750    9.662    0.303    0.387   64.666
  571.000    6.553    0.292    0.392   68.890
  571.250    5.152    0.319    0.390   59.148
  571.500    3.903    0.330    0.387   56.083
  571.750    3.557    0.340    0.388   53.029
  572.000    3.302    0.343    0.392   47.538
  572.250    3.241    0.342    0.394   43.261
  572.500    3.121    0.346    0.391   40.806
  572.750    3.007    0.345    0.387   39.561
  573.000    3.006    0.343    0.382   38.936
  573.250    2.894    0.342    0.386   38.291
  573.500    2.893    0.346    0.391   37.668
  573.750    2.892    0.356    0.387   37.029
  574.000    2.891    0.351    0.384   37.013
  574.250    2.890    0.347    0.388   36.986
  574.500    2.887    0.346    0.397   38.175
  574.750    2.886    0.351    0.405   39.966
  575.000    2.884    0.358    0.405   39.335
  575.250    2.883    0.353    0.398   38.700
  575.500    2.935    0.357    0.393   41.104
  575.750    3.045    0.350    0.393   43.510
  576.000    3.044    0.347    0.393   41.667
  576.250    3.099    0.351    0.395   38.605
  576.500    3.097    0.356    0.407   39.172
  576.750    3.096    0.346    0.412   40.369
  577.000    3.095    0.342    0.416   41.560
  577.250    3.093    0.348    0.410   40.318
