~VERSION INFORMATION
 VERS.                 2.0:   CWLS LOG ASCII STANDARD -VERSION 2.0
 WRAP.                  NO:   ONE LINE PER DEPTH STEP
~WELL INFORMATION BLOCK
#MNEM.UNIT           DATA                    DESCRIPTION OF MNEMONIC
#---------    -------------------            -------------------------------
# Generated from Intellog Unique Number	CW_73_75/WELL/773
WELL.         CHEVRON ER AL ROCK 07-26       : Well_name    - WELL
LOC .         00/07-26-075-22W4/0            : Location     - LOCATION
UWI .         00/07-26-075-22W4/0            : Uwi          - UNIQUE WELL ID
ENTR.         JAYE                           : Entered      - ENTERED BY
SRVC.         WESTERN ATLAS                  : Scn          - SERVICE COMPANY
DATE.         6 JAN 74                       : Date         - LOG DATE
STRT.M        387.096                        : top_depth    - START DEPTH
STOP.M        612.596                        : bot_depth    - STOP DEPTH
STEP.M        0.25                           : increment    - STEP LENGTH
 NULL. -999.2500:NULL Value
~CURVE INFORMATION BLOCK
#MNEM UNIT       ERCB CURVE CODE    CURVE DESCRIPTION
#-----------   ------------------   ----------------------------------
DEPT.M        00 001 00 00         : DEPTH        - DEPTH
ILD .OHMM     00 120 00 00         : RESD         - DEEP RESISTIVITY (DIL)
NPHI.V/V      00 330 00 00         : PHIN         - NEUTRON POROSITY (SANDSTONE)
DPHI.V/V      00 890 00 00         : PHID         - DENSITY POROSITY (SANDSTONE)
GR  .API      00 310 00 00         : GR           - GAMMA RAY
CALI.MM       00 280 01 00         : CAL          - CALIPER
~PARAMETER INFORMATION
#MNEM.UNIT           DATA             DESCRIPTION OF MNEMONIC
#---------         -----------     ------------------------------
GL  .M        682.539              : gl           - GROUND LEVEL ELEVATION
EREF.M        685.648              : kb           - ELEVATION OF DEPTH REFERENCE
DATM.M        682.539              : datum        - DATUM ELEVATION
TDD .M        611.124              : tdd          - TOTAL DEPTH DRILLER
RUN .         ONE                  : Run          - RUN NUMBER
ENG .         SIMPSON              : Engineer     - RECORDING ENGINEER
WIT .         WONG/GOLL            : Witness      - WITNESSED BY
BASE.         EDM                  : Branch       - HOME BASE OF LOGGING UNIT
MUD .         FRESH GEL            : Mud_type     - MUD TYPE
MATR.         SANDSTONE            : Logunit      - NEUTRON MATRIX
TMAX.C        30.5556              : BHT          - MAXIMUM RECORDED TEMPERATURE
BHTD.M        612.648              : BHTDEP       - MAXIMUM RECORDED TEMPERATURE
RMT .C        18.8889              : MDTP         - TEMPERATURE OF MUD
MUDD.KG/M     1140                 : MWT          - MUD DENSITY
NEUT.         1                    : NEUTRON      - NEUTRON TYPE
RESI.         0                    : RESIST       - RESISTIVITY TYPE
RM  .OHMM     5.6                  : RM           - RESISTIVITY OF MUD
RMC .OHMM     5.2                  : RMC          - RESISTIVITY OF MUD CAKE
RMF .OHMM     4.57                 : RMF          - RESISTIVITY OF MUD FILTRATE
SUFT.C        -17.7778             : SUFT         - SURFACE TEMPERATURE
~A  DEPTH     RESD     PHIN     PHID       GR      CAL
# ...
  496.596    9.402    0.494    0.272   62.276  199.233
  496.846    7.173    0.487    0.322   63.249  198.095
  497.096    5.865    0.478    0.303   64.587  197.783
  497.346    5.139    0.475    0.298   65.805  197.678
  497.596    4.585    0.473    0.287   67.509  197.778
  497.846    4.548    0.472    0.289   69.457  198.910
  498.096    4.729    0.470    0.293   70.248  200.352
  498.346    4.890    0.466    0.267   72.135  201.794
  498.596    5.274    0.458    0.232   74.692  202.926
  498.846    5.696    0.449    0.207   74.874  203.440
  499.096    5.913    0.440    0.223   73.775  203.953
  499.346    6.049    0.434    0.230   76.881  204.054
  499.596    6.099    0.445    0.227   73.772  204.258
  499.846    6.170    0.446    0.216   75.050  204.048
  500.096    6.177    0.432    0.204   77.973  203.737
  500.346    6.226    0.427    0.196   79.434  203.631
  500.596    6.163    0.441    0.192   80.164  203.628
  500.846    6.069    0.468    0.203   78.761  203.935
  501.096    5.910    0.461    0.224   79.673  204.036
  501.346    5.786    0.458    0.211   81.439  204.033
  501.596    5.739    0.456    0.200   83.996  204.237
  501.846    5.670    0.450    0.215   84.421  204.338
  502.096    5.582    0.438    0.225   82.043  204.335
  502.346    5.516    0.440    0.211   83.138  204.745
  502.596    5.461    0.458    0.191   82.223  206.084
  502.846    5.406    0.495    0.211   80.394  205.772
  503.096    5.361    0.483    0.214   79.113  205.459
  503.346    5.338    0.480    0.209   79.416  204.838
  503.596    5.331    0.482    0.201   80.816  204.320
  503.846    5.346    0.477    0.197   81.972  203.905
  504.096    5.409    0.470    0.193   84.042  204.005
  504.346    5.564    0.461    0.183   86.416  204.828
  504.596    5.923    0.447    0.155   88.730  206.064
  504.846    6.160    0.425    0.160   89.642  207.402
  505.096    6.371    0.432    0.160   90.433  207.400
  505.346    6.340    0.444    0.163   92.138  207.294
  505.596    6.030    0.456    0.186   94.147  206.466
  505.846    5.757    0.475    0.191   94.754  204.813
  506.096    5.535    0.488    0.196   93.717  203.263
  506.346    5.390    0.463    0.191   90.913  201.506
  506.596    5.288    0.456    0.179   88.170  200.884
  506.846    5.167    0.456    0.181   87.864  200.469
  507.096    5.107    0.461    0.173   89.751  200.260
  507.346    5.056    0.478    0.159   92.430  199.845
  507.596    5.014    0.501    0.178   95.475  199.533
  507.846    5.008    0.489    0.189   97.362  199.118
  508.096    5.049    0.473    0.180   96.203  199.115
  508.346    5.119    0.479    0.174   92.119  199.216
  508.596    5.169    0.483    0.181   89.559  199.626
  508.846    5.201    0.475    0.205   87.608  200.552
  509.096    5.216    0.460    0.221   86.449  201.272
  509.346    5.211    0.461    0.204   88.397  201.991
  509.596    5.205    0.454    0.217   91.320  202.298
  509.846    5.239    0.445    0.216   91.745  202.296
  510.096    5.291    0.451    0.202   92.048  202.396
  510.346    5.372    0.451    0.200   92.290  202.291
  510.596    5.416    0.444    0.214   90.522  201.979
  510.846    5.420    0.435    0.225   90.459  201.976
  511.096    5.475    0.443    0.223   92.347  202.077
  511.346    5.519    0.454    0.212   92.406  202.383
  511.596    5.523    0.460    0.197   87.774  202.484
  511.846    5.519    0.464    0.181   85.214  202.378
  512.096    5.573    0.472    0.190   86.309  202.376
  512.346    5.609    0.473    0.193   89.171  202.270
  512.596    5.634    0.474    0.203   90.022  202.370
  512.846    5.668    0.478    0.192   90.325  202.368
  513.096    5.695    0.486    0.203   90.629  202.262
  513.346    5.729    0.484    0.208   92.516  201.847
  513.596    5.746    0.478    0.198   92.819  202.051
  513.846    5.781    0.489    0.187   90.563  202.358
  514.096    5.796    0.491    0.186   89.343  202.561
  514.346    5.791    0.480    0.194   87.148  202.353
  514.596    5.828    0.471    0.197   86.476  202.350
  514.846    5.886    0.466    0.200   87.572  202.348
  515.096    5.954    0.468    0.216   89.459  202.448
  515.346    5.948    0.490    0.233   91.041  202.343
  515.596    5.953    0.488    0.220   90.613  202.340
  515.846    5.937    0.452    0.222   90.368  202.337
  516.096    5.910    0.431    0.222   89.514  202.335
  516.346    5.850    0.442    0.205   89.085  202.332
  516.596    5.781    0.447    0.184   90.424  202.123
  516.846    5.713    0.442    0.163   92.555  202.018
  517.096    5.624    0.443    0.179   94.869  201.912
  517.346    5.507    0.454    0.169   94.746  201.703
  517.596    5.286    0.465    0.156   93.891  201.700
  517.846    5.027    0.463    0.185   91.879  201.595
  518.096    4.843    0.457    0.191   91.634  201.695
  518.346    4.682    0.457    0.169   93.636  202.881
  518.596    4.643    0.461    0.165   93.333  203.397
  518.846    4.810    0.479    0.161   89.442  204.119
  519.096    5.122    0.498    0.241   84.213  204.532
  519.346    5.615    0.504    0.231   78.864  204.738
  519.596    6.360    0.491    0.217   72.297  204.946
  519.846    7.166    0.449    0.199   69.744  205.256
  520.096    8.620    0.422    0.133   66.887  205.875
  520.346   10.314    0.396    0.103   63.483  206.287
  520.596   13.271    0.246    0.075   59.957  206.598
  520.846   18.038    0.219    0.063   56.249  206.599
  521.096   27.297    0.208    0.042   56.432  206.600
  521.346   23.658    0.205    0.024   60.324  206.086
  521.596   19.273    0.253   -0.008   65.736  205.881
  521.846   14.517    0.301   -0.003   69.020  205.265
  522.096   11.613    0.355    0.139   73.216  204.957
  522.346    9.565    0.372    0.188   76.196  204.855
  522.596    7.835    0.433    0.214   76.014  204.753
  522.846    6.619    0.453    0.234   76.623  204.548
  523.096    5.917    0.440    0.248   78.873  204.447
  523.346    5.526    0.440    0.248   80.759  204.345
  523.596    5.715    0.455    0.235   78.388  204.242
  523.846    6.174    0.460    0.209   75.774  204.141
  524.096    7.373    0.431    0.215   71.093  204.142
  524.346    9.402    0.375    0.194   65.439  204.143
  524.596   13.084    0.319    0.132   58.387  204.041
  524.846   12.881    0.264    0.087   58.083  204.042
  525.096   11.391    0.321    0.048   67.144  204.043
  525.346    8.947    0.398    0.030   76.629  203.838
  525.596    7.912    0.423    0.144   82.710  203.736
  525.846    7.322    0.427    0.151   80.400  203.428
  526.096    6.976    0.417    0.166   80.158  203.121
  526.346    6.696    0.413    0.180   84.111  203.225
  526.596    6.415    0.433    0.191   87.395  203.432
  526.846    6.145    0.467    0.207   86.179  203.433
  527.096    5.930    0.452    0.219   86.362  203.537
  527.346    5.765    0.446    0.228   87.032  203.333
  527.596    5.685    0.443    0.236   87.458  203.436
  527.846    5.680    0.443    0.227   88.188  203.334
  528.096    5.705    0.440    0.202   89.040  203.130
  528.346    5.825    0.443    0.206   89.406  203.028
  528.596    5.960    0.448    0.227   89.467  202.926
  528.846    6.186    0.468    0.216   89.468  202.721
  529.096    6.373    0.452    0.205   88.192  202.722
  529.346    6.531    0.442    0.197   83.510  202.517
  529.596    6.670    0.436    0.197   85.153  202.518
  529.846    6.822    0.457    0.187   88.315  202.622
  530.096    6.878    0.446    0.171   87.586  202.829
  530.346    6.871    0.438    0.177   84.303  203.243
  530.596    6.838    0.432    0.184   84.730  203.553
  530.846    6.794    0.425    0.202   86.494  203.656
  531.096    6.739    0.416    0.211   89.534  203.863
  531.346    6.647    0.411    0.198   93.122  203.865
  531.596    6.556    0.434    0.180   95.129  204.174
  531.846    6.385    0.444    0.175   95.008  204.278
  532.096    6.298    0.431    0.192   92.395  204.589
  532.346    6.418    0.421    0.188   89.599  204.796
  532.596    6.613    0.410    0.180   86.194  204.900
  532.846    6.815    0.433    0.157   86.681  204.901
