~VERSION INFORMATION
 VERS.                 2.0:   CWLS LOG ASCII STANDARD -VERSION 2.0
 WRAP.                  NO:   ONE LINE PER DEPTH STEP
~WELL INFORMATION BLOCK
#MNEM.UNIT           DATA                    DESCRIPTION OF MNEMONIC
#---------    -------------------            -------------------------------
# Generated from Intellog Unique Number	CS_73_76/WELL/2807
WELL.         EAGLE RESOURCES LTD.           : Well_name    - WELL
LOC .         00/02-15-076-18W4/0            : Location     - LOCATION
UWI .         00/02-15-076-18W4/0            : Uwi          - UNIQUE WELL ID
ENTR.         JO                             : Entered      - ENTERED BY
SRVC.         COMPUTALOG                     : Scn          - SERVICE COMPANY
DATE.         05/22/92                       : Date         - LOG DATE
STRT.M        210                            : top_depth    - START DEPTH
STOP.M        440                            : bot_depth    - STOP DEPTH
STEP.M        0.25                           : increment    - STEP LENGTH
 NULL. -999.2500:NULL Value
~CURVE INFORMATION BLOCK
#MNEM UNIT       ERCB CURVE CODE    CURVE DESCRIPTION
#-----------   ------------------   ----------------------------------
DEPT.M        00 001 00 00         : DEPTH        - DEPTH
ILD .OHMM     00 120 00 00         : RESD         - DEEP RESISTIVITY (DIL)
DPHI.V/V      00 890 00 00         : PHID         - DENSITY POROSITY (SANDSTONE)
NPHI.V/V      00 330 00 00         : PHIN         - NEUTRON POROSITY (SANDSTONE)
GR  .API      00 310 00 00         : GR           - GAMMA RAY
~PARAMETER INFORMATION
#MNEM.UNIT           DATA             DESCRIPTION OF MNEMONIC
#---------         -----------     ------------------------------
GL  .M        610.59               : gl           - GROUND LEVEL ELEVATION
EREF.M        614.26               : kb           - ELEVATION OF DEPTH REFERENCE
DATM.M        614.26               : datum        - DATUM ELEVATION
TDD .M        446.6                : tdd          - TOTAL DEPTH DRILLER
RUN .         ONE                  : Run          - RUN NUMBER
ENG .         BILL                 : Engineer     - RECORDING ENGINEER
WIT .         JIM                  : Witness      - WITNESSED BY
MUD .         GEL                  : Mud_type     - MUD TYPE
MATR.         SANDSTONE            : Logunit      - NEUTRON MATRIX
TMAX.C        28                   : BHT          - MAXIMUM RECORDED TEMPERATURE
BHTD.M        446.6                : BHTDEP       - MAXIMUM RECORDED TEMPERATURE
RMT .C        16.7                 : MDTP         - TEMPERATURE OF MUD
MUDD.KG/M     1140                 : MWT          - MUD DENSITY
NEUT.         1                    : NEUTRON      - NEUTRON TYPE
RESI.         0                    : RESIST       - RESISTIVITY TYPE
RM  .OHMM     3.4                  : RM           - RESISTIVITY OF MUD
RMC .OHMM     3.4                  : RMC          - RESISTIVITY OF MUD CAKE
RMF .OHMM     3.4                  : RMF          - RESISTIVITY OF MUD FILTRATE
SUFT.C        4                    : SUFT         - SURFACE TEMPERATURE
~A  DEPTH     RESD     PHID     PHIN       GR
# ...
  297.000    8.475    0.278    0.442   87.696
  297.250    8.017    0.269    0.429   86.605
  297.500    7.581    0.263    0.417   89.567
  297.750    6.908    0.253    0.441   94.880
  298.000    6.532    0.248    0.458   99.621
  298.250    6.181    0.254    0.457   97.335
  298.500    6.069    0.268    0.460   96.803
  298.750    6.314    0.277    0.469   99.194
  299.000    7.089    0.275    0.470  101.013
  299.250    8.107    0.278    0.466  101.636
  299.500   13.828    0.331    0.471   99.936
  299.750   15.521    0.413    0.504   94.728
  300.000   37.290    0.439    0.540   85.429
  300.250   46.911    0.384    0.521   74.948
  300.500   61.301    0.332    0.462   64.480
  300.750   72.843    0.315    0.432   59.286
  301.000   91.671    0.315    0.407   61.663
  301.250  108.970    0.322    0.405   62.898
  301.500  117.705    0.331    0.417   62.937
  301.750  134.699    0.332    0.423   60.651
  302.000  145.601    0.325    0.408   57.210
  302.250  154.312    0.320    0.397   56.094
  302.500  160.522    0.320    0.402   57.315
  302.750  166.982    0.324    0.399   60.290
  303.000  173.765    0.329    0.403   61.525
  303.250  173.953    0.330    0.416   60.408
  303.500  174.267    0.331    0.419   58.707
  303.750  174.518    0.333    0.414   61.669
  304.000  168.311    0.337    0.417   65.254
  304.250  162.208    0.339    0.433   65.865
  304.500  147.768    0.339    0.442   64.164
  304.750  139.678    0.339    0.439   61.879
  305.000  127.198    0.339    0.430   61.347
  305.250  109.412    0.335    0.417   62.594
  305.500   92.342    0.339    0.410   62.634
  305.750   79.430    0.345    0.418   61.530
  306.000   70.971    0.355    0.421   59.829
  306.250   63.413    0.357    0.426   60.479
  306.500   60.006    0.356    0.435   62.285
  306.750   55.693    0.359    0.441   62.338
  307.000   50.717    0.360    0.427   62.364
  307.250   45.332    0.360    0.423   61.261
  307.500   42.866    0.360    0.430   60.144
  307.750   40.534    0.360    0.427   59.028
  308.000   37.620    0.349    0.426   58.496
  308.250   38.425    0.334    0.440   60.301
  308.500   39.957    0.326    0.439   65.043
  308.750   43.207    0.334    0.430   66.277
  309.000   44.930    0.342    0.430   66.317
  309.250   45.841    0.353    0.433   66.356
  309.500   48.601    0.364    0.439   64.668
  309.750   45.974    0.369    0.442   63.552
  310.000   41.881    0.355    0.445   63.604
  310.250   39.602    0.344    0.455   66.579
  310.500   36.756    0.334    0.461   69.554
  310.750   34.769    0.328    0.464   69.619
  311.000   32.305    0.323    0.459   67.931
  311.250   31.122    0.319    0.452   66.802
  311.500   30.569    0.318    0.440   66.270
  311.750   30.048    0.313    0.415   69.829
  312.000   28.433    0.301    0.410   76.311
  312.250   26.399    0.281    0.409   82.208
  312.500   25.433    0.264    0.433   84.598
  312.750   24.519    0.259    0.440   89.326
  313.000   23.202    0.258    0.448  113.354
  313.250   21.940    0.248    0.439  129.200
  313.500   19.994    0.238    0.424  104.108
  313.750   18.906    0.246    0.408   84.289
  314.000   17.890    0.263    0.415   76.743
  314.250   17.242    0.277    0.430   77.965
  314.500   17.266    0.277    0.440   75.108
  314.750   16.960    0.275    0.446   80.408
  315.000   17.003    0.283    0.451   81.044
  315.250   17.015    0.291    0.441   79.344
  315.500   17.360    0.302    0.426   76.487
  315.750   18.412    0.308    0.427   74.215
  316.000   19.167    0.314    0.433   73.656
  316.250   19.931    0.323    0.441   74.306
  316.500   20.733    0.308    0.438   76.697
  316.750   24.164    0.234    0.431   77.918
  317.000   28.714    0.208    0.382   76.230
  317.250   35.455    0.141    0.318   73.932
  317.500   42.130    0.047    0.278   69.893
  317.750   47.305   -0.018    0.224   59.412
  318.000   35.609   -0.051    0.178   57.711
  318.250   30.630   -0.054    0.118   45.490
  318.500   18.021   -0.023    0.107   43.205
  318.750   15.787    0.005    0.140   42.673
  319.000   12.827    0.066    0.167   55.012
  319.250   11.245    0.122    0.344   60.909
  319.500   10.637    0.288    0.405   65.650
  319.750   10.653    0.337    0.425   66.274
  320.000   10.672    0.336    0.434   65.755
  320.250   10.900    0.331    0.421   64.626
  320.500   10.900    0.330    0.430   62.925
  320.750   12.252    0.332    0.442   62.393
  321.000   13.484    0.337    0.441   61.303
  321.250   13.503    0.340    0.447   60.770
  321.500   13.273    0.343    0.463   63.148
  321.750   13.037    0.344    0.472   66.733
  322.000   12.337    0.338    0.467   66.201
  322.250   11.889    0.330    0.444   65.072
  322.500   11.470    0.320    0.447   63.942
  322.750   11.487    0.324    0.448   61.098
  323.000   11.504    0.330    0.442   60.553
  323.250   11.741    0.338    0.430   60.593
  323.500   11.988    0.338    0.427   60.658
  323.750   11.997    0.337    0.428   61.295
  324.000   11.570    0.337    0.431   61.932
  324.250   10.945    0.339    0.426   62.595
  324.500   10.552    0.349    0.423   62.635
  324.750   10.368    0.356    0.438   62.687
  325.000    9.992    0.352    0.457   64.493
  325.250    9.818    0.350    0.459   67.468
  325.500    9.836    0.352    0.452   67.520
  325.750    9.850    0.345    0.450   67.586
  326.000    9.864    0.337    0.446   67.054
  326.250    9.696    0.335    0.432   67.106
  326.500    9.527    0.342    0.431   68.912
  326.750    9.188    0.349    0.442   67.198
  327.000    9.022    0.343    0.455   65.497
  327.250    8.868    0.333    0.463   69.069
  327.500    8.877    0.327    0.453   70.291
  327.750    8.726    0.325    0.445   69.746
  328.000    8.735    0.334    0.426   67.460
  328.250    8.751    0.344    0.423   66.344
  328.500    8.760    0.342    0.424   66.409
  328.750    9.120    0.341    0.429   68.242
  329.000    9.129    0.343    0.436   68.281
  329.250    9.318    0.343    0.438   68.905
  329.500    9.332    0.338    0.444   68.386
  329.750    9.345    0.336    0.447   67.256
  330.000    9.358    0.334    0.438   63.828
  330.250    9.555    0.337    0.425   61.530
  330.500    9.753    0.334    0.419   59.231
  330.750    9.958    0.324    0.422   55.219
  331.000   10.160    0.319    0.418   54.089
  331.250   10.370    0.305    0.411   51.232
  331.500   10.791    0.301    0.421   50.687
  331.750   11.010    0.314    0.433   49.558
  332.000   11.457    0.321    0.440   47.857
  332.250   11.694    0.318    0.433   47.325
  332.500   12.160    0.310    0.417   49.715
  332.750   12.649    0.306    0.412   48.612
  333.000   14.208    0.308    0.419   46.313
  333.250   15.353    0.312    0.423   45.197
  333.500   16.908    0.304    0.407   51.107
  333.750   18.263    0.286    0.381   54.679
  334.000   20.892    0.168    0.351   51.796
  334.250   33.028    0.116    0.304   47.771
  334.500   44.832    0.076    0.177   45.472
  334.750   63.235    0.047    0.124   42.602
  335.000   79.551    0.011    0.095   39.174
  335.250   96.343   -0.058    0.088   39.214
  335.500  106.178   -0.055    0.089   39.253
  335.750  106.293   -0.061    0.089   40.501
  336.000  106.446   -0.071    0.085   41.124
  336.250  102.660   -0.068    0.083   41.190
  336.500  102.771   -0.069    0.080   40.658
  336.750  102.919   -0.069    0.077   40.113
  337.000  109.116   -0.066    0.079   40.165
  337.250  120.168   -0.076    0.087   40.231
  337.500  127.449   -0.089    0.093   39.699
  337.750  130.082   -0.099    0.096   39.738
  338.000  125.455   -0.085    0.095   39.219
  338.250   94.435   -0.059    0.092   38.688
  338.500   37.964   -0.029    0.086   38.727
  338.750   32.041    0.037    0.090   38.792
  339.000   26.023    0.155    0.124   38.858
  339.250   20.355    0.203    0.219   39.482
  339.500   14.489    0.247    0.294   41.872
  339.750   13.695    0.288    0.334   47.198
  340.000   12.246    0.318    0.366   51.913
  340.250   11.579    0.310    0.401   54.914
