~VERSION INFORMATION
 VERS.                 2.0:   CWLS LOG ASCII STANDARD -VERSION 2.0
 WRAP.                  NO:   ONE LINE PER DEPTH STEP
~WELL INFORMATION BLOCK
#MNEM.UNIT           DATA                    DESCRIPTION OF MNEMONIC
#---------    -------------------            -------------------------------
# Generated from Intellog Unique Number	CS_69_70/WELL/784
NULL.         -999.25                        : NULL_VALUE
WELL.         ET AL TWEEDIE                  : Well_name    - WELL              
LOC .         00/06-31-070-11W4/0            : Location     - LOCATION          
UWI .         00/06-31-070-11W4/0            : Uwi          - UNIQUE WELL ID    
ENTR.         SP                             : Entered      - ENTERED BY        
SRVC.         SCHLUMBERGER                   : Scn          - SERVICE COMPANY   
STRT.M        265                            : top_depth    - START DEPTH       
STOP.M        470                            : bot_depth    - STOP DEPTH        
STEP.M        0.25                           : increment    - STEP LENGTH       
~CURVE INFORMATION BLOCK
#MNEM UNIT       ERCB CURVE CODE    CURVE DESCRIPTION
#-----------   ------------------   ----------------------------------
DEPT.M        00 001 00 00         : DEPTH        - DEPTH                       
ILD .OHMM     00 120 00 00         : RESD         - DEEP RESISTIVITY (DIL)      
DPHI.V/V      00 890 00 00         : PHID         - DENSITY POROSITY (LIMESTONE)
NPHI.V/V      00 330 00 00         : PHIN         - NEUTRON POROSITY (LIMESTONE)
GR  .API      00 310 00 00         : GR           - GAMMA RAY                   
~PARAMETER INFORMATION       
#MNEM.UNIT           DATA             DESCRIPTION OF MNEMONIC
#---------         -----------     ------------------------------
GL  .M        601.69               : gl           - GROUND LEVEL ELEVATION      
EREF.M        605.66               : kb           - ELEVATION OF DEPTH REFERENCE
DATM.M        601.69               : datum        - DATUM ELEVATION             
TDD .M        488                  : tdd          - TOTAL DEPTH DRILLER         
RUN .         ONE                  : Run          - RUN NUMBER                  
ENG .         BILL                 : Engineer     - RECORDING ENGINEER          
WIT .         JIM                  : Witness      - WITNESSED BY                
MUD .         GEL                  : Mud_type     - MUD TYPE                    
MATR.         LIMESTONE            : Logunit      - NEUTRON MATRIX              
TMAX.C        18.5                 : BHT          - MAXIMUM RECORDED TEMPERATURE
BHTD.M        488                  : BHTDEP       - MAXIMUM RECORDED TEMPERATURE
MATR.         1                    : LOGUNIT      - NEUTRON MATRIX              
RMT .C        25                   : MDTP         - TEMPERATURE OF MUD          
NEUT.         1                    : NEUTRON      - NEUTRON TYPE                
RESI.         0                    : RESIST       - RESISTIVITY TYPE            
RMC .OHMM     0.25                 : RMC          - RESISTIVITY OF MUD CAKE     
RMF .OHMM     0.25                 : RMF          - RESISTIVITY OF MUD FILTRATE 
SUFT.C        15                   : SUFT         - SURFACE TEMPERATURE         
~A  DEPTH     RESD     PHID     PHIN       GR
# ...
  439.000    8.985   -0.001    0.278   63.396
  439.250    6.996   -0.004    0.268   68.253
  439.500    5.170    0.037    0.294   74.987
  439.750    4.413    0.194    0.355   75.541
  440.000    3.998    0.259    0.384   75.124
  440.250    3.768    0.288    0.401   75.373
  440.500    3.665    0.302    0.397   78.956
  440.750    3.620    0.286    0.385   84.722
  441.000    3.580    0.274    0.388   88.728
  441.250    3.556    0.263    0.397   93.524
  441.500    3.537    0.251    0.404   95.592
  441.750    3.436    0.246    0.396   94.022
  442.000    3.398    0.245    0.384   95.970
  442.250    3.387    0.241    0.384  101.492
  442.500    3.453    0.232    0.398  103.742
  442.750    3.552    0.220    0.389  101.810
  443.000    3.746    0.224    0.378   96.786
  443.250    3.876    0.236    0.366   98.066
  443.500    4.017    0.244    0.360  110.559
  443.750    4.212    0.231    0.365  127.779
  444.000    4.440    0.218    0.376  133.362
  444.250    4.716    0.206    0.385  135.248
  444.500    5.066    0.194    0.381  130.225
  444.750    5.331    0.187    0.377  116.959
  445.000    5.578    0.194    0.378  102.542
  445.250    5.750    0.222    0.381   91.700
  445.500    5.829    0.248    0.381   81.282
  445.750    5.810    0.268    0.373   78.683
  446.000    5.738    0.265    0.367   79.478
  446.250    5.571    0.255    0.363   81.910
  446.500    5.369    0.244    0.368   85.433
  446.750    5.432    0.235    0.363   90.410
  447.000    5.621    0.223    0.349   95.326
  447.250    5.893    0.210    0.339   99.091
  447.500    6.154    0.190    0.334  100.613
  447.750    6.725    0.180    0.344   99.287
  448.000    6.958    0.180    0.341   85.233
  448.250    7.064    0.199    0.351   78.392
  448.500    7.228    0.221    0.358   76.944
  448.750    7.204    0.223    0.366   85.922
  449.000    6.984    0.227    0.374   86.354
  449.250    6.793    0.240    0.371   85.451
  449.500    6.449    0.236    0.366   90.247
  449.750    5.422    0.213    0.363   92.497
  450.000    4.697    0.193    0.365   84.140
  450.250    4.108    0.214    0.357   69.964
  450.500    3.722    0.261    0.369   59.789
  450.750    3.474    0.295    0.390   58.464
  451.000    3.299    0.289    0.374   64.592
  451.250    3.288    0.294    0.348   71.327
  451.500    3.314    0.275    0.336   75.638
  451.750    3.366    0.255    0.339   74.796
  452.000    3.457    0.266    0.354   73.045
  452.250    3.563    0.255    0.348   73.053
  452.500    3.612    0.236    0.336   77.363
  452.750    3.574    0.228    0.328   95.371
  453.000    3.496    0.216    0.343  109.621
  453.250    3.433    0.163    0.488  119.386
  453.500    3.480    0.161    0.505  125.212
  453.750    3.540    0.160    0.513  119.219
  454.000    3.609    0.125    0.511  121.408
  454.250    3.651    0.099    0.494  125.961
  454.500    3.640    0.131    0.478  124.878
  454.750    3.628    0.166    0.482  117.611
  455.000    3.589    0.191    0.467   98.891
  455.250    3.433    0.218    0.446   82.655
  455.500    3.205    0.270    0.426   68.844
  455.750    3.066    0.309    0.410   56.850
  456.000    2.988    0.311    0.400   67.949
  456.250    2.967    0.304    0.388   77.655
  456.500    2.968    0.289    0.385   81.600
  456.750    2.965    0.281    0.379   80.699
  457.000    2.922    0.272    0.370   77.554
  457.250    2.874    0.282    0.365   74.955
  457.500    2.704    0.305    0.363   72.417
  457.750    2.553    0.306    0.358   70.605
  458.000    2.521    0.298    0.357   68.735
  458.250    2.560    0.286    0.365   70.135
  458.500    2.679    0.269    0.368   74.991
  458.750    2.889    0.261    0.374   79.666
  459.000    3.051    0.265    0.370   83.491
  459.250    3.314    0.261    0.359   88.225
  459.500    3.703    0.240    0.350   95.384
  459.750    4.029    0.219    0.347  101.332
  460.000    4.344    0.190    0.360  104.187
  460.250    4.692    0.197    0.365  105.528
  460.500    4.929    0.201    0.361  110.687
  460.750    4.968    0.192    0.359  116.574
  461.000    4.944    0.184    0.366  120.459
  461.250    4.871    0.180    0.376  121.921
  461.500    4.157    0.178    0.387  112.958
  461.750    3.554    0.186    0.392   65.206
  462.000    3.155    0.201    0.384   40.788
  462.250    2.743    0.244    0.361   29.825
  462.500    2.449    0.289    0.350   26.136
  462.750    2.299    0.301    0.347   24.022
  463.000    2.203    0.304    0.341   22.999
  463.250    2.147    0.306    0.338   23.370
  463.500    2.113    0.293    0.340   27.983
  463.750    2.150    0.282    0.325   33.384
  464.000    2.270    0.276    0.314   42.484
  464.250    2.489    0.256    0.309   55.339
  464.500    2.953    0.192    0.384  117.105
  464.750    3.469    0.172    0.433  128.144
  465.000    4.162    0.168    0.437  129.910
  465.250    4.412    0.165    0.440  128.220
  465.500    4.481    0.160    0.447  125.681
  465.750    4.449    0.162    0.450  122.354
  466.000    4.385    0.181    0.425  107.754
  466.250    4.487    0.209    0.377   75.579
  466.500    4.540    0.219    0.347   66.010
  466.750    4.517    0.222    0.331   63.108
  467.000    4.469    0.221    0.332   63.479
  467.250    4.470    0.220    0.330   63.548
  467.500    5.844    0.133    0.332   62.281
  467.750    7.386   -0.005    0.296   50.530
  468.000    8.909   -0.018    0.237   38.779
  468.250   12.046   -0.024    0.181   32.605
  468.500   16.163   -0.024    0.159   38.370
  468.750   22.140   -0.024    0.157   44.316
  469.000   23.082   -0.018    0.184   52.870
  469.250   22.666   -0.004    0.204   57.484
  469.500   22.590    0.009    0.214   57.975
  469.750   22.519    0.020    0.201   53.983
  470.000   22.196    0.020    0.190   48.292
