~VERSION INFORMATION
 VERS.                 2.0:   CWLS LOG ASCII STANDARD -VERSION 2.0
 WRAP.                  NO:   ONE LINE PER DEPTH STEP
~WELL INFORMATION BLOCK
#MNEM.UNIT           DATA                    DESCRIPTION OF MNEMONIC
#---------    -------------------            -------------------------------
# Generated from Intellog Unique Number	CW_70_72/WELL/3001
NULL.         -999.25                        : NULL_VALUE
WELL.         NORCEN SHERRITT MITSUE 03-22   : Well_name    - WELL              
LOC .         03-22-070-02W5                 : Location     - LOCATION          
UWI .         00/03-22-070-02W5/0            : Uwi          - UNIQUE WELL ID    
ENTR.         JAYE                           : Entered      - ENTERED BY        
SRVC.         COMPUTALOG                     : Scn          - SERVICE COMPANY   
DATE.         23 FEB 84                      : Date         - LOG DATE          
STRT.M        435                            : top_depth    - START DEPTH       
STOP.M        655                            : bot_depth    - STOP DEPTH        
STEP.M        0.25                           : increment    - STEP LENGTH       
~CURVE INFORMATION BLOCK
#MNEM UNIT       ERCB CURVE CODE    CURVE DESCRIPTION
#-----------   ------------------   ----------------------------------
DEPT.M        00 001 00 00         : DEPTH        - DEPTH                       
ILD .OHMM     00 120 00 00         : RESD         - DEEP RESISTIVITY (DIL)      
CALI.MM       00 280 01 00         : CAL          - CALIPER                     
GR  .API      00 310 00 00         : GR           - GAMMA RAY                   
NPHI.V/V      00 330 00 00         : PHIN         - NEUTRON POROSITY (SANDSTONE)
DPHI.V/V      00 890 00 00         : PHID         - DENSITY POROSITY (SANDSTONE)
~PARAMETER INFORMATION       
#MNEM.UNIT           DATA             DESCRIPTION OF MNEMONIC
#---------         -----------     ------------------------------
GL  .M        597.2                : gl           - GROUND LEVEL ELEVATION      
EREF.M        600.95               : kb           - ELEVATION OF DEPTH REFERENCE
DATM.M        597.2                : datum        - DATUM ELEVATION             
TDD .M        673                  : tdd          - TOTAL DEPTH DRILLER         
RUN .         ONE                  : Run          - RUN NUMBER                  
ENG .         MACLEAN              : Engineer     - RECORDING ENGINEER          
WIT .         BOGNER/CARLSON       : Witness      - WITNESSED BY                
BASE.         EDMONTON             : Branch       - HOME BASE OF LOGGING UNIT   
MUD .         GEL CHEM             : Mud_type     - MUD TYPE                    
MATR.         SANDSTONE            : Logunit      - NEUTRON MATRIX              
TMAX.C        28                   : BHT          - MAXIMUM RECORDED TEMPERATURE
BHTD.M        671.5                : BHTDEP       - MAXIMUM RECORDED TEMPERATURE
RMT .C        19                   : MDTP         - TEMPERATURE OF MUD          
MUDD.KG/M     1120                 : MWT          - MUD DENSITY                 
NEUT.         1                    : NEUTRON      - NEUTRON TYPE                
RESI.         0                    : RESIST       - RESISTIVITY TYPE            
RM  .OHMM     3.5                  : RM           - RESISTIVITY OF MUD          
RMC .OHMM     2.8                  : RMC          - RESISTIVITY OF MUD CAKE     
RMF .OHMM     3.5                  : RMF          - RESISTIVITY OF MUD FILTRATE 
SUFT.C        5                    : SUFT         - SURFACE TEMPERATURE         
~A  DEPTH     RESD      CAL       GR     PHIN     PHID
# ...
  508.000    1.963  194.833   55.721    0.387    0.319
  508.250    2.016  196.563   56.206    0.373    0.319
  508.500    2.058  199.870   58.746    0.383    0.312
  508.750    2.110  200.272   58.671    0.394    0.309
  509.000    2.150  199.819   57.902    0.401    0.308
  509.250    2.196  200.096   57.323    0.393    0.313
  509.500    2.259  200.809   57.300    0.387    0.317
  509.750    2.360  200.153   58.289    0.396    0.309
  510.000    2.451  198.658   62.467    0.385    0.300
  510.250    2.575  196.239   61.506    0.383    0.311
  510.500    2.664  194.645   62.240    0.397    0.332
  510.750    2.820  193.887   65.222    0.401    0.309
  511.000    2.896  195.945   68.776    0.389    0.281
  511.250    2.968  198.409   71.072    0.371    0.264
  511.500    2.991  200.149   74.871    0.349    0.236
  511.750    2.986  201.369   81.854    0.348    0.209
  512.000    2.892  203.122   87.907    0.364    0.210
  512.250    2.770  204.962   92.452    0.382    0.213
  512.500    2.678  208.896   96.381    0.402    0.206
  512.750    2.613  212.734  100.049    0.427    0.197
  513.000    2.550  215.728  105.538    0.462    0.206
  513.250    2.494  218.735  112.214    0.459    0.218
  513.500    2.448  220.249  108.633    0.433    0.206
  513.750    2.425  219.503  100.799    0.410    0.187
  514.000    2.412  215.395   94.146    0.391    0.173
  514.250    2.394  207.027   96.378    0.381    0.225
  514.500    2.350  197.820  100.741    0.391    0.255
  514.750    2.350  188.423   92.279    0.400    0.273
  515.000    2.450  188.603   78.185    0.403    0.279
  515.250    2.861  192.730   71.039    0.393    0.284
  515.500    3.315  197.015   69.456    0.360    0.278
  515.750    3.692  198.205   68.124    0.310    0.239
  516.000    3.834  200.053   65.231    0.290    0.198
  516.250    3.644  202.018   66.776    0.344    0.205
  516.500    3.206  203.134   73.143    0.367    0.217
  516.750    2.863  204.444   82.755    0.398    0.223
  517.000    2.753  207.959   88.183    0.419    0.219
  517.250    3.048  210.013   85.040    0.388    0.216
  517.500    3.257  211.355   83.334    0.381    0.213
  517.750    3.467  211.835   84.627    0.375    0.207
  518.000    3.580  212.218   82.424    0.362    0.185
  518.250    3.768  211.987   81.274    0.341    0.158
  518.500    3.841  211.852   81.329    0.376    0.182
  518.750    3.834  212.030   83.377    0.375    0.188
  519.000    3.806  211.684   85.479    0.370    0.178
  519.250    3.764  211.555   89.401    0.362    0.167
  519.500    3.758  211.642   95.141    0.378    0.154
  519.750    3.758  211.912   99.624    0.391    0.160
  520.000    3.759  211.580  103.360    0.387    0.156
  520.250    3.773  211.749   99.470    0.380    0.143
  520.500    3.781  211.429   98.135    0.378    0.132
  520.750    3.746  211.605   97.993    0.392    0.135
  521.000    3.740  211.461   99.600    0.403    0.143
  521.250    3.734  211.860  103.588    0.400    0.148
  521.500    3.713  211.943  107.764    0.399    0.153
  521.750    3.700  211.905  107.868    0.393    0.151
  522.000    3.659  211.561  107.230    0.383    0.148
  522.250    3.639  211.316  107.465    0.361    0.142
  522.500    3.565  211.176  106.501    0.353    0.143
  522.750    3.552  210.542  101.918    0.371    0.139
  523.000    3.526  210.593   97.961    0.387    0.140
  523.250    3.474  210.879   97.572    0.402    0.151
  523.500    3.396  210.951   97.863    0.375    0.151
  523.750    3.277  211.654   96.721    0.354    0.132
  524.000    3.139  212.250   97.518    0.380    0.122
  524.250    3.040  212.644  101.690    0.415    0.149
  524.500    2.922  212.930  109.176    0.433    0.189
  524.750    2.841  212.788  113.418    0.407    0.204
  525.000    2.869  209.637   96.130    0.400    0.193
  525.250    3.100  205.334   86.987    0.385    0.182
  525.500    3.459  201.546   82.840    0.350    0.195
  525.750    3.773  200.578   87.949    0.375    0.202
  526.000    4.132  202.636   93.000    0.392    0.193
  526.250    4.243  205.736   84.226    0.368    0.166
  526.500    4.110  208.420   78.952    0.348    0.139
  526.750    3.929  209.331   86.884    0.348    0.090
  527.000    3.777  210.034   93.805    0.374    0.104
  527.250    3.672  210.523  102.357    0.397    0.155
  527.500    3.728  210.804  106.216    0.409    0.163
  527.750    3.771  210.457  109.888    0.421    0.169
  528.000    3.626  209.711  100.804    0.447    0.180
  528.250    3.401  209.167   87.400    0.442    0.187
  528.500    3.282  208.091   82.374    0.419    0.174
  528.750    3.191  206.704   87.615    0.413    0.160
  529.000    3.067  205.639   93.352    0.408    0.178
  529.250    2.926  204.565   86.703    0.396    0.204
  529.500    2.776  203.498   86.819    0.380    0.234
  529.750    2.751  202.623   87.361    0.398    0.258
  530.000    2.814  201.447   85.465    0.379    0.269
  530.250    3.076  200.272   83.199    0.359    0.265
  530.500    3.262  199.300   80.551    0.353    0.250
  530.750    3.407  198.652   76.214    0.359    0.230
  531.000    3.446  198.216   75.884    0.360    0.221
  531.250    3.421  197.974   78.806    0.356    0.212
  531.500    3.332  197.733   78.791    0.347    0.202
  531.750    3.132  198.230   78.027    0.346    0.220
  532.000    3.039  198.499   79.066    0.360    0.227
  532.250    2.983  198.786   81.430    0.370    0.224
  532.500    2.978  199.396   81.909    0.376    0.216
  532.750    3.012  199.661   80.586    0.381    0.229
  533.000    3.058  199.643   78.935    0.389    0.254
  533.250    3.201  200.152   76.165    0.381    0.256
  533.500    3.498  200.513   78.898    0.370    0.248
  533.750    3.613  201.019   81.135    0.366    0.231
  534.000    3.717  201.502   76.117    0.380    0.232
  534.250    3.774  201.587   69.594    0.369    0.238
  534.500    3.927  201.978   62.879    0.345    0.187
  534.750    4.300  202.893   68.493    0.317    0.158
  535.000    4.753  203.479   77.606    0.351    0.186
  535.250    5.264  204.374   87.222    0.377    0.234
  535.500    6.134  205.418   78.326    0.339    0.177
  535.750    6.419  205.888   70.616    0.254    0.166
  536.000    5.679  206.387   65.528    0.241    0.083
  536.250    4.677  206.246   66.390    0.247    0.083
  536.500    4.154  204.856   72.561    0.293    0.142
  536.750    3.600  201.941   79.618    0.321    0.215
  537.000    3.326  200.325   78.721    0.355    0.238
  537.250    3.302  198.044   71.882    0.367    0.233
  537.500    3.481  197.864   75.184    0.367    0.228
  537.750    3.678  197.523   78.357    0.360    0.233
  538.000    3.805  197.804   75.338    0.362    0.225
  538.250    3.871  198.920   70.822    0.377    0.214
  538.500    3.814  202.126   72.421    0.370    0.221
  538.750    3.694  205.534   75.406    0.368    0.229
  539.000    3.491  203.730   76.954    0.373    0.231
  539.250    3.256  200.166   78.129    0.375    0.230
  539.500    3.107  197.115   80.800    0.371    0.229
  539.750    2.992  195.000   83.908    0.360    0.225
  540.000    2.959  193.204   89.899    0.347    0.214
  540.250    3.016  192.535   90.130    0.354    0.220
  540.500    3.186  191.584   87.237    0.372    0.228
  540.750    3.509  191.435   86.402    0.393    0.234
  541.000    3.806  191.531   86.705    0.388    0.240
  541.250    4.113  191.793   86.748    0.383    0.247
  541.500    4.288  193.125   86.108    0.376    0.244
  541.750    4.200  195.593   84.956    0.370    0.236
  542.000    3.970  197.031   82.624    0.364    0.227
  542.250    3.824  197.230   77.856    0.365    0.216
  542.500    3.810  197.391   78.272    0.374    0.199
  542.750    4.010  197.568   81.444    0.388    0.208
  543.000    4.220  199.421   82.740    0.383    0.211
  543.250    4.603  202.103   80.596    0.374    0.199
  543.500    5.294  204.051   76.454    0.359    0.182
  543.750    5.852  201.826   72.241    0.344    0.163
  544.000    6.287  198.882   69.102    0.333    0.152
  544.250    6.872  198.745   70.518    0.336    0.143
