~VERSION INFORMATION
 VERS.                 2.0:   CWLS LOG ASCII STANDARD -VERSION 2.0
 WRAP.                  NO:   ONE LINE PER DEPTH STEP
~WELL INFORMATION BLOCK
#MNEM.UNIT           DATA                    DESCRIPTION OF MNEMONIC
#---------    -------------------            -------------------------------
# Generated from Intellog Unique Number	CX_WELLS/WELL/3976
WELL.         HOL BVX UNIGAS LYLE            : Well_name    - WELL
LOC .         00/06-34-071-16W4/0            : Location     - LOCATION
UWI .         00/06-34-071-16W4/0            : Uwi          - UNIQUE WELL ID
ENTR.         TIM                            : Entered      - ENTERED BY
SRVC.         SCHLUMBERGER                   : Scn          - SERVICE COMPANY
DATE.         04/14/92                       : Date         - LOG DATE
STRT.M        289.56                         : top_depth    - START DEPTH
STOP.M        484.56                         : bot_depth    - STOP DEPTH
STEP.M        0.25                           : increment    - STEP LENGTH
 NULL. -999.2500:NULL Value
~CURVE INFORMATION BLOCK
#MNEM UNIT       ERCB CURVE CODE    CURVE DESCRIPTION
#-----------   ------------------   ----------------------------------
DEPT.M        00 001 00 00         : DEPTH        - DEPTH
GR  .API      00 310 00 00         : GR           - GAMMA RAY
NPHI.V/V      00 330 00 00         : PHIN         - NEUTRON POROSITY (SANDSTONE)
ILD .OHMM     00 120 00 00         : RESD         - DEEP RESISTIVITY (DIL)
~PARAMETER INFORMATION
#MNEM.UNIT           DATA             DESCRIPTION OF MNEMONIC
#---------         -----------     ------------------------------
GL  .M        594.055              : gl           - GROUND LEVEL ELEVATION
EREF.M        596.189              : kb           - ELEVATION OF DEPTH REFERENCE
DATM.M        596.189              : datum        - DATUM ELEVATION
TDD .M        486.461              : tdd          - TOTAL DEPTH DRILLER
RUN .         ONE                  : Run          - RUN NUMBER
ENG .         JO                   : Engineer     - RECORDING ENGINEER
WIT .         TIM                  : Witness      - WITNESSED BY
MUD .         GEL                  : Mud_type     - MUD TYPE
MATR.         SANDSTONE            : Logunit      - NEUTRON MATRIX
TMAX.C        26.6667              : BHT          - MAXIMUM RECORDED TEMPERATURE
BHTD.M        486.156              : BHTDEP       - MAXIMUM RECORDED TEMPERATURE
RMT .C        25.5556              : MDTP         - TEMPERATURE OF MUD
MUDD.KG/M     9100                 : MWT          - MUD DENSITY
NEUT.         1                    : NEUTRON      - NEUTRON TYPE
RESI.         0                    : RESIST       - RESISTIVITY TYPE
RM  .OHMM     3.8                  : RM           - RESISTIVITY OF MUD
RMC .OHMM     3.74                 : RMC          - RESISTIVITY OF MUD CAKE
RMF .OHMM     3.74                 : RMF          - RESISTIVITY OF MUD FILTRATE
SUFT.C        4                    : SUFT         - SURFACE TEMPERATURE
~A  DEPTH       GR     PHIN     RESD
  289.560   93.555    0.455    4.209
  289.810   92.960    0.447    4.455
  290.060   92.972    0.433    4.805
  290.310   92.987    0.426    4.992
  290.560   90.569    0.439    5.188
  290.810   88.152    0.458    5.289
  291.060   85.129    0.459    5.395
  291.310   84.537    0.454    5.606
  291.560   84.543    0.452    5.717
  291.810   85.163    0.454    5.828
  292.060   87.001    0.455    5.834
  292.310   88.228    0.455    5.950
  292.560   90.062    0.461    5.954
  292.810   90.682    0.467    5.961
  293.060   91.302    0.463    5.857
  293.310   91.921    0.438    5.861
  293.560   89.500    0.436    5.868
  293.810   85.269    0.448    5.763
  294.060   83.453    0.464    5.769
  294.310   79.213    0.478    5.670
  294.560   74.972    0.490    5.674
  294.810   70.125    0.479    5.680
  295.060   68.922    0.465    5.684
  295.310   78.046    0.460    5.689
  295.560   81.706    0.471    5.803
  295.810   76.248    0.486    5.807
  296.060   67.148    0.504    5.394
  296.310   58.048    0.541    4.481
  296.560   48.340    0.520    3.792
  296.810   41.066    0.525    3.523
  297.060   42.293    0.529    3.527
  297.310   45.343    0.528    3.663
  297.560   47.174    0.531    3.805
  297.810   52.046    0.533    4.106
  298.060   61.781    0.538    4.265
  298.310   70.906    0.570    4.515
  298.560   79.425    0.629    4.518
  298.810   81.868    0.659    4.610
  299.060   83.092    0.646    4.613
  299.310   84.929    0.643    4.448
  299.560   86.761    0.653    4.451
  299.810   90.421    0.663    4.213
  300.060   96.511    0.649    4.063
  300.310  101.380    0.648    3.917
  300.560   97.140    0.655    3.778
  300.810   89.862    0.677    3.783
  301.060   95.949    0.666    3.715
  301.310  105.681    0.627    3.718
  301.560  109.948    0.597    3.653
  301.810  108.746    0.530    3.458
  302.060  109.365    0.572    3.273
  302.310  111.200    0.512    3.155
  302.560  109.997    0.514    3.042
  302.810  107.579    0.568    3.470
  303.060  105.161    0.502    4.109
  303.310   96.061    0.479    4.864
  303.560  100.936    0.482    5.549
  303.810   99.123    0.484    5.876
  304.060   93.668    0.485    5.878
  304.310   86.390    0.485    5.884
  304.560   77.290    0.484    5.570
  304.810   68.190    0.473    5.271
  305.060   65.772    0.477    5.181
  305.310   71.859    0.494    5.087
  305.560   79.769    0.497    4.999
  305.810   87.071    0.492    4.821
  306.060   93.158    0.477    4.735
  306.310   95.606    0.472    4.652
  306.560   96.226    0.491    4.571
  306.810   93.805    0.515    4.491
  307.060   81.667    0.510    4.496
  307.310   82.894    0.496    4.583
  307.560   85.337    0.479    4.851
  307.810   79.881    0.478    5.331
  308.060   73.819    0.488    5.751
  308.310   69.585    0.487    5.865
  308.560   68.376    0.476    5.868
  308.810   69.606    0.471    5.769
  309.060   72.045    0.475    5.770
  309.310   76.309    0.485    5.775
  309.560   79.359    0.493    5.676
  309.810   86.056    0.497    5.681
  310.060   95.181    0.493    5.581
  310.310  100.660    0.489    5.586
  310.560  103.102    0.480    5.590
  310.810  102.510    0.471    5.595
  311.060  100.092    0.453    5.601
  311.310   95.852    0.447    5.608
  311.560   93.434    0.446    5.612
  311.810   94.054    0.454    5.617
  312.060  100.138    0.465    5.729
  312.310  112.306    0.472    5.733
  312.560  115.960    0.460    5.959
  312.810  117.797    0.459    5.966
  313.060  110.517    0.473    6.082
  313.310   98.987    0.488    6.088
  313.560   89.279    0.493    6.094
  313.810   87.469    0.454    6.099
  314.060   95.986    0.440    6.103
  314.310  103.895    0.431    6.110
  314.560  108.163    0.426    6.232
  314.810  104.530    0.423    6.237
  315.060  107.577    0.415    6.014
  315.310  111.841    0.407    5.381
  315.560  113.071    0.396    4.639
  315.810  111.869    0.403    4.392
  316.060  106.413    0.427    4.315
  316.310   90.027    0.451    4.318
  316.560   85.176    0.456    4.405
  316.810   79.113    0.466    4.575
  317.060   77.306    0.479    4.665
  317.310   77.315    0.492    4.940
  317.560   77.938    0.504    4.943
  317.810   78.554    0.498    5.135
  318.060   80.996    0.487    5.239
  318.310   87.083    0.486    5.244
  318.560   94.993    0.491    5.250
  318.810   90.756    0.498    5.252
  319.060   88.335    0.494    5.160
  319.310   92.602    0.482    5.166
  319.560   93.833    0.479    5.073
  319.810   88.374    0.489    5.079
  320.060   80.489    0.506    5.378
  320.310   73.819    0.512    5.588
  320.560   67.757    0.505    5.698
  320.810   65.949    0.499    5.703
  321.060   65.354    0.499    5.814
  321.310   64.151    0.500    5.821
  321.560   62.948    0.504    5.826
  321.810   62.961    0.505    5.942
  322.060   63.580    0.504    5.949
  322.310   66.022    0.502    5.953
  322.560   67.854    0.500    5.957
  322.810   71.511    0.497    5.965
  323.060   75.781    0.497    5.862
  323.310   79.435    0.496    5.756
  323.560   82.485    0.493    5.656
  323.810   85.534    0.477    5.660
  324.060   87.369    0.460    5.561
  324.310   94.064    0.430    5.465
  324.560   98.331    0.424    5.470
  324.810   95.910    0.447    5.373
  325.060   93.496    0.458    5.279
  325.310   94.112    0.453    5.285
  325.560   92.302    0.461    5.288
  325.810   88.672    0.473    5.195
  326.060   82.002    0.483    5.199
  326.310   76.547    0.491    5.304
  326.560   73.522    0.503    5.409
  326.810   71.711    0.503    5.515
  327.060   72.331    0.498    5.519
  327.310   77.203    0.493    5.631
  327.560   83.897    0.486    5.741
  327.810   88.769    0.476    5.640
  328.060   93.648    0.464    5.239
  328.310   94.872    0.467    4.866
  328.560   94.276    0.467    4.437
  328.810   93.684    0.468    4.199
  329.060   93.699    0.469    4.204
  329.310   93.705    0.473    4.286
  329.560   93.721    0.474    4.453
  329.810   93.730    0.473    4.805
  330.060   93.137    0.470    5.086
  330.310   92.539    0.468    5.283
  330.560   90.121    0.469    5.593
  330.810   85.884    0.469    5.922
  331.060   88.931    0.469    6.150
  331.310   91.983    0.466    6.391
  331.560   88.347    0.466    6.397
  331.810   83.500    0.474    6.168
  332.060   77.437    0.489    5.839
  332.310   70.767    0.507    5.631
  332.560   61.059    0.532    5.531
  332.810   53.782    0.546    5.432
  333.060   52.579    0.543    5.240
  333.310   51.382    0.537    5.149
  333.560   51.394    0.534    5.057
  333.810   52.014    0.537    5.062
  334.060   52.023    0.541    5.067
  334.310   48.998    0.545    5.070
  334.560   45.976    0.553    5.076
  334.810   46.595    0.555    5.082
  335.060   47.212    0.556    5.085
  335.310   49.053    0.556    5.188
  335.560   50.277    0.556    5.190
  335.810   51.501    0.550    5.197
  336.060   53.946    0.540    5.199
  336.310   55.787    0.533    5.205
  336.560   56.403    0.533    5.210
  336.810   55.808    0.538    5.118
  337.060   55.209    0.540    5.029
  337.310   54.010    0.541    5.033
  337.560   53.414    0.539    5.040
  337.810   54.645    0.537    5.042
  338.060   55.258    0.537    5.049
  338.310   56.485    0.541    5.053
  338.560   56.498    0.546    5.058
  338.810   56.513    0.549    5.064
  339.060   56.522    0.548    4.972
  339.310   56.534    0.545    4.977
  339.560   56.549    0.539    4.889
  339.810   56.567    0.539    4.804
  340.060   56.580    0.546    4.809
  340.310   56.586    0.548    4.814
  340.560   56.601    0.551    4.818
  340.810   56.613    0.551    4.822
  341.060   56.625    0.549    4.739
  341.310   56.634    0.547    4.741
  341.560   56.042    0.545    4.659
  341.810   54.839    0.543    4.665
  342.060   53.633    0.542    4.668
  342.310   53.041    0.541    4.672
  342.560   53.053    0.541    4.677
  342.810   56.106    0.537    4.594
  343.060   58.548    0.532    4.598
  343.310   59.167    0.529    4.603
  343.560   60.395    0.518    4.525
