~VERSION INFORMATION
 VERS.                 2.0:   CWLS LOG ASCII STANDARD -VERSION 2.0
 WRAP.                  NO:   ONE LINE PER DEPTH STEP
~WELL INFORMATION BLOCK
#MNEM.UNIT           DATA                    DESCRIPTION OF MNEMONIC
#---------    -------------------            -------------------------------
# Generated from Intellog Unique Number	CS_77_79/WELL/3264
WELL.         NUMAC OIL & GAS LTD.           : Well_name    - WELL
LOC .         00/01-12-079-14W4/0            : Location     - LOCATION
UWI .         00/01-12-079-14W4/0            : Uwi          - UNIQUE WELL ID
ENTR.         JOETTE                         : Entered      - ENTERED BY
SRVC.         SCHLUMBERGER                   : Scn          - SERVICE COMPANY
DATE.         08/24/92                       : Date         - LOG DATE
STRT.M        280                            : top_depth    - START DEPTH
STOP.M        510                            : bot_depth    - STOP DEPTH
STEP.M        0.25                           : increment    - STEP LENGTH
 NULL. -999.2500:NULL Value
~CURVE INFORMATION BLOCK
#MNEM UNIT       ERCB CURVE CODE    CURVE DESCRIPTION
#-----------   ------------------   ----------------------------------
DEPT.M        00 001 00 00         : DEPTH        - DEPTH
ILD .OHMM     00 120 00 00         : RESD         - DEEP RESISTIVITY (DIL)
DPHI.V/V      00 890 00 00         : PHID         - DENSITY POROSITY (SANDSTONE)
NPHI.V/V      00 330 00 00         : PHIN         - NEUTRON POROSITY (SANDSTONE)
GR  .API      00 310 00 00         : GR           - GAMMA RAY
~PARAMETER INFORMATION
#MNEM.UNIT           DATA             DESCRIPTION OF MNEMONIC
#---------         -----------     ------------------------------
GL  .M        688.6                : gl           - GROUND LEVEL ELEVATION
EREF.M        692.05               : kb           - ELEVATION OF DEPTH REFERENCE
DATM.M        692.05               : datum        - DATUM ELEVATION
TDD .M        521                  : tdd          - TOTAL DEPTH DRILLER
RUN .         ONE                  : Run          - RUN NUMBER
ENG .         BILL                 : Engineer     - RECORDING ENGINEER
WIT .         JIM                  : Witness      - WITNESSED BY
MUD .         GEL                  : Mud_type     - MUD TYPE
MATR.         SANDSTONE            : Logunit      - NEUTRON MATRIX
TMAX.C        34                   : BHT          - MAXIMUM RECORDED TEMPERATURE
BHTD.M        521                  : BHTDEP       - MAXIMUM RECORDED TEMPERATURE
RMT .C        22.1                 : MDTP         - TEMPERATURE OF MUD
MUDD.KG/M     1070                 : MWT          - MUD DENSITY
NEUT.         1                    : NEUTRON      - NEUTRON TYPE
RESI.         0                    : RESIST       - RESISTIVITY TYPE
RM  .OHMM     3.4                  : RM           - RESISTIVITY OF MUD
RMC .OHMM     5.1                  : RMC          - RESISTIVITY OF MUD CAKE
RMF .OHMM     2.8                  : RMF          - RESISTIVITY OF MUD FILTRATE
SUFT.C        4                    : SUFT         - SURFACE TEMPERATURE
~A  DEPTH     RESD     PHID     PHIN       GR
# ...
  454.000   10.744    0.178    0.347   66.933
  454.250   10.757    0.171    0.373   72.442
  454.500   10.378    0.236    0.382   80.985
  454.750   10.198    0.232    0.375   81.637
  455.000   10.207    0.238    0.374   72.576
  455.250   10.811    0.242    0.397   77.478
  455.500   12.340    0.250    0.426   88.461
  455.750   14.357    0.249    0.443   98.826
  456.000   15.781    0.205    0.454  117.701
  456.250   18.707    0.263    0.425  111.068
  456.500   23.016    0.256    0.398  101.996
  456.750   28.316    0.238    0.382   89.292
  457.000   27.309    0.235    0.361   79.017
  457.250   23.991    0.237    0.338   81.490
  457.500   21.467    0.316    0.349   87.606
  457.750   18.859    0.251    0.368   91.900
  458.000   18.182    0.235    0.380   96.206
  458.250   17.536    0.223    0.387   93.226
  458.500   18.572    0.213    0.392   90.832
  458.750   19.664    0.208    0.387   84.188
  459.000   22.870    0.203    0.381   77.566
  459.250   25.147    0.188    0.374   79.421
  459.500   28.705    0.164    0.367   77.667
  459.750   31.581    0.135    0.361   76.475
  460.000   29.347    0.299    0.332   69.843
  460.250   27.246    0.251    0.334   71.102
  460.500   23.048    0.224    0.359   80.263
  460.750   20.618    0.214    0.368   85.165
  461.000   19.153    0.203    0.380   87.638
  461.250   18.827    0.189    0.368   92.551
  461.500   19.207    0.198    0.374   94.405
  461.750   17.848    0.194    0.380   88.380
  462.000   16.575    0.171    0.386   95.102
  462.250   15.393    0.167    0.392  103.668
  462.500   16.313    0.171    0.394  103.702
  462.750   17.931    0.194    0.372   89.773
  463.000   20.095    0.197    0.349   87.412
  463.250   21.678    0.208    0.344   87.457
  463.500   23.401    0.217    0.340   85.063
  463.750   24.317    0.217    0.332   75.990
  464.000   24.369    0.221    0.321   77.856
  464.250   23.939    0.231    0.329   83.376
  464.500   23.081    0.243    0.338   88.277
  464.750   22.674    0.238    0.348   91.369
  465.000   22.280    0.211    0.359   88.367
  465.250   23.160    0.209    0.351   81.734
  465.500   24.536    0.200    0.342   73.280
  465.750   24.110    0.225    0.322   71.504
  466.000   22.822    0.253    0.322   74.584
  466.250   20.807    0.263    0.328   78.294
  466.500   19.695    0.236    0.327   78.923
  466.750   20.859    0.225    0.322   75.944
  467.000   22.935    0.223    0.315   79.013
  467.250   26.180    0.239    0.307   80.272
  467.500   34.071    0.232    0.293   74.853
  467.750   41.917    0.227    0.290   67.007
  468.000   42.789    0.239    0.311   60.374
  468.250   39.762    0.228    0.304   59.216
  468.500   39.048    0.320    0.314   61.678
  468.750   39.836    0.313    0.327   58.080
  469.000   42.191    0.367    0.327   61.767
  469.250   39.935    0.360    0.354   70.918
  469.500   40.766    0.327    0.365   66.713
  469.750   41.575    0.295    0.358   64.330
  470.000   40.108    0.301    0.273   70.468
  470.250   38.658    0.324    0.306   73.548
  470.500   38.706    0.325    0.311   75.414
  470.750   39.486    0.323    0.286   73.638
  471.000   39.535    0.319    0.280   72.457
  471.250   37.422    0.296    0.287   71.895
  471.500   35.421    0.284    0.296   73.761
  471.750   31.695    0.288    0.299   75.627
  472.000   26.314    0.303    0.285   74.458
  472.250   26.854    0.299    0.276   73.289
  472.500   36.270    0.291    0.305   73.941
  472.750   55.885    0.282    0.354   72.772
  473.000   75.551    0.471    0.351   60.068
  473.250   72.841    0.488    0.329   64.362
  473.500   65.160    0.462    0.148   68.668
  473.750   55.120    0.426    0.188   66.892
  474.000   43.263    0.382    0.214   65.711
  474.250   37.301    0.360    0.243   64.553
  474.500   38.760    0.346    0.227   63.384
  474.750   50.443    0.274    0.206   62.822
  475.000   70.753    0.297    0.207   60.438
  475.250   69.526    0.328    0.234   58.044
  475.500   47.864    0.342    0.236   56.874
  475.750   55.670    0.323    0.240   56.931
  476.000   90.734    0.292    0.212   53.333
  476.250   90.902    0.251    0.203   50.343
  476.500   85.989    0.335    0.180   53.423
  476.750   67.490    0.396    0.166   57.110
  477.000   56.033    0.422    0.170   58.380
  477.250   45.643    0.392    0.198   57.211
  477.500   46.593    0.381    0.242   54.828
  477.750   46.636    0.291    0.268   53.051
  478.000   43.350    0.325    0.234   55.513
  478.250   41.782    0.328    0.226   61.022
  478.500   37.399    0.255    0.254   65.934
  478.750   34.732    0.247    0.276   64.147
  479.000   31.677    0.286    0.282   56.907
  479.250   34.829    0.315    0.249   55.130
  479.500   38.296    0.331    0.236   57.008
  479.750   44.541    0.305    0.228   60.088
  480.000   39.844    0.260    0.285   65.596
  480.250   33.090    0.246    0.297   64.438
  480.500   47.291    0.313    0.264   60.223
  480.750   49.141    0.292    0.239   56.018
  481.000   55.071    0.268    0.226   51.813
  481.250   65.283    0.263    0.214   51.858
  481.500   70.427    0.241    0.208   51.296
  481.750   76.023    0.235    0.203   49.520
  482.000   64.290    0.224    0.195   50.172
  482.250   49.523    0.202    0.207   58.108
  482.500   41.880    0.277    0.239   64.842
  482.750   34.136    0.266    0.283   67.934
  483.000   32.911    0.256    0.319   69.181
  483.250   31.751    0.258    0.342   70.452
  483.500   33.638    0.253    0.337   69.889
  483.750   36.299    0.245    0.326   66.899
  484.000   39.912    0.273    0.321   63.290
  484.250   43.885    0.295    0.326   59.086
  484.500   45.630    0.261    0.346   56.702
  484.750   45.659    0.250    0.351   53.116
  485.000   46.579    0.255    0.352   53.757
  485.250   47.519    0.248    0.345   56.241
  485.500   51.295    0.243    0.333   57.511
  485.750   55.337    0.302    0.326   56.927
  486.000   64.380    0.343    0.189   53.936
  486.250   87.010    0.358    0.175   49.732
  486.500   93.865    0.383    0.185   46.741
  486.750  103.208    0.391    0.193   46.190
  487.000  115.625    0.408    0.205   48.045
  487.250  124.775    0.355    0.200   48.101
  487.500  127.291    0.421    0.170   43.278
  487.750  109.749    0.425    0.166   38.478
  488.000   92.811    0.418    0.155   40.951
  488.250   75.672    0.404    0.180   40.996
  488.500   78.609    0.369    0.286   37.994
  488.750   91.457    0.335    0.317   33.194
  489.000  130.787    0.326    0.330   30.810
  489.250  135.863    0.318    0.348   32.676
  489.500  146.613    0.313    0.369   35.138
  489.750  155.279    0.317    0.393   37.016
  490.000  138.947    0.321    0.390   38.275
  490.250  113.218    0.318    0.385   40.748
  490.500  107.165    0.312    0.384   43.243
  490.750  124.641    0.310    0.386   42.659
  491.000  171.582    0.308    0.401   42.704
  491.250  279.742    0.305    0.396   45.199
  491.500  296.184    0.307    0.398   46.436
  491.750  296.551    0.315    0.409   41.624
  492.000  270.461    0.324    0.414   38.027
  492.250  233.044    0.323    0.413   36.250
  492.500  193.481    0.318    0.413   35.688
  492.750  166.766    0.319    0.408   35.733
  493.000  141.116    0.319    0.403   34.564
  493.250  131.093    0.317    0.403   34.609
  493.500  126.430    0.318    0.406   40.117
  493.750  136.434    0.321    0.402   40.173
  494.000  167.802    0.319    0.408   38.386
  494.250  218.445    0.323    0.415   36.002
  494.500  210.610    0.324    0.413   34.833
  494.750  192.021    0.321    0.410   36.699
  495.000  168.636    0.323    0.410   36.755
  495.250  142.698    0.325    0.407   34.394
  495.500  125.281    0.324    0.407   34.416
  495.750  112.104    0.321    0.407   35.069
  496.000   91.346    0.319    0.407   39.981
  496.250   73.050    0.314    0.405   41.229
  496.500   64.154    0.309    0.402   37.035
  496.750   55.313    0.319    0.395   38.294
  497.000   50.431    0.316    0.392   35.293
  497.250   41.843    0.308    0.386   31.706
