~VERSION INFORMATION
 VERS.                 2.0:   CWLS LOG ASCII STANDARD -VERSION 2.0
 WRAP.                  NO:   ONE LINE PER DEPTH STEP
~WELL INFORMATION BLOCK
#MNEM.UNIT           DATA                    DESCRIPTION OF MNEMONIC
#---------    -------------------            -------------------------------
# Generated from Intellog Unique Number	CS_77_79/WELL/866
WELL.         GULF LEISMER                   : Well_name    - WELL
LOC .         00/06-03-079-09W4/0            : Location     - LOCATION
UWI .         00/06-03-079-09W4/0            : Uwi          - UNIQUE WELL ID
ENTR.         JHS                            : Entered      - ENTERED BY
SRVC.         SCHLUMBERGER                   : Scn          - SERVICE COMPANY
STRT.M        182.88                         : top_depth    - START DEPTH
STOP.M        447.88                         : bot_depth    - STOP DEPTH
STEP.M        0.25                           : increment    - STEP LENGTH
 NULL. -999.2500:NULL Value
~CURVE INFORMATION BLOCK
#MNEM UNIT       ERCB CURVE CODE    CURVE DESCRIPTION
#-----------   ------------------   ----------------------------------
DEPT.M        00 001 00 00         : DEPTH        - DEPTH
GR  .API      00 310 00 00         : GR           - GAMMA RAY
DPHI.V/V      00 890 00 00         : PHID         - DENSITY POROSITY (SANDSTONE)
NPHI.V/V      00 330 00 00         : PHIN         - NEUTRON POROSITY (SANDSTONE)
ILD .OHMM     00 120 00 00         : RESD         - DEEP RESISTIVITY (DIL)
~PARAMETER INFORMATION
#MNEM.UNIT           DATA             DESCRIPTION OF MNEMONIC
#---------         -----------     ------------------------------
GL  .M        654.71               : gl           - GROUND LEVEL ELEVATION
EREF.M        658.368              : kb           - ELEVATION OF DEPTH REFERENCE
DATM.M        658.368              : datum        - DATUM ELEVATION
TDD .M        449.275              : tdd          - TOTAL DEPTH DRILLER
RUN .         ONE                  : Run          - RUN NUMBER
ENG .         BILL                 : Engineer     - RECORDING ENGINEER
WIT .         JIM                  : Witness      - WITNESSED BY
MUD .         GEL                  : Mud_type     - MUD TYPE
MATR.         SANDSTONE            : Logunit      - NEUTRON MATRIX
TMAX.C        23.3333              : BHT          - MAXIMUM RECORDED TEMPERATURE
BHTD.M        449.275              : BHTDEP       - MAXIMUM RECORDED TEMPERATURE
MATR.         1                    : LOGUNIT      - NEUTRON MATRIX
RMT .C        25                   : MDTP         - TEMPERATURE OF MUD
NEUT.         1                    : NEUTRON      - NEUTRON TYPE
RESI.         0                    : RESIST       - RESISTIVITY TYPE
RMC .OHMM     0.25                 : RMC          - RESISTIVITY OF MUD CAKE
RMF .OHMM     0.25                 : RMF          - RESISTIVITY OF MUD FILTRATE
SUFT.C        15                   : SUFT         - SURFACE TEMPERATURE
~A  DEPTH       GR     PHID     PHIN     RESD
  182.880   53.050    0.283    0.414    9.225
  183.130   53.129    0.296    0.431    7.916
  183.380   52.391    0.310    0.451    6.266
  183.630   52.449    0.336    0.461    5.032
  183.880   52.081    0.318    0.453    4.778
  184.130   51.687    0.304    0.427    5.129
  184.380   50.103    0.321    0.409    5.537
  184.630   49.124    0.341    0.390    5.609
  184.880   48.129    0.366    0.379    5.123
  185.130   47.525    0.361    0.362    4.416
  185.380   48.264    0.364    0.360    4.264
  185.630   48.898    0.354    0.385    4.312
  185.880   51.959    0.331    0.405    4.579
  186.130   55.139    0.315    0.387    5.002
  186.380   57.964    0.301    0.386    5.388
  186.630   59.756    0.303    0.389    5.389
  186.880   59.171    0.319    0.386    5.394
  187.130   59.197    0.314    0.379    5.396
  187.380   59.791    0.309    0.379    5.397
  187.630   61.208    0.303    0.370    5.720
  187.880   63.046    0.284    0.359    7.867
  188.130   68.132    0.273    0.355   12.659
  188.380   79.482    0.247    0.363   14.610
  188.630   94.616    0.270    0.386   17.606
  188.880  106.040    0.323    0.513   19.678
  189.130  111.109    0.352    0.538   10.739
  189.380  113.437    0.384    0.550    3.571
  189.630  116.031    0.445    0.546    2.038
  189.880  113.779    0.510    0.565    4.722
  190.130  107.298    0.578    0.588    4.920
  190.380  106.070    0.608    0.610    4.959
  190.630  107.730    0.544    0.613    6.074
  190.880  104.898    0.423    0.538    6.557
  191.130  104.445    0.459    0.590    6.383
  191.380  104.493    0.416    0.606    6.183
  191.630  103.787    0.391    0.591    6.082
  191.880  106.937    0.400    0.566    6.429
  192.130  105.880    0.394    0.567    6.637
  192.380  104.227    0.385    0.583    6.663
  192.630  106.245    0.399    0.609    6.672
  192.880  107.651    0.413    0.615    6.540
  193.130  105.704    0.412    0.604    6.561
  193.380  102.752    0.396    0.564    6.342
  193.630  100.612    0.391    0.547    5.955
  193.880   96.096    0.415    0.545    5.733
  194.130   94.652    0.423    0.558    5.652
  194.380   97.283    0.415    0.572    5.496
  194.630  100.911    0.419    0.589    5.333
  194.880  100.441    0.396    0.577    5.250
  195.130   98.269    0.385    0.569    5.101
  195.380   93.505    0.383    0.572    5.157
  195.630   93.365    0.384    0.584    5.243
  195.880   93.565    0.390    0.591    5.548
  196.130   92.998    0.386    0.601    5.977
  196.380   92.529    0.371    0.613    6.365
  196.630   94.219    0.361    0.597    6.603
  196.880   92.067    0.335    0.538    6.905
  197.130   86.868    0.318    0.501    7.722
  197.380   81.640    0.301    0.464    8.665
  197.630   80.062    0.332    0.467    9.239
  197.880   80.861    0.341    0.482    9.163
  198.130   84.640    0.324    0.474    8.866
  198.380   89.127    0.314    0.468    8.559
  198.630   92.740    0.305    0.472    8.359
  198.880   96.642    0.304    0.480    7.957
  199.130   97.331    0.314    0.487    7.720
  199.380   97.506    0.319    0.498    7.485
  199.630   99.629    0.319    0.512    7.270
  199.880  100.471    0.314    0.517    6.919
  200.130  104.637    0.324    0.496    6.589
  200.380  108.649    0.331    0.472    6.611
  200.630  109.233    0.308    0.483    6.606
  200.880  108.848    0.298    0.522    6.764
  201.130  106.216    0.309    0.523    7.084
  201.380  104.762    0.290    0.499    7.423
  201.630  104.030    0.271    0.489    7.399
  201.880  105.886    0.253    0.485    7.139
  202.130  111.010    0.278    0.504    6.811
  202.380  113.204    0.293    0.521    6.751
  202.630  111.930    0.293    0.528    6.770
  202.880  110.070    0.260    0.527    6.422
  203.130  110.572    0.227    0.484    5.964
  203.380  115.767    0.223    0.492    5.545
  203.630  120.171    0.305    0.546    5.281
  203.880  122.048    0.311    0.551    5.135
  204.130  124.667    0.291    0.539    5.008
  204.380  124.145    0.301    0.539    5.014
  204.630  121.647    0.317    0.544    4.932
  204.880  120.713    0.322    0.549    4.826
  205.130  121.784    0.316    0.567    4.841
  205.380  123.915    0.307    0.572    4.752
  205.630  124.341    0.328    0.570    4.634
  205.880  121.536    0.317    0.562    4.582
  206.130  116.561    0.328    0.557    4.442
  206.380  117.188    0.336    0.566    4.414
  206.630  118.238    0.326    0.561    4.483
  206.880  117.456    0.317    0.543    4.615
  207.130  118.259    0.317    0.546    4.859
  207.380  121.314    0.320    0.557    4.933
  207.630  122.298    0.324    0.553    4.850
  207.880  116.809    0.336    0.544    4.765
  208.130  114.350    0.326    0.537    4.774
  208.380  116.314    0.309    0.566    4.817
  208.630  118.787    0.309    0.583    5.042
  208.880  116.683    0.309    0.571    5.147
  209.130  115.060    0.314    0.567    5.129
  209.380  114.019    0.302    0.556    4.967
  209.630  111.153    0.285    0.554    4.812
  209.880  104.604    0.266    0.560    4.777
  210.130  106.446    0.254    0.568    4.855
  210.380  107.042    0.265    0.578    4.867
  210.630  102.089    0.287    0.573    4.985
  210.880   95.602    0.286    0.533    5.650
  211.130   89.240    0.241    0.453    6.642
  211.380   88.376    0.217    0.415    7.924
  211.630   93.135    0.210    0.413    9.649
  211.880   95.347    0.230    0.416   11.210
  212.130   95.172    0.226    0.413   11.511
  212.380   92.790    0.219    0.421   11.462
  212.630   91.351    0.213    0.442   10.639
  212.880   96.210    0.224    0.463    9.909
  213.130  102.094    0.255    0.479    8.391
  213.380  106.301    0.309    0.501    7.293
  213.630  108.624    0.310    0.489    6.528
  213.880  107.268    0.283    0.485    6.175
  214.130  106.734    0.273    0.497    5.782
  214.380  108.858    0.302    0.510    5.572
  214.630  109.868    0.276    0.525    5.434
  214.880  109.189    0.271    0.536    5.378
  215.130  109.093    0.299    0.551    5.096
  215.380  110.751    0.313    0.565    4.863
  215.630  112.664    0.303    0.569    4.648
  215.880  114.871    0.296    0.560    4.423
  216.130  113.886    0.316    0.574    4.206
  216.380  112.413    0.326    0.589    4.080
  216.630  111.011    0.305    0.601    4.037
  216.880  113.546    0.289    0.591    3.989
  217.130  111.909    0.284    0.562    3.852
  217.380  110.447    0.275    0.554    3.781
  217.630  107.997    0.288    0.533    3.714
  217.880  106.807    0.308    0.529    3.828
  218.130  106.295    0.315    0.541    4.052
  218.380  106.791    0.306    0.542    4.235
  218.630  107.183    0.282    0.548    4.245
  218.880  106.124    0.300    0.604    4.157
  219.130  107.280    0.281    0.597    4.095
  219.380  106.904    0.278    0.568    4.096
  219.630  104.860    0.293    0.552    4.007
  219.880  104.977    0.313    0.554    4.021
  220.130  103.457    0.298    0.574    3.932
  220.380  102.566    0.287    0.584    3.941
  220.630  104.848    0.293    0.591    3.940
  220.880  107.802    0.306    0.585    3.921
  221.130  107.509    0.290    0.579    3.872
  221.380  104.507    0.281    0.548    3.873
  221.630  101.586    0.270    0.541    3.874
  221.880  100.753    0.260    0.565    3.875
  222.130  102.312    0.258    0.584    3.877
  222.380  104.462    0.264    0.570    3.878
  222.630  102.816    0.284    0.571    3.880
  222.880  101.765    0.307    0.584    3.887
  223.130  100.778    0.309    0.600    3.805
  223.380  100.905    0.309    0.578    3.819
  223.630  100.509    0.292    0.573    3.739
  223.880  102.676    0.286    0.573    3.672
  224.130  103.992    0.307    0.566    3.556
  224.380  102.994    0.324    0.586    3.529
  224.630  100.311    0.329    0.600    3.414
  224.880   99.601    0.329    0.607    3.414
  225.130   99.607    0.303    0.592    3.414
  225.380  100.122    0.319    0.589    3.418
  225.630  102.387    0.313    0.605    3.314
  225.880  104.646    0.312    0.609    3.285
  226.130  105.134    0.336    0.601    3.236
