~VERSION INFORMATION
 VERS.                 2.0:   CWLS LOG ASCII STANDARD -VERSION 2.0
 WRAP.                  NO:   ONE LINE PER DEPTH STEP
~WELL INFORMATION BLOCK
#MNEM.UNIT           DATA                    DESCRIPTION OF MNEMONIC
#---------    -------------------            -------------------------------
# Generated from Intellog Unique Number	CS_69_70/WELL/812
WELL.         CANADIAN WORLDWIDE ENERGY      : Well_name    - WELL
LOC .         00/07-06-069-09W4/0            : Location     - LOCATION
UWI .         00/07-06-069-09W4/0            : Uwi          - UNIQUE WELL ID
ENTR.         SP                             : Entered      - ENTERED BY
SRVC.         SCHLUMBERGER                   : Scn          - SERVICE COMPANY
STRT.M        475                            : top_depth    - START DEPTH
STOP.M        685                            : bot_depth    - STOP DEPTH
STEP.M        0.25                           : increment    - STEP LENGTH
 NULL. -999.2500:NULL Value
~CURVE INFORMATION BLOCK
#MNEM UNIT       ERCB CURVE CODE    CURVE DESCRIPTION
#-----------   ------------------   ----------------------------------
DEPT.M        00 001 00 00         : DEPTH        - DEPTH
ILD .OHMM     00 120 00 00         : RESD         - DEEP RESISTIVITY (DIL)
DPHI.V/V      00 890 00 00         : PHID         - DENSITY POROSITY (LIMESTONE)
NPHI.V/V      00 330 00 00         : PHIN         - NEUTRON POROSITY (LIMESTONE)
GR  .API      00 310 00 00         : GR           - GAMMA RAY
~PARAMETER INFORMATION
#MNEM.UNIT           DATA             DESCRIPTION OF MNEMONIC
#---------         -----------     ------------------------------
GL  .M        785.99               : gl           - GROUND LEVEL ELEVATION
EREF.M        789.09               : kb           - ELEVATION OF DEPTH REFERENCE
DATM.M        785.99               : datum        - DATUM ELEVATION
TDD .M        680                  : tdd          - TOTAL DEPTH DRILLER
RUN .         ONE                  : Run          - RUN NUMBER
ENG .         BILL                 : Engineer     - RECORDING ENGINEER
WIT .         JIM                  : Witness      - WITNESSED BY
MUD .         GEL                  : Mud_type     - MUD TYPE
MATR.         LIMESTONE            : Logunit      - NEUTRON MATRIX
TMAX.C        25                   : BHT          - MAXIMUM RECORDED TEMPERATURE
BHTD.M        680                  : BHTDEP       - MAXIMUM RECORDED TEMPERATURE
MATR.         1                    : LOGUNIT      - NEUTRON MATRIX
RMT .C        25                   : MDTP         - TEMPERATURE OF MUD
NEUT.         1                    : NEUTRON      - NEUTRON TYPE
RESI.         0                    : RESIST       - RESISTIVITY TYPE
RMC .OHMM     0.25                 : RMC          - RESISTIVITY OF MUD CAKE
RMF .OHMM     0.25                 : RMF          - RESISTIVITY OF MUD FILTRATE
SUFT.C        15                   : SUFT         - SURFACE TEMPERATURE
~A  DEPTH     RESD     PHID     PHIN       GR
  475.000    2.277    0.211    0.507  106.088
  475.250    2.314    0.215    0.517  106.577
  475.500    2.396    0.220    0.522  107.127
  475.750    2.528    0.225    0.518  107.128
  476.000    2.623    0.228    0.504  109.205
  476.250    2.680    0.226    0.491  102.487
  476.500    2.702    0.217    0.477  106.397
  476.750    2.664    0.217    0.476  113.665
  477.000    2.548    0.229    0.472  110.551
  477.250    2.342    0.228    0.468  104.505
  477.500    2.198    0.220    0.478  100.170
  477.750    2.142    0.224    0.492   98.155
  478.000    2.265    0.242    0.504   95.590
  478.250    2.617    0.263    0.473   92.781
  478.500    2.973    0.277    0.454   94.187
  478.750    3.221    0.292    0.442   95.715
  479.000    3.386    0.303    0.439   94.738
  479.250    3.520    0.311    0.437   94.677
  479.500    3.516    0.319    0.443  104.267
  479.750    3.473    0.335    0.458  108.970
  480.000    3.417    0.349    0.482  108.788
  480.250    3.287    0.366    0.546  107.384
  480.500    3.149    0.393    0.556  109.155
  480.750    2.967    0.423    0.569  101.277
  481.000    2.747    0.503    0.581   88.697
  481.250    2.464    0.555    0.638   74.955
  481.500    2.312    0.557    0.661   69.032
  481.750    2.113    0.530    0.637   67.933
  482.000    1.965    0.508    0.622   69.583
  482.250    1.911    0.483    0.619   70.499
  482.500    1.895    0.478    0.634   67.446
  482.750    1.969    0.518    0.648   64.271
  483.000    2.195    0.538    0.655   90.107
  483.250    2.556    0.254    0.616  105.559
  483.500    2.780    0.234    0.525  111.728
  483.750    2.901    0.217    0.516  115.455
  484.000    2.981    0.219    0.522  118.143
  484.250    3.158    0.223    0.527  109.104
  484.500    3.656    0.219    0.491   93.164
  484.750    4.075    0.198    0.424   87.057
  485.000    4.594    0.195    0.379   86.692
  485.250    5.045    0.228    0.401   78.630
  485.500    5.175    0.248    0.398   72.707
  485.750    5.053    0.230    0.391   82.296
  486.000    4.761    0.202    0.393   92.741
  486.250    4.596    0.187    0.397  100.559
  486.500    4.496    0.192    0.401  108.866
  486.750    4.458    0.196    0.423  115.463
  487.000    4.420    0.165    0.445  119.372
  487.250    4.292    0.136    0.462  114.365
  487.500    4.066    0.107    0.474  108.868
  487.750    3.816    0.110    0.484  119.374
  488.000    3.601    0.144    0.478  126.154
  488.250    3.399    0.162    0.466  128.659
  488.500    3.232    0.177    0.468  126.827
  488.750    3.091    0.176    0.487  125.606
  489.000    2.884    0.167    0.509  128.050
  489.250    2.738    0.163    0.522  128.783
  489.500    2.725    0.192    0.536  129.334
  489.750    2.886    0.229    0.544  130.067
  490.000    3.211    0.264    0.524  117.670
  490.250    3.796    0.301    0.512  100.020
  490.500    4.353    0.354    0.524   91.592
  490.750    4.638    0.354    0.544   79.133
  491.000    4.668    0.343    0.559   66.858
  491.250    4.576    0.336    0.424   55.499
  491.500    4.459    0.331    0.388   47.376
  491.750    4.273    0.329    0.372   49.331
  492.000    4.095    0.339    0.375   55.562
  492.250    3.984    0.349    0.395   58.921
  492.500    3.934    0.340    0.414   52.265
  492.750    3.915    0.332    0.430   48.968
  493.000    3.904    0.335    0.428   49.396
  493.250    3.906    0.341    0.416   50.129
  493.500    3.910    0.343    0.404   47.443
  493.750    3.920    0.342    0.394   48.970
  494.000    3.938    0.339    0.389   52.819
  494.250    3.941    0.337    0.391   55.873
  494.500    3.952    0.331    0.390   56.668
  494.750    3.955    0.326    0.381   54.958
  495.000    3.974    0.319    0.376   50.989
  495.250    3.977    0.322    0.392   52.577
  495.500    3.980    0.327    0.396   51.296
  495.750    3.975    0.332    0.395   49.770
  496.000    3.979    0.327    0.391   49.770
  496.250    3.990    0.322    0.390   50.320
  496.500    3.994    0.332    0.383   51.604
  496.750    3.988    0.343    0.375   52.703
  497.000    3.977    0.347    0.393   53.804
  497.250    3.972    0.352    0.406   57.469
  497.500    3.946    0.352    0.415   62.722
  497.750    3.927    0.352    0.407   67.181
  498.000    3.908    0.353    0.401   73.656
  498.250    3.918    0.356    0.418   80.191
  498.500    3.936    0.359    0.425   85.627
  498.750    3.985    0.355    0.433   71.764
  499.000    4.048    0.344    0.422   73.108
  499.250    4.248    0.333    0.412   84.775
  499.500    4.382    0.321    0.424   90.028
  499.750    4.537    0.315    0.437   87.158
  500.000    4.663    0.308    0.445   86.487
  500.250    4.783    0.305    0.444   89.663
  500.500    4.814    0.305    0.453   91.496
  500.750    4.809    0.299    0.460   90.458
  501.000    4.794    0.292    0.455   95.223
  501.250    4.753    0.285    0.452  100.415
  501.500    4.712    0.280    0.472  102.248
  501.750    4.672    0.280    0.486  101.760
  502.000    4.631    0.288    0.479  104.142
  502.250    4.591    0.278    0.487  106.464
  502.500    4.587    0.267    0.497  104.388
  502.750    4.599    0.270    0.480   97.487
  503.000    4.611    0.292    0.455   90.647
  503.250    4.589    0.307    0.433   86.129
  503.500    4.575    0.309    0.442   89.672
  503.750    4.553    0.288    0.466   91.504
  504.000    4.464    0.289    0.510   92.360
  504.250    4.375    0.300    0.510   92.422
  504.500    4.337    0.309    0.499   92.850
  504.750    4.300    0.314    0.505   93.523
  505.000    4.246    0.317    0.509   94.928
  505.250    4.218    0.308    0.497   96.333
  505.500    4.221    0.303    0.500   96.090
  505.750    4.265    0.298    0.510   94.502
  506.000    4.285    0.294    0.507   93.648
  506.250    4.281    0.287    0.494   93.649
  506.500    4.292    0.278    0.503   94.749
  506.750    4.271    0.270    0.490   96.887
  507.000    4.242    0.265    0.482   98.414
  507.250    4.223    0.282    0.473   99.331
  507.500    4.225    0.297    0.466   99.332
  507.750    4.204    0.302    0.464   99.149
  508.000    4.200    0.306    0.462   98.173
  508.250    4.204    0.300    0.474  100.861
  508.500    4.215    0.290    0.486  104.404
  508.750    4.235    0.284    0.490   98.663
  509.000    4.270    0.280    0.478   96.465
  509.250    4.306    0.282    0.464   97.077
  509.500    4.334    0.274    0.454   97.383
  509.750    4.321    0.266    0.449   96.101
  510.000    4.284    0.258    0.446   90.910
  510.250    4.353    0.278    0.442   84.376
  510.500    4.567    0.306    0.437   78.757
  510.750    4.801    0.316    0.434   78.453
  511.000    5.009    0.308    0.445   75.644
  511.250    5.207    0.311    0.449   71.186
  511.500    5.433    0.305    0.427   76.561
  511.750    5.572    0.293    0.411   81.509
  512.000    5.683    0.280    0.412   86.518
  512.250    5.797    0.284    0.432   84.625
  512.500    5.867    0.299    0.450   79.068
  512.750    5.972    0.309    0.426   75.954
  513.000    6.068    0.315    0.417   74.183
  513.250    6.179    0.315    0.413   73.390
  513.500    6.243    0.318    0.413   73.513
  513.750    6.283    0.324    0.417   73.575
  514.000    6.288    0.327    0.427   72.232
  514.250    6.210    0.321    0.439   70.889
  514.500    5.950    0.309    0.434   69.790
  514.750    5.658    0.300    0.439   69.607
  515.000    5.381    0.293    0.444   74.738
  515.250    5.264    0.304    0.449   80.602
  515.500    5.289    0.314    0.458   85.611
  515.750    5.354    0.314    0.470   81.947
  516.000    5.368    0.311    0.486   88.055
  516.250    5.332    0.301    0.496   93.064
  516.500    5.198    0.291    0.493   91.538
  516.750    5.113    0.291    0.477   86.408
  517.000    5.060    0.290    0.492   86.897
  517.250    5.055    0.284    0.475   91.295
  517.500    5.058    0.271    0.460   95.510
  517.750    5.091    0.254    0.452   98.687
  518.000    5.154    0.262    0.442   97.894
  518.250    5.247    0.278    0.436   94.108
