~VERSION INFORMATION
 VERS.                 2.0:   CWLS LOG ASCII STANDARD -VERSION 2.0
 WRAP.                  NO:   ONE LINE PER DEPTH STEP
~WELL INFORMATION BLOCK
#MNEM.UNIT           DATA                    DESCRIPTION OF MNEMONIC
#---------    -------------------            -------------------------------
# Generated from Intellog Unique Number	CC_80_83/WELL/2308
NULL.         -999.25                        : NULL_VALUE
WELL.         BVX ET AL ALGAR                : Well_name    - WELL
LOC .         07-34-083-16W4                 : Location     - LOCATION          
UWI .         00/07-34-083-16W400            : Uwi          - UNIQUE WELL ID    
ENTR.         DW                             : Entered      - ENTERED BY        
SRVC.         SCHLUMBERGER                   : Scn          - SERVICE COMPANY   
DATE.         03 MAR 80                      : Date         - LOG DATE
STRT.M        95                             : top_depth    - START DEPTH       
STOP.M        283.101                        : bot_depth    - STOP DEPTH        
STEP.M        0.3                            : increment    - STEP LENGTH       
~CURVE INFORMATION BLOCK
#MNEM UNIT       ERCB CURVE CODE    CURVE DESCRIPTION
#-----------   ------------------   ----------------------------------
DEPT.M        00 001 00 00         : DEPTH        - DEPTH                       
DPHI.V/V      00 890 00 00         : PHID         - DENSITY POROSITY (LIMESTONE)
NPHI.V/V      00 330 00 00         : PHIN         - NEUTRON POROSITY (LIMESTONE)
GR  .API      00 310 00 00         : GR           - GAMMA RAY                   
ILD .OHMM     00 120 00 00         : RESD         - DEEP RESISTIVITY (DIL)      
~PARAMETER INFORMATION       
#MNEM.UNIT           DATA             DESCRIPTION OF MNEMONIC
#---------         -----------     ------------------------------
GL  .M        526.5                : gl           - GROUND LEVEL ELEVATION      
EREF.M        529.5                : kb           - ELEVATION OF DEPTH REFERENCE
DATM.M        529.5                : datum        - DATUM ELEVATION             
TDD .M        282                  : tdd          - TOTAL DEPTH DRILLER         
RUN .         ONE                  : Run          - RUN NUMBER                  
ENG .         BILL                 : Engineer     - RECORDING ENGINEER          
WIT .         JIM                  : Witness      - WITNESSED BY                
MUD .         GEL                  : Mud_type     - MUD TYPE                    
MATR.         LIMESTONE            : Logunit      - NEUTRON MATRIX              
TMAX.C        18                   : BHT          - MAXIMUM RECORDED TEMPERATURE
BHTD.M        282                  : BHTDEP       - MAXIMUM RECORDED TEMPERATURE
MATR.         1                    : LOGUNIT      - NEUTRON MATRIX              
RMT .C        25                   : MDTP         - TEMPERATURE OF MUD          
NEUT.         1                    : NEUTRON      - NEUTRON TYPE                
RESI.         0                    : RESIST       - RESISTIVITY TYPE            
RMC .OHMM     0.25                 : RMC          - RESISTIVITY OF MUD CAKE     
RMF .OHMM     0.25                 : RMF          - RESISTIVITY OF MUD FILTRATE 
SUFT.C        15                   : SUFT         - SURFACE TEMPERATURE         
~A  DEPTH     PHID     PHIN       GR     RESD
   95.000    0.298    0.372   92.210    5.388
   95.300    0.396    0.376   80.563    6.153
   95.600    0.413    0.389   65.850    6.513
   95.900    0.407    0.255   58.489    7.298
   96.200    0.404    0.229   57.260    8.023
   96.500    0.414    0.230   57.254   11.940
   96.800    0.431    0.255   61.538   15.565
   97.100    0.409    0.226   64.596   17.440
   97.400    0.404    0.243   63.364   17.776
   97.700    0.417    0.275   59.071   19.917
   98.000    0.408    0.300   59.676   20.301
   98.300    0.376    0.324   63.961   18.472
   98.600    0.248    0.351   73.761   16.492
   98.900    0.286    0.441   86.011   13.652
   99.200    0.313    0.424   73.750   12.658
   99.500    0.327    0.414   64.552   12.661
   99.800    0.335    0.407   65.770   13.920
  100.100    0.301    0.401   68.831   15.597
  100.400    0.268    0.391   76.179   15.897
  100.700    0.223    0.408   89.654   14.742
  101.000    0.234    0.430  103.129   12.672
  101.300    0.247    0.418   96.996    9.543
  101.600    0.268    0.428  100.054    8.360
  101.900    0.282    0.431   92.696    7.052
  102.200    0.285    0.424   89.013    6.539
  102.500    0.296    0.414   84.718    7.189
  102.800    0.312    0.398   73.682    9.024
  103.100    0.345    0.388   62.646   11.763
  103.400    0.335    0.388   64.480   14.489
  103.700    0.331    0.392   79.181   15.337
  104.000    0.323    0.395   90.818   16.547
  104.300    0.290    0.397   92.039   17.187
  104.600    0.269    0.397   95.709   16.552
  104.900    0.280    0.401   98.155   15.350
  105.200    0.292    0.400   97.537   14.781
  105.500    0.295    0.411   93.853   13.707
  105.800    0.310    0.421   90.785   13.452
  106.100    0.327    0.430   88.942   13.712
  106.400    0.307    0.418   98.127   14.243
  106.700    0.230    0.408  104.250   14.246
  107.000    0.194    0.410  107.309   13.718
  107.300    0.212    0.418   96.272   12.720
  107.600    0.224    0.424   90.751   11.574
  107.900    0.233    0.394   92.583   10.334
  108.200    0.244    0.391  102.384    9.054
  108.500    0.252    0.394  104.216    9.055
  108.800    0.176    0.403  106.662    9.406
  109.100    0.198    0.421  115.847    9.408
  109.400    0.221    0.448  124.422    8.560
  109.700    0.220    0.475  133.608    7.643
  110.000    0.197    0.490  126.862    6.327
  110.300    0.219    0.492  123.791    5.543
  110.600    0.206    0.498  125.624    5.139
  110.900    0.193    0.497  123.168    5.440
  111.200    0.187    0.481  117.648    5.981
  111.500    0.205    0.469  124.382    5.983
  111.800    0.221    0.485  126.215    5.548
  112.100    0.209    0.532  129.885    5.342
  112.400    0.216    0.535  132.944    4.507
  112.700    0.243    0.491  134.777    3.874
  113.000    0.247    0.463  128.032    3.525
  113.300    0.243    0.429  112.707    3.526
  113.600    0.252    0.378  102.897    3.804
  113.900    0.257    0.388   97.376    6.840
  114.200    0.247    0.407  105.948    8.916
  114.500    0.236    0.426  108.395    9.439
  114.800    0.219    0.442  113.292    9.090
  115.100    0.210    0.450  118.801    8.590
  115.400    0.234    0.454  120.634    7.669
  115.700    0.261    0.451  110.210    7.112
  116.000    0.292    0.437  103.464    7.113
  116.300    0.320    0.414  100.395    8.435
  116.600    0.348    0.403   97.939   10.789
  116.900    0.353    0.417   93.643   15.460
  117.200    0.337    0.412   85.059   19.777
  117.500    0.305    0.396   71.572   21.743
  117.800    0.281    0.387   63.600   22.163
  118.100    0.299    0.387   58.693   22.167
  118.400    0.271    0.389   64.814   21.346
  118.700    0.295    0.390   66.034   20.558
  119.000    0.316    0.394   66.641   20.176
  119.300    0.321    0.398   67.249   19.801
  119.600    0.330    0.409   64.792   20.184
  119.900    0.313    0.410   67.238   21.366
  120.200    0.327    0.404   68.456   23.050
  120.500    0.330    0.403   69.678   24.402
  120.800    0.319    0.406   72.736   23.951
  121.100    0.320    0.405   69.054   23.504
  121.400    0.346    0.406   65.371   23.959
  121.700    0.351    0.410   69.043   23.963
  122.000    0.326    0.420   69.650   23.967
  122.300    0.341    0.415   65.967   23.972
  122.600    0.353    0.410   64.736   24.434
  122.900    0.358    0.414   68.406   24.439
  123.200    0.336    0.436   69.627   25.387
  123.500    0.344    0.421   71.461   25.391
  123.800    0.354    0.409   65.939   25.879
  124.100    0.355    0.416   64.095   25.398
  124.400    0.336    0.418   64.091   24.928
  124.700    0.354    0.411   61.633   24.463
  125.000    0.356    0.431   64.692   24.010
  125.300    0.340    0.452   65.300   23.563
  125.600    0.344    0.467   60.392   22.693
  125.900    0.334    0.457   59.161   21.853
  126.200    0.312    0.431   66.509   21.046
  126.500    0.327    0.447   70.793   20.655
  126.800    0.325    0.453   67.110   20.660
  127.100    0.315    0.446   62.202   20.662
  127.400    0.335    0.441   70.776   21.063
  127.700    0.301    0.440   71.381   21.065
  128.000    0.295    0.446   67.700   21.069
  128.300    0.299    0.450   65.245   20.291
  128.600    0.309    0.410   71.366   19.541
  128.900    0.319    0.393   85.455   18.817
  129.200    0.223    0.421  102.608   16.177
  129.500    0.234    0.449  106.279    9.892
  129.800    0.264    0.442   89.727    6.906
  130.100    0.270    0.418   90.948    5.716
  130.400    0.261    0.399  113.616    5.402
  130.700    0.260    0.423  121.576    5.611
  131.000    0.268    0.445  120.958    6.782
  131.300    0.277    0.436  112.373    7.743
  131.600    0.287    0.420  111.754    9.359
  131.900    0.303    0.409  111.135   10.097
  132.200    0.314    0.398  106.842   10.098
  132.500    0.319    0.392  101.934   10.100
  132.800    0.307    0.385   94.575   10.491
  133.100    0.301    0.387   88.441   11.755
  133.400    0.307    0.411   90.273   12.444
  133.700    0.312    0.430   91.493   12.684
  134.000    0.294    0.452   89.037   12.215
  134.300    0.266    0.451   87.806   11.326
  134.600    0.298    0.407   90.251   10.908
  134.900    0.331    0.392   87.795   11.118
  135.200    0.337    0.403   71.244   11.994
  135.500    0.335    0.416   77.978   14.224
  135.800    0.335    0.432   79.198   15.346
  136.100    0.339    0.441   77.355   15.643
  136.400    0.361    0.418   77.349   15.353
  136.700    0.385    0.407   76.731   15.067
  137.000    0.428    0.419   70.598   14.786
  137.300    0.458    0.458   61.400   13.712
  137.600    0.535    0.575   55.880   13.204
  137.900    0.607    0.605   54.036   11.568
  138.200    0.458    0.604   79.155    9.575
  138.500    0.289    0.616   99.984    7.211
  138.800    0.246    0.618  107.944    5.969
  139.100    0.216    0.474  111.616    5.640
  139.400    0.209    0.469  110.997    5.230
  139.700    0.254    0.495  104.864    5.231
  140.000    0.242    0.514  101.794    5.232
  140.300    0.238    0.470  103.013    5.233
  140.600    0.258    0.485  106.072    5.435
  140.900    0.264    0.491  107.292    5.646
  141.200    0.232    0.498  106.062    5.977
  141.500    0.237    0.488  109.120    6.092
  141.800    0.229    0.472  114.016    6.210
  142.100    0.214    0.458  112.785    6.094
  142.400    0.214    0.445  109.103    5.981
  142.700    0.219    0.455  108.484    5.871
  143.000    0.231    0.489  104.802    5.871
  143.300    0.214    0.493  106.022    5.655
  143.600    0.222    0.479  108.468    5.445
  143.900    0.231    0.470  106.624    5.244
  144.201    0.235    0.460  109.068    5.147
  144.501    0.230    0.466  110.288    5.051
  144.801    0.223    0.470  110.285    5.149
  145.101    0.227    0.450  110.279    5.248
  145.401    0.231    0.444  108.435    5.556
  145.701    0.235    0.464  113.332    5.771
  146.001    0.219    0.480  116.390    5.772
  146.301    0.235    0.480  114.546    5.773
  146.601    0.237    0.462  107.799    5.666
  146.901    0.252    0.457  102.278    5.775
