~VERSION INFORMATION
 VERS.                 2.0:   CWLS LOG ASCII STANDARD -VERSION 2.0
 WRAP.                  NO:   ONE LINE PER DEPTH STEP
~WELL INFORMATION BLOCK
#MNEM.UNIT           DATA                    DESCRIPTION OF MNEMONIC
#---------    -------------------            -------------------------------
# Generated from Intellog Unique Number	CS_73_76/WELL/2014
WELL.         EAGLE RESOURCES LTD.           : Well_name    - WELL
LOC .         00/08-22-076-18W4/0            : Location     - LOCATION
UWI .         00/08-22-076-18W4/0            : Uwi          - UNIQUE WELL ID
ENTR.         JO                             : Entered      - ENTERED BY
SRVC.         SCHLUMBERGER                   : Scn          - SERVICE COMPANY
DATE.         05/22/92                       : Date         - LOG DATE
STRT.M        200                            : top_depth    - START DEPTH
STOP.M        450                            : bot_depth    - STOP DEPTH
STEP.M        0.25                           : increment    - STEP LENGTH
 NULL. -999.2500:NULL Value
~CURVE INFORMATION BLOCK
#MNEM UNIT       ERCB CURVE CODE    CURVE DESCRIPTION
#-----------   ------------------   ----------------------------------
DEPT.M        00 001 00 00         : DEPTH        - DEPTH
GR  .API      00 310 00 00         : GR           - GAMMA RAY
NPHI.V/V      00 330 00 00         : PHIN         - NEUTRON POROSITY (SANDSTONE)
DPHI.V/V      00 890 00 00         : PHID         - DENSITY POROSITY (SANDSTONE)
ILD .OHMM     00 120 00 00         : RESD         - DEEP RESISTIVITY (DIL)
~PARAMETER INFORMATION
#MNEM.UNIT           DATA             DESCRIPTION OF MNEMONIC
#---------         -----------     ------------------------------
GL  .M        606.6                : gl           - GROUND LEVEL ELEVATION
EREF.M        610.2                : kb           - ELEVATION OF DEPTH REFERENCE
DATM.M        610.2                : datum        - DATUM ELEVATION
TDD .M        446                  : tdd          - TOTAL DEPTH DRILLER
RUN .         ONE                  : Run          - RUN NUMBER
ENG .         BILL                 : Engineer     - RECORDING ENGINEER
WIT .         JIM                  : Witness      - WITNESSED BY
MUD .         GEL                  : Mud_type     - MUD TYPE
MATR.         SANDSTONE            : Logunit      - NEUTRON MATRIX
TMAX.C        29                   : BHT          - MAXIMUM RECORDED TEMPERATURE
BHTD.M        446                  : BHTDEP       - MAXIMUM RECORDED TEMPERATURE
RMT .C        16.7                 : MDTP         - TEMPERATURE OF MUD
MUDD.KG/M     1100                 : MWT          - MUD DENSITY
NEUT.         1                    : NEUTRON      - NEUTRON TYPE
RESI.         0                    : RESIST       - RESISTIVITY TYPE
RM  .OHMM     3.6                  : RM           - RESISTIVITY OF MUD
RMC .OHMM     3.2                  : RMC          - RESISTIVITY OF MUD CAKE
RMF .OHMM     3.6                  : RMF          - RESISTIVITY OF MUD FILTRATE
SUFT.C        15                   : SUFT         - SURFACE TEMPERATURE
~A  DEPTH       GR     PHIN     PHID     RESD
  200.000  116.024    0.495    0.205    4.413
  200.250  118.433    0.477    0.207    4.423
  200.500  121.443    0.485    0.213    4.604
  200.750  120.358    0.491    0.221    4.614
  201.000  117.526    0.479    0.218    4.709
  201.250  115.839    0.463    0.226    4.719
  201.500  123.488    0.496    0.240    4.732
  201.750  125.334    0.510    0.243    4.740
  202.000  120.735    0.523    0.231    4.755
  202.250  117.923    0.533    0.214    4.760
  202.500  120.894    0.523    0.207    4.863
  202.750  124.487    0.472    0.212    4.966
  203.000  122.819    0.458    0.215    5.170
  203.250  119.988    0.443    0.218    5.376
  203.500  115.971    0.450    0.218    5.489
  203.750  116.071    0.461    0.215    5.608
  204.000  119.663    0.470    0.211    5.416
  204.250  122.052    0.471    0.210    5.325
  204.500  125.645    0.469    0.218    5.234
  204.750  123.977    0.468    0.229    5.154
  205.000  122.872    0.459    0.224    5.257
  205.250  124.156    0.464    0.220    5.681
  205.500  118.373    0.471    0.229    6.371
  205.750  100.384    0.461    0.220    7.557
  206.000   74.825    0.403    0.185   10.419
  206.250   47.519    0.308    0.173   11.905
  206.500   30.694    0.314    0.281   14.946
  206.750   36.013    0.321    0.300   17.077
  207.000   48.941    0.329    0.297   15.294
  207.250   60.666    0.333    0.259   13.444
  207.500   72.972    0.345    0.244    9.443
  207.750   81.805    0.389    0.227    8.942
  208.000   99.954    0.412    0.219    8.310
  208.250   83.128    0.429    0.217    7.727
  208.500   67.467    0.435    0.244    6.924
  208.750   42.491    0.395    0.272    6.935
  209.000   30.905    0.296    0.278    8.387
  209.250   17.011    0.285    0.272   12.225
  209.500   14.179    0.268    0.267   16.234
  209.750   13.696    0.264    0.266   18.900
  210.000   13.756    0.270    0.267   22.868
  210.250   13.835    0.276    0.273   24.255
  210.500   14.497    0.280    0.271   24.281
  210.750   14.596    0.280    0.271   24.807
  211.000   15.238    0.281    0.275   24.848
  211.250   15.337    0.287    0.279   24.928
  211.500   15.397    0.295    0.282   24.969
  211.750   14.914    0.304    0.286   25.009
  212.000   14.451    0.307    0.293   25.077
  212.250   14.510    0.302    0.300   25.159
  212.500   14.570    0.295    0.293   25.200
  212.750   15.251    0.303    0.286   25.241
  213.000   15.893    0.309    0.286   25.788
  213.250   18.924    0.306    0.290   25.843
  213.500   20.730    0.309    0.294   25.885
  213.750   23.760    0.315    0.298   25.488
  214.000   24.382    0.317    0.302   24.590
  214.250   22.172    0.316    0.306   23.724
  214.500   19.903    0.320    0.294   22.926
  214.750   20.564    0.322    0.286   22.538
  215.000   22.973    0.319    0.280   22.155
  215.250   23.654    0.316    0.280   22.635
  215.500   23.694    0.316    0.281   22.684
  215.750   23.191    0.318    0.283   23.627
  216.000   21.524    0.316    0.286   23.665
  216.250   21.021    0.308    0.286   23.716
  216.500   25.798    0.308    0.286   23.755
  216.750   27.604    0.313    0.283   23.806
  217.000   28.266    0.304    0.283   22.993
  217.250   27.763    0.301    0.288   22.615
  217.500   28.425    0.325    0.292   21.819
  217.750   30.833    0.321    0.297   19.922
  218.000   33.281    0.312    0.292   17.843
  218.250   50.848    0.317    0.280   15.675
  218.500   55.565    0.376    0.287   13.523
  218.750   52.733    0.378    0.300   11.900
  219.000   46.408    0.376    0.306   11.913
  219.250   42.412    0.339    0.300   12.408
  219.500   50.060    0.348    0.274   12.197
  219.750   65.298    0.380    0.262   11.997
  220.000   77.042    0.395    0.266   11.574
  220.250   77.121    0.407    0.271   10.562
  220.500   78.385    0.410    0.273    9.284
  220.750   80.773    0.401    0.263    8.010
  221.000   80.310    0.399    0.260    7.044
  221.250   77.439    0.407    0.265    6.670
  221.500   76.354    0.415    0.266    6.319
  221.750   84.022    0.424    0.261    6.219
  222.000   87.013    0.443    0.258    6.232
  222.250   81.290    0.431    0.263    6.242
  222.500   84.280    0.421    0.269    6.259
  222.750   87.853    0.415    0.267    6.273
  223.000   92.590    0.414    0.265    6.173
  223.250  101.403    0.420    0.265    5.633
  223.500  108.490    0.433    0.264    4.952
  223.750  101.582    0.444    0.255    4.599
  224.000   95.237    0.455    0.248    4.122
  224.250   88.932    0.468    0.247    4.206
  224.500   87.245    0.455    0.199    4.548
  224.750   87.364    0.441    0.237    4.824
  225.000   87.403    0.441    0.264    4.923
  225.250   89.812    0.428    0.249    4.931
  225.500   96.316    0.446    0.234    4.945
  225.750  102.800    0.462    0.239    4.864
  226.000  109.906    0.478    0.247    4.695
  226.250  111.130    0.492    0.243    4.448
  226.500  113.538    0.499    0.234    4.212
  226.750  114.782    0.507    0.234    3.918
  227.000  107.292    0.490    0.236    3.782
  227.250  102.131    0.491    0.241    3.718
  227.500  100.464    0.493    0.245    3.661
  227.750  106.386    0.485    0.246    3.738
  228.000  102.972    0.483    0.243    3.817
  228.250  100.702    0.493    0.234    4.047
  228.500   96.706    0.508    0.222    4.290
  228.750   85.703    0.496    0.208    4.721
  229.000   78.816    0.445    0.199    5.100
  229.250   74.819    0.429    0.224    5.409
  229.500   74.879    0.403    0.237    5.523
  229.750   79.616    0.418    0.243    5.432
  230.000   92.544    0.430    0.237    5.241
  230.250   96.700    0.456    0.232    4.702
  230.500   95.634    0.478    0.230    4.617
  230.750   98.625    0.483    0.230    4.457
  231.000  102.178    0.493    0.234    4.305
  231.250   99.346    0.503    0.241    4.236
  231.500   99.426    0.476    0.238    4.162
  231.750  101.834    0.478    0.232    4.098
  232.000  102.515    0.489    0.223    4.105
  232.250  102.615    0.499    0.218    4.118
  232.500  102.694    0.510    0.215    4.125
  232.750  101.007    0.516    0.214    4.132
  233.000   98.175    0.518    0.218    4.145
  233.250  101.166    0.512    0.225    4.149
  233.500  104.176    0.497    0.227    4.163
  233.750  104.276    0.487    0.224    4.090
  234.000  103.151    0.493    0.222    4.023
  234.250  100.941    0.501    0.217    3.883
  234.500  100.398    0.500    0.218    3.681
  234.750   99.333    0.481    0.222    3.619
  235.000   98.811    0.466    0.225    3.699
  235.250   98.328    0.463    0.222    3.775
  235.500   98.407    0.477    0.221    3.855
  235.750  100.815    0.485    0.224    3.938
  236.000  103.224    0.484    0.234    3.874
  236.250  102.721    0.485    0.244    3.812
  236.500  101.073    0.492    0.241    3.745
  236.750  100.571    0.507    0.236    3.615
  237.000  101.232    0.508    0.237    3.490
  237.250  101.292    0.502    0.238    3.433
  237.500  100.809    0.488    0.234    3.378
  237.750   96.793    0.483    0.230    3.385
  238.000   99.803    0.489    0.236    3.391
  238.250  102.814    0.496    0.251    3.466
  238.500  101.146    0.504    0.255    3.474
  238.750   99.479    0.513    0.241    3.474
  239.000   99.538    0.507    0.241    2.738
  239.250  103.131    0.503    0.248    3.248
  239.500  102.609    0.505    0.254    3.015
  239.750   97.468    0.511    0.257    2.751
  240.000   98.712    0.513    0.252    2.561
  240.250   97.646    0.546    0.217    2.516
  240.500   96.522    0.546    0.215    2.475
  240.750   99.512    0.541    0.191    2.483
  241.000  103.105    0.540    0.194    2.534
  241.250  106.095    0.536    0.227    2.587
  241.500  106.175    0.522    0.246    2.642
  241.750  104.508    0.510    0.259    2.699
  242.000  102.278    0.507    0.263    2.756
  242.250   99.426    0.518    0.255    2.814
  242.500   97.177    0.521    0.231    2.819
  242.750   97.256    0.514    0.231    2.825
  243.000  102.013    0.489    0.230    2.831
  243.250  103.820    0.497    0.230    2.891
