~VERSION INFORMATION
 VERS.                 2.0:   CWLS LOG ASCII STANDARD -VERSION 2.0
 WRAP.                  NO:   ONE LINE PER DEPTH STEP
~WELL INFORMATION BLOCK
#MNEM.UNIT           DATA                    DESCRIPTION OF MNEMONIC
#---------    -------------------            -------------------------------
# Generated from Intellog Unique Number	CX_WELLS/WELL/3294
WELL.         NEWBY                          : Well_name    - WELL
LOC .         00/09-32-084-05W4/0            : Location     - LOCATION
UWI .         00/09-32-084-05W400            : Uwi          - UNIQUE WELL ID
ENTR.         T                              : Entered      - ENTERED BY
SRVC.         SCHLUMBERGER                   : Scn          - SERVICE COMPANY
STRT.M        80                             : top_depth    - START DEPTH
STOP.M        280                            : bot_depth    - STOP DEPTH
STEP.M        0.25                           : increment    - STEP LENGTH
 NULL. -999.2500:NULL Value
~CURVE INFORMATION BLOCK
#MNEM UNIT       ERCB CURVE CODE    CURVE DESCRIPTION
#-----------   ------------------   ----------------------------------
DEPT.M        00 001 00 00         : DEPTH        - DEPTH
GR  .API      00 310 00 00         : GR           - GAMMA RAY
NPHI.V/V      00 330 00 00         : PHIN         - NEUTRON POROSITY (SANDSTONE)
DPHI.V/V      00 890 00 00         : PHID         - DENSITY POROSITY (SANDSTONE)
ILD .OHMM     00 120 00 00         : RESD         - DEEP RESISTIVITY (DIL)
~PARAMETER INFORMATION
#MNEM.UNIT           DATA             DESCRIPTION OF MNEMONIC
#---------         -----------     ------------------------------
GL  .M        454.8                : gl           - GROUND LEVEL ELEVATION
EREF.M        458.3                : kb           - ELEVATION OF DEPTH REFERENCE
DATM.M        458.3                : datum        - DATUM ELEVATION
TDD .M        294                  : tdd          - TOTAL DEPTH DRILLER
RUN .         ONE                  : Run          - RUN NUMBER
ENG .         BILL                 : Engineer     - RECORDING ENGINEER
WIT .         JIM                  : Witness      - WITNESSED BY
MUD .         GEL                  : Mud_type     - MUD TYPE
MATR.         SANDSTONE            : Logunit      - NEUTRON MATRIX
TMAX.C        26                   : BHT          - MAXIMUM RECORDED TEMPERATURE
BHTD.M        294                  : BHTDEP       - MAXIMUM RECORDED TEMPERATURE
MATR.         1                    : LOGUNIT      - NEUTRON MATRIX
RMT .C        16                   : MDTP         - TEMPERATURE OF MUD
NEUT.         1                    : NEUTRON      - NEUTRON TYPE
RESI.         4.8                  : RESIST       - RESISTIVITY TYPE
RMC .OHMM     4                    : RMC          - RESISTIVITY OF MUD CAKE
RMF .OHMM     3.5                  : RMF          - RESISTIVITY OF MUD FILTRATE
SUFT.C        4                    : SUFT         - SURFACE TEMPERATURE
~A  DEPTH       GR     PHIN     PHID     RESD
   80.000   45.648    0.402    0.398   24.097
   80.250   46.334    0.438    0.445   23.236
   80.500   47.043    0.451    0.512   22.849
   80.750   49.504    0.452    0.476   23.353
   81.000   51.965    0.447    0.421   24.326
   81.250   52.651    0.438    0.432   25.327
   81.500   52.154    0.426    0.444   25.842
   81.750   52.271    0.403    0.400   26.920
   82.000   52.957    0.383    0.395   28.026
   82.250   54.827    0.353    0.390   28.089
   82.500   55.536    0.337    0.373   29.260
   82.750   55.583    0.339    0.374   29.872
   83.000   54.518    0.349    0.400   30.531
   83.250   51.631    0.363    0.423   30.023
   83.500   46.992    0.391    0.446   28.965
   83.750   42.354    0.403    0.456   29.014
   84.000   37.715    0.390    0.400   28.530
   84.250   37.810    0.358    0.380   28.055
   84.500   42.069    0.345    0.396   27.067
   84.750   44.553    0.344    0.418   25.139
   85.000   42.873    0.345    0.426   22.476
   85.250   40.009    0.353    0.434   19.705
   85.500   37.714    0.395    0.435   16.639
   85.750   35.442    0.418    0.409   12.298
   86.000   33.169    0.437    0.420   10.782
   86.250   30.898    0.458    0.351    6.847
   86.500   30.992    0.501    0.355    6.232
   86.750   31.701    0.544    0.338    5.164
   87.000   32.364    0.519    0.317    5.479
   87.250   33.641    0.495    0.306    6.901
   87.500   37.901    0.484    0.300    8.696
   87.750   41.544    0.474    0.291   10.344
   88.000   44.005    0.469    0.285   12.078
   88.250   44.123    0.468    0.294   11.006
   88.500   40.644    0.461    0.301   10.216
   88.750   37.213    0.451    0.311    9.682
   89.000   34.964    0.452    0.311    9.879
   89.250   34.420    0.460    0.313   10.895
   89.500   33.946    0.469    0.316   11.777
   89.750   34.632    0.467    0.322   12.497
   90.000   37.069    0.463    0.330   13.783
   90.250   41.328    0.457    0.333   14.358
   90.500   46.747    0.452    0.337   14.658
   90.750   55.739    0.448    0.338   15.269
   91.000   67.098    0.449    0.330   15.303
   91.250   78.456    0.454    0.315   15.641
   91.500   85.058    0.457    0.305   15.667
   91.750   83.401    0.464    0.292   15.702
   92.000   79.922    0.468    0.280   15.737
   92.250   75.875    0.476    0.292   15.763
   92.500   71.852    0.475    0.301   15.217
   92.750   69.580    0.467    0.314   14.133
   93.000   68.491    0.470    0.330   13.111
   93.250   67.994    0.472    0.341    8.811
   93.500   68.088    0.485    0.323    7.440
   93.750   68.751    0.514    0.307    6.161
   94.000   69.437    0.541    0.307    5.202
   94.250   70.738    0.557    0.307    4.478
   94.500   70.879    0.564    0.306    3.783
   94.750   71.542    0.562    0.310    3.577
   95.000   71.613    0.562    0.310    3.261
   95.250   72.322    0.560    0.308    3.145
   95.500   74.191    0.552    0.306    3.096
   95.750   77.835    0.546    0.303    3.099
   96.000   82.071    0.539    0.301    3.229
   96.250   86.922    0.535    0.301    3.298
   96.500   88.838    0.530    0.300    3.498
   96.750   89.477    0.521    0.296    3.858
   97.000   90.163    0.502    0.294    4.172
   97.250   90.257    0.481    0.293    4.690
   97.500   89.760    0.479    0.295    5.069
   97.750   85.713    0.481    0.301    5.698
   98.000   84.056    0.471    0.305    8.049
   98.250   84.127    0.459    0.306    8.546
   98.500   87.226    0.443    0.309    9.058
   98.750   88.504    0.433    0.318    9.797
   99.000   89.214    0.425    0.324   10.595
   99.250   89.876    0.426    0.336   11.243
   99.500   91.769    0.431    0.354   11.712
   99.750   92.407    0.437    0.379   11.731
  100.000   94.324    0.438    0.348   11.318
  100.250   95.033    0.419    0.346   10.926
  100.500   95.081    0.422    0.345   10.944
  100.750   95.246    0.430    0.344   10.774
  101.000   95.316    0.440    0.341   10.786
  101.250   94.796    0.452    0.338   10.816
  101.500   93.139    0.446    0.338   10.840
  101.750   92.003    0.437    0.338   10.858
  102.000   89.139    0.429    0.339   10.895
  102.250   86.299    0.436    0.340   10.907
  102.500   85.210    0.446    0.340   10.937
  102.750   83.530    0.446    0.337   10.761
  103.000   81.849    0.446    0.336   10.779
  103.250   79.577    0.448    0.333   10.593
  103.500   76.098    0.452    0.330    9.844
  103.750   70.868    0.454    0.328    9.860
  104.000   61.474    0.451    0.324    9.888
  104.250   47.346    0.450    0.326    9.718
  104.500   46.281    0.446    0.327    9.745
  104.750   50.516    0.446    0.329    9.588
  105.000   55.367    0.443    0.327    9.598
  105.250   55.438    0.438    0.328    9.625
  105.500   54.349    0.436    0.327    9.646
  105.750   52.668    0.441    0.327    9.668
  106.000   52.834    0.442    0.321    9.690
  106.250   52.881    0.435    0.311   10.082
  106.500   54.206    0.370    0.291   11.120
  106.750   54.276    0.328    0.231   11.800
  107.000   55.577    0.293    0.175   12.521
  107.250   55.648    0.290    0.246   12.797
  107.500   56.949    0.340    0.299   12.811
  107.750   57.612    0.380    0.327   12.367
  108.000   57.753    0.413    0.347   11.276
  108.250   57.824    0.424    0.348   10.662
  108.500   57.895    0.430    0.347    9.543
  108.750   58.013    0.435    0.346    9.197
  109.000   58.107    0.437    0.346    8.720
  109.250   58.178    0.441    0.342    8.735
  109.500   58.296    0.443    0.338    8.749
  109.750   58.414    0.445    0.329    8.774
  110.000   58.484    0.449    0.323    8.952
  110.250   59.218    0.444    0.322    8.977
  110.500   59.265    0.432    0.322    9.170
  110.750   59.951    0.427    0.325    9.186
  111.000   60.045    0.427    0.323    9.206
  111.250   57.181    0.432    0.322    9.227
  111.500   50.768    0.437    0.322    9.247
  111.750   51.454    0.438    0.323    9.268
  112.000   55.690    0.434    0.325    9.288
  112.250   61.156    0.435    0.327    9.139
  112.500   63.617    0.435    0.327    8.986
  112.750   64.279    0.429    0.327    8.837
  113.000   64.421    0.422    0.325    8.689
  113.250   62.196    0.417    0.321    8.544
  113.500   61.651    0.417    0.319    8.397
  113.750   61.178    0.422    0.318    8.416
  114.000   60.657    0.428    0.322    8.280
  114.250   60.727    0.429    0.326    8.299
  114.500   61.461    0.429    0.327    8.161
  114.750   62.099    0.432    0.329    8.179
  115.000   62.217    0.435    0.325    8.042
  115.250   62.288    0.439    0.321    8.056
  115.500   62.430    0.440    0.316    8.074
  115.750   61.932    0.441    0.312    7.939
  116.000   60.844    0.436    0.310    7.961
  116.250   60.346    0.437    0.310    7.829
  116.500   59.234    0.444    0.310    7.702
  116.750   58.760    0.452    0.309    7.711
  117.000   58.263    0.464    0.308    7.587
  117.250   58.357    0.456    0.308    7.464
  117.500   58.428    0.425    0.309    7.473
  117.750   58.546    0.422    0.309    7.348
  118.000   58.641    0.444    0.311    7.230
  118.250   58.735    0.446    0.314    7.105
  118.500   58.238    0.442    0.311    6.995
  118.750   57.740    0.436    0.306    6.870
  119.000   56.675    0.434    0.302    6.763
  119.250   56.154    0.433    0.302    6.779
  119.500   55.113    0.432    0.303    6.658
  119.750   55.160    0.429    0.303    6.669
  120.000   55.846    0.429    0.301    6.445
  120.250   55.940    0.425    0.298    6.334
  120.500   56.626    0.423    0.298    6.345
  120.750   58.542    0.417    0.297    6.355
  121.000   60.435    0.411    0.299    6.256
  121.250   61.074    0.403    0.300    6.149
  121.500   63.558    0.400    0.305    6.159
  121.750   65.427    0.412    0.306    6.060
  122.000   66.137    0.425    0.305    5.959
  122.250   65.616    0.438    0.303    5.972
  122.500   66.349    0.449    0.302    5.873
  122.750   66.988    0.462    0.299    5.886
  123.000   67.698    0.470    0.294    5.784
  123.250   67.768    0.472    0.289    5.797
