~VERSION INFORMATION
 VERS.                 2.0:   CWLS LOG ASCII STANDARD -VERSION 2.0
 WRAP.                  NO:   ONE LINE PER DEPTH STEP
~WELL INFORMATION BLOCK
#MNEM.UNIT           DATA                    DESCRIPTION OF MNEMONIC
#---------    -------------------            -------------------------------
# Generated from Intellog Unique Number	CS_67_68/WELL/2167
WELL.         06-13-067-07W4                 : Well_name    - WELL
LOC .         00/06-13-067-07W4/0            : Location     - LOCATION
UWI .         00/06-13-067-07W4/0            : Uwi          - UNIQUE WELL ID
ENTR.         SP                             : Entered      - ENTERED BY
SRVC.         SCHLUMBERGER                   : Scn          - SERVICE COMPANY
STRT.M        330                            : top_depth    - START DEPTH
STOP.M        545                            : bot_depth    - STOP DEPTH
STEP.M        0.25                           : increment    - STEP LENGTH
 NULL. -999.2500:NULL Value
~CURVE INFORMATION BLOCK
#MNEM UNIT       ERCB CURVE CODE    CURVE DESCRIPTION
#-----------   ------------------   ----------------------------------
DEPT.M        00 001 00 00         : DEPTH        - DEPTH
ILD .OHMM     00 120 00 00         : RESD         - DEEP RESISTIVITY (DIL)
DPHI.V/V      00 890 00 00         : PHID         - DENSITY POROSITY (LIMESTONE)
NPHI.V/V      00 330 00 00         : PHIN         - NEUTRON POROSITY (LIMESTONE)
GR  .API      00 310 00 00         : GR           - GAMMA RAY
CALI.MM       00 280 01 00         : CAL          - CALIPER
~PARAMETER INFORMATION
#MNEM.UNIT           DATA             DESCRIPTION OF MNEMONIC
#---------         -----------     ------------------------------
GL  .M        648.63               : gl           - GROUND LEVEL ELEVATION
EREF.M        652.41               : kb           - ELEVATION OF DEPTH REFERENCE
DATM.M        652.41               : datum        - DATUM ELEVATION
TDD .M        553                  : tdd          - TOTAL DEPTH DRILLER
RUN .         ONE                  : Run          - RUN NUMBER
ENG .         BILL                 : Engineer     - RECORDING ENGINEER
WIT .         JIM                  : Witness      - WITNESSED BY
MUD .         GEL                  : Mud_type     - MUD TYPE
MATR.         LIMESTONE            : Logunit      - NEUTRON MATRIX
TMAX.C        21                   : BHT          - MAXIMUM RECORDED TEMPERATURE
BHTD.M        501                  : BHTDEP       - MAXIMUM RECORDED TEMPERATURE
MATR.         1                    : LOGUNIT      - NEUTRON MATRIX
RMT .C        25                   : MDTP         - TEMPERATURE OF MUD
NEUT.         1                    : NEUTRON      - NEUTRON TYPE
RESI.         0                    : RESIST       - RESISTIVITY TYPE
RMC .OHMM     0.25                 : RMC          - RESISTIVITY OF MUD CAKE
RMF .OHMM     0.25                 : RMF          - RESISTIVITY OF MUD FILTRATE
SUFT.C        15                   : SUFT         - SURFACE TEMPERATURE
~A  DEPTH     RESD     PHID     PHIN       GR      CAL
# ...
  439.500    3.807    0.332    0.464   59.545  155.364
  439.750    3.925    0.335    0.458   64.599  155.052
  440.000    4.092    0.336    0.455   69.043  154.943
  440.250    4.266    0.331    0.446   67.759  154.428
  440.500    4.464    0.326    0.436   59.343  154.115
  440.750    4.680    0.317    0.425   53.609  153.803
  441.000    4.824    0.310    0.433   51.227  153.491
  441.250    5.010    0.303    0.442   51.467  153.585
  441.500    5.234    0.312    0.441   51.949  153.882
  441.750    5.354    0.310    0.441   53.711  154.077
  442.000    5.436    0.307    0.440   54.926  153.966
  442.250    5.314    0.305    0.435   55.776  153.755
  442.500    5.254    0.308    0.428   56.503  153.647
  442.750    5.254    0.313    0.430   53.633  153.844
  443.000    5.436    0.321    0.436   50.825  154.241
  443.250    6.183    0.321    0.442   51.491  154.640
  443.500    7.571    0.320    0.441   54.351  154.836
  443.750    8.808    0.328    0.428   54.955  155.133
  444.000   10.765    0.334    0.420   54.525  155.430
  444.250   16.138    0.255    0.426   55.130  155.728
  444.500   27.830    0.007    0.301   53.601  156.938
  444.750   38.682    0.000    0.159   50.000  157.743
  445.000   36.826    0.000    0.134   47.619  158.447
  445.250   33.314    0.000    0.125   46.029  158.846
  445.500   15.337    0.000    0.120   46.512  159.245
  445.750    9.926    0.000    0.124   47.422  159.440
  446.000    7.237    0.000    0.134   49.428  159.127
  446.250    5.014    0.000    0.286   53.386  159.019
  446.500    4.049    0.034    0.386   57.892  158.603
  446.750    3.567    0.160    0.420   61.240  158.394
  447.000    3.435    0.225    0.440   64.282  157.776
  447.250    3.435    0.293    0.453   67.204  157.159
  447.500    3.441    0.349    0.454   66.650  156.438
  447.750    3.507    0.346    0.464   63.659  156.128
  448.000    3.608    0.343    0.483   64.020  155.510
  448.250    3.726    0.342    0.497   66.149  154.995
  448.500    3.805    0.341    0.481   68.765  153.972
  448.750    3.914    0.341    0.465   71.503  158.433
  449.000    4.043    0.342    0.473   74.120  165.943
  449.250    4.027    0.390    0.523   76.370  173.555
  449.500    3.798    0.373    0.554   77.219  168.365
  449.750    3.455    0.338    0.526   77.031  164.701
  450.000    3.150    0.289    0.485   78.855  166.319
  450.250    2.754    0.300    0.476   82.141  173.524
  450.500    2.553    0.322    0.505   83.966  176.056
  450.750    2.677    0.306    0.506   86.339  168.226
  451.000    3.210    0.266    0.474   87.919  163.749
  451.250    3.398    0.248    0.468   89.621  160.694
  451.500    3.806    0.247    0.479   91.140  159.467
  451.750    4.184    0.244    0.481   91.562  160.272
  452.000    4.370    0.235    0.476   90.278  161.483
  452.250    3.366    0.230    0.471   89.298  163.202
  452.500    2.588    0.227    0.466   88.501  165.735
  452.750    2.212    0.240    0.470   86.850  172.431
  453.000    2.020    0.300    0.498   84.225  181.363
  453.250    2.001    0.336    0.518   82.209  199.438
  453.500    2.024    0.357    0.543   81.960  222.084
  453.750    2.051    0.352    0.577   82.627  219.537
  454.000    2.098    0.351    0.582   85.547  223.491
  454.250    2.163    0.350    0.577   88.956  226.836
  454.500    2.217    0.341    0.573   91.938  219.920
  454.750    2.204    0.334    0.575   88.764  216.865
  455.000    2.126    0.329    0.577   83.030  222.749
  455.250    2.102    0.338    0.569   80.649  217.459
  455.500    2.118    0.347    0.571   83.265  210.746
  455.750    2.175    0.352    0.600   83.626  205.965
  456.000    2.221    0.339    0.622   81.427  206.464
  456.250    2.311    0.349    0.640   78.131  213.973
  456.500    2.502    0.380    0.659   75.932  221.992
  456.750    2.725    0.408    0.646   75.928  228.994
  457.000    2.934    0.461    0.620   78.727  220.250
  457.250    3.170    0.507    0.606   80.550  209.372
  457.500    3.492    0.354    0.612   80.607  196.667
  457.750    3.724    0.275    0.586   81.212  185.078
  458.000    4.125    0.250    0.521   83.401  169.223
  458.250    4.424    0.235    0.483   84.982  160.479
  458.500    4.543    0.225    0.481   86.866  158.439
  458.750    4.543    0.216    0.486   87.654  157.619
  459.000    4.560    0.220    0.471   85.882  157.408
  459.250    4.595    0.240    0.444   80.026  157.400
  459.500    4.587    0.256    0.415   75.085  157.697
  459.750    4.544    0.257    0.383   80.383  158.498
  460.000    4.492    0.249    0.419   83.913  159.302
  460.250    4.392    0.248    0.435   85.737  159.598
  460.500    4.301    0.252    0.455   84.391  159.798
  460.750    4.277    0.257    0.460   83.229  159.894
  461.000    4.277    0.252    0.463   85.175  159.886
  461.250    4.245    0.240    0.471   87.060  160.184
  461.500    4.229    0.224    0.479   88.823  160.481
  461.750    4.221    0.218    0.477   86.806  161.082
  462.000    4.286    0.232    0.479   85.339  161.583
  462.250    4.335    0.234    0.492   84.725  162.184
  462.500    4.335    0.226    0.496   85.696  164.208
  462.750    4.335    0.248    0.469   87.032  167.248
  463.000    4.311    0.276    0.477   87.028  170.085
  463.250    4.319    0.295    0.496   83.183  174.547
  463.500    4.336    0.304    0.491   80.497  174.134
  463.750    4.279    0.268    0.490   80.248  174.735
  464.000    3.900    0.265    0.492   85.668  176.759
  464.250    3.734    0.288    0.479   90.783  171.468
  464.500    3.998    0.290    0.488   92.851  164.960
  464.750    4.271    0.276    0.500   92.054  160.584
  465.000    4.722    0.265    0.510   91.989  158.951
  465.250    5.113    0.266    0.519   91.314  158.841
  465.500    5.695    0.280    0.499   84.909  158.527
  465.750    6.453    0.291    0.480   79.785  158.522
  466.000    7.201    0.291    0.476   73.502  158.412
  466.250    8.113    0.293    0.469   73.680  158.505
  466.500    9.123    0.294    0.460   69.896  158.702
  466.750   10.279    0.290    0.476   66.296  158.999
  467.000   12.050    0.277    0.495   63.122  159.296
  467.250   13.966    0.048    0.505   57.448  159.289
  467.500   15.794    0.021    0.233   52.873  159.077
  467.750   17.199    0.000    0.206   46.895  158.458
  468.000   17.134    0.027    0.215   48.231  158.147
  468.250   14.896    0.206    0.379   54.260  157.835
  468.500   12.190    0.248    0.410   58.584  157.319
  468.750    9.442    0.272    0.435   65.406  157.005
  469.000    7.398    0.283    0.457   69.485  157.101
  469.250    6.654    0.292    0.468   70.272  157.196
  469.500    5.497    0.296    0.463   71.975  157.390
  469.750    3.504    0.284    0.461   74.225  157.484
  470.000    3.041    0.281    0.458   76.415  158.087
  470.250    2.569    0.351    0.477   74.277  164.276
  470.500    2.087    0.415    0.559   70.249  181.538
  470.750    1.842    0.463    0.600   68.294  214.748
  471.000    1.790    0.497    0.618   67.071  230.487
  471.250    1.754    0.456    0.584   66.701  235.965
  471.500    1.750    0.427    0.542   64.562  220.821
  471.750    1.839    0.515    0.572   63.644  210.858
  472.000    1.987    0.559    0.603   65.955  210.340
  472.250    2.123    0.557    0.621   63.452  202.919
  472.500    2.356    0.481    0.640   66.190  185.641
  472.750    2.793    0.388    0.638   70.330  172.631
  473.000    3.344    0.362    0.563   74.653  164.191
  473.250    3.739    0.347    0.530   79.525  160.425
  473.500    3.942    0.338    0.514   83.969  159.502
  473.750    3.898    0.332    0.510   84.635  158.377
  474.000    3.810    0.328    0.505   80.730  157.556
  474.250    3.725    0.330    0.497   79.385  157.345
  474.500    3.506    0.334    0.487   77.978  157.541
  474.750    3.338    0.338    0.517   77.851  157.534
  475.000    3.263    0.340    0.532   81.626  157.628
  475.250    3.136    0.341    0.506   85.035  157.418
  475.500    3.037    0.339    0.519   83.506  157.105
  475.750    2.913    0.335    0.542   79.296  156.691
