~VERSION INFORMATION
 VERS.                 2.0:   CWLS LOG ASCII STANDARD -VERSION 2.0
 WRAP.                  NO:   ONE LINE PER DEPTH STEP
~WELL INFORMATION BLOCK
#MNEM.UNIT           DATA                    DESCRIPTION OF MNEMONIC
#---------    -------------------            -------------------------------
# Generated from Intellog Unique Number	CN_91_93/WELL/3273
WELL.         AMOCO CANADA PETROLEUM CO.LTD. : Well_name    - WELL
LOC .         00/07-22-093-19W4/0            : Location     - LOCATION
UWI .         00/07-22-093-19W4/0            : Uwi          - UNIQUE WELL ID
ENTR.         JOETTE                         : Entered      - ENTERED BY
SRVC.         SCHLUMBERGER                   : Scn          - SERVICE COMPANY
DATE.         04\29\92                       : Date         - LOG DATE
STRT.F        260                            : top_depth    - START DEPTH
STOP.F        789.856                        : bot_depth    - STOP DEPTH
STEP.F        0.82                           : increment    - STEP LENGTH
 NULL. -999.2500:NULL Value
~CURVE INFORMATION BLOCK
#MNEM UNIT       ERCB CURVE CODE    CURVE DESCRIPTION
#-----------   ------------------   ----------------------------------
DEPT.F        00 001 00 00         : DEPTH        - DEPTH
CALI.IN       00 280 01 00         : CAL          - CALIPER
GR  .API      00 310 00 00         : GR           - GAMMA RAY
NPHI.V/V      00 330 00 00         : PHIN         - NEUTRON POROSITY (SANDSTONE)
DPHI.V/V      00 890 00 00         : PHID         - DENSITY POROSITY (SANDSTONE)
ILD .OHMM     00 120 00 00         : RESD         - DEEP RESISTIVITY (DIL)
~PARAMETER INFORMATION
#MNEM.UNIT           DATA             DESCRIPTION OF MNEMONIC
#---------         -----------     ------------------------------
GL  .F        1711                 : gl           - GROUND LEVEL ELEVATION
EREF.F        1722.6               : kb           - ELEVATION OF DEPTH REFERENCE
DATM.F        1722.6               : datum        - DATUM ELEVATION
TDD .F        787                  : tdd          - TOTAL DEPTH DRILLER
RUN .         ONE                  : Run          - RUN NUMBER
ENG .         JO                   : Engineer     - RECORDING ENGINEER
WIT .         TIM                  : Witness      - WITNESSED BY
MUD .         GEL                  : Mud_type     - MUD TYPE
MATR.         SANDSTONE            : Logunit      - NEUTRON MATRIX
TMAX.F        75                   : BHT          - MAXIMUM RECORDED TEMPERATURE
BHTD.F        787                  : BHTDEP       - MAXIMUM RECORDED TEMPERATURE
RMT .F        47                   : MDTP         - TEMPERATURE OF MUD
MUDD.LB/G     8.8                  : MWT          - MUD DENSITY
NEUT.         1                    : NEUTRON      - NEUTRON TYPE
RESI.         0                    : RESIST       - RESISTIVITY TYPE
RM  .OHMM     2.18                 : RM           - RESISTIVITY OF MUD
RMC .OHMM     2.3                  : RMC          - RESISTIVITY OF MUD CAKE
RMF .OHMM     3.35                 : RMF          - RESISTIVITY OF MUD FILTRATE
SUFT.F        39.2                 : SUFT         - SURFACE TEMPERATURE
~A  DEPTH      CAL       GR     PHIN     PHID     RESD
  260.000    8.919   83.907    0.587    0.406    4.318
  260.820    8.936   87.702    0.590    0.407    3.830
  261.640    9.032   87.966    0.591    0.362    5.114
  262.461    9.247   84.976    0.591    0.323    6.523
  263.281    9.382   82.277    0.594    0.305    7.003
  264.101    9.419   81.651    0.597    0.318    6.864
  264.921    9.436   81.024    0.602    0.336    8.446
  265.741    9.454   80.984    0.596    0.347    9.841
  266.562    9.431   79.171    0.525    0.300   12.555
  267.382    9.350   76.185    0.505    0.233   12.880
  268.202    9.249   65.806    0.534    0.251    9.967
  269.022    9.266   71.088    0.519    0.180    8.450
  269.843    9.303   78.132    0.554    0.137    7.033
  270.663    9.340   79.877    0.581    0.193    5.961
  271.483    9.338   82.204    0.598    0.225    5.533
  272.303    9.355   83.941    0.615    0.244    5.230
  273.123    9.352   85.082    0.609    0.246    4.724
  273.944    9.330   84.159    0.595    0.230    4.590
  274.764    9.347   87.959    0.595    0.223    5.063
  275.584    9.364   91.463    0.584    0.218    4.919
  276.404    9.382   93.204    0.599    0.244    5.234
  277.224    9.399   94.341    0.601    0.263    5.318
  278.045    9.397   91.064    0.597    0.259    6.785
  278.865    9.414   77.727    0.608    0.252    8.275
  279.685    9.411   73.851    0.589    0.221    9.046
  280.505    9.389   73.811    0.578    0.220   10.158
  281.325    9.307   69.639    0.560    0.195   10.331
  282.146    9.305   72.266    0.520    0.182    9.163
  282.966    9.342   80.492    0.457    0.211    9.163
  283.786    9.379   82.233    0.484    0.234    8.644
  284.606    9.396   83.965    0.512    0.239    7.601
  285.427    9.394   83.929    0.530    0.226    9.264
  286.247    9.391   83.011    0.556    0.230    9.593
  287.067    9.349   76.177    0.527    0.207    8.906
  287.887    9.347   76.719    0.531    0.192    7.345
  288.707    9.344   82.299    0.484    0.201    6.695
  289.528    9.344   83.454    0.505    0.211    6.386
  290.348    9.339   84.890    0.577    0.245    6.433
  291.168    9.317   82.787    0.599    0.244    6.660
  291.988    9.295   79.488    0.569    0.246    6.956
  292.808    9.312   77.984    0.555    0.257    6.946
  293.629    9.330   77.353    0.539    0.248    6.626
  294.449    9.347   77.612    0.531    0.255    5.877
  295.269    9.344   76.981    0.574    0.250    5.358
  296.089    9.341   78.127    0.598    0.241    4.794
  296.909    9.359   81.935    0.607    0.253    4.573
  297.730    9.396   81.000    0.621    0.264    4.484
  298.550    9.413   79.782    0.609    0.257    4.558
  299.370    9.431   80.632    0.626    0.255    4.718
  300.190    9.426   82.673    0.618    0.241    4.974
  301.010    9.445   83.819    0.612    0.222    5.488
  301.831    9.445   80.525    0.619    0.236    6.938
  302.651    9.439   77.826    0.632    0.228    7.582
  303.471    9.437   74.840    0.626    0.221    8.215
  304.291    9.435   70.960    0.605    0.201    9.065
  305.112    9.433   70.633    0.547    0.166    9.908
  305.932    9.430   72.956    0.497    0.137    9.893
  306.752    9.388   77.351    0.464    0.208    7.939
  307.572    9.268   80.564    0.548    0.226    7.504
  308.392    9.265   78.156    0.574    0.249    7.291
  309.213    9.302   78.120    0.598    0.274    7.148
  310.033    9.339   81.629    0.596    0.252    7.136
  310.853    9.395   83.356    0.587    0.232    6.992
  311.673    9.395   83.333    0.597    0.235    6.856
  312.493    9.411   83.002    0.603    0.223    6.783
  313.314    9.467   86.215    0.578    0.213    6.700
  314.134    9.484   93.559    0.559    0.209    6.574
  314.954    9.462   97.663    0.582    0.225    6.507
  315.774    9.460  102.345    0.597    0.232    6.320
  316.594    9.437   99.655    0.580    0.236    6.301
  317.415    9.415   97.256    0.569    0.211    6.298
  318.235    9.334   98.397    0.592    0.207    6.345
  319.055    9.173  101.015    0.589    0.193    6.566
  319.875    9.171  100.688    0.561    0.199    6.615
  320.696    9.208   97.403    0.532    0.202    6.544
  321.516    9.224   94.409    0.536    0.199    6.475
  322.336    9.282   92.600    0.536    0.208    6.457
  323.156    9.417   92.264    0.537    0.218    6.392
  323.976    9.454   92.815    0.552    0.187    6.392
  324.797    9.472   91.011    0.546    0.173    6.313
  325.617    9.469   87.130    0.546    0.176    6.358
  326.437    9.467   82.659    0.541    0.172    6.523
  327.257    9.445   77.893    0.577    0.230    6.754
  328.077    9.422   74.907    0.571    0.233    7.251
  328.898    9.420   74.867    0.583    0.256    7.855
  329.718    9.418   73.936    0.566    0.246    9.149
  330.538    9.375   71.250    0.583    0.245    9.149
  331.358    9.353   65.298    0.553    0.230    9.276
  332.178    9.351   63.194    0.530    0.251    8.937
  332.999    9.348   66.412    0.537    0.253    8.602
  333.819    9.366   73.170    0.520    0.267    8.433
  334.639    9.383   75.197    0.503    0.257    7.972
  335.459    9.400   74.566    0.509    0.246    7.401
  336.280    9.418   75.125    0.544    0.237    7.188
  337.100    9.415   78.929    0.521    0.249    7.178
  337.920    9.412   81.552    0.532    0.255    7.164
  338.740    9.370   79.139    0.510    0.257    7.152
  339.560    9.309   78.812    0.507    0.250    6.948
  340.381    9.227   78.186    0.532    0.239    6.508
  341.201    9.205   79.627    0.548    0.242    5.618
  342.021    9.201   82.540    0.557    0.252    5.213
  342.841    9.220   85.158    0.545    0.260    4.884
  343.661    9.277   85.426    0.534    0.252    4.701
  344.482    9.333   85.086    0.587    0.254    4.651
  345.302    9.390   84.464    0.609    0.239    4.644
  346.122    9.426   84.132    0.632    0.236    4.762
  346.942    9.444   86.460    0.601    0.257    4.843
  347.762    9.461   89.078    0.569    0.251    5.013
  348.583    9.458   85.493    0.551    0.245    5.188
  349.403    9.456   82.507    0.563    0.254    5.228
  350.223    9.454   80.099    0.591    0.247    5.266
  351.043    9.450   79.182    0.585    0.245    5.354
  351.864    9.449   80.614    0.569    0.230    5.492
  352.684    9.449   82.359    0.554    0.193    5.686
  353.504    9.443   82.905    0.582    0.242    5.686
  354.324    9.422   82.283    0.563    0.244    5.820
  355.144    9.422   81.361    0.585    0.237    6.194
  355.965    9.415   81.316    0.549    0.208    6.471
  356.785    9.414   83.056    0.526    0.192    6.578
  357.605    9.432   87.151    0.556    0.173    6.388
  358.425    9.427   89.483    0.590    0.200    6.149
  359.245    9.427   88.856    0.582    0.232    6.029
  360.066    9.427   88.221    0.591    0.235    6.016
  360.886    9.421   93.210    0.578    0.223    6.118
  361.706    9.419   90.811    0.563    0.224    6.118
  362.526    9.419   84.273    0.551    0.210    6.208
  363.346    9.414   83.055    0.564    0.225    6.311
  364.167    9.431   85.378    0.546    0.225    6.186
  364.987    9.429   87.709    0.533    0.230    6.008
  365.807    9.429   90.332    0.555    0.219    5.832
  366.627    9.444   89.405    0.595    0.228    5.828
  367.448    9.461   87.892    0.586    0.229    5.714
  368.268    9.459   89.333    0.580    0.227    5.700
  369.088    9.456   90.765    0.575    0.212    5.700
  369.908    9.453   91.325    0.581    0.208    5.734
  370.728    9.449   91.584    0.597    0.234    5.938
  371.549    9.429   90.957    0.589    0.227    6.091
  372.369    9.367   87.663    0.570    0.201    6.127
  373.189    9.306   89.699    0.558    0.200    6.123
  374.009    9.303   92.913    0.565    0.228    6.004
  374.829    9.360   91.695    0.567    0.234    5.779
  375.650    9.436   92.836    0.585    0.227    5.714
  376.470    9.436   94.277    0.594    0.229    5.714
  377.290    9.470   90.992    0.559    0.238    5.747
  378.110    9.468   88.293    0.539    0.244    6.007
  378.930    9.446   86.180    0.537    0.237    6.007
