~VERSION INFORMATION
 VERS.                 2.0:   CWLS LOG ASCII STANDARD -VERSION 2.0
 WRAP.                  NO:   ONE LINE PER DEPTH STEP
~WELL INFORMATION BLOCK
#MNEM.UNIT           DATA                    DESCRIPTION OF MNEMONIC
#---------    -------------------            -------------------------------
# Generated from Intellog Unique Number	CS_77_79/WELL/903
WELL.         CANADIAN WORLDWIDE ENERGY      : Well_name    - WELL
LOC .         00/07-22-077-05W4/0            : Location     - LOCATION
UWI .         00/07-22-077-05W4/0            : Uwi          - UNIQUE WELL ID
ENTR.         SP                             : Entered      - ENTERED BY
SRVC.         SCHLUMBERGER                   : Scn          - SERVICE COMPANY
STRT.M        175                            : top_depth    - START DEPTH
STOP.M        425                            : bot_depth    - STOP DEPTH
STEP.M        0.25                           : increment    - STEP LENGTH
 NULL. -999.2500:NULL Value
~CURVE INFORMATION BLOCK
#MNEM UNIT       ERCB CURVE CODE    CURVE DESCRIPTION
#-----------   ------------------   ----------------------------------
DEPT.M        00 001 00 00         : DEPTH        - DEPTH
GR  .API      00 310 00 00         : GR           - GAMMA RAY
DPHI.V/V      00 890 00 00         : PHID         - DENSITY POROSITY (LIMESTONE)
NPHI.V/V      00 330 00 00         : PHIN         - NEUTRON POROSITY (LIMESTONE)
ILD .OHMM     00 120 00 00         : RESD         - DEEP RESISTIVITY (DIL)
~PARAMETER INFORMATION
#MNEM.UNIT           DATA             DESCRIPTION OF MNEMONIC
#---------         -----------     ------------------------------
GL  .M        582                  : gl           - GROUND LEVEL ELEVATION
EREF.M        585                  : kb           - ELEVATION OF DEPTH REFERENCE
DATM.M        582                  : datum        - DATUM ELEVATION
TDD .M        434                  : tdd          - TOTAL DEPTH DRILLER
RUN .         ONE                  : Run          - RUN NUMBER
ENG .         BILL                 : Engineer     - RECORDING ENGINEER
WIT .         JIM                  : Witness      - WITNESSED BY
MUD .         GEL                  : Mud_type     - MUD TYPE
MATR.         LIMESTONE            : Logunit      - NEUTRON MATRIX
TMAX.C        23                   : BHT          - MAXIMUM RECORDED TEMPERATURE
BHTD.M        434                  : BHTDEP       - MAXIMUM RECORDED TEMPERATURE
MATR.         1                    : LOGUNIT      - NEUTRON MATRIX
RMT .C        25                   : MDTP         - TEMPERATURE OF MUD
NEUT.         1                    : NEUTRON      - NEUTRON TYPE
RESI.         0                    : RESIST       - RESISTIVITY TYPE
RMC .OHMM     0.25                 : RMC          - RESISTIVITY OF MUD CAKE
RMF .OHMM     0.25                 : RMF          - RESISTIVITY OF MUD FILTRATE
SUFT.C        15                   : SUFT         - SURFACE TEMPERATURE
~A  DEPTH       GR     PHID     PHIN     RESD
# ...
  305.500   76.834    0.267    0.430    9.164
  305.750   83.698    0.243    0.422    8.661
  306.000   88.067    0.226    0.416    8.185
  306.250   92.438    0.215    0.398    7.882
  306.500   97.433    0.219    0.385    7.881
  306.750   91.846    0.222    0.375    8.031
  307.000   88.124    0.238    0.407    8.497
  307.250   88.766    0.259    0.422    8.823
  307.500   90.649    0.269    0.416    9.512
  307.750   90.659    0.272    0.414    9.692
  308.000   87.564    0.278    0.416    9.876
  308.250   85.710    0.285    0.409   10.254
  308.500   85.726    0.285    0.407   10.063
  308.750   87.606    0.268    0.412   10.062
  309.000   82.020    0.274    0.417    9.690
  309.250   77.680    0.284    0.420    9.332
  309.500   78.314    0.286    0.427    9.157
  309.750   84.553    0.282    0.459    8.654
  310.000   82.078    0.280    0.461    8.179
  310.250   84.585    0.272    0.443    7.876
  310.500   85.843    0.251    0.418    7.168
  310.750   85.234    0.221    0.419    6.403
  311.000   83.382    0.206    0.424    5.507
  311.250   90.247    0.218    0.439    4.737
  311.500   92.748    0.228    0.450    3.999
  311.750   91.521    0.228    0.456    3.376
  312.000   94.023    0.224    0.459    3.571
  312.250   93.415    0.234    0.461    3.851
  312.500   90.321    0.244    0.475    4.311
  312.750   89.091    0.248    0.466    4.561
  313.000   95.333    0.255    0.459    4.917
  313.250   97.834    0.243    0.456    5.011
  313.500   96.604    0.239    0.456    4.735
  313.750   98.487    0.249    0.456    4.392
  314.000  100.369    0.257    0.491    4.150
  314.250   98.517    0.260    0.510    4.073
  314.500   93.549    0.261    0.512    3.997
  314.750   96.057    0.266    0.509    4.150
  315.000   94.826    0.271    0.495    4.309
  315.250   91.726    0.274    0.466    4.645
  315.500   81.783    0.263    0.415    5.201
  315.750   68.105    0.085    0.390    6.642
  316.000   61.895    0.062    0.361    7.577
  316.250   60.048    0.057    0.301    8.808
  316.500   60.686    0.084    0.301   10.048
  316.750   63.807    0.137    0.337   10.833
  317.000   72.537    0.221    0.368   11.248
  317.250   81.264    0.259    0.399    9.859
  317.500   83.147    0.309    0.436    8.806
  317.750   76.314    0.323    0.463    8.480
  318.000   70.728    0.320    0.456    8.014
  318.250   81.325    0.317    0.449    7.718
  318.500   84.453    0.317    0.441    7.293
  318.750   81.976    0.268    0.437    7.157
  319.000   80.747    0.236    0.451    6.892
  319.250   82.004    0.223    0.455    6.637
  319.500   83.889    0.217    0.449    6.513
  319.750   87.025    0.222    0.438    6.392
  320.000   88.282    0.227    0.428    6.637
  320.250   88.914    0.227    0.436    6.762
  320.500   90.793    0.228    0.436    6.890
  320.750   92.052    0.233    0.422    7.021
  321.000   91.445    0.223    0.428    7.021
  321.250   88.973    0.218    0.444    6.890
  321.500   89.609    0.222    0.414    6.889
  321.750   83.402    0.237    0.419    6.889
  322.000   80.924    0.240    0.448    6.889
  322.250   79.077    0.243    0.460    6.888
  322.500   78.466    0.246    0.445    6.888
  322.750   83.459    0.249    0.417    6.888
  323.000   89.700    0.241    0.397    6.887
  323.250   92.823    0.235    0.385    6.887
  323.500   88.483    0.251    0.397    6.887
  323.750   84.144    0.267    0.407    6.758
  324.000   82.911    0.276    0.410    6.508
  324.250   84.172    0.259    0.413    6.150
  324.500   87.300    0.215    0.441    5.192
  324.750   87.936    0.226    0.461    4.815
  325.000   87.957    0.226    0.473    4.064
  325.250   88.590    0.224    0.487    3.304
  325.500   89.222    0.247    0.518    2.951
  325.750   91.729    0.276    0.544    2.636
  326.000   91.741    0.282    0.555    2.399
  326.250   89.270    0.265    0.552    2.354
  326.500   89.283    0.271    0.541    2.310
  326.750   88.052    0.277    0.534    2.354
  327.000   86.826    0.283    0.535    2.399
  327.250   86.838    0.279    0.527    2.398
  327.500   88.723    0.279    0.506    2.398
  327.750   91.224    0.278    0.516    2.444
  328.000   93.730    0.268    0.532    2.586
  328.250   96.236    0.256    0.528    2.841
  328.500   96.247    0.258    0.516    3.006
  328.750   91.907    0.259    0.501    3.628
  329.000   90.676    0.240    0.474    3.911
  329.250   91.938    0.227    0.433    4.462
  329.500   91.951    0.225    0.438    4.811
  329.750   88.852    0.226    0.433    5.187
  330.000   83.890    0.222    0.422    5.806
  330.250   82.038    0.218    0.410    6.143
  330.500   81.433    0.196    0.404    6.379
  330.750   82.065    0.170    0.396    6.379
  331.000   85.195    0.190    0.384    6.028
  331.250   89.567    0.206    0.389    5.486
  331.500   93.315    0.243    0.419    5.088
  331.750   95.819    0.256    0.437    4.719
  332.000   95.833    0.238    0.445    4.544
  332.250   92.740    0.219    0.428    4.459
  332.500   91.510    0.214    0.408    4.376
  332.750   90.898    0.208    0.406    4.376
  333.000   90.916    0.207    0.418    4.214
  333.250   92.173    0.209    0.437    4.135
  333.500   96.544    0.214    0.448    3.982
  333.750  100.917    0.225    0.456    3.908
  334.000  102.800    0.224    0.460    3.693
  334.250  100.322    0.222    0.451    3.693
  334.500   98.473    0.219    0.457    3.624
  334.750   97.243    0.219    0.461    3.624
  335.000   96.633    0.222    0.459    3.763
  335.250   99.137    0.225    0.454    4.134
  335.500   94.176    0.218    0.440    4.457
  335.750   93.565    0.221    0.423    5.084
  336.000   92.958    0.226    0.412    5.586
  336.250   93.595    0.214    0.404    6.253
  336.500   95.476    0.200    0.402    7.000
  336.750   94.247    0.195    0.404    7.986
  337.000   86.171    0.203    0.400    8.449
  337.250   80.584    0.206    0.382    9.459
  337.500   77.487    0.210    0.357   10.198
  337.750   71.278    0.193    0.326   11.417
  338.000   57.599    0.073    0.304   12.080
  338.250   54.501    0.056    0.287   13.024
  338.500   59.500    0.061    0.271   13.523
  338.750   64.490    0.206    0.278   14.041
  339.000   69.488    0.245    0.290   14.040
  339.250   71.993    0.275    0.303   13.521
  339.500   72.626    0.324    0.321   12.076
  339.750   70.776    0.314    0.310   10.585
  340.000   69.543    0.274    0.294    9.454
  340.250   64.580    0.232    0.305    8.444
  340.500   62.727    0.236    0.309    6.995
  340.750   76.437    0.259    0.316    6.611
  341.000   88.276    0.237    0.310    7.263
  341.250   78.954    0.230    0.305    8.285
  341.500   60.297    0.246    0.220   10.191
  341.750   42.885    0.270    0.202   12.772
  342.000   55.350    0.312    0.216   16.312
  342.250   59.096    0.336    0.234   19.690
  342.500   60.980    0.363    0.242   21.632
  342.750   61.615    0.347    0.216   21.631
  343.000   67.860    0.350    0.200   19.687
  343.250   72.849    0.360    0.214   17.918
  343.500   84.067    0.324    0.249   15.125
  343.750   82.216    0.234    0.296   13.509
  344.000   62.935    0.249    0.329   12.295
  344.250   51.124    0.270    0.335   11.191
  344.500   58.612    0.255    0.334   10.185
  344.750   67.961    0.219    0.332    9.808
  345.000   97.849    0.171    0.339    9.625
  345.250  104.712    0.151    0.344    9.445
  345.500  105.348    0.154    0.355    9.624
  345.750  102.874    0.161    0.355    9.624
  346.000   97.908    0.168    0.345    9.806
  346.250   95.434    0.164    0.339    9.992
  346.500   94.830    0.156    0.333    9.991
  346.750   94.846    0.149    0.347    9.991
  347.000   93.612    0.158    0.357   10.180
  347.250   93.630    0.168    0.354   10.373
  347.500   94.267    0.191    0.366   10.569
  347.750   93.658    0.223    0.378   10.770
  348.000   86.826    0.246    0.392   11.395
  348.250   82.483    0.268    0.392   11.611
  348.500   79.389    0.262    0.379   12.285
  348.750   76.912    0.264    0.387   12.518
