~VERSION INFORMATION
 VERS.                 2.0:   CWLS LOG ASCII STANDARD -VERSION 2.0
 WRAP.                  NO:   ONE LINE PER DEPTH STEP
~WELL INFORMATION BLOCK
#MNEM.UNIT           DATA                    DESCRIPTION OF MNEMONIC
#---------    -------------------            -------------------------------
# Generated from Intellog Unique Number	CW_82_90/WELL/3060
WELL.         TEXEX WABASCA                  : Well_name    - WELL
LOC .         00/07-01-085-22W4/0            : Location     - LOCATION
UWI .         00/07-01-085-22W4/0            : Uwi          - UNIQUE WELL ID
ENTR.         JAYE                           : Entered      - ENTERED BY
SRVC.         WESTERN ATLAS                  : Scn          - SERVICE COMPANY
DATE.         4 FEB 75                       : Date         - LOG DATE
STRT.M        192.024                        : top_depth    - START DEPTH
STOP.M        426.774                        : bot_depth    - STOP DEPTH
STEP.M        0.25                           : increment    - STEP LENGTH
 NULL. -999.2500:NULL Value
~CURVE INFORMATION BLOCK
#MNEM UNIT       ERCB CURVE CODE    CURVE DESCRIPTION
#-----------   ------------------   ----------------------------------
DEPT.M        00 001 00 00         : DEPTH        - DEPTH
CALI.MM       00 280 01 00         : CAL          - CALIPER
GR  .API      00 310 00 00         : GR           - GAMMA RAY
NPHI.V/V      00 330 00 00         : PHIN         - NEUTRON POROSITY (SANDSTONE)
DPHI.V/V      00 890 00 00         : PHID         - DENSITY POROSITY (SANDSTONE)
ILD .OHMM     00 120 00 00         : RESD         - DEEP RESISTIVITY (DIL)
~PARAMETER INFORMATION
#MNEM.UNIT           DATA             DESCRIPTION OF MNEMONIC
#---------         -----------     ------------------------------
GL  .M        605.485              : gl           - GROUND LEVEL ELEVATION
EREF.M        608.533              : kb           - ELEVATION OF DEPTH REFERENCE
DATM.M        605.485              : datum        - DATUM ELEVATION
TDD .M        380.695              : tdd          - TOTAL DEPTH DRILLER
RUN .         ONE                  : Run          - RUN NUMBER
ENG .         CLARK                : Engineer     - RECORDING ENGINEER
WIT .         McDOUGAL             : Witness      - WITNESSED BY
MUD .         CHEM GEL             : Mud_type     - MUD TYPE
MATR.         SANDSTONE            : Logunit      - NEUTRON MATRIX
TMAX.C        25                   : BHT          - MAXIMUM RECORDED TEMPERATURE
BHTD.M        380.695              : BHTDEP       - MAXIMUM RECORDED TEMPERATURE
RMT .C        15.5556              : MDTP         - TEMPERATURE OF MUD
MUDD.KG/M     9200                 : MWT          - MUD DENSITY
NEUT.         1                    : NEUTRON      - NEUTRON TYPE
RESI.         0                    : RESIST       - RESISTIVITY TYPE
RM  .OHMM     8.8                  : RM           - RESISTIVITY OF MUD
RMC .OHMM     0                    : RMC          - RESISTIVITY OF MUD CAKE
RMF .OHMM     0                    : RMF          - RESISTIVITY OF MUD FILTRATE
SUFT.C        4                    : SUFT         - SURFACE TEMPERATURE
~A  DEPTH      CAL       GR     PHIN     PHID     RESD
# ...
  338.024  235.763   35.823    0.295    0.088   12.766
  338.274  233.943   42.886    0.403    0.070   12.755
  338.524  233.351   48.112    0.424    0.056   12.745
  338.774  232.566   46.912    0.427    0.136   12.735
  339.024  232.601   49.014    0.429    0.168   12.725
  339.274  233.053   49.469    0.425    0.175   12.713
  339.524  233.196   49.059    0.430    0.175   12.702
  339.774  233.134   49.880    0.438    0.165   12.578
  340.024  232.853   47.821    0.425    0.158   12.454
  340.274  232.064   41.536    0.387    0.122   12.330
  340.524  231.382   41.377    0.380    0.133   12.209
  340.774  231.834   41.151    0.372    0.152   12.089
  341.024  232.490   42.707    0.361    0.165   11.969
  341.274  232.940   41.262    0.350    0.188   11.960
  341.524  233.084   38.586    0.348    0.211   11.951
  341.774  232.916   39.098    0.357    0.211   11.832
  342.024  231.501   39.063    0.375    0.110   11.823
  342.274  232.165   41.718    0.386    0.072   11.812
  342.524  233.032   43.699    0.398    0.107   11.802
  342.774  233.174   43.660    0.409    0.154   11.793
  343.024  233.001   43.743    0.418    0.155   11.678
  343.274  232.416   43.645    0.419    0.144   11.562
  343.524  231.943   43.115    0.406    0.166   11.552
  343.774  231.772   42.770    0.393    0.158   11.754
  344.024  231.806   42.487    0.375    0.150   12.067
  344.274  231.854   43.000    0.376    0.161   12.391
  344.524  231.676   43.819    0.382    0.141   12.495
  344.774  231.301   43.961    0.391    0.092   12.598
  345.024  230.405   41.719    0.385    0.074   12.361
  345.274  228.163   44.802    0.386    0.133   11.911
  345.524  230.694   47.645    0.401    0.169   11.687
  345.774  231.661   48.525    0.397    0.160   11.678
  346.024  232.122   48.237    0.393    0.145   11.990
  346.274  232.567   46.913    0.390    0.137   12.424
  346.524  232.816   47.241    0.405    0.157   13.104
  346.774  233.165   48.549    0.402    0.159   13.336
  347.024  233.197   46.187    0.397    0.127   13.570
  347.274  233.138   47.983    0.398    0.123   13.678
  347.524  232.863   51.312    0.393    0.136   13.670
  347.774  232.490   54.765    0.380    0.145   13.659
  348.024  232.937   55.398    0.372    0.152   13.646
  348.274  232.976   56.093    0.372    0.162   13.636
  348.524  233.122   54.836    0.377    0.155   13.501
  348.774  233.273   52.464    0.374    0.144   13.490
  349.024  233.721   46.977    0.357    0.111   13.355
  349.274  233.859   39.408    0.316    0.002   13.466
  349.524  233.786   45.983    0.298    0.026   13.578
  349.774  233.207   45.944    0.347    0.100   13.942
  350.024  232.832   39.597    0.348    0.127   15.535
  350.274  233.280   43.844    0.337    0.142   16.689
  350.524  232.902   45.827    0.323    0.155   16.980
  350.774  231.492   45.605    0.314    0.153   16.360
  351.024  228.214   41.279    0.303    0.124   15.625
  351.274  225.966   34.814    0.295    0.027   13.747
  351.524  226.627   40.223    0.311    0.091   12.546
  351.774  228.636   44.105    0.340    0.158   11.138
  352.024  230.129   43.206    0.360    0.154   10.258
  352.274  230.372   43.721    0.357    0.155    9.274
  352.524  230.723   39.640    0.355    0.161    8.856
  352.774  231.600   40.886    0.356    0.160    8.770
  353.024  231.731   42.870    0.352    0.156    9.593
  353.274  231.456   41.482    0.345    0.155   10.215
  353.524  231.909   36.730    0.343    0.159   10.976
  353.774  233.089   34.916    0.346    0.168   12.007
  354.024  234.890   34.083    0.344    0.164   12.899
  354.274  236.585   33.128    0.326    0.091   13.247
  354.524  237.972   30.390    0.295    0.005   14.103
  354.774  237.805   30.390    0.275   -0.001   14.478
  355.024  236.187   30.390    0.263    0.008   14.337
  355.274  235.495   35.677    0.271    0.025   13.940
  355.524  235.952   34.032    0.287    0.044   13.557
  355.774  235.987   35.953    0.309    0.067   12.942
  356.024  235.298   35.487    0.331    0.093   12.473
  356.274  235.648   33.124    0.344    0.143   12.018
  356.524  236.315   36.515    0.350    0.147   11.580
  356.774  236.759   37.396    0.342    0.192   11.465
  357.024  237.111   34.290    0.332    0.148   11.456
  357.274  238.081   32.292    0.299    0.126   11.657
  357.524  241.437   33.969    0.283    0.067   11.861
  357.774  244.067   31.113    0.271    0.039   11.957
  358.024  244.415   32.055    0.269    0.005   12.058
  358.274  248.191   35.628    0.278    0.018   12.155
  358.524  247.504   42.813    0.351    0.055   12.037
  358.774  247.032   46.509    0.366    0.078   11.812
  359.024  246.849   42.858    0.375    0.169   11.590
  359.274  246.888   44.596    0.382    0.165   11.165
  359.524  247.034   44.193    0.383    0.150   10.758
  359.774  247.799   38.947    0.380    0.134   10.365
  360.024  248.868   39.586    0.369    0.098   10.359
  360.274  249.222   43.646    0.359    0.090   10.444
  360.524  247.293   45.875    0.358    0.106   10.435
  360.774  246.501   39.649    0.353    0.044   10.427
  361.024  245.814   42.003    0.346    0.047   10.419
  361.274  244.911   44.781    0.381    0.114   10.316
  361.524  243.500   39.471    0.385    0.171   10.214
  361.774  241.673   42.494    0.387    0.164   10.204
  362.024  238.289   44.230    0.389    0.163   10.480
  362.274  234.076   44.133    0.383    0.164   11.889
  362.524  232.980   44.645    0.378    0.153   13.126
  362.774  234.463   47.178    0.378    0.139   13.850
  363.024  236.471   51.362    0.375    0.067   14.350
  363.274  234.851   52.855    0.369    0.039   14.597
  363.524  231.367   50.734    0.370    0.043   14.322
  363.774  228.601   45.735    0.382    0.100   14.313
  364.024  222.316   40.861    0.387    0.135   14.432
  364.274  220.801   38.923    0.386    0.163   14.952
  364.524  225.093   42.130    0.383    0.231   15.632
  364.774  227.927   47.295    0.382    0.245   16.052
  365.024  230.455   43.828    0.385    0.240   16.186
  365.274  231.530   29.158    0.389    0.223   15.882
  365.524  231.667   29.119    0.392    0.208   15.164
  365.774  230.052   25.610    0.391    0.184   14.477
  366.024  228.745   25.333    0.395    0.177   14.336
  366.274  226.545   26.761    0.396    0.170   14.589
  366.524  226.545   26.607    0.398    0.190   14.975
  366.774  225.766   24.855    0.398    0.191   15.099
  367.024  225.780   25.125    0.400    0.192   15.364
  367.274  226.001   26.291    0.402    0.192   15.775
  367.524  226.331   26.704    0.403    0.193   16.345
  367.774  226.661   27.086    0.404    0.196   16.936
  368.024  227.934   27.420    0.406    0.197   18.030
  368.274  229.619   26.961    0.407    0.196   18.854
  368.524  232.233   24.779    0.409    0.197   21.004
  368.774  235.158   24.194    0.411    0.202   22.983
  369.024  236.946   27.768    0.412    0.193   25.370
  369.274  235.510   23.871    0.413    0.185   27.012
  369.524  232.935   21.802    0.414    0.187   27.738
  369.774  232.018   20.903    0.415    0.192   27.463
  370.024  232.140   20.382    0.418    0.201   26.224
  370.274  232.574   20.174    0.424    0.206   24.588
  370.524  232.386   20.321    0.427    0.207   22.846
  370.774  231.884   21.632    0.431    0.207   21.230
  371.024  231.905   23.306    0.436    0.207   19.373
  371.274  233.280   23.948    0.440    0.208   18.666
  371.524  234.439   24.280    0.442    0.209   19.342
  371.774  236.121   24.305    0.442    0.210   20.971
  372.024  236.972   24.634    0.455    0.209   22.733
  372.274  235.743   27.599    0.458    0.211   24.204
  372.524  244.493   28.543    0.465    0.210   24.408
  372.774  246.694   28.261    0.465    0.196   23.519
  373.024  248.283   27.838    0.463    0.198   21.653
  373.274  248.193   28.174    0.462    0.216   20.492
  373.524  245.922   28.393    0.468    0.239   18.529
  373.774  243.967   23.151    0.471    0.245   16.305
  374.024  244.618   20.966    0.467    0.269   14.089
  374.274  244.941   21.228    0.464    0.268   12.973
