~VERSION INFORMATION
 VERS.                 2.0:   CWLS LOG ASCII STANDARD -VERSION 2.0
 WRAP.                  NO:   ONE LINE PER DEPTH STEP
~WELL INFORMATION BLOCK
#MNEM.UNIT           DATA                    DESCRIPTION OF MNEMONIC
#---------    -------------------            -------------------------------
# Generated from Intellog Unique Number	CS_73_76/WELL/3226
WELL.         PRECABRIAMN SHIELD RESOURC     : Well_name    - WELL
LOC .         00/08-36-076-10W4/0            : Location     - LOCATION
UWI .         00/08-36-076-10W4/0            : Uwi          - UNIQUE WELL ID
ENTR.         SP                             : Entered      - ENTERED BY
SRVC.         SCHLUMBERGER                   : Scn          - SERVICE COMPANY
STRT.M        225                            : top_depth    - START DEPTH
STOP.M        440                            : bot_depth    - STOP DEPTH
STEP.M        0.25                           : increment    - STEP LENGTH
 NULL. -999.2500:NULL Value
~CURVE INFORMATION BLOCK
#MNEM UNIT       ERCB CURVE CODE    CURVE DESCRIPTION
#-----------   ------------------   ----------------------------------
DEPT.M        00 001 00 00         : DEPTH        - DEPTH
GR  .API      00 310 00 00         : GR           - GAMMA RAY
DPHI.V/V      00 890 00 00         : PHID         - DENSITY POROSITY (LIMESTONE)
NPHI.V/V      00 330 00 00         : PHIN         - NEUTRON POROSITY (LIMESTONE)
ILD .OHMM     00 120 00 00         : RESD         - DEEP RESISTIVITY (DIL)
~PARAMETER INFORMATION
#MNEM.UNIT           DATA             DESCRIPTION OF MNEMONIC
#---------         -----------     ------------------------------
GL  .M        639.1                : gl           - GROUND LEVEL ELEVATION
EREF.M        642.6                : kb           - ELEVATION OF DEPTH REFERENCE
DATM.M        639.1                : datum        - DATUM ELEVATION
TDD .M        454                  : tdd          - TOTAL DEPTH DRILLER
RUN .         ONE                  : Run          - RUN NUMBER
ENG .         BILL                 : Engineer     - RECORDING ENGINEER
WIT .         JIM                  : Witness      - WITNESSED BY
MUD .         GEL                  : Mud_type     - MUD TYPE
MATR.         LIMESTONE            : Logunit      - NEUTRON MATRIX
TMAX.C        60                   : BHT          - MAXIMUM RECORDED TEMPERATURE
BHTD.M        2072                 : BHTDEP       - MAXIMUM RECORDED TEMPERATURE
MATR.         1                    : LOGUNIT      - NEUTRON MATRIX
RMT .C        25                   : MDTP         - TEMPERATURE OF MUD
NEUT.         1                    : NEUTRON      - NEUTRON TYPE
RESI.         0                    : RESIST       - RESISTIVITY TYPE
RMC .OHMM     0.25                 : RMC          - RESISTIVITY OF MUD CAKE
RMF .OHMM     0.25                 : RMF          - RESISTIVITY OF MUD FILTRATE
SUFT.C        15                   : SUFT         - SURFACE TEMPERATURE
~A  DEPTH       GR     PHID     PHIN     RESD
# ...
  399.000   92.608    0.259    0.390    4.485
  399.250   79.770    0.268    0.371    5.405
  399.500   72.441    0.279    0.366    6.515
  399.750   64.503    0.285    0.362    7.152
  400.000   63.301    0.286    0.358    8.619
  400.250   64.546    0.281    0.355    9.822
  400.500   63.968    0.275    0.350   10.986
  400.750   63.981    0.270    0.349   11.403
  401.000   64.613    0.262    0.356   12.287
  401.250   65.252    0.255    0.356   12.754
  401.500   65.877    0.237    0.353   13.238
  401.750   67.126    0.208    0.353   13.741
  402.000   68.376    0.181    0.356   14.533
  402.250   69.623    0.198    0.365   15.085
  402.500   70.253    0.230    0.360   15.953
  402.750   70.882    0.239    0.348   16.872
  403.000   69.067    0.248    0.344   18.521
  403.250   67.867    0.265    0.343   21.909
  403.500   66.661    0.287    0.350   24.052
  403.750   64.235    0.298    0.360   25.436
  404.000   59.358    0.311    0.362   25.436
  404.250   52.030    0.317    0.369   24.964
  404.500   56.956    0.317    0.382   23.166
  404.750   64.945    0.316    0.385   21.904
  405.000   65.569    0.305    0.379   19.582
  405.250   71.708    0.293    0.367   18.172
  405.500   83.363    0.285    0.368   17.181
  405.750   81.551    0.296    0.379   17.180
  406.000   81.567    0.301    0.383   17.504
  406.250   82.202    0.305    0.384   18.169
  406.500   82.838    0.301    0.375   18.510
  406.750   81.636    0.298    0.369   18.509
  407.000   77.980    0.296    0.363   18.166
  407.250   78.620    0.292    0.364   17.500
  407.500   79.250    0.286    0.370   16.240
  407.750   83.557    0.280    0.371   15.071
  408.000   87.861    0.263    0.371   14.518
  408.250   93.395    0.251    0.370   14.517
  408.500  104.435    0.241    0.370   14.516
  408.750  114.864    0.243    0.381   15.936
  409.000   90.395    0.257    0.377   18.502
  409.250   71.442    0.270    0.366   22.299
  409.500   63.503    0.253    0.361   25.890
  409.750   59.235    0.240    0.356   31.791
  410.000   50.689    0.248    0.350   34.255
  410.250   44.584    0.286    0.349   32.387
  410.500   47.666    0.286    0.349   30.055
  410.750   56.266    0.277    0.349   26.372
  411.000   62.407    0.259    0.345   24.473
  411.250   70.393    0.241    0.342   23.140
  411.500   72.853    0.222    0.340   20.686
  411.750   77.160    0.215    0.340   19.197
  412.000   78.411    0.201    0.343   17.815
  412.250   76.596    0.223    0.345   17.814
  412.500   72.941    0.259    0.351   18.491
  412.750   68.070    0.299    0.358   18.839
  413.000   71.763    0.313    0.356   19.193
  413.250   76.684    0.296    0.353   18.488
  413.500   82.218    0.277    0.348   17.481
  413.750   84.678    0.241    0.348   16.840
  414.000   89.599    0.223    0.359   15.054
  414.250   89.625    0.202    0.369   15.921
  414.500   84.746    0.240    0.379   18.484
  414.750   76.809    0.273    0.387   22.698
  415.000   67.033    0.319    0.390   34.225
  415.250   54.810    0.341    0.390   42.025
  415.500   52.995    0.343    0.386   44.444
  415.750   53.626    0.340    0.380   41.244
  416.000   54.267    0.336    0.379   35.521
  416.250   55.510    0.329    0.371   30.025
  416.500   60.425    0.282    0.364   26.346
  416.750   69.628    0.274    0.359   27.347
  417.000   78.223    0.287    0.356   31.751
  417.250   69.063    0.320    0.355   42.802
  417.500   58.673    0.336    0.355   61.024
  417.750   46.449    0.341    0.356   70.851
  418.000   33.004    0.345    0.360   73.543
  418.250   40.376    0.347    0.365   72.180
  418.500   49.585    0.342    0.370   69.531
  418.750   53.884    0.339    0.368   62.160
  419.000   58.802    0.338    0.363   58.772
  419.250   61.276    0.342    0.361   51.569
  419.500   61.904    0.344    0.362   47.857
  419.750   63.150    0.346    0.372   40.453
  420.000   64.396    0.352    0.383   35.496
  420.250   63.805    0.356    0.384   27.331
  420.500   60.156    0.360    0.378   20.272
  420.750   57.725    0.360    0.372   17.136
  421.000   59.594    0.342    0.370   14.758
  421.250   62.058    0.322    0.366   13.442
  421.500   66.367    0.312    0.361   12.244
  421.750   69.445    0.303    0.362   11.362
  422.000   72.525    0.288    0.362   10.743
  422.250   73.777    0.283    0.363   10.349
  422.500   75.018    0.287    0.363    9.969
  422.750   78.101    0.286    0.360    9.784
  423.000   84.855    0.269    0.359    9.784
  423.250   92.227    0.252    0.358    9.602
  423.500   95.308    0.228    0.358    9.424
  423.750   95.332    0.208    0.357    9.249
  424.000   93.527    0.189    0.354    9.078
  424.250   93.534    0.217    0.354    8.583
  424.500   95.395    0.239    0.353    8.268
  424.750   96.638    0.232    0.354    8.115
  425.000   97.885    0.219    0.359    7.964
  425.250   96.683    0.214    0.366    7.964
  425.500   97.326    0.210    0.366    7.964
  425.750   99.786    0.210    0.366    8.114
  426.000  105.936    0.211    0.371    8.742
  426.250  109.011    0.211    0.378    9.962
  426.500  108.421    0.218    0.376   11.784
  426.750  106.605    0.232    0.370   15.886
  427.000   96.216    0.295    0.363   20.631
  427.250   83.993    0.312    0.376   28.336
  427.500   66.871    0.321    0.373   32.899
  427.750   35.061    0.320    0.365   36.797
  428.000   32.633    0.340    0.360   38.915
  428.250   35.112    0.343    0.358   38.913
  428.500   37.583    0.341    0.363   36.111
  428.750   38.819    0.336    0.364   34.143
  429.000   44.348    0.323    0.364   27.803
  429.250   47.428    0.322    0.364   25.324
  429.500   47.459    0.331    0.363   23.501
  429.750   48.094    0.335    0.361   21.809
  430.000   48.719    0.325    0.357   19.136
  430.250   51.800    0.312    0.354   16.791
  430.500   57.947    0.290    0.357   15.011
  430.750   62.868    0.267    0.350   12.689
  431.000   64.722    0.255    0.343   11.775
  431.250   68.418    0.240    0.342   10.141
  431.500   74.568    0.239    0.351    8.899
  431.750   79.481    0.243    0.390    7.808
  432.000   86.847    0.253    0.413    6.725
  432.250   91.766    0.259    0.426    6.240
  432.500   96.074    0.248    0.449    6.240
  432.750  106.504    0.231    0.514    6.850
  433.000  124.279    0.210    0.366    9.064
  433.250  138.995    0.187    0.294   13.166
  433.500  125.547    0.167    0.255   24.378
  433.750  122.507    0.140    0.230   32.863
  434.000  111.509    0.102    0.216   38.874
  434.250   14.182    0.061    0.207   43.480
  434.500    9.917    0.045    0.203   46.850
  434.750    8.714    0.035    0.204   51.431
  435.000   10.575    0.034    0.208   55.416
  435.250   11.828    0.038    0.208   56.459
  435.500   11.232    0.046    0.206   60.833
  435.750   10.640    0.054    0.204   63.145
  436.000    9.453    0.059    0.199   64.333
  436.250    9.474    0.059    0.197   66.777
  436.500   10.107    0.059    0.196   69.314
  436.750   10.126    0.059    0.200   69.312
  437.000   10.137    0.059    0.204   71.946
  437.250    9.546    0.067    0.205   73.298
  437.500   10.183    0.081    0.210   74.676
  437.750   10.814    0.077    0.211   77.514
  438.000   10.830    0.066    0.208   78.971
  438.250   12.085    0.060    0.196   80.456
  438.500   12.714    0.043    0.194   80.453
  438.750   12.741    0.031    0.193   83.510
  439.000   13.368    0.027    0.195   85.079
  439.250   14.618    0.026    0.196   86.680
  439.500   15.246    0.024    0.196   89.973
  439.750   16.494    0.024    0.195   93.392
  440.000   18.356    0.026    0.191   95.148
