~VERSION INFORMATION
 VERS.                 2.0:   CWLS LOG ASCII STANDARD -VERSION 2.0
 WRAP.                  NO:   ONE LINE PER DEPTH STEP
~WELL INFORMATION BLOCK
#MNEM.UNIT           DATA                    DESCRIPTION OF MNEMONIC
#---------    -------------------            -------------------------------
# Generated from Intellog Unique Number	CS_77_79/WELL/894
WELL.         AMOCO LEISMER                  : Well_name    - WELL
LOC .         00/07-11-078-09W4/0            : Location     - LOCATION
UWI .         00/07-11-078-09W4/0            : Uwi          - UNIQUE WELL ID
ENTR.         JHS                            : Entered      - ENTERED BY
SRVC.         SCHLUMBERGER                   : Scn          - SERVICE COMPANY
STRT.M        167.640                        : top_depth    - START DEPTH
STOP.M        399.140                        : bot_depth    - STOP DEPTH
STEP.M        0.25                           : increment    - STEP LENGTH
 NULL. -999.2500:NULL Value
~CURVE INFORMATION BLOCK
#MNEM UNIT       ERCB CURVE CODE    CURVE DESCRIPTION
#-----------   ------------------   ----------------------------------
DEPT.M        00 001 00 00         : DEPTH        - DEPTH
RHOB.KG/M3    00 350 00 00         : DENS         - BULK DENSITY
GR  .API      00 310 00 00         : GR           - GAMMA RAY
DPHI.V/V      00 890 00 00         : PHID         - DENSITY POROSITY (SANDSTONE)
NPHI.V/V      00 330 00 00         : PHIN         - NEUTRON POROSITY (SANDSTONE)
ILD .OHMM     00 120 00 00         : RESD         - DEEP RESISTIVITY (DIL)
~PARAMETER INFORMATION
#MNEM.UNIT           DATA             DESCRIPTION OF MNEMONIC
#---------         -----------     ------------------------------
GL  .M        597.164              : gl           - GROUND LEVEL ELEVATION
EREF.M        600.669              : kb           - ELEVATION OF DEPTH REFERENCE
DATM.M        600.669              : datum        - DATUM ELEVATION
TDD .M        405.384              : tdd          - TOTAL DEPTH DRILLER
RUN .         ONE                  : Run          - RUN NUMBER
ENG .         BILL                 : Engineer     - RECORDING ENGINEER
WIT .         JIM                  : Witness      - WITNESSED BY
MUD .         GEL                  : Mud_type     - MUD TYPE
MATR.         SANDSTONE            : Logunit      - NEUTRON MATRIX
TMAX.C        21.1111              : BHT          - MAXIMUM RECORDED TEMPERATURE
BHTD.M        405.384              : BHTDEP       - MAXIMUM RECORDED TEMPERATURE
MATR.         1                    : LOGUNIT      - NEUTRON MATRIX
RMT .C        25                   : MDTP         - TEMPERATURE OF MUD
NEUT.         1                    : NEUTRON      - NEUTRON TYPE
RESI.         0                    : RESIST       - RESISTIVITY TYPE
RMC .OHMM     0.25                 : RMC          - RESISTIVITY OF MUD CAKE
RMF .OHMM     0.25                 : RMF          - RESISTIVITY OF MUD FILTRATE
SUFT.C        15                   : SUFT         - SURFACE TEMPERATURE
~A  DEPTH     DENS       GR     PHID     PHIN     RESD
# ...
  313.640   -0.000   67.032    0.333    0.480    5.842
  313.890   -0.000   73.878    0.319    0.483    5.708
  314.140   -0.000   71.595    0.317    0.485    5.622
  314.390    0.000   68.615    0.320    0.493    5.438
  314.640    0.000   66.238    0.322    0.477    5.446
  314.890    0.000   67.501    0.313    0.467    5.329
  315.140   -0.000   75.006    0.323    0.486    5.330
  315.390   -0.000   72.991    0.339    0.472    5.449
  315.640   -0.000   70.065    0.350    0.479    5.441
  315.890    0.000   68.041    0.335    0.495    5.442
  316.140    0.000   67.801    0.326    0.497    5.443
  316.390    0.000   69.077    0.325    0.479    5.445
  316.640   -0.000   71.288    0.332    0.468    5.447
  316.890   -0.000   71.997    0.323    0.472    5.449
  317.140    0.000   70.870    0.342    0.480    5.449
  317.390    0.000   71.901    0.320    0.484    5.392
  317.640    0.000   73.156    0.323    0.490    5.357
  317.890   -0.000   75.635    0.326    0.504    5.349
  318.140   -0.000   76.135    0.320    0.511    5.470
  318.390   -0.000   74.274    0.338    0.518    5.472
  318.640    0.000   71.716    0.352    0.468    5.546
  318.890    0.000   70.542    0.332    0.467    5.786
  319.140    0.000   72.301    0.327    0.460    5.885
  319.390   -0.000   74.574    0.322    0.447    5.962
  319.640   -0.000   74.283    0.326    0.463    5.989
  319.890    0.000   78.154    0.324    0.475    5.998
  320.140    0.025   77.100    0.310    0.472    5.910
  320.390    0.181   79.275    0.296    0.461    5.509
  320.640   -0.589   85.751    0.281    0.429    5.110
  320.890  -17.450   89.396    0.267    0.425    4.892
  321.140  -89.025   92.283    0.240    0.447    4.912
  321.390 1995.810   89.730    0.232    0.471    5.074
  321.640 2213.970   84.192    0.252    0.451    5.268
  321.890 2224.890   81.088    0.282    0.451    5.607
  322.140 2200.250   79.626    0.298    0.465    5.885
  322.390 2204.400   77.589    0.296    0.479    6.112
  322.640 2258.510   75.280    0.264    0.481    6.245
  322.890 2297.190   74.775    0.241    0.468    6.359
  323.140 2277.070   74.237    0.253    0.459    6.496
  323.390 2230.370   74.749    0.280    0.468    6.485
  323.640 2203.370   74.777    0.296    0.481    6.499
  323.890 2210.330   74.868    0.292    0.464    6.365
  324.140 2204.560   75.872    0.296    0.452    6.268
  324.390 2233.400   78.013    0.279    0.460    6.259
  324.640 2204.720   80.844    0.295    0.476    6.255
  324.890 2229.990   78.874    0.281    0.467    6.357
  325.140 2257.740   75.762    0.264    0.453    6.366
  325.390 2293.350   79.684    0.244    0.460    6.505
  325.640 2277.460   75.180    0.253    0.445    6.488
  325.890 2241.680   78.668    0.274    0.435    6.641
  326.140 2223.260   78.463    0.285    0.428    6.627
  326.390 2231.130   77.128    0.280    0.429    6.749
  326.640 2215.240   76.146    0.289    0.458    6.895
  326.890 2261.050   77.781    0.263    0.470    6.883
  327.140 2277.030   79.508    0.253    0.465    6.900
  327.390 2273.570   80.615    0.255    0.460    6.756
  327.640 2236.340   83.020    0.277    0.466    6.652
  327.890 2243.700   85.913    0.273    0.483    6.540
  328.140 2268.430   86.484    0.258    0.476    6.273
  328.390 2294.130   89.564    0.243    0.461    6.093
  328.640 2302.480   90.509    0.238    0.431    5.745
  328.890 2303.750   90.489    0.238    0.425    5.522
  329.140 2312.540   88.611    0.232    0.434    5.195
  329.390 2323.200   89.874    0.226    0.457    4.888
  329.640 2339.500   92.319    0.217    0.470    4.688
  329.890 2316.140   95.958    0.230    0.483    4.499
  330.140 2337.290   99.122    0.218    0.487    4.338
  330.390 2353.630   97.914    0.208    0.496    4.203
  330.640 2325.690   97.174    0.225    0.509    4.192
  330.890 2322.250   97.252    0.227    0.525    4.283
  331.140 2284.410   98.356    0.249    0.517    4.340
  331.390 2305.060   98.803    0.237    0.505    4.472
  331.640 2317.520  100.840    0.230    0.514    4.712
  331.890 2329.230   99.402    0.223    0.483    4.987
  332.140 2319.860   97.761    0.228    0.465    5.541
  332.390 2343.530   97.872    0.214    0.445    5.868
  332.640 2348.710   97.295    0.211    0.441    5.989
  332.890 2373.500   93.727    0.197    0.451    5.804
  333.140 2394.990   91.363    0.184    0.446    5.182
  333.390 2424.740   92.609    0.167    0.446    4.718
  333.640 2393.960   94.604    0.185    0.457    4.297
  333.890 2350.030   96.064    0.211    0.465    3.736
  334.140 2334.490   96.934    0.220    0.474    3.224
  334.390 2324.630   94.692    0.225    0.483    2.774
  334.640 2307.770   90.639    0.235    0.495    2.306
  334.890 2256.540   89.575    0.265    0.519    2.046
  335.140 2203.730   89.581    0.296    0.546    1.871
  335.390 2258.390   89.146    0.264    0.542    1.875
  335.640 2224.550   90.370    0.284    0.523    1.872
  335.890 2233.910   90.779    0.278    0.510    1.909
  336.140 2212.210   88.673    0.291    0.524    1.932
  336.390 2221.350   88.215    0.286    0.550    1.944
  336.640 2270.170   87.606    0.257    0.568    1.981
  336.890 2295.570   89.128    0.242    0.587    2.012
  337.140 2293.440   91.518    0.244    0.538    2.254
  337.390 2280.700   94.953    0.251    0.521    2.546
  337.640 2329.330   96.634    0.223    0.509    2.775
  337.890 2347.170   95.811    0.212    0.484    3.169
  338.140 2352.980   94.203    0.209    0.459    3.453
  338.390 2370.280   94.570    0.199    0.468    3.827
  338.640 2386.420   97.638    0.189    0.487    4.244
  338.890 2382.950   98.268    0.191    0.464    4.729
  339.140 2398.930   97.451    0.182    0.446    5.277
  339.390 2369.780   95.249    0.199    0.434    5.492
  339.640 2399.930   93.041    0.181    0.433    5.441
  339.890 2351.350   95.165    0.210    0.435    5.252
  340.140 2397.980   98.562    0.182    0.437    4.782
  340.390 2381.870   99.874    0.192    0.442    4.369
  340.640 2363.740  100.478    0.202    0.456    3.988
  340.890 2359.720  102.052    0.205    0.476    3.748
  341.140 2371.430  102.876    0.198    0.487    3.668
  341.390 2398.510  101.452    0.182    0.497    3.600
  341.640 2368.920   99.195    0.199    0.491    3.612
  341.890 2333.530   92.931    0.220    0.473    3.537
  342.140 2309.190   99.525    0.234    0.472    3.476
  342.390 2325.430  104.932    0.225    0.480    3.449
  342.640 2329.190  102.581    0.223    0.494    3.270
  342.890 2321.080  100.792    0.227    0.503    3.175
  343.140 2305.830   98.567    0.236    0.510    3.142
  343.390 2336.360   95.594    0.219    0.521    3.115
  343.640 2322.640   95.156    0.226    0.534    3.163
  343.890 2339.260   96.980    0.214    0.533    3.285
  344.140 2334.060   97.439    0.211    0.517    3.495
  344.390 2677.640   94.413    0.196    0.501    3.804
  344.640  613.989   92.475    0.179    0.436    4.379
  344.890 2421.340   92.784    0.163    0.416    4.688
  345.140 2430.440   96.556    0.173    0.426    4.957
  345.390 2418.660   99.041    0.171    0.442    5.166
  345.640 2424.820   98.143    0.167    0.461    5.332
  345.890 2431.170   92.034    0.163    0.438    5.537
  346.140 2438.500   84.123    0.159    0.415    6.021
  346.390 2394.760   78.103    0.184    0.405    6.489
  346.640 2284.540   74.598    0.249    0.418    7.004
  346.890 2257.490   71.943    0.265    0.431    7.202
  347.140 2261.430   70.410    0.262    0.437    7.440
  347.390 2278.300   69.011    0.252    0.416    7.515
  347.640 2307.650   69.121    0.235    0.406    7.603
  347.890 2307.040   69.333    0.236    0.399    7.852
  348.140 2295.280   67.612    0.243    0.390    8.142
  348.390 2300.350   70.219    0.240    0.382    8.495
  348.640 2352.480   73.187    0.209    0.394    8.931
  348.890 2377.250   73.293    0.195    0.408    9.160
  349.140 2384.940   74.231    0.190    0.415    9.314
  349.390 2364.770   76.840    0.202    0.406    9.230
  349.640 2351.580   79.743    0.210    0.403    9.156
  349.890 2338.740   83.499    0.217    0.420    8.601
