~VERSION INFORMATION
 VERS.                 2.0:   CWLS LOG ASCII STANDARD -VERSION 2.0
 WRAP.                  NO:   ONE LINE PER DEPTH STEP
~WELL INFORMATION BLOCK
#MNEM.UNIT           DATA                    DESCRIPTION OF MNEMONIC
#---------    -------------------            -------------------------------
# Generated from Intellog Unique Number	CS_77_79/WELL/902
WELL.         ICGR GRAHAM                    : Well_name    - WELL
LOC .         00/07-20-079-04W4/0            : Location     - LOCATION
UWI .         00/07-20-079-04W4/0            : Uwi          - UNIQUE WELL ID
ENTR.         JHS                            : Entered      - ENTERED BY
SRVC.         SCHLUMBERGER                   : Scn          - SERVICE COMPANY
STRT.M        130                            : top_depth    - START DEPTH
STOP.M        355                            : bot_depth    - STOP DEPTH
STEP.M        0.25                           : increment    - STEP LENGTH
 NULL. -999.2500:NULL Value
~CURVE INFORMATION BLOCK
#MNEM UNIT       ERCB CURVE CODE    CURVE DESCRIPTION
#-----------   ------------------   ----------------------------------
DEPT.M        00 001 00 00         : DEPTH        - DEPTH
DPHI.V/V      00 890 00 00         : PHID         - DENSITY POROSITY (LIMESTONE)
NPHI.V/V      00 330 00 00         : PHIN         - NEUTRON POROSITY (LIMESTONE)
GR  .API      00 310 00 00         : GR           - GAMMA RAY
ILD .OHMM     00 120 00 00         : RESD         - DEEP RESISTIVITY (DIL)
RHOB.KG/M3    00 350 00 00         : DENS         - BULK DENSITY
~PARAMETER INFORMATION
#MNEM.UNIT           DATA             DESCRIPTION OF MNEMONIC
#---------         -----------     ------------------------------
GL  .M        503                  : gl           - GROUND LEVEL ELEVATION
EREF.M        506.6                : kb           - ELEVATION OF DEPTH REFERENCE
DATM.M        506.6                : datum        - DATUM ELEVATION
TDD .M        355                  : tdd          - TOTAL DEPTH DRILLER
RUN .         ONE                  : Run          - RUN NUMBER
ENG .         BILL                 : Engineer     - RECORDING ENGINEER
WIT .         JIM                  : Witness      - WITNESSED BY
MUD .         GEL                  : Mud_type     - MUD TYPE
MATR.         LIMESTONE            : Logunit      - NEUTRON MATRIX
TMAX.C        19                   : BHT          - MAXIMUM RECORDED TEMPERATURE
BHTD.M        355                  : BHTDEP       - MAXIMUM RECORDED TEMPERATURE
MATR.         1                    : LOGUNIT      - NEUTRON MATRIX
RMT .C        25                   : MDTP         - TEMPERATURE OF MUD
NEUT.         1                    : NEUTRON      - NEUTRON TYPE
RESI.         0                    : RESIST       - RESISTIVITY TYPE
RMC .OHMM     0.25                 : RMC          - RESISTIVITY OF MUD CAKE
RMF .OHMM     0.25                 : RMF          - RESISTIVITY OF MUD FILTRATE
SUFT.C        15                   : SUFT         - SURFACE TEMPERATURE
~A  DEPTH     PHID     PHIN       GR     RESD     DENS
# ...
  239.500    0.277    0.543   79.010    3.105 2236.090
  239.750    0.266    0.501   78.419    3.414 2255.080
  240.000    0.257    0.458   82.694    3.753 2269.870
  240.250    0.248    0.441   86.965    4.049 2286.760
  240.500    0.234    0.441   88.809    4.454 2309.950
  240.750    0.227    0.455   85.790    4.805 2322.630
  241.000    0.225    0.453   83.379    5.185 2324.800
  241.250    0.247    0.423   82.794    5.594 2287.030
  241.500    0.263    0.396   79.169    6.040 2259.780
  241.750    0.268    0.385   75.539    6.043 2251.430
  242.000    0.274    0.382   79.204    5.612 2240.980
  242.250    0.277    0.389   85.298    5.019 2236.860
  242.500    0.274    0.413   90.174    4.488 2241.130
  242.750    0.274    0.465   94.444    3.868 2241.190
  243.000    0.257    0.473   92.037    3.727 2270.710
  243.250    0.241    0.450   87.806    3.594 2298.110
  243.500    0.232    0.447   86.612    3.464 2312.890
  243.750    0.238    0.462   87.235    3.403 2302.460
  244.000    0.249    0.498   92.121    3.407 2283.600
  244.250    0.248    0.517   94.567    3.475 2285.800
  244.500    0.246    0.506   95.195    3.415 2290.050
  244.750    0.252    0.479   94.603    3.355 2279.600
  245.000    0.252    0.466   92.191    3.421 2279.670
  245.250    0.247    0.456   87.356    3.556 2288.170
  245.500    0.244    0.470   85.549    3.766 2292.440
  245.750    0.244    0.515   89.213    3.988 2292.500
  246.000    0.243    0.522   89.843    4.385 2294.690
  246.250    0.248    0.499   85.616    4.821 2286.330
  246.500    0.267    0.471   82.596    5.104 2252.750
  246.750    0.285    0.428   84.434    5.612 2223.400
  247.000    0.281    0.401   85.061    6.058 2229.770
  247.250    0.271    0.383   82.047    6.061 2246.670
  247.500    0.259    0.379   80.851    5.736 2267.760
  247.750    0.246    0.385   83.907    5.130 2288.850
  248.000    0.236    0.434   86.967    5.040 2305.740
  248.250    0.244    0.447   85.771    5.045 2293.190
  248.500    0.260    0.443   81.540    5.243 2265.940
  248.750    0.252    0.416   79.736    5.875 2278.620
  249.000    0.236    0.401   79.150    6.219 2306.020
  249.250    0.235    0.390   80.384    6.466 2308.200
  249.500    0.229    0.398   83.436    6.003 2318.780
  249.750    0.214    0.453   85.882    6.853 2344.070
  250.000    0.139    0.400   74.972    8.276 2472.400
  250.250    0.043    0.298   59.809    9.626 2636.460
  250.500    0.015    0.238   68.330   10.388 2684.900
  250.750    0.031    0.264   70.781    9.646    0.000
  251.000    0.315    0.306   67.766    8.155 2172.020
  251.250    0.313    0.343   70.819    6.516 2174.180
  251.500    0.285    0.398   78.732    4.157 2222.640
  251.750    0.271    0.505   85.434    3.322 2245.820
  252.000    0.271    0.492   86.666    3.326 2245.890
  252.250    0.254    0.414   83.042    3.656 2275.390
  252.500    0.252    0.357   77.596    4.252 2279.680
  252.750    0.244    0.330   81.258    5.040 2292.360
  253.000    0.233    0.327   81.281    6.087 2311.350
  253.250    0.229    0.335   79.478    7.083 2317.720
  253.500    0.260    0.319   76.460    7.644 2265.230
  253.750    0.274    0.309   73.445    7.794 2242.180
  254.000    0.265    0.309   75.289    7.801 2256.960
  254.250    0.256    0.310   77.127    7.665 2271.750
  254.500    0.270    0.312   78.361    7.673 2248.690
  254.750    0.264    0.340   74.734    7.680 2259.290
  255.000    0.257    0.363   68.075    7.833 2269.850
  255.250    0.288    0.316   67.488    7.991 2217.360
  255.500    0.277    0.289   72.971    7.850 2236.350
  255.750    0.245    0.292   79.672    7.858 2291.090
  256.000    0.228    0.345   83.946    7.721 2320.600
  256.250    0.265    0.329   77.887    7.727 2257.590
  256.500    0.290    0.309   71.839    7.589 2213.510
  256.750    0.284    0.293   68.211    7.596 2224.090
  257.000    0.266    0.291   66.409    7.464 2255.700
  257.250    0.252    0.307   69.466    7.195 2278.890
  257.500    0.243    0.352   74.343    6.936 2293.680
  257.750    0.252    0.339   78.005    6.566 2279.040
  258.000    0.242    0.320   78.025    6.329 2295.930
  258.250    0.225    0.331   75.615    5.988 2325.430
  258.500    0.221    0.353   76.856    5.667 2331.800
  258.750    0.236    0.345   76.868    5.360 2306.650
  259.000    0.252    0.340   73.860    4.886 2279.380
  259.250    0.243    0.342   72.052    4.622 2294.170
  259.500    0.275    0.369   66.604    4.293 2239.580
  259.750    0.285    0.357   59.943    4.380 2222.820
  260.000    0.244    0.328   67.857    4.467 2292.280
  260.250    0.214    0.325   76.382    4.641 2344.910
  260.500    0.209    0.333   74.576    5.008 2353.400
  260.750    0.228    0.325   69.135    5.303 2319.820
  261.000    0.242    0.340   69.150    5.410 2296.770
  261.250    0.260    0.341   71.599    5.215 2265.290
  261.500    0.245    0.326   69.798    4.753 2290.600
  261.750    0.238    0.326   64.958    4.414 2303.290
  262.000    0.273    0.340   58.912    4.098 2242.380
  262.250    0.318    0.340   64.998    3.951 2166.760
  262.500    0.268    0.326   73.521    4.185 2250.920
  262.750    0.223    0.318   80.829    4.350 2328.790
  263.000    0.192    0.322   81.453    4.193 2381.430
  263.250    0.195    0.336   70.543    3.894 2377.290
  263.500    0.289    0.349   56.594    3.549 2215.460
  263.750    0.290    0.337   54.186    3.357 2213.440
  264.000    0.285    0.333   50.563    3.117 2221.910
  264.250    0.294    0.354   48.148    2.950 2207.270
  264.500    0.320    0.359   50.598    2.899 2163.190
  264.750    0.298    0.330   56.082    2.900 2201.100
  265.000    0.278    0.320   62.176    3.015 2234.800
  265.250    0.259    0.320   63.412    3.134 2266.410
  265.500    0.269    0.333   53.108    3.136 2249.660
  265.750    0.300    0.344   50.696    2.913 2197.170
  266.000    0.299    0.361   35.536    2.756 2199.340
  266.250    0.316    0.366   33.130    2.608 2169.990
  266.500    0.328    0.351   36.184    2.610 2149.020
  266.750    0.337    0.349   41.058    2.764 2134.370
  267.000    0.307    0.339   48.972    2.819 2184.900
  267.250    0.289    0.333   53.246    2.822 2216.510
  267.500    0.282    0.345   50.835    2.825 2227.100
  267.750    0.279    0.344   52.067    2.828 2233.480
  268.000    0.270    0.359   55.731    2.779 2248.260
  268.250    0.285    0.373   53.928    2.780 2223.100
  268.500    0.272    0.334   65.487    2.891 2244.210
  268.750    0.264    0.331   67.934    2.948 2258.980
  269.000    0.283    0.377   57.024    3.007 2225.410
  269.250    0.312    0.366   55.828    2.899 2177.120
  269.500    0.291    0.376   53.420    2.744 2212.940
  269.750    0.278    0.404   46.152    2.694 2234.030
  270.000    0.315    0.384   40.705    2.550 2171.020
  270.250    0.332    0.359   37.079    2.552 2141.660
  270.500    0.322    0.348   40.751    2.653 2158.550
  270.750    0.297    0.361   45.621    2.809 2202.780
  271.000    0.273    0.352   55.966    3.089 2242.790
  271.250    0.252    0.347   63.878    3.333 2278.600
  271.500    0.263    0.344   70.582    3.464 2259.760
  271.750    0.274    0.337   69.993    3.467 2240.910
  272.000    0.280    0.349   62.117    3.342 2230.450
  272.250    0.267    0.341   58.491    3.047 2253.660
  272.500    0.259    0.365   47.579    2.883 2266.340
  272.750    0.290    0.360   58.531    2.831 2213.840
  273.000    0.253    0.339   70.699    2.889 2276.990
  273.250    0.238    0.388   64.642    2.891 2302.300
  273.500    0.294    0.383   43.406    2.893 2207.740
  273.750    0.307    0.349   60.430    2.737 2184.700
  274.000    0.283    0.344   68.955    2.639 2226.820
  274.250    0.267    0.365   68.974    2.795 2254.220
  274.500    0.275    0.365   64.742    2.851 2239.580
  274.750    0.291    0.386   61.727    2.909 2212.310
  275.000    0.287    0.378   58.100    2.910 2218.690
  275.250    0.271    0.357   55.690    2.754 2246.080
  275.500    0.258    0.359   53.889    2.606 2269.280
  275.750    0.264    0.368   47.833    2.466 2258.840
