~VERSION INFORMATION
 VERS.                 2.0:   CWLS LOG ASCII STANDARD -VERSION 2.0
 WRAP.                  NO:   ONE LINE PER DEPTH STEP
~WELL INFORMATION BLOCK
#MNEM.UNIT           DATA                    DESCRIPTION OF MNEMONIC
#---------    -------------------            -------------------------------
# Generated from Intellog Unique Number	CS_73_76/WELL/1075
WELL.         HOME LIESMER                   : Well_name    - WELL
LOC .         00/06-23-075-07W4/0            : Location     - LOCATION
UWI .         00/06-23-075-07W4/0            : Uwi          - UNIQUE WELL ID
ENTR.         SP                             : Entered      - ENTERED BY
SRVC.         SCHLUMBERGER                   : Scn          - SERVICE COMPANY
STRT.M        274.32                         : top_depth    - START DEPTH
STOP.M        499.57                         : bot_depth    - STOP DEPTH
STEP.M        0.25                           : increment    - STEP LENGTH
 NULL. -999.2500:NULL Value
~CURVE INFORMATION BLOCK
#MNEM UNIT       ERCB CURVE CODE    CURVE DESCRIPTION
#-----------   ------------------   ----------------------------------
DEPT.M        00 001 00 00         : DEPTH        - DEPTH
GR  .API      00 310 00 00         : GR           - GAMMA RAY
DPHI.V/V      00 890 00 00         : PHID         - DENSITY POROSITY (SANDSTONE)
NPHI.V/V      00 330 00 00         : PHIN         - NEUTRON POROSITY (SANDSTONE)
ILD .OHMM     00 120 00 00         : RESD         - DEEP RESISTIVITY (DIL)
~PARAMETER INFORMATION
#MNEM.UNIT           DATA             DESCRIPTION OF MNEMONIC
#---------         -----------     ------------------------------
GL  .M        680.874              : gl           - GROUND LEVEL ELEVATION
EREF.M        680.874              : kb           - ELEVATION OF DEPTH REFERENCE
DATM.M        680.874              : datum        - DATUM ELEVATION
TDD .M        505.968              : tdd          - TOTAL DEPTH DRILLER
RUN .         ONE                  : Run          - RUN NUMBER
ENG .         BILL                 : Engineer     - RECORDING ENGINEER
WIT .         JIM                  : Witness      - WITNESSED BY
MUD .         GEL                  : Mud_type     - MUD TYPE
MATR.         SANDSTONE            : Logunit      - NEUTRON MATRIX
TMAX.C        15.5556              : BHT          - MAXIMUM RECORDED TEMPERATURE
BHTD.M        505.968              : BHTDEP       - MAXIMUM RECORDED TEMPERATURE
MATR.         1                    : LOGUNIT      - NEUTRON MATRIX
RMT .C        25                   : MDTP         - TEMPERATURE OF MUD
NEUT.         1                    : NEUTRON      - NEUTRON TYPE
RESI.         0                    : RESIST       - RESISTIVITY TYPE
RMC .OHMM     0.25                 : RMC          - RESISTIVITY OF MUD CAKE
RMF .OHMM     0.25                 : RMF          - RESISTIVITY OF MUD FILTRATE
SUFT.C        15                   : SUFT         - SURFACE TEMPERATURE
~A  DEPTH       GR     PHID     PHIN     RESD
# ...
  404.820   56.122    0.335    0.486    6.425
  405.070   57.795    0.335    0.476    6.440
  405.320   59.057    0.335    0.464    6.443
  405.570   61.013    0.326    0.457    6.445
  405.820   61.390    0.330    0.468    6.447
  406.070   61.855    0.333    0.478    6.451
  406.320   60.777    0.328    0.484    6.454
  406.570   59.838    0.335    0.480    6.443
  406.820   59.428    0.319    0.480    6.580
  407.070   60.865    0.297    0.464    6.704
  407.320   60.799    0.257    0.453    7.248
  407.570   58.069    0.171    0.213    8.211
  407.820   55.610    0.075    0.197    9.799
  408.070   51.974    0.038    0.185   12.256
  408.320   50.998    0.063    0.203   17.733
  408.570   55.077    0.083    0.239   18.685
  408.820   60.132    0.133    0.334   14.614
  409.070   62.867    0.210    0.395   11.439
  409.320   64.342    0.308    0.454    9.250
  409.570   64.412    0.328    0.486    7.871
  409.820   64.443    0.341    0.511    7.088
  410.070   67.348    0.331    0.496    6.810
  410.320   70.909    0.324    0.483    6.619
  410.570   76.268    0.311    0.476    6.498
  410.820   82.268    0.294    0.467    6.436
  411.070   85.588    0.273    0.499    6.260
  411.320   85.837    0.250    0.505    6.277
  411.570   83.557    0.250    0.499    6.147
  411.820   80.342    0.260    0.492    6.143
  412.070   82.058    0.270    0.487    6.050
  412.320   85.809    0.258    0.492    6.053
  412.570   87.026    0.243    0.506    6.049
  412.820   87.534    0.231    0.508    5.935
  413.070   88.621    0.223    0.491    6.073
  413.320   89.935    0.225    0.486    6.066
  413.570   90.916    0.226    0.488    6.151
  413.820   91.911    0.222    0.478    6.205
  414.070   92.297    0.232    0.476    6.415
  414.320   91.331    0.215    0.470    6.464
  414.570   90.388    0.228    0.475    6.801
  414.820   88.863    0.240    0.477    6.894
  415.070   88.435    0.227    0.483    7.039
  415.320   88.775    0.221    0.491    7.188
  415.570   89.864    0.236    0.486    7.178
  415.820   90.165    0.244    0.481    7.177
  416.070   90.501    0.250    0.489    7.171
  416.320   90.591    0.261    0.497    6.819
  416.570   90.066    0.249    0.501    6.808
  416.820   90.514    0.242    0.493    6.809
  417.070   90.163    0.243    0.495    6.813
  417.320   89.128    0.256    0.497    6.824
  417.570   89.219    0.263    0.491    6.698
  417.820   93.109    0.238    0.499    6.557
  418.070   96.029    0.220    0.510    6.450
  418.320   94.383    0.215    0.513    6.160
  418.570   91.638    0.234    0.489    5.717
  418.820   90.496    0.226    0.467    5.560
  419.070   90.528    0.219    0.467    5.299
  419.320   90.562    0.207    0.471    5.291
  419.570   89.893    0.210    0.479    5.292
  419.820   88.989    0.213    0.492    5.308
  420.070   87.273    0.218    0.492    5.013
  420.320   86.957    0.239    0.510    4.585
  420.570   87.859    0.250    0.541    4.005
  420.820   89.484    0.275    0.573    3.320
  421.070   91.563    0.291    0.594    2.918
  421.320   92.898    0.276    0.586    2.663
  421.570   94.098    0.267    0.577    2.495
  421.820   94.170    0.277    0.571    2.421
  422.070   92.546    0.292    0.567    2.414
  422.320   91.633    0.289    0.569    2.465
  422.570   91.799    0.275    0.574    2.463
  422.820   95.216    0.274    0.569    2.464
  423.070   97.687    0.277    0.579    2.466
  423.320   99.882    0.263    0.562    2.513
  423.570   99.519    0.268    0.534    2.816
  423.820   95.368    0.262    0.519    3.180
  424.070   92.507    0.254    0.500    3.590
  424.320   88.506    0.248    0.485    4.099
  424.570   90.821    0.239    0.488    4.571
  424.820   92.706    0.234    0.487    4.905
  425.070   92.171    0.216    0.461    5.384
  425.320   89.797    0.216    0.444    5.813
  425.570   87.568    0.192    0.431    6.178
  425.820   90.112    0.190    0.427    6.425
  426.070   92.651    0.196    0.449    6.344
  426.320   95.707    0.216    0.472    6.124
  426.570   95.883    0.207    0.487    5.765
  426.820   95.355    0.224    0.484    5.285
  427.070   93.913    0.229    0.495    5.058
  427.320   95.210    0.244    0.499    4.987
  427.570   95.197    0.224    0.494    4.943
  427.820   96.897    0.211    0.489    4.790
  428.070   99.805    0.229    0.492    4.654
  428.320  101.935    0.242    0.523    4.394
  428.570   97.953    0.244    0.534    4.146
  428.820   94.500    0.252    0.505    4.004
  429.070   91.146    0.253    0.465    4.331
  429.320   88.143    0.246    0.433    5.298
  429.570   85.534    0.261    0.409    6.430
  429.820   84.757    0.266    0.396    7.757
  430.070   85.205    0.281    0.389    8.958
  430.320   85.794    0.301    0.398    9.971
  430.570   80.673    0.274    0.413   11.409
  430.820   74.401    0.207    0.422   12.202
  431.070   68.458    0.143    0.368   13.453
  431.320   64.025    0.083    0.282   15.213
  431.570   63.657    0.035    0.227   16.865
  431.820   70.097    0.012    0.279   18.537
  432.070   76.476    0.071    0.356   19.873
  432.320   80.491    0.153    0.411   20.260
  432.570   82.770    0.285    0.462   19.746
  432.820   80.493    0.313    0.482   18.802
  433.070   78.210    0.293    0.480   19.251
  433.320   78.137    0.289    0.483   19.968
  433.570   74.762    0.274    0.490   20.597
  433.820   72.411    0.285    0.499   21.220
  434.070   71.138    0.275    0.505   21.822
  434.320   73.169    0.269    0.504   22.161
  434.570   74.739    0.276    0.505   22.032
  434.820   73.191    0.276    0.507   21.852
  435.070   69.790    0.267    0.501   21.561
  435.320   68.539    0.253    0.490   20.918
  435.570   71.015    0.242    0.482   20.303
  435.820   71.099    0.259    0.486   19.701
  436.070   69.522    0.266    0.490   19.030
  436.320   69.215    0.243    0.502   18.245
  436.570   70.504    0.227    0.507   17.347
  436.820   72.513    0.242    0.498   16.809
  437.070   73.409    0.260    0.486   16.110
  437.320   71.809    0.279    0.468   14.878
  437.570   66.430    0.271    0.455   14.050
  437.820   62.013    0.258    0.439   13.213
  438.070   59.809    0.247    0.421   13.402
  438.320   57.759    0.241    0.421   15.043
  438.570   52.449    0.260    0.426   17.885
  438.820   51.073    0.281    0.419   23.113
  439.070   49.667    0.279    0.396   27.902
  439.320   51.353    0.294    0.392   30.946
  439.570   55.531    0.286    0.405   30.365
  439.820   61.248    0.284    0.420   24.502
  440.070   68.761    0.290    0.409   18.345
  440.320   75.744    0.284    0.400   13.561
  440.570   85.896    0.269    0.437   11.545
  440.820   86.600    0.281    0.465   10.667
  441.070   83.197    0.297    0.478   10.633
  441.320   80.685    0.286    0.453   11.308
  441.570   80.654    0.273    0.430   12.434
  441.820   81.626    0.265    0.444   13.753
  442.070   72.172    0.271    0.447   14.876
  442.320   64.076    0.265    0.435   15.727
  442.570   59.764    0.272    0.415   16.187
  442.820   66.494    0.270    0.425   16.581
  443.070   71.308    0.278    0.434   15.823
  443.320   73.752    0.277    0.430   15.139
  443.570   77.680    0.259    0.436   14.258
  443.820   80.844    0.246    0.452   13.427
  444.070   82.429    0.250    0.449   12.795
  444.320   80.560    0.248    0.439   13.029
  444.570   74.125    0.256    0.429   13.577
  444.820   68.635    0.273    0.424   14.600
  445.070   64.754    0.276    0.416   15.987
  445.320   62.133    0.281    0.407   17.515
  445.570   63.073    0.271    0.419   18.270
  445.820   65.979    0.266    0.425   18.965
  446.070   69.226    0.266    0.423   19.212
  446.320   69.195    0.257    0.439   19.068
  446.570   70.030    0.262    0.418   18.020
  446.820   76.091    0.269    0.404   15.971
  447.070   84.300    0.257    0.402   13.606
  447.320   93.313    0.240    0.432   11.335
  447.570  105.121    0.222    0.456   10.063
  447.820  100.988    0.230    0.467    9.537
  448.070   72.126    0.237    0.459   10.184
