~VERSION INFORMATION
 VERS.                 2.0:   CWLS LOG ASCII STANDARD -VERSION 2.0
 WRAP.                  NO:   ONE LINE PER DEPTH STEP
~WELL INFORMATION BLOCK
#MNEM.UNIT           DATA                    DESCRIPTION OF MNEMONIC
#---------    -------------------            -------------------------------
# Generated from Intellog Unique Number	CS_69_70/WELL/623
NULL.         -999.25                        : NULL_VALUE
WELL.         BVI HEART LAKE                 : Well_name    - WELL              
LOC .         00/04-11-070-10W4/0            : Location     - LOCATION          
UWI .         00/04-11-070-10W4/0            : Uwi          - UNIQUE WELL ID    
ENTR.         SP                             : Entered      - ENTERED BY        
SRVC.         SCHLUMBERGER                   : Scn          - SERVICE COMPANY   
STRT.M        275                            : top_depth    - START DEPTH       
STOP.M        495                            : bot_depth    - STOP DEPTH        
STEP.M        0.25                           : increment    - STEP LENGTH       
~CURVE INFORMATION BLOCK
#MNEM UNIT       ERCB CURVE CODE    CURVE DESCRIPTION
#-----------   ------------------   ----------------------------------
DEPT.M        00 001 00 00         : DEPTH        - DEPTH                       
ILD .OHMM     00 120 00 00         : RESD         - DEEP RESISTIVITY (DIL)      
DPHI.V/V      00 890 00 00         : PHID         - DENSITY POROSITY (LIMESTONE)
NPHI.V/V      00 330 00 00         : PHIN         - NEUTRON POROSITY (LIMESTONE)
GR  .API      00 310 00 00         : GR           - GAMMA RAY                   
~PARAMETER INFORMATION       
#MNEM.UNIT           DATA             DESCRIPTION OF MNEMONIC
#---------         -----------     ------------------------------
GL  .M        614.6                : gl           - GROUND LEVEL ELEVATION      
EREF.M        617.8                : kb           - ELEVATION OF DEPTH REFERENCE
DATM.M        614.6                : datum        - DATUM ELEVATION             
TDD .M        520                  : tdd          - TOTAL DEPTH DRILLER         
RUN .         ONE                  : Run          - RUN NUMBER                  
ENG .         BILL                 : Engineer     - RECORDING ENGINEER          
WIT .         JIM                  : Witness      - WITNESSED BY                
MUD .         GEL                  : Mud_type     - MUD TYPE                    
MATR.         LIMESTONE            : Logunit      - NEUTRON MATRIX              
TMAX.C        23                   : BHT          - MAXIMUM RECORDED TEMPERATURE
BHTD.M        520                  : BHTDEP       - MAXIMUM RECORDED TEMPERATURE
MATR.         1                    : LOGUNIT      - NEUTRON MATRIX              
RMT .C        25                   : MDTP         - TEMPERATURE OF MUD          
NEUT.         1                    : NEUTRON      - NEUTRON TYPE                
RESI.         0                    : RESIST       - RESISTIVITY TYPE            
RMC .OHMM     0.25                 : RMC          - RESISTIVITY OF MUD CAKE     
RMF .OHMM     0.25                 : RMF          - RESISTIVITY OF MUD FILTRATE 
SUFT.C        15                   : SUFT         - SURFACE TEMPERATURE         
~A  DEPTH     RESD     PHID     PHIN       GR
# ...
  318.500   11.237    0.170    0.271   86.904
  318.750    9.772    0.221    0.321   90.430
  319.000    8.530    0.273    0.361   92.434
  319.250    7.908    0.298    0.391   94.310
  319.500    7.614    0.308    0.408   94.721
  319.750    7.484    0.310    0.415   93.966
  320.000    7.638    0.307    0.427   92.910
  320.250    7.738    0.298    0.437   92.342
  320.500    7.809    0.292    0.413   93.240
  320.750    7.748    0.287    0.401   95.669
  321.000    7.602    0.287    0.399   98.648
  321.250    7.195    0.286    0.408  101.809
  321.500    6.747    0.286    0.437  104.478
  321.750    6.327    0.280    0.468  105.562
  322.000    6.102    0.275    0.486  106.094
  322.250    6.032    0.273    0.470  106.445
  322.500    6.031    0.277    0.456  107.037
  322.750    6.029    0.285    0.450  108.241
  323.000    6.027    0.279    0.450  106.513
  323.250    6.026    0.270    0.453   98.240
  323.500    6.035    0.263    0.436  101.582
  323.750    6.148    0.261    0.414  104.500
  324.000    6.371    0.263    0.403  107.169
  324.250    6.639    0.266    0.390  106.300
  324.500    6.918    0.268    0.379  101.757
  324.750    7.114    0.270    0.382   96.112
  325.000    7.261    0.269    0.398   97.868
  325.250    7.356    0.259    0.417   98.032
  325.500    7.409    0.252    0.426   94.468
  325.750    7.449    0.248    0.413   90.476
  326.000    7.433    0.246    0.399   88.561
  326.250    7.587    0.260    0.410   87.932
  326.500    7.921    0.277    0.430   88.220
  326.750    8.207    0.295    0.421   89.302
  327.000    8.520    0.307    0.422   90.630
  327.250    8.729    0.305    0.436   89.449
  327.500    8.926    0.301    0.448   84.783
  327.750    8.991    0.298    0.444   79.505
  328.000    8.938    0.290    0.427   78.387
  328.250    8.852    0.280    0.417   82.709
  328.500    8.668    0.273    0.415   85.933
  328.750    8.552    0.269    0.420   88.237
  329.000    8.502    0.274    0.435   90.053
  329.250    8.388    0.281    0.436   87.039
  329.500    8.307    0.284    0.424   85.006
  329.750    8.196    0.282    0.426   87.617
  330.000    8.101    0.269    0.441   90.900
  330.250    7.993    0.259    0.455   93.756
  330.500    7.916    0.254    0.451   95.877
  330.750    7.737    0.256    0.455   98.488
  331.000    7.491    0.261    0.448  101.161
  331.250    7.239    0.267    0.446  102.549
  331.500    7.116    0.269    0.452  102.225
  331.750    7.114    0.272    0.452  100.373
  332.000    7.206    0.274    0.434   95.952
  332.250    7.609    0.280    0.421   92.204
  332.500    8.095    0.286    0.421   90.289
  332.750    8.580    0.296    0.441   89.352
  333.000    9.076    0.308    0.437   87.685
  333.250    9.299    0.311    0.424   85.406
  333.500    9.562    0.310    0.416   80.924
  333.750    9.687    0.313    0.421   75.035
  334.000    9.648    0.318    0.421   71.592
  334.250    9.288    0.321    0.430   70.290
  334.500    9.010    0.321    0.429   68.986
  334.750    8.856    0.315    0.413   67.195
  335.000    8.988    0.309    0.407   65.649
  335.250    9.278    0.304    0.405   64.471
  335.500    9.650    0.304    0.396   63.289
  335.750    9.794    0.306    0.395   65.901
  336.000    9.921    0.304    0.414   71.876
  336.250    9.974    0.298    0.431   79.251
  336.500    9.972    0.295    0.431   82.662
  336.750    9.968    0.292    0.421   86.374
  337.000    9.966    0.289    0.415   87.823
  337.250    9.945    0.284    0.408   87.316
  337.500    9.961    0.271    0.395   89.004
  337.750    9.996    0.255    0.379   90.948
  338.000   10.031    0.245    0.373   93.620
  338.250   10.048    0.241    0.392   96.166
  338.500   10.120    0.249    0.406   98.773
  338.750   10.195    0.258    0.415   99.620
  339.000   10.250    0.266    0.403  101.251
  339.250   10.266    0.252    0.385  102.455
  339.500   10.244    0.235    0.373  101.275
  339.750   10.145    0.229    0.374  102.603
  340.000    9.991    0.225    0.380  104.237
  340.250    9.746    0.225    0.391  105.868
  340.500    9.437    0.226    0.414  106.096
  340.750    9.137    0.232    0.426  106.016
  341.000    8.730    0.234    0.439  106.485
  341.250    8.279    0.224    0.411  107.203
  341.500    7.807    0.216    0.386  110.058
  341.750    7.418    0.210    0.377  113.527
  342.000    7.196    0.208    0.386  116.869
  342.250    7.221    0.214    0.409  118.014
  342.500    7.567    0.224    0.416  116.650
  342.750    8.081    0.227    0.407  110.946
  343.000    8.517    0.230    0.421  103.102
  343.250    8.841    0.229    0.430   94.278
  343.500    9.092    0.225    0.431   99.336
  343.750    9.297    0.224    0.413  100.541
  344.000    9.436    0.228    0.404   97.403
  344.250    9.450    0.240    0.404  100.256
  344.500    9.449    0.249    0.431  102.136
  344.750    9.393    0.251    0.443  103.156
  345.000    9.338    0.245    0.450   97.085
  345.250    9.335    0.241    0.442   95.047
  345.500    9.438    0.244    0.426   94.237
  345.750    9.561    0.252    0.409   92.384
  346.000    9.833    0.270    0.404   88.269
  346.250   10.265    0.292    0.413   81.831
  346.500   10.576    0.311    0.426   77.471
  346.750   10.714    0.322    0.444   78.062
  347.000   10.772    0.310    0.437   78.536
  347.250   10.568    0.302    0.411   76.927
  347.500   10.290    0.295    0.390   78.190
  347.750   10.019    0.286    0.413   80.006
  348.000    9.738    0.282    0.432   81.276
  348.250    9.680    0.286    0.423   79.301
  348.500    9.788    0.294    0.422   77.081
  348.750    9.952    0.289    0.421   86.050
  349.000   10.293    0.286    0.422   91.475
  349.250   10.545    0.294    0.425   94.943
  349.500   10.742    0.306    0.425   89.605
  349.750   10.841    0.315    0.427   74.422
  350.000   10.859    0.321    0.432   67.984
  350.250   10.855    0.310    0.431   72.794
  350.500   10.669    0.299    0.430   75.652
  350.750   10.608    0.291    0.441   77.101
  351.000   10.367    0.297    0.431   76.287
  351.250   10.152    0.310    0.423   80.182
  351.500   10.016    0.314    0.416   82.978
  351.750    9.881    0.310    0.416   85.161
  352.000    9.787    0.310    0.441   82.208
  352.250    9.317    0.316    0.455   73.079
  352.500    8.194    0.326    0.450   67.557
  352.750    7.153    0.333    0.457   69.557
  353.000    7.191    0.339    0.453   81.033
  353.250    7.737    0.343    0.447   88.659
  353.500    8.388    0.348    0.458   81.547
  353.750    9.214    0.347    0.463   73.031
  354.000   10.198    0.344    0.444   67.142
  354.250   10.768    0.338    0.427   65.595
  354.500   11.116    0.334    0.411   69.980
  354.750   11.345    0.330    0.400   73.385
  355.000   11.385    0.335    0.410   74.713
  355.250   11.424    0.346    0.430   75.978
  355.500   11.421    0.359    0.446   77.673
  355.750   11.376    0.365    0.456   74.414
  356.000   11.352    0.373    0.472   68.645
  356.250   11.413    0.368    0.448   65.021
  356.500   11.538    0.362    0.440   61.886
  356.750   11.536    0.353    0.438   59.422
  357.000   11.664    0.347    0.423   57.691
  357.250   11.705    0.341    0.411   56.142
  357.500   11.813    0.338    0.405   54.717
  357.750   11.921    0.342    0.402   53.722
  358.000   12.007    0.342    0.402   53.216
  358.250   12.072    0.338    0.405   53.684
  358.500   12.047    0.329    0.430   54.402
  358.750   12.203    0.327    0.448   55.540
  359.000   12.247    0.321    0.445   56.384
  359.250   12.382    0.322    0.431   59.781
  359.500   12.449    0.330    0.415   61.423
  359.750   12.563    0.318    0.403   65.003
  360.000   12.726    0.309    0.395   64.933
  360.250   12.748    0.305    0.395   61.550
  360.500   12.744    0.311    0.390   57.069
  360.750   12.669    0.327    0.386   53.505
  361.000   12.476    0.341    0.397   55.444
  361.250   12.102    0.343    0.403   61.540
  361.500   11.695    0.334    0.402   64.090
  361.750   11.605    0.330    0.393   60.770
