~VERSION INFORMATION
 VERS.                 2.0:   CWLS LOG ASCII STANDARD -VERSION 2.0
 WRAP.                  NO:   ONE LINE PER DEPTH STEP
~WELL INFORMATION BLOCK
#MNEM.UNIT           DATA                    DESCRIPTION OF MNEMONIC
#---------    -------------------            -------------------------------
# Generated from Intellog Unique Number	CS_73_76/WELL/1031
WELL.         BP FT AL MARGIE                : Well_name    - WELL
LOC .         00/06-03-075-10W4/0            : Location     - LOCATION
UWI .         00/06-03-075-10W4/0            : Uwi          - UNIQUE WELL ID
ENTR.         SP                             : Entered      - ENTERED BY
SRVC.         SCHLUMBERGER                   : Scn          - SERVICE COMPANY
STRT.M        304.8                          : top_depth    - START DEPTH
STOP.M        511.8                          : bot_depth    - STOP DEPTH
STEP.M        0.25                           : increment    - STEP LENGTH
 NULL. -999.2500:NULL Value
~CURVE INFORMATION BLOCK
#MNEM UNIT       ERCB CURVE CODE    CURVE DESCRIPTION
#-----------   ------------------   ----------------------------------
DEPT.M        00 001 00 00         : DEPTH        - DEPTH
GR  .API      00 310 00 00         : GR           - GAMMA RAY
DPHI.V/V      00 890 00 00         : PHID         - DENSITY POROSITY (SANDSTONE)
NPHI.V/V      00 330 00 00         : PHIN         - NEUTRON POROSITY (SANDSTONE)
ILD .OHMM     00 120 00 00         : RESD         - DEEP RESISTIVITY (DIL)
~PARAMETER INFORMATION
#MNEM.UNIT           DATA             DESCRIPTION OF MNEMONIC
#---------         -----------     ------------------------------
GL  .M        683.88               : gl           - GROUND LEVEL ELEVATION
EREF.M        687.172              : kb           - ELEVATION OF DEPTH REFERENCE
DATM.M        683.88               : datum        - DATUM ELEVATION
TDD .M        676.656              : tdd          - TOTAL DEPTH DRILLER
RUN .         ONE                  : Run          - RUN NUMBER
ENG .         BILL                 : Engineer     - RECORDING ENGINEER
WIT .         JIM                  : Witness      - WITNESSED BY
MUD .         GEL                  : Mud_type     - MUD TYPE
MATR.         SANDSTONE            : Logunit      - NEUTRON MATRIX
TMAX.C        25.5556              : BHT          - MAXIMUM RECORDED TEMPERATURE
BHTD.M        676.656              : BHTDEP       - MAXIMUM RECORDED TEMPERATURE
MATR.         1                    : LOGUNIT      - NEUTRON MATRIX
RMT .C        25                   : MDTP         - TEMPERATURE OF MUD
NEUT.         1                    : NEUTRON      - NEUTRON TYPE
RESI.         0                    : RESIST       - RESISTIVITY TYPE
RMC .OHMM     0.25                 : RMC          - RESISTIVITY OF MUD CAKE
RMF .OHMM     0.25                 : RMF          - RESISTIVITY OF MUD FILTRATE
SUFT.C        15                   : SUFT         - SURFACE TEMPERATURE
~A  DEPTH       GR     PHID     PHIN     RESD
# ...
  348.300   76.817    0.243    0.505   10.557
  348.550   78.090    0.272    0.517   10.243
  348.800   79.850    0.258    0.500   10.078
  349.050   81.776    0.263    0.488    9.822
  349.300   80.434    0.276    0.481    9.539
  349.550   79.677    0.267    0.480    9.368
  349.800   81.202    0.245    0.489    9.148
  350.050   82.739    0.243    0.500    8.872
  350.300   83.103    0.252    0.505    8.771
  350.550   83.361    0.259    0.503    8.660
  350.800   83.927    0.261    0.511    8.394
  351.050   84.211    0.257    0.507    8.220
  351.300   85.257    0.248    0.495    8.230
  351.550   86.178    0.234    0.484    8.088
  351.800   87.871    0.224    0.493    8.106
  352.050   88.790    0.243    0.489    7.946
  352.300   89.838    0.231    0.476    7.950
  352.550   90.151    0.250    0.468    7.919
  352.800   89.996    0.263    0.465    7.671
  353.050   88.703    0.257    0.468    7.361
  353.300   86.701    0.265    0.475    7.080
  353.550   84.734    0.264    0.470    6.645
  353.800   82.738    0.254    0.469    6.378
  354.050   80.681    0.262    0.469    6.285
  354.300   77.167    0.250    0.474    6.480
  354.550   74.525    0.239    0.499    6.684
  354.800   71.985    0.230    0.535    6.741
  355.050   75.425    0.249    0.560    6.642
  355.300   78.963    0.269    0.497    6.333
  355.550   83.357    0.220    0.478    6.160
  355.800   86.827    0.207    0.486    6.152
  356.050   85.584    0.229    0.498    6.304
  356.300   86.789    0.232    0.495    6.608
  356.550   90.188    0.209    0.497    7.010
  356.800   90.365    0.206    0.498    7.631
  357.050   88.350    0.237    0.484    8.206
  357.300   86.728    0.259    0.503    8.904
  357.550   83.572    0.282    0.519    9.441
  357.800   80.037    0.306    0.521    9.907
  358.050   77.276    0.316    0.495    9.939
  358.300   74.364    0.284    0.480    9.743
  358.550   73.983    0.265    0.465    9.479
  358.800   73.702    0.248    0.456    8.670
  359.050   75.517    0.270    0.463    8.130
  359.300   77.836    0.285    0.456    7.488
  359.550   79.963    0.267    0.464    7.221
  359.800   80.364    0.256    0.471    6.892
  360.050   80.223    0.247    0.466    7.204
  360.300   80.631    0.232    0.467    7.900
  360.550   74.463    0.225    0.477    8.676
  360.800   68.796    0.264    0.484    9.040
  361.050   60.888    0.300    0.478    9.415
  361.300   55.468    0.316    0.464    9.429
  361.550   55.280    0.311    0.454    9.228
  361.800   57.647    0.307    0.460    9.245
  362.050   59.189    0.300    0.468    9.434
  362.300   60.816    0.294    0.479    9.465
  362.550   62.351    0.286    0.475    9.587
  362.800   61.922    0.287    0.468    9.768
  363.050   58.482    0.309    0.476    9.969
  363.300   56.645    0.332    0.472    9.952
  363.550   55.178    0.344    0.466    9.954
  363.800   55.348    0.350    0.467    9.956
  364.050   58.992    0.334    0.469    9.957
  364.300   60.158    0.326    0.459    9.958
  364.550   61.838    0.319    0.452    9.959
  364.800   61.409    0.328    0.461    9.945
  365.050   60.474    0.330    0.470   10.215
  365.300   61.780    0.316    0.475   10.514
  365.550   59.918    0.297    0.473   11.030
  365.800   55.424    0.283    0.462   11.563
  366.050   52.991    0.290    0.461   11.735
  366.300   51.784    0.301    0.451   11.857
  366.550   52.981    0.310    0.435   11.938
  366.800   54.404    0.323    0.437   11.744
  367.050   55.420    0.314    0.450   11.673
  367.300   57.111    0.310    0.459   11.306
  367.550   57.199    0.307    0.465   10.634
  367.800   55.987    0.290    0.463    9.977
  368.050   54.610    0.279    0.465    8.927
  368.300   55.416    0.301    0.478    8.025
  368.550   56.879    0.308    0.490    6.956
  368.800   59.251    0.306    0.481    6.232
  369.050   63.033    0.299    0.467    5.242
  369.300   66.952    0.291    0.474    4.987
  369.550   69.742    0.286    0.482    5.325
  369.800   73.365    0.292    0.492    5.619
  370.050   76.863    0.281    0.503    6.356
  370.300   78.539    0.269    0.518    6.611
  370.550   73.222    0.293    0.526    7.080
  370.800   68.812    0.315    0.503    7.602
  371.050   69.335    0.313    0.507    8.075
  371.300   71.621    0.307    0.526    8.574
  371.550   70.772    0.299    0.520    9.110
  371.800   67.126    0.289    0.508    9.388
  372.050   65.018    0.298    0.493    9.685
  372.300   63.605    0.310    0.486    9.818
  372.550   62.745    0.314    0.479    9.425
  372.800   65.004    0.321    0.474    9.275
  373.050   67.406    0.303    0.464    8.986
  373.300   70.656    0.287    0.458    8.780
  373.550   73.987    0.286    0.451    8.794
  373.800   77.126    0.300    0.452    8.796
  374.050   79.226    0.281    0.457    8.797
  374.300   79.686    0.264    0.448    8.798
  374.550   80.054    0.255    0.445    8.804
  374.800   81.316    0.240    0.449    8.844
  375.050   84.345    0.244    0.457    8.965
  375.300   86.709    0.230    0.465    8.961
  375.550   86.684    0.255    0.477    8.933
  375.800   84.078    0.265    0.490    8.808
  376.050   82.136    0.262    0.480    8.562
  376.300   79.503    0.252    0.442    8.317
  376.550   78.959    0.235    0.404    7.944
  376.800   80.552    0.214    0.414    7.634
  377.050   82.140    0.227    0.419    7.328
  377.300   84.024    0.223    0.429    7.028
  377.550   86.702    0.208    0.440    6.656
  377.800   88.612    0.194    0.456    6.225
  378.050   89.996    0.179    0.469    5.868
  378.300   90.163    0.192    0.479    5.543
  378.550   88.103    0.207    0.467    5.297
  378.800   87.071    0.210    0.463    5.030
  379.050   86.927    0.195    0.476    4.887
  379.300   87.435    0.225    0.485    4.746
  379.550   87.365    0.235    0.497    4.645
  379.800   88.055    0.234    0.504    4.554
  380.050   87.640    0.240    0.518    4.571
  380.300   85.932    0.255    0.530    4.477
  380.550   85.011    0.239    0.525    4.396
  380.800   85.030    0.221    0.519    4.356
  381.050   85.025    0.236    0.525    4.110
  381.300   85.009    0.235    0.525    3.944
  381.550   84.317    0.235    0.534    3.835
  381.800   84.051    0.241    0.552    3.644
  382.050   86.017    0.234    0.560    3.482
  382.300   88.398    0.226    0.554    3.378
  382.550   89.233    0.233    0.549    3.287
  382.800   89.200    0.247    0.573    3.343
  383.050   89.449    0.257    0.568    3.440
  383.300   89.797    0.253    0.562    3.469
  383.550   88.907    0.241    0.553    3.470
  383.800   88.813    0.232    0.544    3.471
  384.050   89.782    0.239    0.537    3.471
  384.300   91.636    0.235    0.550    3.682
  384.550   92.211    0.220    0.561    4.229
  384.800   88.912    0.213    0.572    4.884
  385.050   83.460    0.210    0.570    5.465
  385.300   76.835    0.239    0.551    6.061
  385.550   68.908    0.279    0.523    6.446
  385.800   64.851    0.300    0.499    6.714
  386.050   60.248    0.313    0.471    6.819
  386.300   58.797    0.306    0.471    6.500
  386.550   58.851    0.312    0.480    6.315
  386.800   60.528    0.312    0.472    6.131
  387.050   62.911    0.306    0.465    6.062
  387.300   65.037    0.309    0.462    5.852
  387.550   67.000    0.311    0.471    5.505
  387.800   68.328    0.321    0.484    5.035
  388.050   68.242    0.305    0.491    4.631
  388.300   65.901    0.298    0.500    4.433
  388.550   68.403    0.286    0.488    4.400
  388.800   74.052    0.288    0.477    4.689
  389.050   75.622    0.281    0.486    5.040
  389.300   77.052    0.266    0.513    5.554
  389.550   73.476    0.269    0.542    5.945
  389.800   68.395    0.290    0.531    6.226
  390.050   66.503    0.312    0.532    6.421
  390.300   64.648    0.317    0.522    6.489
  390.550   65.641    0.328    0.500    6.503
  390.800   66.612    0.321    0.486    6.359
  391.050   67.582    0.318    0.481    6.377
  391.300   68.282    0.310    0.481    6.191
  391.550   68.311    0.291    0.481    6.007
