~VERSION INFORMATION
 VERS.                 2.0:   CWLS LOG ASCII STANDARD -VERSION 2.0
 WRAP.                  NO:   ONE LINE PER DEPTH STEP
~WELL INFORMATION BLOCK
#MNEM.UNIT           DATA                    DESCRIPTION OF MNEMONIC
#---------    -------------------            -------------------------------
# Generated from Intellog Unique Number	CW_73_75/WELL/3520
WELL.         MANNVILLE OIL                  : Well_name    - WELL
LOC .         00/07-08-073-03W5/0            : Location     - LOCATION
UWI .         00/07-08-073-03W5/0            : Uwi          - UNIQUE WELL ID
ENTR.         TIM                            : Entered      - ENTERED BY
SRVC.         SCHLUMBERGER                   : Scn          - SERVICE COMPANY
DATE.         05\15\92                       : Date         - LOG DATE
STRT.M        350                            : top_depth    - START DEPTH
STOP.M        620                            : bot_depth    - STOP DEPTH
STEP.M        0.25                           : increment    - STEP LENGTH
 NULL. -999.2500:NULL Value
~CURVE INFORMATION BLOCK
#MNEM UNIT       ERCB CURVE CODE    CURVE DESCRIPTION
#-----------   ------------------   ----------------------------------
DEPT.M        00 001 00 00         : DEPTH        - DEPTH
GR  .API      00 310 00 00         : GR           - GAMMA RAY
NPHI.V/V      00 330 00 00         : PHIN         - NEUTRON POROSITY (SANDSTONE)
DPHI.V/V      00 890 00 00         : PHID         - DENSITY POROSITY (SANDSTONE)
ILD .OHMM     00 120 00 00         : RESD         - DEEP RESISTIVITY (DIL)
~PARAMETER INFORMATION
#MNEM.UNIT           DATA             DESCRIPTION OF MNEMONIC
#---------         -----------     ------------------------------
GL  .M        590                  : gl           - GROUND LEVEL ELEVATION
EREF.M        593.5                : kb           - ELEVATION OF DEPTH REFERENCE
DATM.M        593.5                : datum        - DATUM ELEVATION
TDD .M        621                  : tdd          - TOTAL DEPTH DRILLER
RUN .         ONE                  : Run          - RUN NUMBER
ENG .         JO                   : Engineer     - RECORDING ENGINEER
WIT .         TIM                  : Witness      - WITNESSED BY
MUD .         GEL                  : Mud_type     - MUD TYPE
MATR.         SANDSTONE            : Logunit      - NEUTRON MATRIX
TMAX.C        28                   : BHT          - MAXIMUM RECORDED TEMPERATURE
BHTD.M        620                  : BHTDEP       - MAXIMUM RECORDED TEMPERATURE
RMT .C        15                   : MDTP         - TEMPERATURE OF MUD
MUDD.KG/M     1080                 : MWT          - MUD DENSITY
NEUT.         1                    : NEUTRON      - NEUTRON TYPE
RESI.         0                    : RESIST       - RESISTIVITY TYPE
RM  .OHMM     2.53                 : RM           - RESISTIVITY OF MUD
RMC .OHMM     2.78                 : RMC          - RESISTIVITY OF MUD CAKE
RMF .OHMM     2.33                 : RMF          - RESISTIVITY OF MUD FILTRATE
SUFT.C        4                    : SUFT         - SURFACE TEMPERATURE
~A  DEPTH       GR     PHIN     PHID     RESD
# ...
  437.000   60.768    0.447    0.348    3.218
  437.250   61.294    0.455    0.338    3.212
  437.500   61.231    0.461    0.335    3.203
  437.750   61.169    0.454    0.331    3.256
  438.000   58.736    0.430    0.326    3.248
  438.250   60.423    0.421    0.324    3.241
  438.500   60.980    0.410    0.325    3.236
  438.750   60.918    0.440    0.328    3.170
  439.000   59.089    0.415    0.335    3.106
  439.250   58.391    0.403    0.334    3.099
  439.500   58.360    0.415    0.332    3.090
  439.750   58.297    0.442    0.332    3.080
  440.000   57.057    0.455    0.334    3.134
  440.250   55.229    0.442    0.337    3.242
  440.500   55.739    0.423    0.339    3.296
  440.750   57.442    0.426    0.354    3.410
  441.000   59.129    0.427    0.355    3.464
  441.250   59.686    0.416    0.346    3.460
  441.500   59.035    0.398    0.338    3.516
  441.750   58.384    0.382    0.341    3.705
  442.000   60.071    0.381    0.343    3.835
  442.250   62.378    0.379    0.338    4.040
  442.500   69.966    0.366    0.320    4.186
  442.750   75.201    0.391    0.360    4.331
  443.000   74.549    0.460    0.418    4.483
  443.250   73.898    0.495    0.438    4.470
  443.500   87.960    0.432    0.248    4.466
  443.750   93.799    0.383    0.236    4.375
  444.000   99.606    0.382    0.234    4.208
  444.250   99.559    0.404    0.230    4.120
  444.500   91.225    0.413    0.235    3.961
  444.750   87.058    0.401    0.253    3.955
  445.000   82.860    0.396    0.287    3.874
  445.250   82.813    0.396    0.293    3.866
  445.500   85.104    0.408    0.293    3.785
  445.750   91.516    0.427    0.296    3.706
  446.000  102.619    0.426    0.298    3.702
  446.250   98.453    0.417    0.301    3.625
  446.500   91.328    0.405    0.303    3.617
  446.750   83.010    0.395    0.311    3.676
  447.000   79.400    0.386    0.325    3.805
  447.250   76.395    0.393    0.331    4.011
  447.500   73.993    0.399    0.321    4.226
  447.750   71.545    0.404    0.322    4.297
  448.000   70.305    0.413    0.324    4.530
  448.250   70.243    0.430    0.326    4.436
  448.500   71.357    0.437    0.328    4.189
  448.750   72.471    0.408    0.327    3.956
  449.000   73.013    0.404    0.326    4.326
  449.250   73.539    0.424    0.326    4.908
  449.500   72.872    0.448    0.331    5.370
  449.750   72.205    0.451    0.336    6.201
  450.000   70.996    0.437    0.337    6.781
  450.250   67.356    0.389    0.303    6.895
  450.500   66.147    0.304    0.099    6.160
  450.750   63.730    0.190    0.105    5.609
  451.000   63.079    0.227    0.119    5.013
  451.250   64.782    0.329    0.158    4.737
  451.500   67.073    0.402    0.234    4.080
  451.750   67.583    0.433    0.273    3.783
  452.000   66.344    0.432    0.330    3.380
  452.250   66.281    0.437    0.320    3.373
  452.500   70.354    0.456    0.310    3.429
  452.750   74.984    0.436    0.317    3.550
  453.000   74.905    0.423    0.330    3.672
  453.250   74.874    0.394    0.319    3.734
  453.500   75.400    0.386    0.298    3.863
  453.750   77.103    0.381    0.289    3.998
  454.000   78.805    0.374    0.268    4.136
  454.250   85.217    0.372    0.244    4.205
  454.500   90.451    0.376    0.226    4.271
  454.750   93.904    0.384    0.237    4.341
  455.000   90.325    0.395    0.258    4.412
  455.250   88.481    0.405    0.252    4.486
  455.500   91.966    0.403    0.241    4.554
  455.750   95.418    0.412    0.222    4.633
  456.000   94.767    0.424    0.213    4.706
  456.250   95.293    0.413    0.215    4.698
  456.500   96.423    0.390    0.217    4.766
  456.750   98.094    0.378    0.217    4.761
  457.000   98.652    0.370    0.217    4.753
  457.250   97.396    0.362    0.217    4.743
  457.500   92.625    0.362    0.217    4.641
  457.750   86.677    0.373    0.216    4.631
  458.000   84.849    0.391    0.215    4.540
  458.250   84.770    0.420    0.215    4.445
  458.500   85.900    0.445    0.214    4.357
  458.750   87.603    0.449    0.213    4.269
  459.000   88.129    0.428    0.211    4.182
  459.250   88.624    0.429    0.209    4.170
  459.500   89.769    0.429    0.203    4.086
  459.750   92.061    0.410    0.199    4.077
  460.000   93.764    0.408    0.190    4.068
  460.250   93.701    0.415    0.188    3.983
  460.500   89.487    0.436    0.195    3.976
  460.750   85.305    0.433    0.202    3.968
  461.000   83.492    0.398    0.208    3.957
  461.250   82.841    0.402    0.212    3.944
  461.500   88.059    0.431    0.212    3.939
  461.750   90.366    0.436    0.215    3.933
  462.000   90.304    0.419    0.216    3.851
  462.250   87.887    0.397    0.226    3.840
  462.500   83.689    0.392    0.240    3.764
  462.750   80.095    0.397    0.250    3.756
  463.000   82.386    0.462    0.251    3.750
  463.250   82.323    0.457    0.253    3.672
  463.500   83.438    0.461    0.253    3.593
  463.750   88.672    0.438    0.253    3.587
  464.000   90.375    0.418    0.247    3.581
  464.250   86.177    0.394    0.232    3.507
  464.500   84.348    0.398    0.225    3.501
  464.750   84.286    0.410    0.231    3.489
  465.000   82.442    0.411    0.249    3.486
  465.250   79.452    0.398    0.257    3.540
  465.500   75.269    0.389    0.258    3.598
  465.750   74.030    0.419    0.242    3.590
  466.000   76.910    0.432    0.235    3.582
  466.250   80.378    0.436    0.246    3.444
  466.500   80.904    0.428    0.274    3.250
  466.750   74.956    0.416    0.282    3.188
  467.000   67.815    0.416    0.287    3.063
  467.250   64.205    0.447    0.288    3.002
  467.500   65.335    0.458    0.290    2.998
  467.750   64.668    0.454    0.290    2.991
  468.000   62.252    0.418    0.290    2.983
  468.250   60.423    0.418    0.290    2.978
  468.500   60.345    0.445    0.290    2.968
  468.750   60.282    0.459    0.290    2.962
  469.000   59.615    0.436    0.291    3.011
  469.250   59.584    0.427    0.291    3.001
  469.500   61.287    0.416    0.291    3.052
  469.750   64.167    0.416    0.293    3.047
  470.000   67.620    0.414    0.295    3.093
  470.250   69.911    0.417    0.296    3.088
  470.500   72.218    0.423    0.296    3.136
  470.750   75.098    0.409    0.294    3.191
  471.000   76.785    0.390    0.284    3.364
  471.250   73.796    0.416    0.264    3.608
  471.500   70.775    0.419    0.261    3.671
  471.750   68.342    0.390    0.287    3.795
  472.000   67.134    0.374    0.280    3.861
  472.250   64.113    0.358    0.258    3.853
  472.500   63.461    0.353    0.247    3.635
  472.750   63.383    0.363    0.250    3.431
  473.000   63.909    0.374    0.272    3.302
  473.250   63.830    0.403    0.280    3.118
  473.500   63.799    0.417    0.289    2.998
  473.750   63.736    0.434    0.305    2.940
  474.000   66.028    0.450    0.303    2.934
  474.250   69.481    0.443    0.299    2.924
  474.500   73.553    0.428    0.294    2.919
  474.750   76.418    0.436    0.277    2.914
  475.000   73.428    0.425    0.282    2.958
  475.250   73.350    0.414    0.288    3.007
  475.500   72.698    0.416    0.289    2.998
  475.750   70.297    0.421    0.290    3.050
  476.000   71.984    0.422    0.287    3.044
  476.250   76.057    0.423    0.283    3.093
  476.500   74.802    0.411    0.288    3.142
  476.750   72.973    0.405    0.301    3.195
  477.000   71.718    0.401    0.296    3.243
  477.250   74.025    0.399    0.292    3.238
  477.500   77.478    0.405    0.286    3.232
  477.750   78.608    0.438    0.275    3.283
  478.000   76.191    0.450    0.267    3.337
  478.250   73.758    0.456    0.265    3.391
  478.500   73.680    0.466    0.266    3.382
  478.750   74.222    0.476    0.266    3.438
  479.000   74.747    0.485    0.266    3.490
  479.250   74.080    0.476    0.266    3.487
  479.500   76.388    0.431    0.265    3.538
  479.750   78.695    0.436    0.264    3.536
  480.000   76.866    0.444    0.267    3.593
  480.250   72.653    0.420    0.276    3.585
