~VERSION INFORMATION
 VERS.                 2.0:   CWLS LOG ASCII STANDARD -VERSION 2.0
 WRAP.                  NO:   ONE LINE PER DEPTH STEP
~WELL INFORMATION BLOCK
#MNEM.UNIT           DATA                    DESCRIPTION OF MNEMONIC
#---------    -------------------            -------------------------------
# Generated from Intellog Unique Number	CS_73_76/WELL/2176
WELL.         DOME ET AL KIRBY               : Well_name    - WELL
LOC .         00/07-26-074-05W4/0            : Location     - LOCATION
UWI .         00/07-26-074-05W4/0            : Uwi          - UNIQUE WELL ID
ENTR.         SP                             : Entered      - ENTERED BY
SRVC.         SCHLUMBERGER                   : Scn          - SERVICE COMPANY
STRT.M        260                            : top_depth    - START DEPTH
STOP.M        470                            : bot_depth    - STOP DEPTH
STEP.M        0.25                           : increment    - STEP LENGTH
 NULL. -999.2500:NULL Value
~CURVE INFORMATION BLOCK
#MNEM UNIT       ERCB CURVE CODE    CURVE DESCRIPTION
#-----------   ------------------   ----------------------------------
DEPT.M        00 001 00 00         : DEPTH        - DEPTH
ILD .OHMM     00 120 00 00         : RESD         - DEEP RESISTIVITY (DIL)
DPHI.V/V      00 890 00 00         : PHID         - DENSITY POROSITY (LIMESTONE)
NPHI.V/V      00 330 00 00         : PHIN         - NEUTRON POROSITY (LIMESTONE)
GR  .API      00 310 00 00         : GR           - GAMMA RAY
~PARAMETER INFORMATION
#MNEM.UNIT           DATA             DESCRIPTION OF MNEMONIC
#---------         -----------     ------------------------------
GL  .M        659.1                : gl           - GROUND LEVEL ELEVATION
EREF.M        663.6                : kb           - ELEVATION OF DEPTH REFERENCE
DATM.M        659.1                : datum        - DATUM ELEVATION
TDD .M        475                  : tdd          - TOTAL DEPTH DRILLER
RUN .         ONE                  : Run          - RUN NUMBER
ENG .         BILL                 : Engineer     - RECORDING ENGINEER
WIT .         JIM                  : Witness      - WITNESSED BY
MUD .         GEL                  : Mud_type     - MUD TYPE
MATR.         LIMESTONE            : Logunit      - NEUTRON MATRIX
TMAX.C        20                   : BHT          - MAXIMUM RECORDED TEMPERATURE
BHTD.M        475                  : BHTDEP       - MAXIMUM RECORDED TEMPERATURE
MATR.         1                    : LOGUNIT      - NEUTRON MATRIX
RMT .C        25                   : MDTP         - TEMPERATURE OF MUD
NEUT.         1                    : NEUTRON      - NEUTRON TYPE
RESI.         0                    : RESIST       - RESISTIVITY TYPE
RMC .OHMM     0.25                 : RMC          - RESISTIVITY OF MUD CAKE
RMF .OHMM     0.25                 : RMF          - RESISTIVITY OF MUD FILTRATE
SUFT.C        15                   : SUFT         - SURFACE TEMPERATURE
~A  DEPTH     RESD     PHID     PHIN       GR
# ...
  390.500    2.213    0.304    0.477   78.697
  390.750    2.386    0.295    0.466   82.954
  391.000    2.525    0.271    0.467   87.819
  391.250    2.623    0.254    0.473   92.683
  391.500    2.724    0.247    0.467   92.083
  391.750    2.776    0.251    0.466   91.483
  392.000    2.883    0.237    0.465   94.527
  392.250    2.939    0.232    0.473   95.746
  392.500    2.996    0.227    0.480   95.148
  392.750    2.997    0.234    0.486   94.544
  393.000    2.942    0.237    0.489   93.947
  393.250    2.943    0.236    0.478   93.951
  393.500    3.000    0.232    0.467   93.958
  393.750    3.001    0.238    0.468   92.142
  394.000    3.059    0.248    0.480   92.149
  394.250    3.060    0.256    0.474   93.977
  394.500    3.061    0.251    0.469   97.021
  394.750    3.062    0.242    0.463   98.240
  395.000    3.006    0.244    0.485   97.032
  395.250    2.951    0.247    0.493   94.611
  395.500    2.790    0.253    0.480   92.794
  395.750    2.739    0.259    0.493   90.371
  396.000    2.690    0.265    0.506   85.519
  396.250    2.690    0.270    0.472   80.060
  396.500    2.641    0.273    0.433   81.282
  396.750    2.642    0.257    0.413   89.790
  397.000    2.546    0.240    0.444  100.729
  397.250    2.546    0.240    0.464  101.949
  397.500    2.645    0.244    0.473   96.490
  397.750    2.747    0.249    0.474   89.211
  398.000    2.853    0.246    0.456   86.786
  398.250    2.963    0.233    0.447   88.008
  398.500    2.964    0.235    0.450   91.658
  398.750    2.910    0.230    0.467   94.701
  399.000    2.700    0.222    0.466   93.492
  399.250    2.282    0.224    0.478   90.463
  399.500    2.198    0.244    0.516   88.647
  399.750    2.040    0.274    0.580   85.618
  400.000    2.040    0.298    0.599   85.624
  400.250    2.041    0.301    0.578   86.237
  400.500    2.081    0.281    0.558   85.638
  400.750    2.121    0.286    0.540   85.644
  401.000    2.162    0.301    0.565   85.043
  401.250    2.162    0.312    0.567   83.834
  401.500    2.204    0.301    0.547   86.272
  401.750    2.332    0.298    0.539   88.098
  402.000    2.468    0.287    0.533   92.965
  402.250    2.816    0.277    0.550   96.007
  402.500    3.037    0.266    0.563   96.620
  402.750    3.400    0.285    0.576   94.197
  403.000    3.666    0.332    0.563   91.774
  403.250    3.953    0.316    0.510   89.962
  403.500    4.183    0.274    0.451   89.359
  403.750    4.344    0.225    0.463   88.760
  404.000    4.266    0.219    0.488   88.765
  404.250    4.033    0.235    0.473   91.807
  404.500    3.743    0.242    0.463   91.814
  404.750    3.606    0.247    0.455   91.821
  405.000    3.346    0.210    0.467   94.864
  405.250    3.164    0.211    0.481  100.337
  405.500    3.048    0.213    0.496  103.986
  405.750    3.049    0.214    0.506  105.814
  406.000    3.351    0.221    0.514  101.570
  406.250    3.546    0.230    0.524   98.541
  406.500    3.753    0.215    0.540   97.941
  406.750    3.825    0.206    0.512   97.338
  407.000    3.826    0.200    0.485   95.524
  407.250    3.827    0.205    0.474   96.136
  407.500    3.688    0.220    0.463   97.965
  407.750    3.689    0.214    0.459  102.831
  408.000    3.622    0.221    0.450  102.836
  408.250    3.623    0.228    0.443   98.591
  408.500    3.624    0.230    0.486   98.598
  408.750    3.625    0.238    0.505   97.391
  409.000    3.627    0.248    0.506   94.361
  409.250    3.628    0.250    0.503   93.152
  409.500    3.629    0.237    0.505   94.373
  409.750    3.563    0.243    0.502   96.203
  410.000    3.564    0.241    0.495   96.816
  410.250    3.565    0.227    0.500   95.606
  410.500    3.566    0.237    0.503   94.399
  410.750    3.635    0.242    0.492   94.406
  411.000    4.147    0.242    0.512   94.411
  411.250    5.497    0.250    0.536   92.597
  411.500    7.152    0.252    0.517   89.566
  411.750    9.305    0.256    0.486   85.929
  412.000   11.444    0.258    0.440   79.864
  412.250   12.812    0.219    0.401   71.367
  412.500   13.305    0.215    0.344   64.085
  412.750   13.311    0.288    0.324   77.453
  413.000   12.353    0.319    0.333   81.710
  413.250   11.250    0.335    0.347   76.859
  413.500   10.837    0.333    0.347   73.829
  413.750   10.441    0.315    0.354   76.264
  414.000   10.060    0.309    0.361   76.878
  414.250    9.513    0.324    0.360   69.599
  414.500    8.663    0.303    0.344   64.746
  414.750    7.459    0.294    0.330   59.894
  415.000    6.542    0.308    0.311   57.470
  415.250    5.958    0.320    0.314   59.907
  415.500    5.528    0.322    0.339   55.663
  415.750    4.671    0.328    0.341   52.632
  416.000    4.175    0.330    0.313   53.856
  416.250    3.802    0.294    0.306   54.467
  416.500    3.595    0.277    0.350   58.725
  416.750    3.464    0.283    0.377   58.731
  417.000    3.531    0.291    0.366   55.700
  417.250    3.598    0.281    0.350   52.064
  417.500    3.954    0.284    0.366   57.536
  417.750    4.427    0.267    0.348   67.866
  418.000    4.685    0.248    0.328   79.411
  418.250    4.958    0.258    0.354   98.851
  418.500    4.960    0.265    0.374  103.108
  418.750    4.778    0.242    0.385   95.221
  419.000    4.114    0.229    0.394   83.082
  419.250    3.677    0.248    0.400   69.120
  419.500    3.225    0.276    0.391   51.515
  419.750    3.166    0.294    0.367   44.842
  420.000    3.479    0.308    0.359   46.064
  420.250    3.751    0.298    0.371   50.321
  420.500    4.443    0.301    0.376   55.185
  420.750    5.262    0.294    0.381   61.873
  421.000    7.109    0.289    0.385   67.953
  421.250    9.248    0.287    0.394   73.423
  421.500   12.261    0.288    0.398   77.680
  421.750   14.523    0.290    0.408   77.081
  422.000   16.567    0.295    0.415   72.835
  422.250   17.531    0.305    0.427   71.627
  422.500   18.553    0.316    0.442   74.062
  422.750   18.560    0.320    0.446   78.929
  423.000   17.883    0.300    0.441   81.363
  423.250   16.287    0.293    0.430   75.297
  423.500   14.832    0.289    0.393   72.874
  423.750   13.009    0.270    0.363   81.991
  424.000   11.199    0.255    0.369   86.855
  424.250   12.306    0.235    0.396   93.543
  424.500   14.576    0.209    0.414   89.297
  424.750   17.264    0.237    0.426   76.552
  425.000   20.835    0.257    0.435   69.270
  425.250   22.893    0.284    0.408   63.810
  425.500   22.477    0.311    0.415   68.069
  425.750   20.859    0.328    0.378   72.326
  426.000   20.094    0.282    0.336   79.620
  426.250   17.959    0.260    0.326   93.593
  426.500   15.755    0.272    0.351  105.138
  426.750   15.178    0.294    0.410   86.927
  427.000   14.901    0.318    0.446   76.609
  427.250   14.628    0.290    0.468   64.469
  427.500   14.361    0.257    0.399   68.726
  427.750   14.100    0.250    0.356   62.053
  428.000   13.843    0.255    0.344   68.133
  428.250   13.590    0.263    0.387   73.605
  428.500   13.593    0.288    0.436   74.219
  428.750   14.117    0.276    0.439   72.404
  429.000   14.665    0.254    0.360   77.268
  429.250   14.945    0.227    0.350   82.740
  429.500   15.524    0.208    0.334   87.606
  429.750   15.824    0.196    0.320   87.004
  430.000   15.828    0.229    0.345   75.473
  430.250   15.833    0.271    0.391   71.228
  430.500   14.970    0.288    0.398   77.307
  430.750   13.132    0.278    0.380   82.779
  431.000   11.305    0.260    0.391   85.216
  431.250    9.916    0.244    0.430   91.295
  431.500    9.031    0.234    0.449   98.589
  431.750    8.701    0.233    0.463   97.988
  432.000    8.705    0.218    0.403   94.958
  432.250    8.707    0.200    0.368   94.359
  432.500    9.388    0.206    0.360   96.792
  432.750   11.988    0.228    0.384   96.192
  433.000   15.892    0.234    0.404   88.912
  433.250   20.290    0.243    0.414   79.807
  433.500   26.899    0.276    0.409   67.061
  433.750   36.334    0.296    0.422   55.529
