~VERSION INFORMATION
 VERS.                 2.0:   CWLS LOG ASCII STANDARD -VERSION 2.0
 WRAP.                  NO:   ONE LINE PER DEPTH STEP
~WELL INFORMATION BLOCK
#MNEM.UNIT           DATA                    DESCRIPTION OF MNEMONIC
#---------    -------------------            -------------------------------
# Generated from Intellog Unique Number	CW_79_81/WELL/2452
WELL.         GULF AMOCO HOOLE               : Well_name    - WELL
LOC .         00/06-20-081-24W4/0            : Location     - LOCATION
UWI .         00/06-20-081-24W4/0            : Uwi          - UNIQUE WELL ID
ENTR.         MAX                            : Entered      - ENTERED BY
SRVC.         COMPUTALOG                     : Scn          - SERVICE COMPANY
STRT.M        210                            : top_depth    - START DEPTH
STOP.M        474.75                         : bot_depth    - STOP DEPTH
STEP.M        0.25                           : increment    - STEP LENGTH
 NULL. -999.2500:NULL Value
~CURVE INFORMATION BLOCK
#MNEM UNIT       ERCB CURVE CODE    CURVE DESCRIPTION
#-----------   ------------------   ----------------------------------
DEPT.M        00 001 00 00         : DEPTH        - DEPTH
ILD .OHMM     00 120 00 00         : RESD         - DEEP RESISTIVITY (DIL)
NPHI.V/V      00 330 00 00         : PHIN         - NEUTRON POROSITY (SANDSTONE)
DPHI.V/V      00 890 00 00         : PHID         - DENSITY POROSITY (SANDSTONE)
GR  .API      00 310 00 00         : GR           - GAMMA RAY
CALI.MM       00 280 01 00         : CAL          - CALIPER
~PARAMETER INFORMATION
#MNEM.UNIT           DATA             DESCRIPTION OF MNEMONIC
#---------         -----------     ------------------------------
GL  .M        599.05               : gl           - GROUND LEVEL ELEVATION
EREF.M        603.3                : kb           - ELEVATION OF DEPTH REFERENCE
DATM.M        599.05               : datum        - DATUM ELEVATION
TDD .M        487                  : tdd          - TOTAL DEPTH DRILLER
RUN .         ONE                  : Run          - RUN NUMBER
ENG .         BILL                 : Engineer     - RECORDING ENGINEER
WIT .         JIM                  : Witness      - WITNESSED BY
MUD .         GEL                  : Mud_type     - MUD TYPE
MATR.         SANDSTONE            : Logunit      - NEUTRON MATRIX
TMAX.C        24                   : BHT          - MAXIMUM RECORDED TEMPERATURE
BHTD.M        487                  : BHTDEP       - MAXIMUM RECORDED TEMPERATURE
MATR.         1                    : LOGUNIT      - NEUTRON MATRIX
RMT .C        17.8                 : MDTP         - TEMPERATURE OF MUD
NEUT.         1                    : NEUTRON      - NEUTRON TYPE
RESI.         0                    : RESIST       - RESISTIVITY TYPE
RMC .OHMM     5                    : RMC          - RESISTIVITY OF MUD CAKE
RMF .OHMM     5.8                  : RMF          - RESISTIVITY OF MUD FILTRATE
SUFT.C        -20                  : SUFT         - SURFACE TEMPERATURE
~A  DEPTH     RESD     PHIN     PHID       GR      CAL
# ...
  246.500   17.819    0.416    0.321   52.690  212.917
  246.750   18.089    0.416    0.320   53.661  211.945
  247.000   18.501    0.412    0.321   54.273  211.171
  247.250   19.038    0.403    0.322   54.579  209.904
  247.500   19.642    0.391    0.323   54.845  207.436
  247.750   19.649    0.386    0.325   55.098  206.660
  248.000   19.328    0.383    0.325   54.275  206.185
  248.250   18.910    0.384    0.322   53.572  206.011
  248.500   18.466    0.390    0.314   53.407  206.038
  248.750   17.825    0.403    0.297   53.472  206.227
  249.000   17.291    0.415    0.270   53.737  207.080
  249.250   16.668    0.425    0.279   53.750  210.692
  249.500   16.340    0.425    0.292   53.404  213.409
  249.750   16.044    0.422    0.303   52.342  215.031
  250.000   15.756    0.423    0.307   50.682  215.653
  250.250   15.647    0.433    0.304   48.975  215.595
  250.500   15.651    0.426    0.303   48.742  215.209
  250.750   15.540    0.418    0.300   49.711  215.228
  251.000   15.516    0.415    0.293   51.758  214.952
  251.250   15.521    0.418    0.282   54.883  214.578
  251.500   15.526    0.425    0.269   58.786  214.304
  251.750   15.556    0.430    0.259   63.269  214.330
  252.000   15.681    0.426    0.259   65.276  214.357
  252.250   16.037    0.418    0.264   61.703  214.379
  252.500   16.401    0.412    0.274   59.204  214.703
  252.750   17.017    0.410    0.282   56.707  215.125
  253.000   17.993    0.413    0.287   54.389  215.646
  253.250   19.563    0.425    0.292   53.737  216.721
  253.500   21.313    0.433    0.293   54.001  217.992
  253.750   23.612    0.430    0.291   54.253  218.811
  254.000   26.867    0.426    0.294   55.045  219.334
  254.250   30.931    0.421    0.298   55.060  219.358
  254.500   35.065    0.415    0.303   53.220  218.982
  254.750   37.739    0.412    0.305   48.291  218.616
  255.000   38.935    0.426    0.312   46.314  218.635
  255.250   38.662    0.425    0.325   48.003  218.263
  255.500   37.113    0.427    0.327   52.025  217.888
  255.750   34.573    0.429    0.323   56.106  217.711
  256.000   32.102    0.429    0.320   59.230  217.734
  256.250   31.096    0.424    0.329   61.441  217.765
  256.500   31.834    0.414    0.342   60.459  217.793
  256.750   35.014    0.412    0.336   58.318  217.812
  257.000   38.944    0.416    0.332   55.101  218.133
  257.250   43.379    0.425    0.333   51.287  218.755
  257.500   47.915    0.432    0.339   47.593  219.676
  257.750   52.737    0.432    0.347   44.880  220.986
  258.000   56.567    0.430    0.352   44.397  221.421
  258.250   57.850    0.432    0.350   45.606  221.048
  258.500   58.192    0.434    0.351   48.074  220.377
  258.750   57.779    0.436    0.358   49.404  219.801
  259.000   56.736    0.436    0.369   49.057  219.423
  259.250   54.766    0.433    0.367   48.357  219.055
  259.500   53.127    0.429    0.351   48.373  219.080
  259.750   51.972    0.426    0.346   49.583  219.106
  260.000   50.561    0.427    0.342   49.358  218.828
  260.250   49.289    0.433    0.337   48.655  218.651
  260.500   48.407    0.440    0.332   48.369  218.676
  260.750   47.996    0.444    0.328   49.044  218.702
  261.000   47.642    0.442    0.333   47.562  218.727
  261.250   49.083    0.435    0.347   45.662  219.152
  261.500   50.846    0.432    0.349   43.584  219.274
  261.750   52.396    0.433    0.347   42.641  219.295
  262.000   52.998    0.437    0.345   43.013  219.317
  262.250   51.205    0.437    0.349   43.698  219.263
  262.500   48.176    0.437    0.351   43.464  218.875
  262.750   42.417    0.437    0.352   43.719  218.498
  263.000   33.310    0.440    0.343   45.050  218.421
  263.250   27.554    0.443    0.291   46.380  218.445
  263.500   25.074    0.443    0.212   47.169  218.568
  263.750   25.537    0.438    0.188   47.328  219.079
  264.000   26.968    0.431    0.245   46.848  219.519
  264.250   29.662    0.425    0.308   46.856  219.542
  264.500   33.509    0.420    0.341   48.126  219.269
  264.750   34.742    0.417    0.354   49.577  218.296
  265.000   30.447    0.418    0.355   50.368  217.022
  265.250   22.290    0.426    0.351   50.105  216.652
  265.500   19.018    0.425    0.337   51.116  216.679
  265.750   11.285    0.435    0.327   55.198  217.498
  266.000    6.952    0.443    0.317   59.280  217.719
  266.250    5.534    0.450    0.304   62.046  216.945
  266.500    5.300    0.454    0.293   63.077  215.376
  266.750    5.462    0.449    0.286   62.156  213.227
  267.000    5.679    0.427    0.273   58.682  210.342
  267.250    6.113    0.408    0.246   49.604  207.975
  267.500    6.652    0.401    0.232   46.987  206.804
  267.750    7.321    0.410    0.243   49.394  207.027
  268.000    8.031    0.432    0.269   53.774  208.048
  268.250    8.673    0.457    0.290   55.267  208.560
  268.500    9.907    0.460    0.307   54.288  208.995
  268.750   11.868    0.439    0.333   53.345  211.810
  269.000   14.252    0.436    0.344   52.221  213.427
  269.250   16.315    0.445    0.348   49.960  214.447
  269.500   17.268    0.456    0.350   47.462  215.170
  269.750   17.139    0.453    0.343   47.829  215.681
  270.000   16.500    0.438    0.328   49.587  216.121
  270.250   15.204    0.428    0.313   50.319  216.145
  270.500   14.177    0.420    0.317   50.155  216.467
  270.750   13.474    0.414    0.327   50.529  216.889
  271.000   13.113    0.411    0.335   51.440  217.310
  271.250   13.138    0.408    0.330   51.706  217.656
  271.500   13.244    0.402    0.323   52.967  217.263
  271.750   12.956    0.397    0.321   52.981  216.492
  272.000   12.042    0.406    0.323   53.353  216.913
  272.250   10.805    0.420    0.318   54.085  217.536
  272.500    9.717    0.433    0.307   54.998  217.861
  272.750    9.138    0.432    0.306   55.831  217.885
  273.000    9.002    0.428    0.315   56.347  217.907
  273.250    9.273    0.423    0.325   55.640  217.930
  273.500    9.763    0.420    0.327   54.576  217.956
  273.750   10.066    0.420    0.331   53.634  218.180
  274.000    9.994    0.424    0.338   53.350  218.801
  274.250    9.781    0.430    0.336   54.523  220.107
  274.500   10.170    0.424    0.315   55.536  220.547
  274.750   11.512    0.410    0.320   53.636  220.573
  275.000   13.112    0.397    0.338   50.481  220.596
  275.250   14.733    0.390    0.350   48.104  220.419
  275.500   16.123    0.388    0.349   47.103  220.044
  275.750   17.328    0.386    0.345   46.639  219.509
  276.000   17.739    0.383    0.340   46.649  218.708
  276.250   18.009    0.381    0.338   46.665  217.530
  276.500   17.982    0.381    0.337   46.682  216.656
  276.750   17.987    0.383    0.336   46.696  216.279
  277.000   18.093    0.388    0.336   46.767  216.601
  277.250   18.043    0.391    0.341   47.371  217.996
  277.500   17.774    0.400    0.342   49.131  218.847
  277.750   16.877    0.410    0.342   51.538  219.670
  278.000   15.937    0.414    0.340   53.585  220.191
  278.250   14.852    0.411    0.336   55.394  220.812
  278.500   13.943    0.402    0.331   56.604  221.534
  278.750   13.848    0.390    0.329   56.183  222.046
  279.000   14.399    0.391    0.333   55.201  222.484
  279.250   14.942    0.405    0.340   54.258  222.911
  279.500   15.932    0.421    0.345   53.136  223.034
  279.750   16.920    0.431    0.347   52.073  223.057
  280.000   17.536    0.430    0.346   51.549  223.181
  280.250   17.700    0.406    0.341   52.234  223.610
  280.500   17.843    0.385    0.334   52.000  223.632
  280.750   17.848    0.391    0.340   49.620  223.255
  281.000   17.952    0.402    0.344   47.961  222.879
  281.250   18.025    0.409    0.347   47.018  222.702
  281.500   17.964    0.408    0.349   46.733  222.624
  281.750   17.652    0.400    0.350   47.141  222.172
  282.000   17.389    0.393    0.352   47.900  221.787
  282.250   16.761    0.394    0.356   47.916  221.808
  282.500   16.065    0.391    0.358   48.110  221.532
  282.750   15.313    0.391    0.357   48.962  221.359
