~VERSION INFORMATION
 VERS.                 2.0:   CWLS LOG ASCII STANDARD -VERSION 2.0
 WRAP.                  NO:   ONE LINE PER DEPTH STEP
~WELL INFORMATION BLOCK
#MNEM.UNIT           DATA                    DESCRIPTION OF MNEMONIC
#---------    -------------------            -------------------------------
# Generated from Intellog Unique Number	CW_79_81/WELL/2444
WELL.         04-12-081-23W4                 : Well_name    - WELL
LOC .         00/04-12-081-23W4/0            : Location     - LOCATION
UWI .         00/04-12-081-23W4/0            : Uwi          - UNIQUE WELL ID
ENTR.         MAX                            : Entered      - ENTERED BY
SRVC.         SCHLUMBERGER                   : Scn          - SERVICE COMPANY
STRT.M        240                            : top_depth    - START DEPTH
STOP.M        454.75                         : bot_depth    - STOP DEPTH
STEP.M        0.25                           : increment    - STEP LENGTH
 NULL. -999.2500:NULL Value
~CURVE INFORMATION BLOCK
#MNEM UNIT       ERCB CURVE CODE    CURVE DESCRIPTION
#-----------   ------------------   ----------------------------------
DEPT.M        00 001 00 00         : DEPTH        - DEPTH
ILD .OHMM     00 120 00 00         : RESD         - DEEP RESISTIVITY (DIL)
NPHI.V/V      00 330 00 00         : PHIN         - NEUTRON POROSITY (SANDSTONE)
DPHI.V/V      00 890 00 00         : PHID         - DENSITY POROSITY (SANDSTONE)
GR  .API      00 310 00 00         : GR           - GAMMA RAY
CALI.MM       00 280 01 00         : CAL          - CALIPER
~PARAMETER INFORMATION
#MNEM.UNIT           DATA             DESCRIPTION OF MNEMONIC
#---------         -----------     ------------------------------
GL  .M        601                  : gl           - GROUND LEVEL ELEVATION
EREF.M        604.6                : kb           - ELEVATION OF DEPTH REFERENCE
DATM.M        601                  : datum        - DATUM ELEVATION
TDD .M        459.2                : tdd          - TOTAL DEPTH DRILLER
RUN .         ONE                  : Run          - RUN NUMBER
ENG .         BILL                 : Engineer     - RECORDING ENGINEER
WIT .         JIM                  : Witness      - WITNESSED BY
MUD .         GEL                  : Mud_type     - MUD TYPE
MATR.         SANDSTONE            : Logunit      - NEUTRON MATRIX
TMAX.C        24                   : BHT          - MAXIMUM RECORDED TEMPERATURE
BHTD.M        459.2                : BHTDEP       - MAXIMUM RECORDED TEMPERATURE
MATR.         1                    : LOGUNIT      - NEUTRON MATRIX
RMT .C        21                   : MDTP         - TEMPERATURE OF MUD
NEUT.         1                    : NEUTRON      - NEUTRON TYPE
RESI.         0                    : RESIST       - RESISTIVITY TYPE
RMC .OHMM     5.18                 : RMC          - RESISTIVITY OF MUD CAKE
RMF .OHMM     5.48                 : RMF          - RESISTIVITY OF MUD FILTRATE
SUFT.C        -10                  : SUFT         - SURFACE TEMPERATURE
~A  DEPTH     RESD     PHIN     PHID       GR      CAL
# ...
  386.000   10.091    0.400    0.221   80.586  247.108
  386.250   10.285    0.407    0.228   80.139  248.331
  386.500   10.464    0.421    0.230   80.635  249.943
  386.750   10.439    0.424    0.226   81.895  251.726
  387.000   10.285    0.419    0.222   82.165  252.595
  387.250   10.214    0.418    0.216   80.539  252.633
  387.500   10.201    0.411    0.216   79.618  252.379
  387.750   10.207    0.405    0.215   79.524  252.222
  388.000   10.194    0.410    0.210   79.844  251.475
  388.250   10.111    0.435    0.193   79.735  248.953
  388.500   10.038    0.419    0.194   80.256  251.864
  388.750   10.044    0.424    0.208   81.930  252.300
  389.000    9.827    0.432    0.211   82.726  250.665
  389.250    9.653    0.436    0.211   82.161  250.511
  389.500    9.605    0.435    0.213   80.588  251.440
  389.750    9.641    0.436    0.211   79.298  249.285
  390.000    9.798    0.415    0.201   79.814  250.154
  390.250    9.875    0.408    0.199   79.845  252.558
  390.500    9.898    0.425    0.203   79.336  254.373
  390.750    9.831    0.445    0.208   79.241  255.791
  391.000    9.675    0.454    0.214   80.212  256.913
  391.250    9.395    0.450    0.215   82.607  257.587
  391.500    9.045    0.453    0.206   82.628  256.806
  391.750    8.917    0.421    0.187   80.057  256.454
  392.000    8.939    0.396    0.189   80.671  256.700
  392.250    8.944    0.391    0.202   82.113  256.937
  392.500    8.849    0.401    0.215   83.614  256.871
  392.750    8.608    0.404    0.218   86.301  256.528
  393.000    8.352    0.419    0.214   87.807  256.567
  393.250    8.172    0.452    0.214   86.646  257.007
  393.500    8.087    0.452    0.212   83.539  258.035
  393.750    8.062    0.441    0.213   81.794  258.668
  394.000    8.125    0.425    0.214   82.352  258.414
  394.250    8.489    0.396    0.207   83.551  256.704
  394.500    9.108    0.391    0.213   82.344  253.872
  394.750   10.020    0.397    0.228   75.046  251.552
  395.000   11.912    0.393    0.239   68.811  248.939
  395.250   14.528    0.391    0.237   66.827  247.404
  395.500   17.420    0.392    0.227   69.271  247.245
  395.750   20.958    0.389    0.233   73.172  247.778
  396.000   24.137    0.384    0.250   72.455  248.219
  396.250   24.690    0.381    0.255   69.175  248.266
  396.500   24.293    0.377    0.260   66.956  248.601
  396.750   22.518    0.379    0.265   65.798  249.431
  397.000   19.907    0.392    0.261   65.466  250.360
  397.250   17.269    0.423    0.229   65.993  250.405
  397.500   16.887    0.426    0.219   68.475  250.457
  397.750   17.786    0.424    0.222   68.737  250.495
  398.000   20.170    0.398    0.115   62.617  249.940
  398.250   24.785    0.338    0.043   56.617  249.389
  398.500   31.587    0.268    0.052   54.045  249.040
  398.750   34.512    0.254    0.098   55.363  248.611
  399.000   32.980    0.308    0.144   57.112  248.250
  399.250   32.031    0.331    0.148   56.899  248.292
  399.500   32.523    0.326    0.123   55.092  248.331
  399.750   34.360    0.301    0.087   52.635  248.369
  400.000   36.521    0.269    0.058   49.942  248.407
  400.250   35.521    0.245    0.062   47.245  248.537
  400.500   32.188    0.238    0.082   48.995  248.995
  400.750   26.862    0.260    0.095   52.797  249.431
  401.000   22.187    0.297    0.117   58.020  249.569
  401.250   18.621    0.330    0.153   63.953  249.611
  401.500   16.127    0.358    0.192   70.535  249.655
  401.750   14.432    0.405    0.219   78.660  249.701
  402.000   13.790    0.419    0.236   80.161  249.741
  402.250   14.210    0.430    0.241   76.170  249.389
  402.500   14.805    0.442    0.244   71.645  248.739
  402.750   15.097    0.451    0.251   67.654  248.388
  403.000   14.882    0.456    0.262   65.025  248.727
  403.250   14.171    0.450    0.267   64.491  250.038
  403.500   13.335    0.427    0.251   65.250  250.497
  403.750   12.666    0.425    0.238   65.984  250.929
  404.000   12.583    0.432    0.227   65.478  250.773
  404.250   12.915    0.438    0.223   65.030  250.225
  404.500   13.462    0.439    0.224   64.995  249.577
  404.750   13.941    0.437    0.231   64.594  249.312
  405.000   14.275    0.433    0.238   63.633  249.766
  405.250   14.929    0.427    0.235   62.478  250.990
  405.500   15.614    0.421    0.228   62.383  251.321
  405.750   16.039    0.414    0.218   63.117  251.162
  406.000   16.136    0.409    0.212   64.206  250.911
  406.250   16.020    0.415    0.218   64.990  250.887
  406.500   15.427    0.429    0.226   65.265  250.512
  406.750   15.207    0.440    0.235   62.931  250.554
  407.000   15.243    0.433    0.235   61.122  250.892
  407.250   15.138    0.413    0.220   60.436  251.328
  407.500   14.842    0.390    0.203   61.405  251.764
  407.750   14.589    0.382    0.205   64.653  252.208
  408.000   14.375    0.396    0.204   65.418  252.247
  408.250   14.171    0.426    0.186   65.443  251.502
  408.500   14.048    0.423    0.173   66.179  251.344
  408.750   13.744    0.411    0.169   67.030  251.977
  409.000   13.178    0.399    0.180   67.819  253.104
  409.250   12.256    0.397    0.211   69.041  253.775
  409.500   11.447    0.415    0.226   70.298  252.998
  409.750   11.285    0.426    0.220   71.505  251.072
  410.000   11.249    0.419    0.206   72.536  249.434
  410.250   11.130    0.411    0.200   73.860  249.866
  410.500   10.913    0.410    0.204   75.535  252.270
  410.750   10.760    0.420    0.215   77.171  254.685
  411.000   10.765    0.430    0.217   76.954  254.733
  411.250   11.012    0.454    0.213   77.449  255.161
  411.500   11.081    0.453    0.205   77.413  255.306
  411.750   11.046    0.442    0.197   76.373  254.954
  412.000   10.929    0.429    0.193   74.802  254.401
  412.250   10.630    0.413    0.191   74.864  254.455
  412.500   10.314    0.401    0.191   78.580  254.495
  412.750   10.168    0.400    0.199   81.676  254.537
  413.000   10.136    0.411    0.200   81.586  254.874
  413.250   10.029    0.423    0.197   80.665  254.915
  413.500    9.851    0.432    0.192   80.096  254.658
  413.750    9.740    0.444    0.184   79.989  254.791
  414.000    9.524    0.445    0.165   80.513  255.240
  414.250    9.528    0.443    0.146   81.478  256.460
  414.500    9.586    0.430    0.146   83.332  258.864
  414.750    9.698    0.422    0.160   84.301  261.665
  415.000    9.848    0.423    0.179   83.855  263.875
  415.250    9.972    0.424    0.198   82.758  264.479
  415.500    9.826    0.414    0.206   83.025  265.344
  415.750    9.402    0.403    0.213   83.995  266.169
  416.000    9.047    0.400    0.211   84.257  267.300
  416.250    8.855    0.404    0.209   83.927  267.738
  416.500    8.923    0.407    0.207   83.536  266.594
  416.750    9.494    0.393    0.188   84.381  262.109
  417.000    9.951    0.380    0.186   86.130  257.234
  417.250   10.030    0.397    0.206   87.342  261.210
  417.500   10.504    0.410    0.207   86.595  263.417
  417.750   11.617    0.413    0.202   84.019  262.867
  418.000   13.559    0.408    0.195   80.443  259.953
  418.250   16.565    0.410    0.179   76.661  255.968
  418.500   19.076    0.407    0.148   72.995  253.555
  418.750   22.382    0.389    0.154   70.188  253.204
  419.000   23.279    0.378    0.175   69.324  253.437
  419.250   22.341    0.387    0.195   70.054  253.674
  419.500   20.682    0.406    0.206   72.263  253.914
  419.750   18.717    0.405    0.211   76.518  254.581
  420.000   17.613    0.408    0.208   78.762  253.809
  420.250   17.236    0.405    0.206   78.551  252.665
  420.500   17.342    0.405    0.211   77.450  250.341
  420.750   18.057    0.402    0.226   72.275  246.837
  421.000   19.481    0.393    0.248   63.086  243.433
  421.250   22.799    0.378    0.266   51.614  242.943
  421.500   31.071    0.380    0.285   43.762  244.217
  421.750   44.169    0.370    0.295   37.172  245.835
  422.000   56.660    0.365    0.303   33.061  248.633
  422.250   68.076    0.367    0.308   30.840  250.643
