~VERSION INFORMATION
 VERS.                 2.0:   CWLS LOG ASCII STANDARD -VERSION 2.0
 WRAP.                  NO:   ONE LINE PER DEPTH STEP
~WELL INFORMATION BLOCK
#MNEM.UNIT           DATA                    DESCRIPTION OF MNEMONIC
#---------    -------------------            -------------------------------
# Generated from Intellog Unique Number	CC_80_83/WELL/1185
NULL.         -999.25                        : NULL_VALUE
WELL.         GULF RESDELN                   : Well_name    - WELL              
LOC .         07-16-083-07W4                 : Location     - LOCATION          
UWI .         00/07-16-083-07W4/0            : Uwi          - UNIQUE WELL ID    
ENTR.         DW                             : Entered      - ENTERED BY        
SRVC.         SCHLUMBERGER                   : Scn          - SERVICE COMPANY   
DATE.         16 MAR 81                      : Date         - LOG DATE
STRT.M        250                            : top_depth    - START DEPTH       
STOP.M        504.99                         : bot_depth    - STOP DEPTH        
STEP.M        0.3                            : increment    - STEP LENGTH       
~CURVE INFORMATION BLOCK
#MNEM UNIT       ERCB CURVE CODE    CURVE DESCRIPTION
#-----------   ------------------   ----------------------------------
DEPT.M        00 001 00 00         : DEPTH        - DEPTH                       
DPHI.V/V      00 890 00 00         : PHID         - DENSITY POROSITY (LIMESTONE)
NPHI.V/V      00 330 00 00         : PHIN         - NEUTRON POROSITY (LIMESTONE)
GR  .API      00 310 00 00         : GR           - GAMMA RAY                   
ILD .OHMM     00 120 00 00         : RESD         - DEEP RESISTIVITY (DIL)      
~PARAMETER INFORMATION       
#MNEM.UNIT           DATA             DESCRIPTION OF MNEMONIC
#---------         -----------     ------------------------------
GL  .M        711.2                : gl           - GROUND LEVEL ELEVATION      
EREF.M        715                  : kb           - ELEVATION OF DEPTH REFERENCE
DATM.M        715                  : datum        - DATUM ELEVATION             
TDD .M        542                  : tdd          - TOTAL DEPTH DRILLER         
RUN .         ONE                  : Run          - RUN NUMBER                  
ENG .         BILL                 : Engineer     - RECORDING ENGINEER          
WIT .         JIM                  : Witness      - WITNESSED BY                
MUD .         GEL                  : Mud_type     - MUD TYPE                    
MATR.         LIMESTONE            : Logunit      - NEUTRON MATRIX              
TMAX.C        26                   : BHT          - MAXIMUM RECORDED TEMPERATURE
BHTD.M        542                  : BHTDEP       - MAXIMUM RECORDED TEMPERATURE
MATR.         1                    : LOGUNIT      - NEUTRON MATRIX              
RMT .C        25                   : MDTP         - TEMPERATURE OF MUD          
NEUT.         1                    : NEUTRON      - NEUTRON TYPE                
RESI.         0                    : RESIST       - RESISTIVITY TYPE            
RMC .OHMM     0.25                 : RMC          - RESISTIVITY OF MUD CAKE     
RMF .OHMM     0.25                 : RMF          - RESISTIVITY OF MUD FILTRATE 
SUFT.C        4                    : SUFT         - SURFACE TEMPERATURE         
~A  DEPTH     PHID     PHIN       GR     RESD
  250.000    0.222    0.540  103.640    3.462
  250.300    0.225    0.535  103.094    3.400
  250.600    0.192    0.559  101.353    3.343
  250.900    0.189    0.550  105.625    3.284
  251.200    0.234    0.549  105.672    3.166
  251.500    0.201    0.536  105.727    3.110
  251.800    0.209    0.526  105.780    3.057
  252.100    0.226    0.538  108.240    3.121
  252.400    0.221    0.534  109.489    3.127
  252.700    0.230    0.512  108.360    3.075
  253.000    0.205    0.502  106.022    3.078
  253.300    0.233    0.519  104.270    2.969
  253.600    0.234    0.545  102.543    2.971
  253.900    0.253    0.546  104.985    2.976
  254.200    0.227    0.538  108.045    3.100
  254.500    0.235    0.559  104.500    3.104
  254.800    0.254    0.536  100.979    3.050
  255.100    0.234    0.550  102.226    2.996
  255.400    0.241    0.546  104.680    2.945
  255.700    0.245    0.540  104.147    2.786
  256.000    0.243    0.534  101.205    2.686
  256.300    0.262    0.529   99.468    2.639
  256.600    0.251    0.549  100.713    2.643
  256.900    0.243    0.545  102.592    2.551
  257.200    0.268    0.589  102.046    2.505
  257.500    0.268    0.592  102.696    2.509
  257.800    0.243    0.559  103.944    2.562
  258.100    0.275    0.536  104.000    2.616
  258.400    0.279    0.531   97.469    2.621
  258.700    0.241    0.540   95.733    2.574
  259.000    0.240    0.562  101.195    2.484
  259.300    0.261    0.564  102.434    2.487
  259.600    0.267    0.548   98.303    2.398
  259.900    0.273    0.538  101.352    2.402
  260.200    0.238    0.532  102.615    2.452
  260.500    0.253    0.517  102.075    2.503
  260.800    0.241    0.525   94.949    2.706
  261.100    0.221    0.523   92.002    2.763
  261.400    0.204    0.539   95.049    2.716
  261.700    0.210    0.556  102.909    2.618
  262.000    0.224    0.572  102.982    2.476
  262.300    0.225    0.593  101.837    2.387
  262.600    0.239    0.591  101.873    2.682
  262.900    0.212    0.547  103.154    2.900
  263.200    0.214    0.539  102.605    3.017
  263.500    0.218    0.561  102.044    3.023
  263.800    0.201    0.565  101.503    2.914
  264.100    0.222    0.529  105.160    2.919
  264.400    0.211    0.519  104.016    3.216
  264.700    0.208    0.509  105.872    3.825
  265.000    0.202    0.490  105.330    4.638
  265.300    0.184    0.480   99.409    4.471
  265.600    0.164    0.491   98.254    3.918
  265.900    0.198    0.480   97.728    3.926
  266.200    0.210    0.479   99.580    4.008
  266.500    0.181    0.501  102.632    4.170
  266.800    0.168    0.493  103.882    4.684
  267.100    0.169    0.493   97.947    5.262
  267.400    0.190    0.478   92.616    5.371
  267.700    0.207    0.460   88.484    5.178
  268.000    0.200    0.492   89.746    4.626
  268.300    0.187    0.499   87.998    3.977
  268.600    0.198    0.488   83.264    4.301
  268.900    0.183    0.447   77.930    5.018
  269.200    0.085    0.443   69.598    5.968
  269.500    0.039    0.413   67.259    7.099
  269.799    0.016    0.423   84.094    7.979
  270.099    0.130    0.475   79.355    8.142
  270.399    0.251    0.435   75.220    8.155
  270.699    0.255    0.434   86.661    8.327
  270.999    0.200    0.446   87.324    9.534
  271.299    0.198    0.463   76.592   10.705
  271.599    0.285    0.461   70.063   12.024
  271.899    0.318    0.456   69.529   12.513
  272.199    0.270    0.437   68.381   13.799
  272.499    0.250    0.457   67.243   14.353
  272.799    0.287    0.449   58.316   16.121
  273.099    0.307    0.430   60.774   19.543
  273.399    0.307    0.433   66.221   22.379
  273.699    0.296    0.430   71.668   22.846
  273.999    0.268    0.423   75.917   22.024
  274.299    0.276    0.398   78.376   19.298
  274.599    0.272    0.393   82.624   17.576
  274.899    0.231    0.397   89.868   17.946
  275.199    0.201    0.430   94.124   18.668
  275.499    0.228    0.437   91.178   19.814
  275.799    0.279    0.432   70.271   19.839
  276.099    0.305    0.433   78.719   18.769
  276.399    0.291    0.448   84.770   16.447
  276.699    0.215    0.423   86.622   14.687
  276.999    0.220    0.418   85.481   14.440
  277.299    0.208    0.424   77.153   14.746
  277.599    0.245    0.414   70.022   15.049
  277.899    0.256    0.425   74.273   15.372
  278.199    0.225    0.430   76.130   15.683
  278.499    0.236    0.432   76.784   16.021
  278.799    0.269    0.436   69.052   16.040
  279.099    0.278    0.426   71.507   15.768
  279.399    0.239    0.431   80.557   15.501
  279.699    0.228    0.424   81.214   15.517
  279.999    0.240    0.417   80.076   15.258
  280.299    0.219    0.407   83.718   14.984
  280.599    0.208    0.414   86.173   15.014
  280.899    0.194    0.428   83.843   14.759
  281.199    0.234    0.423   83.295   14.225
  281.499    0.248    0.420   88.145   12.952
  281.799    0.257    0.421  100.181   11.351
  282.099    0.198    0.446  114.615   10.330
  282.399    0.202    0.483  116.480   10.551
  282.699    0.186    0.494  111.143   11.188
  282.999    0.207    0.495   97.418   12.810
  283.299    0.251    0.462   89.093   14.123
  283.599    0.261    0.438   84.358   14.416
  283.899    0.216    0.434   91.006   14.442
  284.199    0.206    0.446   93.466   14.187
  284.499    0.214    0.454   91.718   13.942
  284.799    0.224    0.452   90.577   13.443
  285.099    0.225    0.457   92.432   11.558
  285.399    0.192    0.451   98.482   10.937
  285.699    0.221    0.440  105.134   11.375
  285.999    0.188    0.462  103.988   12.539
  286.299    0.192    0.453   90.269   14.355
  286.599    0.242    0.400   63.373   17.071
  286.899    0.266    0.409   62.234   21.512
  287.199    0.299    0.435   71.272   24.158
  287.499    0.318    0.442   73.142   26.109
  287.799    0.279    0.434   72.588   28.232
  288.099    0.283    0.446   79.837   29.398
  288.399    0.294    0.450   79.895   29.443
  288.699    0.288    0.456   76.959   28.935
  288.999    0.304    0.455   71.626   28.416
  289.299    0.288    0.437   72.284   27.931
  289.599    0.305    0.430   76.529   26.932
  289.899    0.298    0.441   77.186   26.475
  290.199    0.294    0.468   68.857   26.020
  290.499    0.309    0.492   67.716   27.064
  290.799    0.302    0.474   62.982   28.157
  291.099    0.313    0.460   57.058   29.895
  291.399    0.306    0.459   55.911   30.498
  291.699    0.272    0.448   58.969   29.984
  291.999    0.224    0.436   63.212   29.469
  292.299    0.212    0.442   69.858   28.393
  292.599    0.221    0.449   75.906   26.875
  292.899    0.244    0.448   80.162   24.003
  293.199    0.247    0.453   83.821   21.025
  293.499    0.247    0.449   88.665   16.434
  293.799    0.208    0.456   95.313   13.093
  294.099    0.188    0.483   97.766   10.832
  294.398    0.217    0.491   96.032    9.677
  294.698    0.220    0.475   96.091   10.264
  294.998    0.211    0.455  100.332   11.528
  295.298    0.231    0.465  103.403   14.805
  295.598    0.272    0.457  101.661   17.605
  295.898    0.275    0.459   99.314   20.938
  296.198    0.308    0.475   93.391   22.636
  296.498    0.309    0.458   86.247   21.833
  296.798    0.288    0.446   79.115   20.265
  297.098    0.308    0.443   67.792   18.806
  297.398    0.340    0.449   60.061   18.474
  297.698    0.519    0.647   51.731   17.814
  297.998    0.428    0.605   60.178   17.507
  298.298    0.284    0.474   68.023   17.204
  298.598    0.255    0.439   68.079   17.237
  298.898    0.259    0.439   66.350   17.939
  299.198    0.295    0.433   61.606   19.026
  299.498    0.307    0.437   61.079   20.172
  299.798    0.303    0.437   62.928   21.394
  300.098    0.307    0.414   67.176   20.237
  300.398    0.299    0.416   75.018   17.741
  300.698    0.263    0.416   79.279   15.545
  300.998    0.235    0.406   80.524   15.277
  301.298    0.249    0.396   82.979   14.728
  301.598    0.271    0.432   84.231   12.910
  301.898    0.331    0.481   85.492   11.097
