~VERSION INFORMATION
 VERS.                 2.0:   CWLS LOG ASCII STANDARD -VERSION 2.0
 WRAP.                  NO:   ONE LINE PER DEPTH STEP
~WELL INFORMATION BLOCK
#MNEM.UNIT           DATA                    DESCRIPTION OF MNEMONIC
#---------    -------------------            -------------------------------
# Generated from Intellog Unique Number	CW_82_90/WELL/199
WELL.         SHELL FINA RUBIN 03-25         : Well_name    - WELL
LOC .         00/03-25-083-02W5/0            : Location     - LOCATION
UWI .         00/03-25-083-02W5/0            : Uwi          - UNIQUE WELL ID
ENTR.         JAYE                           : Entered      - ENTERED BY
SRVC.         SCHLUMBERGER                   : Scn          - SERVICE COMPANY
DATE.         9 JAN 79                       : Date         - LOG DATE
STRT.M        225                            : top_depth    - START DEPTH
STOP.M        485                            : bot_depth    - STOP DEPTH
STEP.M        0.25                           : increment    - STEP LENGTH
 NULL. -999.2500:NULL Value
~CURVE INFORMATION BLOCK
#MNEM UNIT       ERCB CURVE CODE    CURVE DESCRIPTION
#-----------   ------------------   ----------------------------------
DEPT.M        00 001 00 00         : DEPTH        - DEPTH
CALI.MM       00 280 01 00         : CAL          - CALIPER
GR  .API      00 310 00 00         : GR           - GAMMA RAY
NPHI.V/V      00 330 00 00         : PHIN         - NEUTRON POROSITY (SANDSTONE)
DPHI.V/V      00 890 00 00         : PHID         - DENSITY POROSITY (SANDSTONE)
ILD .OHMM     00 120 00 00         : RESD         - DEEP RESISTIVITY (DIL)
~PARAMETER INFORMATION
#MNEM.UNIT           DATA             DESCRIPTION OF MNEMONIC
#---------         -----------     ------------------------------
GL  .M        613.4                : gl           - GROUND LEVEL ELEVATION
EREF.M        618                  : kb           - ELEVATION OF DEPTH REFERENCE
DATM.M        613.4                : datum        - DATUM ELEVATION
TDD .M        413.2                : tdd          - TOTAL DEPTH DRILLER
RUN .         ONE                  : Run          - RUN NUMBER
WIT .         CRAIG                : Witness      - WITNESSED BY
BASE.         EDMONTON             : Branch       - HOME BASE OF LOGGING UNIT
MUD .         GEL                  : Mud_type     - MUD TYPE
MATR.         SANDSTONE            : Logunit      - NEUTRON MATRIX
TMAX.C        0                    : BHT          - MAXIMUM RECORDED TEMPERATURE
BHTD.M        413.2                : BHTDEP       - MAXIMUM RECORDED TEMPERATURE
RMT .C        15                   : MDTP         - TEMPERATURE OF MUD
MUDD.KG/M     1050                 : MWT          - MUD DENSITY
NEUT.         1                    : NEUTRON      - NEUTRON TYPE
RESI.         0                    : RESIST       - RESISTIVITY TYPE
RM  .OHMM     2.26                 : RM           - RESISTIVITY OF MUD
RMC .OHMM     0                    : RMC          - RESISTIVITY OF MUD CAKE
RMF .OHMM     3.6                  : RMF          - RESISTIVITY OF MUD FILTRATE
SUFT.C        0                    : SUFT         - SURFACE TEMPERATURE
~A  DEPTH      CAL       GR     PHIN     PHID     RESD
# ...
  371.000  291.925   87.219    0.433    0.230    6.517
  371.250  298.964   88.307    0.457    0.238    6.511
  371.500  301.397   88.221    0.472    0.241    6.777
  371.750  302.086   78.887    0.467    0.242    7.116
  372.000  302.130   74.547    0.452    0.266    7.779
  372.250  301.681   74.226    0.443    0.296    8.795
  372.500  301.325   76.167    0.462    0.295    9.189
  372.750  301.389   80.396    0.476    0.275    9.308
  373.000  298.790   80.010    0.484    0.209    9.222
  373.250  297.922   74.679    0.489    0.245    8.892
  373.500  299.229   75.214    0.475    0.267    8.398
  373.750  298.667   80.553    0.486    0.277    7.990
  374.000  296.986   87.181    0.486    0.250    7.678
  374.250  298.786   89.873    0.488    0.222    7.525
  374.500  302.643   87.258    0.503    0.221    7.566
  374.750  306.811   85.445    0.505    0.240    7.693
  375.000  307.900   84.067    0.507    0.237    7.788
  375.250  307.646   83.673    0.512    0.246    7.890
  375.500  305.264   83.408    0.524    0.239    8.026
  375.750  304.387   82.520    0.547    0.219    8.134
  376.000  307.119   80.953    0.558    0.205    8.195
  376.250  309.237   82.224    0.544    0.198    8.234
  376.500  309.098   84.849    0.529    0.170    8.268
  376.750  310.387   85.625    0.508    0.152    8.279
  377.000  310.758   86.839    0.502    0.174    8.247
  377.250  310.511   87.613    0.514    0.240    8.194
  377.500  310.262   86.670    0.532    0.247    8.096
  377.750  310.015   84.793    0.528    0.224    7.923
  378.000  309.974   84.646    0.511    0.214    7.666
  378.250  310.456   85.672    0.492    0.229    7.454
  378.500  311.642   87.191    0.477    0.241    7.304
  378.750  313.552   88.458    0.486    0.236    7.310
  379.000  314.850   89.672    0.496    0.226    7.484
  379.250  315.313   89.951    0.497    0.220    7.786
  379.500  314.666   89.312    0.502    0.214    8.245
  379.750  312.564   88.245    0.512    0.226    8.647
  380.000  310.783   83.902    0.526    0.222    9.153
  380.250  309.218   81.104    0.514    0.234   10.344
  380.500  308.556   79.846    0.499    0.273   11.455
  380.750  308.621   80.688    0.475    0.265   12.379
  381.000  307.142   84.053    0.470    0.246   13.130
  381.250  306.083   84.524    0.448    0.249   13.440
  381.500  306.151   83.022    0.424    0.257   13.473
  381.750  306.199   81.460    0.418    0.270   13.477
  382.000  306.675   80.690    0.427    0.291   13.534
  382.250  307.878   77.832    0.449    0.292   14.035
  382.500  308.330   72.076    0.455    0.274   14.722
  382.750  307.377   70.326    0.471    0.255   15.144
  383.000  306.713   69.630    0.474    0.244   15.332
  383.250  307.190   71.698    0.474    0.233   15.891
  383.500  308.685   74.075    0.475    0.262   16.631
  383.750  304.955   74.114    0.480    0.293   17.493
  384.000  298.760   69.099    0.501    0.275   18.118
  384.250  294.939   68.032    0.512    0.278   18.369
  384.500  295.207   68.740    0.560    0.303   18.532
  384.750  297.829   71.800    0.544    0.306   18.714
  385.000  299.850   73.502    0.527    0.285   18.835
  385.250  299.389   71.267    0.512    0.270   18.860
  385.500  299.140   69.081    0.511    0.260   18.804
  385.750  301.352   68.385    0.504    0.300   18.252
  386.000  304.707   69.340    0.511    0.292   16.912
  386.250  307.627   71.720    0.535    0.273   15.290
  386.500  306.668   74.103    0.551    0.277   13.486
  386.750  301.603   74.260    0.563    0.275   11.772
  387.000  300.744   72.390    0.547    0.303   10.644
  387.250  301.023   71.073    0.520    0.299    9.870
  387.500  300.971   71.671    0.520    0.289    9.512
  387.750  301.647   70.966    0.506    0.265    9.995
  388.000  303.452   69.519    0.502    0.233   11.084
  388.250  306.598   66.355    0.498    0.183   12.420
  388.500  308.198   63.495    0.448    0.130   13.307
  388.750  308.057   61.626    0.389    0.088   14.352
  389.000  308.013   61.230    0.365    0.075   14.720
  389.250  307.560   63.977    0.362    0.099   14.199
  389.500  307.108   69.686    0.401    0.149   12.180
  389.750  306.157   74.780    0.453    0.215    8.808
  390.000  305.707   78.392    0.474    0.206    7.042
  390.250  305.147   79.607    0.489    0.250    5.823
  390.500  304.812   79.031    0.504    0.253    5.183
  390.750  304.353   77.459    0.517    0.237    4.954
  391.000  304.209   75.776    0.524    0.228    5.041
  391.250  304.581   73.915    0.520    0.222    6.275
  391.500  305.051   72.645    0.516    0.224    7.892
  391.750  306.645   68.301    0.518    0.207   10.081
  392.000  308.660   58.600    0.504    0.173   12.162
  392.250  309.954   51.609    0.322    0.093   12.918
  392.500  309.917   47.332    0.312    0.090   12.444
  392.750  309.461   46.075    0.302    0.084   11.290
  393.000  308.701   52.833    0.300    0.090    9.943
  393.250  308.257   60.825    0.311    0.147    8.577
  393.500  308.227   65.978    0.410    0.170    7.458
  393.750  308.477   70.887    0.457    0.196    6.754
  394.000  309.166   76.971    0.492    0.191    6.356
  394.250  309.643   79.289    0.507    0.207    6.188
  394.500  310.102   77.788    0.526    0.185    6.157
  394.750  311.087   77.272    0.545    0.182    6.183
  395.000  311.763   78.415    0.522    0.187    6.231
  395.250  312.247   81.224    0.512    0.207    6.237
  395.500  312.314   83.297    0.497    0.211    6.264
  395.750  312.371   81.859    0.506    0.210    6.368
  396.000  312.433   80.167    0.519    0.206    6.520
  396.250  312.490   79.355    0.531    0.202    6.720
  396.500  312.452   79.812    0.537    0.203    6.942
  396.750  312.305   81.821    0.567    0.220    7.135
  397.000  311.855   81.679    0.572    0.231    7.291
  397.250  311.716   79.559    0.579    0.216    7.499
  397.500  311.160   79.841    0.548    0.201    7.631
  397.750  310.300   80.067    0.538    0.207    7.765
  398.000  309.142   81.827    0.510    0.218    7.833
  398.250  307.762   83.466    0.501    0.202    7.913
  398.500  306.082   85.662    0.508    0.227    8.036
  398.750  305.218   88.661    0.508    0.237    8.185
  399.000  303.960   87.657    0.495    0.217    8.403
  399.250  303.090   86.701    0.489    0.216    8.597
  399.500  302.022   86.007    0.495    0.225    8.855
  399.750  301.578   85.606    0.506    0.229    9.217
  400.000  301.841   84.905    0.516    0.227    9.551
  400.250  303.028   83.587    0.492    0.231    9.975
  400.500  305.455   79.312    0.471    0.224   10.560
  400.750  307.364   76.023    0.462    0.201   11.762
  401.000  306.601   71.680    0.449    0.171   18.908
  401.250  304.719   67.095    0.275    0.110   27.749
  401.500  304.266   65.470    0.269    0.125   32.623
  401.750  304.333   68.346    0.289    0.144   35.547
  402.000  305.211   71.153    0.308    0.120   35.581
  402.250  307.024   71.561    0.298    0.035   33.885
  402.500  308.415   77.397    0.300    0.055   31.588
  402.750  308.579   82.370    0.336    0.071   28.532
  403.000  307.821   88.196    0.362    0.141   25.061
  403.250  306.455   95.076    0.397    0.269   21.726
  403.500  305.280  105.287    0.449    0.264   17.789
  403.750  304.625  112.725    0.475    0.255   14.524
  404.000  304.894  118.125    0.490    0.244   13.308
  404.250  304.952  118.846    0.484    0.240   12.871
  404.500  306.761  117.459    0.481    0.230   13.174
  404.750  309.796  114.977    0.470    0.210   14.063
  405.000  310.274  114.029    0.453    0.158   15.289
  405.250  309.713  111.534    0.445    0.184   16.294
  405.500  308.549  106.577    0.438    0.163   16.619
  405.750  311.376  109.331    0.425    0.178   16.594
  406.000  309.810  113.186    0.425    0.182   16.580
  406.250  308.427  112.743    0.435    0.157   16.451
  406.500  306.334  108.023    0.411    0.141   16.239
  406.750  305.892   97.403    0.388    0.160   16.072
  407.000  306.361  100.455    0.405    0.183   15.841
  407.250  307.047  102.838    0.447    0.127   15.421
