~VERSION INFORMATION
 VERS.                 2.0:   CWLS LOG ASCII STANDARD -VERSION 2.0
 WRAP.                  NO:   ONE LINE PER DEPTH STEP
~WELL INFORMATION BLOCK
#MNEM.UNIT           DATA                    DESCRIPTION OF MNEMONIC
#---------    -------------------            -------------------------------
# Generated from Intellog Unique Number	CC_88_90/WELL/1057
WELL.         05-26-090-18W4                 : Well_name    - WELL
LOC .         00/05-26-090-18W4/0            : Location     - LOCATION
UWI .         00/05-26-090-18W400            : Uwi          - UNIQUE WELL ID
ENTR.         DW                             : Entered      - ENTERED BY
SRVC.         SCHLUMBERGER                   : Scn          - SERVICE COMPANY
STRT.M        100                            : top_depth    - START DEPTH
STOP.M        211.75                         : bot_depth    - STOP DEPTH
STEP.M        0.25                           : increment    - STEP LENGTH
 NULL. -999.2500:NULL Value
~CURVE INFORMATION BLOCK
#MNEM UNIT       ERCB CURVE CODE    CURVE DESCRIPTION
#-----------   ------------------   ----------------------------------
DEPT.M        00 001 00 00         : DEPTH        - DEPTH
GR  .API      00 310 00 00         : GR           - GAMMA RAY
DPHI.V/V      00 890 00 00         : PHID         - DENSITY POROSITY (SANDSTONE)
NPHI.V/V      00 330 00 00         : PHIN         - NEUTRON POROSITY (SANDSTONE)
ILD .OHMM     00 120 00 00         : RESD         - DEEP RESISTIVITY (DIL)
~PARAMETER INFORMATION
#MNEM.UNIT           DATA             DESCRIPTION OF MNEMONIC
#---------         -----------     ------------------------------
GL  .M        504.31               : gl           - GROUND LEVEL ELEVATION
EREF.M        508.81               : kb           - ELEVATION OF DEPTH REFERENCE
DATM.M        508.81               : datum        - DATUM ELEVATION
TDD .M        214                  : tdd          - TOTAL DEPTH DRILLER
RUN .         ONE                  : Run          - RUN NUMBER
ENG .         BILL                 : Engineer     - RECORDING ENGINEER
WIT .         JIM                  : Witness      - WITNESSED BY
MUD .         GEL                  : Mud_type     - MUD TYPE
MATR.         SANDSTONE            : Logunit      - NEUTRON MATRIX
TMAX.C        17                   : BHT          - MAXIMUM RECORDED TEMPERATURE
BHTD.M        214                  : BHTDEP       - MAXIMUM RECORDED TEMPERATURE
MATR.         1                    : LOGUNIT      - NEUTRON MATRIX
RMT .C        25                   : MDTP         - TEMPERATURE OF MUD
NEUT.         1                    : NEUTRON      - NEUTRON TYPE
RESI.         0                    : RESIST       - RESISTIVITY TYPE
RMC .OHMM     0.25                 : RMC          - RESISTIVITY OF MUD CAKE
RMF .OHMM     0.25                 : RMF          - RESISTIVITY OF MUD FILTRATE
SUFT.C        15                   : SUFT         - SURFACE TEMPERATURE
~A  DEPTH       GR     PHID     PHIN     RESD
  100.000  106.022    0.329    0.497    4.480
  100.250  110.249    0.310    0.490    4.203
  100.500  113.485    0.296    0.467    3.982
  100.750  116.360    0.290    0.453    3.876
  101.000  118.331    0.298    0.439    3.832
  101.250  120.032    0.300    0.450    3.764
  101.500  119.547    0.271    0.506    3.709
  101.750  109.558    0.243    0.505    3.759
  102.000  104.608    0.224    0.492    3.885
  102.250  105.281    0.241    0.488    3.966
  102.500  107.437    0.272    0.503    4.048
  102.750  109.000    0.281    0.520    4.186
  103.000  108.890    0.274    0.505    4.321
  103.250  110.425    0.269    0.493    4.529
  103.500  111.378    0.272    0.477    4.758
  103.750  113.640    0.280    0.510    4.962
  104.000  116.673    0.279    0.550    5.042
  104.250  117.357    0.265    0.514    5.043
  104.500  115.590    0.254    0.447    5.132
  104.750  113.868    0.256    0.451    5.207
  105.000  113.892    0.257    0.469    5.370
  105.250  114.698    0.254    0.470    5.493
  105.500  109.983    0.241    0.450    5.596
  105.750  101.062    0.219    0.438    6.165
  106.000   96.876    0.190    0.458    7.509
  106.250   92.924    0.153    0.438    9.076
  106.500   87.701    0.199    0.395   11.023
  106.750   88.642    0.247    0.408   13.043
  107.000   93.545    0.238    0.420   15.270
  107.250   96.825    0.214    0.378   16.781
  107.500  100.474    0.206    0.364   15.461
  107.750  103.686    0.215    0.384   12.023
  108.000  105.342    0.232    0.416   10.008
  108.250  104.671    0.210    0.419    9.908
  108.500  101.100    0.171    0.401   10.348
  108.750   96.520    0.168    0.388   11.322
  109.000   94.162    0.195    0.383   14.345
  109.250   93.117    0.213    0.397   19.252
  109.500   91.489    0.226    0.419   23.067
  109.750   88.249    0.241    0.433   24.663
  110.000   84.761    0.254    0.418   24.933
  110.250   81.555    0.260    0.392   24.870
  110.500   77.918    0.263    0.406   24.901
  110.750   76.200    0.258    0.430   25.642
  111.000   75.595    0.247    0.451   26.902
  111.250   74.951    0.241    0.429   27.974
  111.500   73.283    0.241    0.391   28.779
  111.750   70.376    0.247    0.379   29.801
  112.000   68.509    0.263    0.395   30.712
  112.250   70.947    0.264    0.428   30.268
  112.500   73.044    0.230    0.427   29.813
  112.750   71.078    0.211    0.418   28.912
  113.000   68.279    0.220    0.433   27.215
  113.250   68.756    0.240    0.446   25.680
  113.500   70.868    0.267    0.431   24.949
  113.750   71.054    0.278    0.413   24.192
  114.000   69.949    0.291    0.409   23.517
  114.250   72.110    0.239    0.406   24.226
  114.500   75.629    0.179    0.354   25.197
  114.750   77.279    0.191    0.290   25.575
  115.000   78.188    0.220    0.302   24.504
  115.250   79.960    0.234    0.310   17.218
  115.500   96.124    0.237    0.337   10.094
  115.750  110.612    0.252    0.382    6.862
  116.000  113.869    0.240    0.410    5.944
  116.250  112.404    0.192    0.419    5.412
  116.500  109.076    0.167    0.436    5.373
  116.750  102.765    0.152    0.447    5.535
  117.000   99.183    0.186    0.455    5.799
  117.250  103.002    0.215    0.424    6.054
  117.500  110.943    0.224    0.375    6.153
  117.750  118.572    0.239    0.365    6.145
  118.000  125.082    0.247    0.389    6.260
  118.250  127.842    0.246    0.402    6.551
  118.500  128.306    0.229    0.410    7.018
  118.750  119.505    0.217    0.422    7.824
  119.000  108.679    0.211    0.438    8.983
  119.250  104.460    0.206    0.462   10.353
  119.500  100.787    0.216    0.480   11.502
  119.750   97.711    0.227    0.463   11.601
  120.000   99.859    0.242    0.482   10.935
  120.250  102.842    0.250    0.470   10.448
  120.500  104.362    0.249    0.415   10.612
  120.750   99.936    0.240    0.396   11.565
  121.000   85.168    0.228    0.438   13.402
  121.250   73.683    0.243    0.467   15.892
  121.500   67.856    0.243    0.448   19.265
  121.750   65.151    0.236    0.423   21.092
  122.000   66.513    0.231    0.388   19.987
  122.250   72.025    0.232    0.348   16.734
  122.500   82.573    0.250    0.350   12.916
  122.750  103.171    0.248    0.376   10.408
  123.000  108.268    0.258    0.436    9.555
  123.250   99.154    0.263    0.492   11.351
  123.500   85.341    0.247    0.492   14.863
  123.750   73.230    0.236    0.454   18.089
  124.000   68.189    0.252    0.440   20.389
  124.250   65.893    0.253    0.427   20.668
  124.500   65.819    0.247    0.411   14.937
  124.750   67.606    0.209    0.384   10.566
  125.000   75.693    0.187    0.366    9.502
  125.250   91.254    0.210    0.377    8.560
  125.500  104.035    0.215    0.388    8.363
  125.750  104.970    0.199    0.359    8.361
  126.000  104.216    0.204    0.359    8.430
  126.250  102.997    0.229    0.412    8.776
  126.500  102.055    0.220    0.453    9.134
  126.750  101.828    0.177    0.435    9.203
  127.000   99.580    0.167    0.398    9.205
  127.250   99.139    0.170    0.384    9.349
  127.500  102.758    0.187    0.409    9.562
  127.750  106.078    0.218    0.428   10.291
  128.000  104.105    0.204    0.414   12.414
  128.250   97.418    0.154    0.408   15.332
  128.500   90.783    0.168    0.432   17.570
  128.750   86.776    0.214    0.413   19.737
  129.000   86.222    0.226    0.385   21.029
  129.250   86.265    0.199    0.396   23.154
  129.500   83.625    0.153    0.408   25.460
  129.750   78.460    0.109    0.384   24.684
  130.000   73.926    0.099    0.353   20.086
  130.250   73.138    0.144    0.323   14.977
  130.500   81.055    0.175    0.323   10.518
  130.750   97.501    0.209    0.376    8.068
  131.000  110.283    0.228    0.441    7.214
  131.250  114.195    0.210    0.488    6.747
  131.500  117.830    0.197    0.518    6.561
  131.750  119.693    0.183    0.483    6.529
  132.000  118.236    0.158    0.467    6.824
  132.250  115.771    0.121    0.442    7.035
  132.500  115.687    0.102    0.403    7.140
  132.750  117.336    0.123    0.382    7.208
  133.000  117.715    0.161    0.376    7.085
  133.250  118.245    0.183    0.401    7.195
  133.500  118.103    0.194    0.412    7.342
  133.750  116.193    0.205    0.417    7.972
  134.000  107.124    0.207    0.421    8.969
  134.250   93.724    0.207    0.413   10.330
  134.500   87.215    0.226    0.396   12.775
  134.750   84.095    0.242    0.390   16.024
  135.000   80.889    0.250    0.396   18.792
  135.250   81.409    0.254    0.398   19.660
  135.500   86.163    0.235    0.407   20.148
  135.750   90.023    0.188    0.403   21.649
  136.000   88.959    0.158    0.355   23.031
  136.250   83.532    0.178    0.337   24.763
  136.500   76.346    0.233    0.349   28.434
  136.750   71.960    0.278    0.438   32.041
  137.000   70.347    0.240    0.410   34.780
  137.250   68.602    0.151    0.264   38.792
  137.500   65.903    0.124    0.282   43.960
  137.750   63.073    0.123    0.290   44.567
  138.000   63.093    0.129    0.255   39.249
  138.250   66.291    0.110    0.204   29.516
  138.500   75.551    0.130    0.218   22.649
  138.750   90.589    0.198    0.288   21.095
  139.000  103.608    0.215    0.332   19.088
  139.250  109.468    0.218    0.413   17.335
  139.500  108.979    0.205    0.410   15.968
  139.750  106.203    0.193    0.365   14.905
  140.000  104.107    0.192    0.371   14.761
  140.250  103.517    0.196    0.402   16.232
  140.500  103.486    0.199    0.403   18.749
  140.750  101.962    0.201    0.421   20.437
  141.000  100.939    0.200    0.418   20.944
  141.250  104.222    0.200    0.408   21.152
  141.500  109.954    0.203    0.415   20.628
  141.750  113.905    0.203    0.433   19.227
  142.000  115.151    0.195    0.447   18.415
  142.250  113.420    0.150    0.453   18.401
  142.500  108.130    0.088    0.417   18.503
  142.750  100.269    0.073    0.373   19.653
  143.000   92.174    0.110    0.348   21.120
  143.250   88.249    0.177    0.351   22.083
