~VERSION INFORMATION
 VERS.                 2.0:   CWLS LOG ASCII STANDARD -VERSION 2.0
 WRAP.                  NO:   ONE LINE PER DEPTH STEP
~WELL INFORMATION BLOCK
#MNEM.UNIT           DATA                    DESCRIPTION OF MNEMONIC
#---------    -------------------            -------------------------------
# Generated from Intellog Unique Number	CC_80_83/WELL/1050
LOC .         00/04-30-083-06W4/0            : Location     - LOCATION
UWI .         00/04-30-083-06W4/0            : Uwi          - UNIQUE WELL ID
ENTR.         DW                             : Entered      - ENTERED BY
SRVC.         SCHLUMBERGER                   : Scn          - SERVICE COMPANY
STRT.M        110                            : top_depth    - START DEPTH
STOP.M        364.75                         : bot_depth    - STOP DEPTH
STEP.M        0.25                           : increment    - STEP LENGTH
 NULL. -999.2500:NULL Value
~CURVE INFORMATION BLOCK
#MNEM UNIT       ERCB CURVE CODE    CURVE DESCRIPTION
#-----------   ------------------   ----------------------------------
DEPT.M        00 001 00 00         : DEPTH        - DEPTH
GR  .API      00 310 00 00         : GR           - GAMMA RAY
DPHI.V/V      00 890 00 00         : PHID         - DENSITY POROSITY (SANDSTONE)
NPHI.V/V      00 330 00 00         : PHIN         - NEUTRON POROSITY (SANDSTONE)
ILD .OHMM     00 120 00 00         : RESD         - DEEP RESISTIVITY (DIL)
~PARAMETER INFORMATION
#MNEM.UNIT           DATA             DESCRIPTION OF MNEMONIC
#---------         -----------     ------------------------------
GL  .M        561.95               : gl           - GROUND LEVEL ELEVATION
EREF.M        566.5                : kb           - ELEVATION OF DEPTH REFERENCE
DATM.M        566.5                : datum        - DATUM ELEVATION
TDD .M        408                  : tdd          - TOTAL DEPTH DRILLER
RUN .         ONE                  : Run          - RUN NUMBER
ENG .         BILL                 : Engineer     - RECORDING ENGINEER
WIT .         JIM                  : Witness      - WITNESSED BY
MUD .         GEL                  : Mud_type     - MUD TYPE
MATR.         SANDSTONE            : Logunit      - NEUTRON MATRIX
TMAX.C        20                   : BHT          - MAXIMUM RECORDED TEMPERATURE
BHTD.M        407                  : BHTDEP       - MAXIMUM RECORDED TEMPERATURE
MATR.         1                    : LOGUNIT      - NEUTRON MATRIX
RMT .C        25                   : MDTP         - TEMPERATURE OF MUD
NEUT.         1                    : NEUTRON      - NEUTRON TYPE
RESI.         0                    : RESIST       - RESISTIVITY TYPE
RMC .OHMM     0.25                 : RMC          - RESISTIVITY OF MUD CAKE
RMF .OHMM     0.25                 : RMF          - RESISTIVITY OF MUD FILTRATE
SUFT.C        15                   : SUFT         - SURFACE TEMPERATURE
~A  DEPTH       GR     PHID     PHIN     RESD
# ...
  240.500   63.472    0.300    0.466   17.653
  240.750   61.254    0.316    0.456   17.109
  241.000   61.456    0.320    0.441   16.919
  241.250   63.899    0.313    0.450   17.244
  241.500   65.901    0.313    0.468   17.247
  241.750   66.843    0.319    0.469   17.070
  242.000   68.449    0.317    0.461   17.688
  242.250   69.218    0.307    0.452   18.276
  242.500   67.582    0.297    0.437   18.682
  242.750   65.640    0.286    0.438   18.609
  243.000   64.354    0.285    0.452   18.264
  243.250   64.570    0.301    0.470   18.011
  243.500   66.716    0.317    0.484   17.730
  243.750   65.951    0.323    0.467   17.249
  244.000   63.762    0.321    0.446   16.257
  244.250   62.641    0.319    0.434   15.450
  244.500   62.404    0.321    0.430   14.570
  244.750   62.694    0.322    0.442   13.521
  245.000   64.364    0.318    0.466   12.694
  245.250   66.421    0.307    0.470   10.613
  245.500   68.262    0.298    0.461    8.618
  245.750   68.848    0.299    0.465    7.707
  246.000   68.665    0.311    0.483    7.402
  246.250   68.787    0.330    0.494    6.834
  246.500   69.367    0.334    0.491    6.020
  246.750   70.813    0.305    0.497    5.642
  247.000   73.156    0.333    0.519    5.316
  247.250   76.112    0.339    0.549    5.041
  247.500   79.190    0.306    0.552    4.789
  247.750   82.323    0.296    0.538    4.372
  248.000   85.962    0.292    0.554    3.923
  248.250   89.711    0.266    0.565    3.790
  248.500   91.616    0.248    0.554    3.702
  248.750   93.104    0.267    0.556    3.564
  249.000   94.266    0.290    0.556    3.850
  249.250   92.810    0.282    0.528    4.498
  249.500   89.152    0.257    0.510    4.918
  249.750   87.962    0.240    0.527    5.582
  250.000   88.088    0.232    0.537    6.125
  250.250   89.874    0.229    0.525    6.461
  250.500   91.177    0.246    0.516    6.463
  250.750   89.201    0.274    0.523    6.081
  251.000   86.181    0.281    0.522    5.520
  251.250   86.886    0.278    0.518    4.688
  251.500   90.145    0.278    0.510    3.743
  251.750   94.024    0.284    0.537    3.243
  252.000   97.021    0.296    0.572    3.087
  252.250   98.789    0.301    0.581    2.884
  252.500  100.339    0.290    0.593    2.666
  252.750  100.226    0.291    0.599    2.459
  253.000   91.196    0.311    0.566    2.391
  253.250   85.647    0.309    0.542    2.550
  253.500   87.042    0.283    0.542    2.710
  253.750   88.380    0.270    0.532    3.063
  254.000   88.831    0.277    0.513    4.180
  254.250   88.501    0.281    0.512    5.599
  254.500   86.568    0.290    0.502    6.719
  254.750   85.307    0.287    0.487    7.538
  255.000   85.146    0.262    0.477    8.106
  255.250   84.381    0.249    0.475    8.433
  255.500   82.820    0.275    0.484    8.541
  255.750   81.749    0.276    0.492    8.281
  256.000   81.584    0.258    0.483    8.133
  256.250   84.266    0.265    0.478    7.933
  256.500   87.596    0.281    0.478    7.755
  256.750   90.331    0.282    0.475    7.813
  257.000   94.514    0.285    0.473    7.943
  257.250   96.371    0.275    0.471    8.177
  257.500   95.482    0.257    0.449    8.683
  257.750   92.875    0.244    0.434    9.853
  258.000   89.567    0.224    0.430   11.242
  258.250   84.912    0.180    0.422   12.876
  258.500   78.746    0.126    0.412   15.031
  258.750   76.053    0.101    0.383   15.678
  259.000   79.849    0.116    0.339   14.991
  259.250   86.033    0.191    0.384   13.663
  259.500   89.298    0.245    0.437   12.080
  259.750   89.055    0.232    0.420   10.442
  260.000   88.611    0.233    0.436    9.099
  260.250   90.294    0.240    0.461    8.418
  260.500   95.091    0.240    0.475    7.618
  260.750   96.904    0.239    0.482    6.900
  261.000   93.888    0.241    0.489    7.136
  261.250   90.796    0.250    0.483    8.198
  261.500   90.555    0.262    0.447    9.112
  261.750   90.562    0.260    0.424    9.910
  262.000   90.653    0.262    0.430   10.174
  262.250   90.179    0.268    0.448   10.311
  262.500   88.704    0.266    0.462   10.406
  262.750   87.463    0.261    0.464   10.131
  263.000   88.192    0.261    0.454    9.487
  263.250   90.301    0.250    0.458    8.650
  263.500   91.522    0.261    0.481    7.832
  263.750   92.775    0.259    0.494    6.744
  264.000   94.336    0.260    0.496    5.725
  264.250   96.023    0.275    0.501    5.264
  264.500   96.869    0.264    0.506    5.223
  264.750   92.912    0.261    0.509    5.424
  265.000   89.579    0.255    0.490    5.249
  265.250   88.525    0.246    0.475    5.496
  265.500   88.180    0.242    0.459    6.574
  265.750   84.722    0.236    0.430    8.290
  266.000   77.413    0.236    0.412   10.261
  266.250   75.044    0.289    0.412   11.341
  266.500   74.822    0.300    0.448   12.066
  266.750   75.698    0.291    0.468   12.692
  267.000   77.775    0.293    0.468    9.354
  267.250   82.468    0.290    0.480    3.997
  267.500   91.517    0.287    0.496    3.815
  267.750   99.553    0.310    0.516    3.786
  268.000   97.703    0.303    0.545    3.841
  268.250   89.495    0.278    0.535    4.513
  268.500   81.216    0.270    0.495    5.644
  268.750   75.498    0.279    0.466    7.166
  269.000   73.317    0.281    0.451    8.711
  269.250   74.253    0.283    0.443    9.188
  269.500   75.472    0.287    0.439    9.430
  269.750   76.185    0.294    0.441    9.839
  270.000   76.518    0.272    0.449   10.336
  270.250   77.360    0.250    0.460   10.811
  270.500   77.097    0.279    0.470   11.138
  270.750   69.964    0.255    0.471   11.184
  271.000   65.495    0.208    0.434   10.873
  271.250   64.589    0.166    0.407   10.660
  271.500   68.631    0.206    0.424   10.888
  271.750   72.843    0.283    0.452   11.177
  272.000   68.634    0.250    0.449   10.959
  272.250   68.126    0.235    0.424   10.481
  272.500   71.906    0.247    0.410    9.816
  272.750   77.823    0.245    0.405    8.746
  273.000   82.107    0.233    0.406    7.525
  273.250   83.682    0.236    0.422    6.798
  273.500   85.228    0.253    0.457    6.752
  273.750   85.778    0.259    0.492    6.856
  274.000   86.514    0.251    0.492    7.027
  274.250   88.304    0.255    0.487    7.403
  274.500   90.259    0.262    0.482    7.903
  274.750   91.716    0.250    0.461    8.415
  275.000   93.278    0.231    0.440    8.957
  275.250   94.478    0.231    0.424    9.199
  275.500   93.700    0.244    0.430    8.400
  275.750   90.633    0.256    0.376    7.005
  276.000   85.709    0.245    0.386    4.820
  276.250   81.053    0.256    0.496    2.737
  276.500   78.718    0.326    0.509    2.516
  276.750   76.616    0.315    0.510    2.407
  277.000   75.475    0.311    0.522    2.357
  277.250   74.199    0.330    0.540    2.450
  277.500   72.801    0.344    0.571    2.809
  277.750   71.864    0.341    0.575    3.683
  278.000   70.871    0.324    0.519    4.761
  278.250   70.352    0.310    0.495    5.103
  278.500   70.085    0.263    0.500    5.367
  278.750   71.195    0.269    0.522    5.826
  279.000   74.022    0.299    0.504    6.201
  279.250   77.854    0.276    0.446    6.525
  279.500   81.348    0.244    0.427    6.942
  279.750   82.473    0.243    0.421    6.855
  280.000   82.997    0.244    0.430    6.736
  280.250   80.713    0.239    0.441    6.565
  280.500   75.570    0.197    0.446    6.097
  280.750   71.901    0.186    0.459    5.090
  281.000   73.505    0.276    0.483    3.823
  281.250   79.531    0.272    0.506    3.494
  281.500   85.030    0.274    0.519    3.392
  281.750   84.734    0.290    0.527    3.367
  282.000   81.819    0.301    0.539    3.463
  282.250   80.788    0.306    0.543    3.580
  282.500   80.943    0.295    0.521    3.691
  282.750   83.080    0.277    0.509    3.698
  283.000   84.035    0.294    0.517    3.658
  283.250   86.459    0.299    0.512    3.554
  283.500   85.812    0.299    0.501    3.481
  283.750   82.932    0.314    0.496    3.500
