~VERSION INFORMATION
 VERS.                 2.0:   CWLS LOG ASCII STANDARD -VERSION 2.0
 WRAP.                  NO:   ONE LINE PER DEPTH STEP
~WELL INFORMATION BLOCK
#MNEM.UNIT           DATA                    DESCRIPTION OF MNEMONIC
#---------    -------------------            -------------------------------
# Generated from Intellog Unique Number	CN_91_93/WELL/4153
WELL.         CDN-SUP LIEGE                  : Well_name    - WELL
LOC .         00/06-13-092-21W4/0            : Location     - LOCATION
UWI .         00/06-13-092-21W4/0            : Uwi          - UNIQUE WELL ID
ENTR.         TIM                            : Entered      - ENTERED BY
SRVC.         SCHLUMBERGER                   : Scn          - SERVICE COMPANY
DATE.         01/22/92                       : Date         - LOG DATE
STRT.M        50                             : top_depth    - START DEPTH
STOP.M        250                            : bot_depth    - STOP DEPTH
STEP.M        0.25                           : increment    - STEP LENGTH
 NULL. -999.2500:NULL Value
~CURVE INFORMATION BLOCK
#MNEM UNIT       ERCB CURVE CODE    CURVE DESCRIPTION
#-----------   ------------------   ----------------------------------
DEPT.M        00 001 00 00         : DEPTH        - DEPTH
GR  .API      00 310 00 00         : GR           - GAMMA RAY
NPHI.V/V      00 330 00 00         : PHIN         - NEUTRON POROSITY (SANDSTONE)
DPHI.V/V      00 890 00 00         : PHID         - DENSITY POROSITY (SANDSTONE)
ILD .OHMM     00 120 00 00         : RESD         - DEEP RESISTIVITY (DIL)
~PARAMETER INFORMATION
#MNEM.UNIT           DATA             DESCRIPTION OF MNEMONIC
#---------         -----------     ------------------------------
GL  .M        545.44               : gl           - GROUND LEVEL ELEVATION
EREF.M        549.3                : kb           - ELEVATION OF DEPTH REFERENCE
DATM.M        549.3                : datum        - DATUM ELEVATION
TDD .M        251                  : tdd          - TOTAL DEPTH DRILLER
RUN .         ONE                  : Run          - RUN NUMBER
ENG .         JO                   : Engineer     - RECORDING ENGINEER
WIT .         TIM                  : Witness      - WITNESSED BY
MUD .         GEL                  : Mud_type     - MUD TYPE
MATR.         SANDSTONE            : Logunit      - NEUTRON MATRIX
TMAX.C        20.5                 : BHT          - MAXIMUM RECORDED TEMPERATURE
BHTD.M        251                  : BHTDEP       - MAXIMUM RECORDED TEMPERATURE
RMT .C        18                   : MDTP         - TEMPERATURE OF MUD
MUDD.KG/M     1107                 : MWT          - MUD DENSITY
NEUT.         1                    : NEUTRON      - NEUTRON TYPE
RESI.         0                    : RESIST       - RESISTIVITY TYPE
RM  .OHMM     6.44                 : RM           - RESISTIVITY OF MUD
RMC .OHMM     6.5                  : RMC          - RESISTIVITY OF MUD CAKE
RMF .OHMM     6.35                 : RMF          - RESISTIVITY OF MUD FILTRATE
SUFT.C        4                    : SUFT         - SURFACE TEMPERATURE
~A  DEPTH       GR     PHIN     PHID     RESD
# ...
  224.000   84.997    0.354    0.134   13.896
  224.250   88.044    0.377    0.195   13.645
  224.500   90.493    0.365    0.184   13.395
  224.750   90.516    0.361    0.180   12.665
  225.000   92.350    0.362    0.185   12.670
  225.250   93.577    0.376    0.189   12.441
  225.500   89.954    0.377    0.163   12.216
  225.750   89.977    0.356    0.139   12.226
  226.000   92.422    0.340    0.135   12.476
  226.250   94.867    0.346    0.143   12.727
  226.500   94.283    0.370    0.153   13.490
  226.750   91.263    0.367    0.164   14.577
  227.000   85.820    0.358    0.138   15.450
  227.250   79.160    0.345    0.129   16.376
  227.500   74.334    0.334    0.118   17.361
  227.750   72.532    0.329    0.114   18.045
  228.000   72.550    0.329    0.143   18.409
  228.250   73.175    0.335    0.171   17.738
  228.500   75.620    0.340    0.195   17.091
  228.750   77.458    0.350    0.148   17.098
  229.000   74.438    0.350    0.105   16.800
  229.250   70.213    0.336    0.072   17.135
  229.500   68.411    0.314    0.016   17.153
  229.750   70.249    0.302    0.114   17.495
  230.000   73.903    0.320    0.180   16.222
  230.250   78.775    0.354    0.177   14.473
  230.500   79.400    0.413    0.090   12.919
  230.750   79.418    0.398    0.053   12.685
  231.000   90.968    0.384    0.008   12.694
  231.250   95.839    0.395    0.114   12.707
  231.500   96.464    0.406    0.132   12.715
  231.750   95.876    0.417    0.130   12.726
  232.000   97.714    0.411    0.151   12.740
  232.250   98.338    0.401    0.193   12.507
  232.500   94.110    0.414    0.176   12.053
  232.750   92.308    0.428    0.141   11.608
  233.000   91.112    0.440    0.111   11.399
  233.250   91.139    0.427    0.009   11.190
  233.500   91.153    0.404    0.025   11.204
  233.750   91.171    0.396    0.099   11.211
  234.000   92.407    0.418    0.144   11.440
  234.250   94.847    0.428    0.173   11.447
  234.500   97.297    0.428    0.127   11.683
  234.750   97.315    0.423    0.126   11.688
  235.000   97.333    0.415    0.146   11.932
  235.250   98.569    0.443    0.164   11.937
  235.500   98.578    0.460    0.153   11.947
  235.750   93.747    0.468    0.113   11.957
  236.000   94.974    0.433    0.054   11.965
  236.250   99.850    0.402    0.092   11.978
  236.500  103.504    0.401    0.153   11.985
  236.750  108.380    0.393    0.185   11.996
  237.000  107.185    0.425    0.129   11.778
  237.250  102.345    0.453    0.114   11.566
  237.500   96.296    0.423    0.111   11.146
  237.750   96.925    0.387    0.140   10.947
  238.000  104.830    0.391    0.151   10.951
  238.250  110.924    0.399    0.172   10.758
  238.500  110.933    0.399    0.164   10.765
  238.750  110.345    0.393    0.138   10.568
  239.000  107.329    0.376    0.099   10.379
  239.250  104.925    0.347    0.057   10.388
  239.500  106.152    0.328    0.026   10.202
  239.750  115.270    0.319    0.176   10.403
  240.000  117.720    0.415    0.190   10.412
  240.250  114.700    0.423    0.207   10.622
  240.500  108.044    0.400    0.228   12.387
  240.750  101.995    0.294    0.253   17.830
  241.000   89.273    0.096    0.365   25.658
  241.250   64.416    0.037    0.380   39.857
  241.500   41.986    0.048    0.388   66.845
  241.750   41.397    0.060    0.400   96.193
  242.000   41.415    0.049    0.429  158.241
  242.250   41.433    0.046    0.458  315.270
  242.500   40.849    0.053    0.446  309.567
  242.750   42.081    0.060    0.430  309.832
  243.000   42.706    0.049    0.443  310.097
  243.250   42.117    0.038    0.454  298.723
  243.500   40.922    0.054    0.459  293.256
  243.750   39.120    0.058    0.467  299.170
  244.000   37.929    0.048    0.473  317.096
  244.250   37.345    0.065    0.477  336.095
  244.500   37.354    0.082    0.475  356.233
  244.750   37.372    0.097    0.470  356.538
  245.000   37.390    0.115    0.464  356.919
  245.250   38.019    0.134    0.453  343.828
  245.500   38.644    0.154    0.421  268.417
  245.750   39.269    0.172    0.418  230.558
  246.000   39.893    0.183    0.423  176.546
  246.250   40.514    0.193    0.424  151.645
  246.500   40.532    0.200    0.426  206.108
  246.750   41.165    0.204    0.426  226.969
  247.000   41.786    0.207    0.421  149.188
  247.250   42.410    0.211    0.407   57.412
  247.500   43.642    0.215    0.290   26.246
  247.750   47.907    0.218    0.227   19.348
  248.000   54.599    0.221    0.196   17.267
  248.250   69.178    0.225    0.174   16.010
  248.500   74.049    0.226    0.140   14.563
  248.750   89.239    0.224    0.050   14.857
  249.000   92.902    0.223    0.055   16.676
  249.250   93.527    0.222    0.029   19.079
  249.500   93.545    0.222    0.024   23.569
  249.750   93.563    0.222    0.033   23.589
  250.000   93.581    0.222    0.006   23.157
