~VERSION INFORMATION
 VERS.                 2.0:   CWLS LOG ASCII STANDARD -VERSION 2.0
 WRAP.                  NO:   ONE LINE PER DEPTH STEP
~WELL INFORMATION BLOCK
#MNEM.UNIT           DATA                    DESCRIPTION OF MNEMONIC
#---------    -------------------            -------------------------------
# Generated from Intellog Unique Number	CS_71_72/WELL/799
WELL.         PEX PHILLIPS AEC GRIST         : Well_name    - WELL
LOC .         00/06-36-071-09W4/0            : Location     - LOCATION
UWI .         00/06-36-071-09W4/0            : Uwi          - UNIQUE WELL ID
ENTR.         SP                             : Entered      - ENTERED BY
SRVC.         SCHLUMBERGER                   : Scn          - SERVICE COMPANY
STRT.M        315                            : top_depth    - START DEPTH
STOP.M        540                            : bot_depth    - STOP DEPTH
STEP.M        0.25                           : increment    - STEP LENGTH
 NULL. -999.2500:NULL Value
~CURVE INFORMATION BLOCK
#MNEM UNIT       ERCB CURVE CODE    CURVE DESCRIPTION
#-----------   ------------------   ----------------------------------
DEPT.M        00 001 00 00         : DEPTH        - DEPTH
ILD .OHMM     00 120 00 00         : RESD         - DEEP RESISTIVITY (DIL)
DPHI.V/V      00 890 00 00         : PHID         - DENSITY POROSITY (LIMESTONE)
NPHI.V/V      00 330 00 00         : PHIN         - NEUTRON POROSITY (LIMESTONE)
GR  .API      00 310 00 00         : GR           - GAMMA RAY
~PARAMETER INFORMATION
#MNEM.UNIT           DATA             DESCRIPTION OF MNEMONIC
#---------         -----------     ------------------------------
GL  .M        679.91               : gl           - GROUND LEVEL ELEVATION
EREF.M        683.7                : kb           - ELEVATION OF DEPTH REFERENCE
DATM.M        679.91               : datum        - DATUM ELEVATION
TDD .M        544                  : tdd          - TOTAL DEPTH DRILLER
RUN .         ONE                  : Run          - RUN NUMBER
ENG .         BILL                 : Engineer     - RECORDING ENGINEER
WIT .         JIM                  : Witness      - WITNESSED BY
MUD .         GEL                  : Mud_type     - MUD TYPE
MATR.         LIMESTONE            : Logunit      - NEUTRON MATRIX
TMAX.C        24                   : BHT          - MAXIMUM RECORDED TEMPERATURE
BHTD.M        544                  : BHTDEP       - MAXIMUM RECORDED TEMPERATURE
MATR.         1                    : LOGUNIT      - NEUTRON MATRIX
RMT .C        25                   : MDTP         - TEMPERATURE OF MUD
NEUT.         1                    : NEUTRON      - NEUTRON TYPE
RESI.         0                    : RESIST       - RESISTIVITY TYPE
RMC .OHMM     0.25                 : RMC          - RESISTIVITY OF MUD CAKE
RMF .OHMM     0.25                 : RMF          - RESISTIVITY OF MUD FILTRATE
SUFT.C        15                   : SUFT         - SURFACE TEMPERATURE
~A  DEPTH     RESD     PHID     PHIN       GR
# ...
  445.500    3.980    0.329    0.475   76.269
  445.750    3.974    0.348    0.517   77.320
  446.000    4.080    0.291    0.545   75.440
  446.250    4.315    0.262    0.426   72.707
  446.500    4.582    0.261    0.429   74.737
  446.750    4.757    0.266    0.451   75.422
  447.000    4.958    0.262    0.468   76.107
  447.250    5.109    0.247    0.467   76.790
  447.500    5.226    0.237    0.451   78.150
  447.750    5.315    0.234    0.440   79.020
  448.000    5.376    0.240    0.432   78.973
  448.250    5.397    0.242    0.430   78.189
  448.500    5.388    0.246    0.434   75.882
  448.750    5.290    0.263    0.458   75.222
  449.000    4.920    0.285    0.475   77.128
  449.250    4.270    0.310    0.491   80.440
  449.500    3.504    0.323    0.488   83.078
  449.750    3.025    0.336    0.512   85.046
  450.000    2.601    0.344    0.542   86.281
  450.250    2.236    0.321    0.570   85.683
  450.500    2.072    0.312    0.588   82.949
  450.750    2.019    0.317    0.596   81.375
  451.000    2.089    0.322    0.603   80.228
  451.250    2.280    0.334    0.615   79.387
  451.500    2.663    0.349    0.524   79.766
  451.750    3.139    0.360    0.482   79.658
  452.000    3.472    0.306    0.464   77.779
  452.250    3.877    0.274    0.465   79.196
  452.500    4.124    0.275    0.475   80.799
  452.750    4.242    0.287    0.487   81.972
  453.000    4.380    0.296    0.499   82.535
  453.250    4.531    0.278    0.497   80.655
  453.500    4.810    0.236    0.472   77.618
  453.750    5.312    0.146    0.462   75.249
  454.000    5.942    0.098    0.449   72.392
  454.250    6.610    0.060    0.389   68.009
  454.500    7.231    0.058    0.332   61.735
  454.750    7.578    0.125    0.298   63.700
  455.000    7.551    0.165    0.381   70.432
  455.250    6.867    0.194    0.438   75.695
  455.500    6.280    0.210    0.458   79.249
  455.750    5.658    0.221    0.475   81.827
  456.000    5.060    0.235    0.485   83.428
  456.250    4.645    0.224    0.491   82.709
  456.500    4.467    0.211    0.486   84.372
  456.750    4.361    0.220    0.459   84.874
  457.000    4.370    0.235    0.446   84.398
  457.250    4.445    0.229    0.465   82.764
  457.500    4.632    0.227    0.482   82.349
  457.750    4.711    0.234    0.482   77.600
  458.000    4.892    0.229    0.478   78.103
  458.250    4.920    0.222    0.470   79.886
  458.500    4.949    0.208    0.458   81.122
  458.750    4.968    0.196    0.449   81.744
  459.000    4.960    0.197    0.441   84.689
  459.250    4.933    0.219    0.448   87.205
  459.500    4.971    0.233    0.448   84.411
  459.750    5.104    0.220    0.435   82.531
  460.000    5.220    0.210    0.424   82.972
  460.250    5.451    0.212    0.423   83.844
  460.500    5.555    0.242    0.422   84.099
  460.750    5.629    0.262    0.420   81.731
  461.000    5.598    0.282    0.439   76.615
  461.250    5.265    0.282    0.450   75.407
  461.500    4.788    0.280    0.464   74.993
  461.750    4.346    0.278    0.472   72.993
  462.000    3.710    0.260    0.454   68.243
  462.250    3.190    0.308    0.436   63.921
  462.500    2.779    0.399    0.493   61.737
  462.750    2.462    0.436    0.542   62.362
  463.000    2.268    0.446    0.570   63.902
  463.250    2.137    0.397    0.572   66.600
  463.500    2.059    0.377    0.609   69.972
  463.750    2.026    0.370    0.623   72.918
  464.000    2.026    0.390    0.591   74.639
  464.250    2.115    0.420    0.578   75.447
  464.500    2.323    0.445    0.584   74.852
  464.750    2.628    0.284    0.503   74.314
  465.000    2.912    0.272    0.482   74.328
  465.250    3.156    0.289    0.461   74.097
  465.500    3.414    0.275    0.442   73.195
  465.750    3.605    0.276    0.458   71.254
  466.000    3.579    0.315    0.499   67.298
  466.250    3.474    0.354    0.557   64.686
  466.500    3.347    0.407    0.573   63.722
  466.750    3.219    0.441    0.566   65.447
  467.000    3.299    0.456    0.553   66.131
  467.250    3.457    0.424    0.570   66.023
  467.500    3.804    0.426    0.592   55.901
  467.750    4.208   -0.008    0.608   46.327
  468.000    4.518    0.010    0.167   46.403
  468.250    5.082    0.128    0.272   49.593
  468.500    5.560    0.175    0.345   52.597
  468.750    5.837    0.212    0.381   54.627
  469.000    5.937    0.098    0.253   55.985
  469.250    5.916    0.148    0.276   56.547
  469.500    5.797    0.211    0.344   57.047
  469.750    5.607    0.244    0.386   57.551
  470.000    5.373    0.263    0.416   57.073
  470.250    5.081    0.274    0.433   56.476
  470.500    4.673    0.281    0.440   57.406
  470.750    4.330    0.286    0.440   58.885
  471.000    3.974    0.295    0.443   59.937
  471.250    3.780    0.306    0.450   60.989
  471.500    3.649    0.310    0.458   61.799
  471.750    3.643    0.301    0.466   61.747
  472.000    3.678    0.295    0.461   60.911
  472.250    3.734    0.305    0.447   61.590
  472.500    3.763    0.313    0.438   63.253
  472.750    3.770    0.320    0.448   62.838
  473.000    3.771    0.319    0.465   60.532
  473.250    3.779    0.307    0.454   61.949
  473.500    3.801    0.301    0.451   64.101
  473.750    3.816    0.283    0.449   65.823
  474.000    3.852    0.273    0.425   67.791
  474.250    3.904    0.265    0.412   69.577
  474.500    3.890    0.291    0.445   70.995
  474.750    3.777    0.325    0.488   72.353
  475.000    3.605    0.318    0.527   72.668
  475.250    3.371    0.307    0.541   70.178
  475.500    3.147    0.318    0.525   69.397
  475.750    3.078    0.300    0.520   71.732
  476.000    3.033    0.273    0.530   73.822
  476.250    2.961    0.261    0.531   75.912
  476.500    2.858    0.270    0.553   78.369
  476.750    2.658    0.286    0.567   80.150
  477.000    2.400    0.304    0.578   77.721
  477.250    2.278    0.319    0.441   74.809
  477.500    2.675    0.226    0.422   73.659
  477.750    3.066    0.223    0.417   72.269
  478.000    3.424    0.250    0.434   70.148
  478.250    3.794    0.277    0.457   68.753
  478.500    4.190    0.280    0.479   67.605
  478.750    4.661    0.233    0.428   67.924
  479.000    5.051    0.226    0.380   68.796
  479.250    5.454    0.275    0.400   68.624
  479.500    5.652    0.321    0.426   67.659
  479.750    5.580    0.348    0.449   65.170
  480.000    5.488    0.349    0.464   62.619
  480.250    5.489    0.250    0.422   60.801
  480.500    5.688    0.245    0.407   59.897
  480.750    6.119    0.249    0.402   61.132
  481.000    6.329    0.240    0.398   62.736
  481.250    6.670    0.239    0.396   61.952
  481.500    6.887    0.235    0.397   62.334
  481.750    7.312    0.212    0.394   63.386
  482.000    7.778    0.021    0.396   63.275
  482.250    8.336    0.017    0.381   59.259
  482.500    8.834    0.043    0.343   58.967
  482.750    9.036    0.117    0.322   63.073
  483.000    8.920    0.175    0.356   67.484
  483.250    8.250    0.234    0.385   71.098
  483.500    7.934    0.261    0.401   73.432
  483.750    7.660    0.280    0.417   73.751
  484.000    7.705    0.298    0.422   72.912
  484.250    7.778    0.308    0.413   71.578
  484.500    8.091    0.271    0.400   66.830
  484.750    8.591    0.250    0.391   60.798
  485.000    9.241    0.250    0.372   55.805
  485.250    9.904    0.253    0.351   51.972
  485.500   10.378    0.248    0.348   48.871
  485.750   10.875    0.248    0.352   47.725
  486.000   11.313    0.245    0.355   51.220
  486.250   11.571    0.239    0.358   53.735
  486.500   11.704    0.233    0.361   54.847
  486.750   11.772    0.229    0.355   52.968
  487.000   12.041    0.227    0.357   52.188
  487.250   12.339    0.237    0.350   54.522
  487.500   12.598    0.244    0.343   56.618
  487.750   12.718    0.249    0.346   57.116
  488.000   12.650    0.253    0.352   57.617
  488.250   12.488    0.253    0.347   57.873
  488.500   12.421    0.246    0.345   56.547
  488.750   12.493    0.239    0.353   53.082
