~VERSION INFORMATION
 VERS.                 2.0:   CWLS LOG ASCII STANDARD -VERSION 2.0
 WRAP.                  NO:   ONE LINE PER DEPTH STEP
~WELL INFORMATION BLOCK
#MNEM.UNIT           DATA                    DESCRIPTION OF MNEMONIC
#---------    -------------------            -------------------------------
# Generated from Intellog Unique Number	CS_67_68/WELL/644
WELL.         FISHER CREEK                   : Well_name    - WELL
LOC .         00/06-09-068-04W4/0            : Location     - LOCATION
UWI .         00/06-09-068-04W4/0            : Uwi          - UNIQUE WELL ID
ENTR.         SP                             : Entered      - ENTERED BY
SRVC.         SCHLUMBERGER                   : Scn          - SERVICE COMPANY
STRT.M        335                            : top_depth    - START DEPTH
STOP.M        565                            : bot_depth    - STOP DEPTH
STEP.M        0.25                           : increment    - STEP LENGTH
 NULL. -999.2500:NULL Value
~CURVE INFORMATION BLOCK
#MNEM UNIT       ERCB CURVE CODE    CURVE DESCRIPTION
#-----------   ------------------   ----------------------------------
DEPT.M        00 001 00 00         : DEPTH        - DEPTH
ILD .OHMM     00 120 00 00         : RESD         - DEEP RESISTIVITY (DIL)
DPHI.V/V      00 890 00 00         : PHID         - DENSITY POROSITY (LIMESTONE)
NPHI.V/V      00 330 00 00         : PHIN         - NEUTRON POROSITY (LIMESTONE)
GR  .API      00 310 00 00         : GR           - GAMMA RAY
~PARAMETER INFORMATION
#MNEM.UNIT           DATA             DESCRIPTION OF MNEMONIC
#---------         -----------     ------------------------------
GL  .M        692.65               : gl           - GROUND LEVEL ELEVATION
EREF.M        696.5                : kb           - ELEVATION OF DEPTH REFERENCE
DATM.M        692.65               : datum        - DATUM ELEVATION
TDD .M        568                  : tdd          - TOTAL DEPTH DRILLER
RUN .         ONE                  : Run          - RUN NUMBER
ENG .         BILL                 : Engineer     - RECORDING ENGINEER
WIT .         JIM                  : Witness      - WITNESSED BY
MUD .         GEL                  : Mud_type     - MUD TYPE
MATR.         LIMESTONE            : Logunit      - NEUTRON MATRIX
TMAX.C        20.5                 : BHT          - MAXIMUM RECORDED TEMPERATURE
BHTD.M        568                  : BHTDEP       - MAXIMUM RECORDED TEMPERATURE
MATR.         1                    : LOGUNIT      - NEUTRON MATRIX
RMT .C        25                   : MDTP         - TEMPERATURE OF MUD
NEUT.         1                    : NEUTRON      - NEUTRON TYPE
RESI.         0                    : RESIST       - RESISTIVITY TYPE
RMC .OHMM     0.25                 : RMC          - RESISTIVITY OF MUD CAKE
RMF .OHMM     0.25                 : RMF          - RESISTIVITY OF MUD FILTRATE
SUFT.C        15                   : SUFT         - SURFACE TEMPERATURE
~A  DEPTH     RESD     PHID     PHIN       GR
# ...
  465.500    6.006    0.249    0.456   71.983
  465.750    6.203    0.253    0.471   70.960
  466.000    6.323    0.256    0.440   70.603
  466.250    6.470    0.249    0.437   70.436
  466.500    6.521    0.255    0.456   70.390
  466.750    6.573    0.264    0.451   71.266
  467.000    6.551    0.248    0.450   72.143
  467.250    6.591    0.248    0.471   70.870
  467.500    6.669    0.259    0.485   69.171
  467.750    6.953    0.259    0.474   68.570
  468.000    7.275    0.264    0.464   67.606
  468.250    7.742    0.281    0.478   66.210
  468.500    8.301    0.299    0.495   63.095
  468.750    9.086    0.310    0.501   60.411
  469.000    9.963    0.307    0.486   58.894
  469.250   10.906    0.299    0.474   57.375
  469.500   11.606    0.299    0.476   55.737
  469.750   12.213    0.303    0.466   55.321
  470.000   12.853    0.306    0.467   56.505
  470.250   13.704    0.310    0.483   58.853
  470.500   14.339    0.309    0.476   61.018
  470.750   14.213    0.305    0.466   62.755
  471.000   13.366    0.301    0.466   63.629
  471.250   10.782    0.302    0.455   61.559
  471.500    8.894    0.309    0.445   60.776
  471.750    8.103    0.300    0.469   61.222
  472.000   10.037    0.290    0.486   61.549
  472.250   12.383    0.291    0.494   61.194
  472.500   14.445    0.299    0.482   60.351
  472.750   16.914    0.305    0.466   58.896
  473.000   18.968    0.309    0.454   56.211
  473.250   22.252    0.308    0.453   52.789
  473.500   24.310    0.313    0.461   50.535
  473.750   25.725    0.324    0.446   52.027
  474.000   26.668    0.331    0.436   53.146
  474.250   26.982    0.336    0.439   53.838
  474.500   30.262    0.331    0.460   54.227
  474.750   34.006    0.285    0.480   54.242
  475.000   36.458    0.244    0.424   54.194
  475.250   39.310    0.218    0.378   53.842
  475.500   42.228    0.279    0.411   53.186
  475.750   44.438    0.311    0.432   52.586
  476.000   42.984    0.326    0.447   51.497
  476.250   39.235    0.334    0.447   50.225
  476.500   36.831    0.340    0.464   49.873
  476.750   34.640    0.338    0.486   51.178
  477.000   33.193    0.328    0.501   55.799
  477.250   31.629    0.321    0.507   57.901
  477.500   30.140    0.315    0.490   58.961
  477.750   28.241    0.313    0.471   56.156
  478.000   26.312    0.315    0.460   53.962
  478.250   24.333    0.317    0.451   54.286
  478.500   23.058    0.320    0.449   56.449
  478.750   22.304    0.319    0.450   59.166
  479.000   22.480    0.320    0.456   59.182
  479.250   23.658    0.325    0.457   56.866
  479.500   24.433    0.315    0.441   55.779
  479.750   25.281    0.307    0.454   56.656
  480.000   25.917    0.309    0.466   57.898
  480.250   24.834    0.314    0.455   58.713
  480.500   16.549    0.316    0.432   57.685
  480.750   10.193    0.312    0.419   62.366
  481.000    6.856    0.296    0.449   69.934
  481.250    5.055    0.259    0.480   75.043
  481.500    3.913    0.245    0.507   78.067
  481.750    3.063    0.260    0.499   78.697
  482.000    2.618    0.272    0.494   73.743
  482.250    2.268    0.279    0.509   72.715
  482.500    2.078    0.285    0.518   75.066
  482.750    2.017    0.289    0.531   76.370
  483.000    1.985    0.286    0.536   76.754
  483.250    1.971    0.277    0.537   76.096
  483.500    1.957    0.272    0.543   74.273
  483.750    1.958    0.273    0.537   72.386
  484.000    1.955    0.276    0.533   69.333
  484.250    1.952    0.277    0.527   69.041
  484.500    1.968    0.289    0.545   71.329
  484.750    1.994    0.297    0.556   73.554
  485.000    2.022    0.287    0.559   75.781
  485.250    2.065    0.275    0.559   77.454
  485.500    2.112    0.271    0.563   79.499
  485.750    2.178    0.273    0.556   80.433
  486.000    2.241    0.260    0.529   78.179
  486.250    2.310    0.250    0.506   78.932
  486.500    2.342    0.240    0.528   81.342
  486.750    2.373    0.252    0.538   83.386
  487.000    2.397    0.263    0.535   84.321
  487.250    2.420    0.257    0.542   84.275
  487.500    2.481    0.259    0.557   85.399
  487.750    2.515    0.256    0.549   86.396
  488.000    2.502    0.253    0.547   85.614
  488.250    2.556    0.250    0.562   81.829
  488.500    2.640    0.255    0.565   80.061
  488.750    2.680    0.253    0.553   78.606
  489.000    2.742    0.240    0.542   78.441
  489.250    2.913    0.228    0.463   79.006
  489.500    3.025    0.219    0.462   83.934
  489.750    3.232    0.227    0.464   87.693
  490.000    3.577    0.247    0.463   87.465
  490.250    4.012    0.255    0.464   83.983
  490.500    4.491    0.245    0.464   80.563
  490.750    4.843    0.252    0.442   78.430
  491.000    5.058    0.259    0.431   76.361
  491.250    5.041    0.262    0.441   76.990
  491.500    4.951    0.249    0.456   82.101
  491.750    4.708    0.223    0.468   88.623
  492.000    4.719    0.125    0.467   91.463
  492.250    4.883    0.085    0.435   86.998
  492.500    5.158    0.090    0.404   81.859
  492.750    5.317    0.109    0.390   76.781
  493.000    5.339    0.142    0.441   81.708
  493.250    5.174    0.174    0.466   91.422
  493.500    4.465    0.198    0.480   94.263
  493.750    3.933    0.224    0.487   95.383
  494.000    3.569    0.241    0.494   98.897
  494.250    3.270    0.236    0.501  100.694
  494.500    3.104    0.235    0.519   98.504
  494.750    2.992    0.246    0.545   98.394
  495.000    3.549    0.240    0.568   90.923
  495.250    4.371    0.224    0.547   80.812
  495.500    6.300    0.210    0.414   71.867
  495.750    8.146    0.199    0.384   65.685
  496.000    9.153    0.020    0.362   58.705
  496.250    9.633   -0.011    0.263   53.749
  496.500    8.924    0.104    0.286   57.878
  496.750    7.643    0.189    0.332   63.909
  497.000    5.916    0.228    0.365   66.197
  497.250    4.927    0.235    0.368   66.765
  497.500    4.616    0.234    0.394   67.641
  497.750    4.849    0.248    0.441   59.248
  498.000    5.347    0.262    0.433   54.478
  498.250    5.765    0.277    0.423   51.609
  498.500    6.539    0.293    0.434   52.546
  498.750    7.500    0.298    0.456   56.676
  499.000    8.798    0.308    0.430   62.954
  499.250    9.684    0.302    0.412   69.106
  499.500   10.287    0.295    0.428   75.568
  499.750   10.927    0.292    0.437   74.175
  500.000   11.542    0.301    0.426   70.876
  500.250   11.988    0.307    0.414   67.086
  500.500   12.061    0.312    0.406   65.629
  500.750   11.217    0.314    0.423   70.311
  501.000   10.011    0.301    0.450   75.850
  501.250    8.984    0.293    0.444   81.391
  501.500    7.884    0.289    0.432   84.417
  501.750    6.984    0.286    0.421   86.334
  502.000    6.543    0.275    0.415   88.254
  502.250    6.282    0.263    0.435   82.872
  502.500    6.157    0.253    0.422   79.263
  502.750    6.113    0.246    0.401   75.106
  503.000    6.082    0.238    0.383   73.035
  503.250    6.050    0.231    0.391   71.702
  503.500    6.030    0.227    0.381   68.221
  503.750    6.010    0.220    0.348   68.298
  504.000    6.003    0.213    0.337   73.408
  504.250    6.039    0.208    0.379   84.964
  504.500    6.064    0.219    0.415   92.836
  504.750    6.101    0.240    0.455   91.748
  505.000    6.035    0.256    0.455   83.234
  505.250    5.795    0.257    0.421   74.473
  505.500    5.584    0.263    0.397   64.484
  505.750    5.351    0.279    0.392   38.477
  506.000    5.323    0.299    0.388   31.374
  506.250    5.581    0.284    0.395   43.052
  506.500    5.928    0.269    0.442   58.106
  506.750    6.215    0.273    0.514   77.702
  507.000    6.288    0.287    0.432   67.960
  507.250    6.015    0.297    0.407   56.499
  507.500    5.972    0.301    0.408   50.929
  507.750    6.250    0.121    0.427   53.158
  508.000    6.613    0.055    0.329   56.672
  508.250    7.025    0.053    0.321   60.922
  508.500    7.351    0.120    0.367   69.592
  508.750    7.424    0.171    0.384   82.559
