~VERSION INFORMATION
 VERS.                 2.0:   CWLS LOG ASCII STANDARD -VERSION 2.0
 WRAP.                  NO:   ONE LINE PER DEPTH STEP
~WELL INFORMATION BLOCK
#MNEM.UNIT           DATA                    DESCRIPTION OF MNEMONIC
#---------    -------------------            -------------------------------
# Generated from Intellog Unique Number	CW_73_75/WELL/2734
WELL.         CAVALIER FRANCIS 07-33         : Well_name    - WELL
LOC .         00/07-33-073-20W4/0            : Location     - LOCATION
UWI .         00/07-33-073-20W4/0            : Uwi          - UNIQUE WELL ID
ENTR.         JAYE                           : Entered      - ENTERED BY
SRVC.         SCHLUMBERGER                   : Scn          - SERVICE COMPANY
DATE.         24 MAR 74                      : Date         - LOG DATE
STRT.M        411.48                         : top_depth    - START DEPTH
STOP.M        627.98                         : bot_depth    - STOP DEPTH
STEP.M        0.25                           : increment    - STEP LENGTH
 NULL. -999.2500:NULL Value
~CURVE INFORMATION BLOCK
#MNEM UNIT       ERCB CURVE CODE    CURVE DESCRIPTION
#-----------   ------------------   ----------------------------------
DEPT.M        00 001 00 00         : DEPTH        - DEPTH
ILD .OHMM     00 120 00 00         : RESD         - DEEP RESISTIVITY (DIL)
NPHI.V/V      00 330 00 00         : PHIN         - NEUTRON POROSITY (SANDSTONE)
DPHI.V/V      00 890 00 00         : PHID         - DENSITY POROSITY (SANDSTONE)
GR  .API      00 310 00 00         : GR           - GAMMA RAY
CALI.MM       00 280 01 00         : CAL          - CALIPER
~PARAMETER INFORMATION
#MNEM.UNIT           DATA             DESCRIPTION OF MNEMONIC
#---------         -----------     ------------------------------
GL  .M        719.938              : gl           - GROUND LEVEL ELEVATION
EREF.M        722.986              : kb           - ELEVATION OF DEPTH REFERENCE
DATM.M        719.938              : datum        - DATUM ELEVATION
TDD .M        630.936              : tdd          - TOTAL DEPTH DRILLER
RUN .         ONE                  : Run          - RUN NUMBER
ENG .         CORLE                : Engineer     - RECORDING ENGINEER
WIT .         CONNELLY             : Witness      - WITNESSED BY
BASE.         EDM                  : Branch       - HOME BASE OF LOGGING UNIT
MUD .         GEL CHEM             : Mud_type     - MUD TYPE
MATR.         SANDSTONE            : Logunit      - NEUTRON MATRIX
TMAX.C        30                   : BHT          - MAXIMUM RECORDED TEMPERATURE
BHTD.M        632.155              : BHTDEP       - MAXIMUM RECORDED TEMPERATURE
RMT .C        26.6667              : MDTP         - TEMPERATURE OF MUD
MUDD.KG/M     1116                 : MWT          - MUD DENSITY
NEUT.         1                    : NEUTRON      - NEUTRON TYPE
RESI.         0                    : RESIST       - RESISTIVITY TYPE
RM  .OHMM     4.39                 : RM           - RESISTIVITY OF MUD
RMC .OHMM     0                    : RMC          - RESISTIVITY OF MUD CAKE
RMF .OHMM     4.01                 : RMF          - RESISTIVITY OF MUD FILTRATE
SUFT.C        -17.7778             : SUFT         - SURFACE TEMPERATURE
~A  DEPTH     RESD     PHIN     PHID       GR      CAL
  411.480    2.833    0.541    0.173  103.704  158.238
  411.730    2.997    0.516    0.169  100.178  159.088
  411.980    3.671    0.494    0.167   92.986  159.637
  412.230    4.976    0.515    0.165   85.856  159.765
  412.480    5.179    0.465    0.170   78.419  159.376
  412.730    5.303    0.395    0.190   67.991  158.890
  412.980    5.388    0.330    0.310   60.920  158.288
  413.230    5.433    0.364    0.376   51.347  157.074
  413.480    5.360    0.390    0.353   50.814  156.172
  413.730    5.326    0.407    0.332   52.171  155.672
  413.980    5.450    0.425    0.312   52.736  155.491
  414.230    5.692    0.426    0.292   58.860  155.723
  414.480    5.816    0.392    0.246   68.829  155.954
  414.730    5.823    0.411    0.209   79.349  156.088
  414.980    5.788    0.413    0.185   81.257  156.214
  415.230    5.638    0.363    0.269   79.257  156.757
  415.480    5.525    0.383    0.253   84.281  157.299
  415.730    5.413    0.393    0.252   89.731  157.640
  415.980    5.262    0.383    0.241   91.519  157.869
  416.230    5.149    0.378    0.195   94.405  157.892
  416.480    4.960    0.376    0.179   97.839  158.231
  416.730    4.846    0.395    0.165  101.274  158.672
  416.980    4.616    0.443    0.152  103.609  159.004
  417.230    4.583    0.461    0.181  104.906  159.137
  417.480    4.667    0.442    0.188  107.671  159.055
  417.730    4.949    0.431    0.197  109.273  158.978
  417.980    5.231    0.464    0.214  104.341  158.798
  418.230    5.314    0.464    0.214   98.188  158.310
  418.480    5.164    0.442    0.245   93.684  157.815
  418.730    5.051    0.422    0.233   89.790  157.116
  418.980    4.900    0.392    0.210   87.301  156.518
  419.230    4.749    0.389    0.221   86.278  155.825
  419.480    4.637    0.405    0.213   89.408  155.328
  419.730    4.760    0.424    0.221   94.309  154.733
  419.980    5.199    0.441    0.232   99.210  154.244
  420.230    5.677    0.453    0.216  100.934  154.066
  420.480    6.076    0.480    0.208   98.079  153.984
  420.730    6.318    0.457    0.208   93.942  153.906
  420.980    6.600    0.418    0.205   92.796  153.623
  421.230    6.686    0.396    0.207   94.154  153.649
  421.480    6.730    0.387    0.221   92.704  153.986
  421.730    6.736    0.387    0.231   89.910  154.110
  421.980    6.742    0.382    0.216   90.291  154.033
  422.230    6.747    0.369    0.188   96.537  153.543
  422.480    6.636    0.375    0.217   98.627  153.154
  422.730    6.799    0.372    0.232   94.551  153.180
  422.980    7.198    0.375    0.225   92.611  153.100
  423.230    7.716    0.386    0.210   94.397  152.921
  423.480    7.642    0.403    0.184   96.917  153.255
  423.730    7.176    0.421    0.123   94.611  154.523
  423.980    6.591    0.326    0.072   87.602  156.106
  424.230    6.243    0.274    0.025   76.991  157.057
  424.480    5.974    0.315    0.108   77.250  158.427
  424.730    5.547    0.352    0.142   88.626  160.420
  424.980    5.200    0.390    0.165   96.764  161.374
  425.230    4.969    0.379    0.185   94.213  161.917
  425.480    4.818    0.368    0.171   90.991  162.664
  425.730    4.784    0.371    0.174   98.274  163.830
  425.980    4.829    0.394    0.159  104.091  164.478
  426.230    5.033    0.434    0.131  108.503  164.911
  426.480    5.432    0.421    0.132  104.610  165.561
  426.730    5.713    0.423    0.166  101.449  165.894
  426.980    5.836    0.414    0.188   97.555  166.751
  427.230    5.686    0.398    0.196   92.746  167.394
  427.480    5.534    0.370    0.182   88.608  168.040
  427.730    5.265    0.371    0.175   88.929  168.997
  427.980    5.270    0.378    0.202   91.387  169.435
  428.230    5.355    0.371    0.196   95.128  168.221
  428.480    5.557    0.416    0.169   99.480  164.732
  428.730    5.957    0.463    0.175  104.379  161.859
  428.980    6.436    0.481    0.211  105.433  159.092
  429.230    6.795    0.433    0.192  101.234  155.911
  429.480    7.116    0.375    0.160   94.225  153.456
  429.730    7.279    0.382    0.172   86.728  152.139
  429.980    6.813    0.402    0.185   85.399  151.439
  430.230    6.228    0.375    0.188   82.178  151.157
  430.480    5.447    0.338    0.173   77.368  151.596
  430.730    4.706    0.363    0.226   73.231  152.342
  430.980    4.357    0.368    0.241   74.222  153.509
  431.230    4.207    0.393    0.186   88.773  154.362
  431.480    4.331    0.438    0.165   97.522  155.110
  431.730    4.612    0.516    0.168  105.049  155.859
  431.980    5.129    0.492    0.194  111.050  156.608
  432.230    6.079    0.482    0.198  110.332  157.461
  432.480    7.305    0.483    0.224  107.598  158.212
  432.730    8.333    0.465    0.198  102.606  158.960
  432.980    9.756    0.433    0.182   97.491  158.984
  433.230   10.824    0.384    0.179   92.009  158.183
  433.480   11.146    0.376    0.189   86.345  156.037
  433.730   10.994    0.372    0.181   77.137  153.167
  433.980   10.291    0.374    0.221   68.174  151.228
  434.230    9.471    0.372    0.220   59.518  148.873
  434.480    8.375    0.356    0.203   53.485  146.210
  434.730    7.673    0.370    0.209   54.844  146.134
  434.980    6.538    0.367    0.218   60.234  148.848
  435.230    5.798    0.342    0.199   67.029  152.080
  435.480    5.725    0.381    0.196   80.052  154.378
  435.730    5.966    0.459    0.200   91.855  156.578
  435.980    6.404    0.473    0.199  102.557  157.950
  436.230    6.686    0.462    0.213  111.306  158.701
  436.480    6.691    0.440    0.220  109.123  159.241
  436.730    6.658    0.450    0.221  102.786  159.369
  436.980    6.548    0.458    0.245   93.701  159.602
  437.230    6.473    0.441    0.241   86.876  160.040
  437.480    6.323    0.413    0.230   82.493  160.272
  437.730    5.973    0.424    0.201   84.035  160.509
  437.980    5.391    0.394    0.157   83.501  160.323
  438.230    5.238    0.395    0.213   85.044  160.348
  438.480    5.126    0.429    0.210   90.311  160.270
  438.730    5.054    0.457    0.207   93.379  160.194
  438.980    5.137    0.480    0.212   96.633  160.631
  439.230    5.459    0.490    0.238  100.005  162.831
  439.480    5.622    0.513    0.232  102.341  165.233
  439.730    5.511    0.523    0.218  103.028  167.327
  439.980    5.240    0.503    0.215  104.143  168.903
  440.230    5.011    0.480    0.240  104.341  169.032
  440.480    4.859    0.467    0.256  100.264  165.231
  440.730    4.786    0.461    0.232   96.004  161.120
  440.980    4.950    0.454    0.190   98.279  162.284
  441.230    5.191    0.447    0.235  105.623  166.553
  441.480    6.063    0.446    0.217  112.356  168.128
  441.730    6.855    0.453    0.219  111.027  167.017
  441.980    7.688    0.444    0.243  105.852  164.040
  442.230    8.441    0.460    0.255   98.659  166.342
  442.480    9.273    0.503    0.270   91.163  165.335
  442.730   10.302    0.476    0.287   82.139  162.362
  442.980   11.291    0.476    0.276   81.726  160.008
  443.230   12.635    0.483    0.273   79.299  157.864
  443.480   14.412    0.464    0.268   72.412  156.544
  443.730   14.220    0.443    0.283   68.640  155.431
  443.980   10.882    0.433    0.247   71.038  155.147
  444.230    9.551    0.370    0.181   70.320  155.275
  444.480    8.730    0.290    0.082   64.838  155.715
  444.730    7.910    0.355    0.174   64.489  156.358
  444.980    7.444    0.392    0.266   69.265  156.698
  445.230    7.176    0.474    0.282   74.229  156.824
  445.480    7.063    0.506    0.272   76.687  156.332
  445.730    6.989    0.495    0.285   78.229  155.535
  445.980    6.917    0.463    0.288   78.854  154.935
  446.230    6.806    0.468    0.283   78.624  153.620
  446.480    6.733    0.499    0.262   78.884  152.918
  446.730    6.620    0.491    0.224   79.876  152.325
  446.980    6.469    0.471    0.226   82.091  152.046
  447.230    6.435    0.467    0.232   83.693  151.961
  447.480    6.560    0.483    0.241   86.517  151.989
  447.730    6.801    0.513    0.251   91.724  152.324
