~VERSION INFORMATION
 VERS.                 2.0:   CWLS LOG ASCII STANDARD -VERSION 2.0
 WRAP.                  NO:   ONE LINE PER DEPTH STEP
~WELL INFORMATION BLOCK
#MNEM.UNIT           DATA                    DESCRIPTION OF MNEMONIC
#---------    -------------------            -------------------------------
# Generated from Intellog Unique Number	CW_79_81/WELL/2441
WELL.         01-32-080-22W4                 : Well_name    - WELL
LOC .         AA/01-32-080-22W4/0            : Location     - LOCATION
UWI .         AA/01-32-080-22W4/0            : Uwi          - UNIQUE WELL ID
ENTR.         MAX                            : Entered      - ENTERED BY
SRVC.         SCHLUMBERGER                   : Scn          - SERVICE COMPANY
STRT.M        220                            : top_depth    - START DEPTH
STOP.M        439.75                         : bot_depth    - STOP DEPTH
STEP.M        0.25                           : increment    - STEP LENGTH
 NULL. -999.2500:NULL Value
~CURVE INFORMATION BLOCK
#MNEM UNIT       ERCB CURVE CODE    CURVE DESCRIPTION
#-----------   ------------------   ----------------------------------
DEPT.M        00 001 00 00         : DEPTH        - DEPTH
ILD .OHMM     00 120 00 00         : RESD         - DEEP RESISTIVITY (DIL)
NPHI.V/V      00 330 00 00         : PHIN         - NEUTRON POROSITY (SANDSTONE)
DPHI.V/V      00 890 00 00         : PHID         - DENSITY POROSITY (SANDSTONE)
GR  .API      00 310 00 00         : GR           - GAMMA RAY
CALI.MM       00 280 01 00         : CAL          - CALIPER
~PARAMETER INFORMATION
#MNEM.UNIT           DATA             DESCRIPTION OF MNEMONIC
#---------         -----------     ------------------------------
GL  .M        588.6                : gl           - GROUND LEVEL ELEVATION
EREF.M        592.9                : kb           - ELEVATION OF DEPTH REFERENCE
DATM.M        588.6                : datum        - DATUM ELEVATION
TDD .M        443                  : tdd          - TOTAL DEPTH DRILLER
RUN .         ONE                  : Run          - RUN NUMBER
ENG .         BILL                 : Engineer     - RECORDING ENGINEER
WIT .         JIM                  : Witness      - WITNESSED BY
MUD .         GEL                  : Mud_type     - MUD TYPE
MATR.         SANDSTONE            : Logunit      - NEUTRON MATRIX
TMAX.C        27                   : BHT          - MAXIMUM RECORDED TEMPERATURE
BHTD.M        443                  : BHTDEP       - MAXIMUM RECORDED TEMPERATURE
MATR.         1                    : LOGUNIT      - NEUTRON MATRIX
RMT .C        15.6                 : MDTP         - TEMPERATURE OF MUD
NEUT.         1                    : NEUTRON      - NEUTRON TYPE
RESI.         0                    : RESIST       - RESISTIVITY TYPE
RMC .OHMM     3.23                 : RMC          - RESISTIVITY OF MUD CAKE
RMF .OHMM     4.36                 : RMF          - RESISTIVITY OF MUD FILTRATE
SUFT.C        -5                   : SUFT         - SURFACE TEMPERATURE
~A  DEPTH     RESD     PHIN     PHID       GR      CAL
# ...
  402.500   77.803    0.362    0.292   50.147  211.136
  402.750   63.041    0.366    0.288   52.474  211.306
  403.000   50.105    0.367    0.284   53.661  212.478
  403.250   43.495    0.368    0.284   53.865  212.419
  403.500   40.714    0.371    0.282   54.422  212.361
  403.750   38.941    0.377    0.281   55.567  212.501
  404.000   37.664    0.384    0.283   57.182  212.940
  404.250   37.572    0.386    0.290   59.185  213.659
  404.500   37.252    0.389    0.292   61.112  213.592
  404.750   36.945    0.394    0.285   63.198  213.926
  405.000   35.846    0.401    0.284   66.167  213.671
  405.250   34.021    0.404    0.283   69.197  213.419
  405.500   31.473    0.400    0.277   72.111  213.559
  405.750   27.279    0.388    0.254   75.763  214.516
  406.000   23.311    0.372    0.223   77.691  215.695
  406.250   19.341    0.348    0.201   79.540  217.594
  406.500   17.639    0.330    0.159   84.751  218.913
  406.750   16.065    0.324    0.126   90.610  220.035
  407.000   14.213    0.334    0.118   95.643  221.058
  407.250   11.914    0.366    0.142  100.193  221.941
  407.500    9.960    0.391    0.169  103.105  222.692
  407.750    8.018    0.402    0.182  104.245  223.032
  408.000    7.146    0.404    0.185  104.685  223.368
  408.250    7.042    0.407    0.184  103.475  223.895
  408.500    7.924    0.410    0.184   98.374  224.521
  408.750   11.849    0.403    0.197   84.709  224.604
  409.000   14.243    0.393    0.211   79.027  223.322
  409.250   16.758    0.382    0.211   79.224  219.723
  409.500   17.519    0.367    0.197   81.196  218.190
  409.750   16.536    0.360    0.182   87.291  218.527
  410.000   14.581    0.369    0.168   95.916  220.338
  410.250   12.035    0.408    0.153  102.514  223.016
  410.500   10.589    0.414    0.167  107.387  222.948
  410.750   10.201    0.409    0.168  108.769  222.902
  411.000   10.212    0.413    0.181  103.249  223.426
  411.250   11.326    0.422    0.195   95.435  223.760
  411.500   13.968    0.429    0.205   86.157  223.614
  411.750   17.989    0.427    0.220   70.725  222.663
  412.000   24.729    0.402    0.237   62.097  220.135
  412.250   34.216    0.389    0.252   68.424  218.898
  412.500   38.028    0.384    0.254   71.391  219.138
  412.750   37.437    0.381    0.252   72.771  220.657
  413.000   35.660    0.381    0.248   73.978  222.468
  413.250   32.657    0.390    0.241   76.156  222.709
  413.500   31.416    0.386    0.235   76.613  222.245
  413.750   33.254    0.365    0.232   75.632  221.794
  414.000   35.765    0.353    0.225   73.419  221.043
  414.250   37.639    0.341    0.216   70.911  220.589
  414.500   38.300    0.325    0.201   69.344  220.530
  414.750   37.750    0.308    0.175   70.928  220.544
  415.000   34.215    0.300    0.156   74.332  220.904
  415.250   29.485    0.331    0.127   80.897  221.232
  415.500   23.257    0.357    0.142   86.926  221.266
  415.750   17.381    0.372    0.168   91.370  221.404
  416.000   12.993    0.377    0.182   94.876  221.940
  416.250    9.707    0.386    0.173   99.927  223.134
  416.500    8.175    0.410    0.184  100.630  223.476
  416.750    7.044    0.426    0.199   99.420  223.423
  417.000    6.473    0.424    0.203   96.615  223.072
  417.250    6.219    0.419    0.203   92.099  222.620
  417.500    6.234    0.417    0.196   86.584  221.580
  417.750    6.789    0.403    0.176   80.418  219.088
  418.000    7.909    0.355    0.162   74.490  220.670
  418.250    8.675    0.306    0.146   79.642  221.783
  418.500    9.031    0.323    0.141   89.387  221.723
  418.750    8.922    0.379    0.145   95.245  221.272
  419.000    8.565    0.443    0.174   94.505  221.018
  419.250    8.374    0.491    0.277   89.043  221.429
  419.500    8.690    0.550    0.371   83.111  221.783
  419.750    8.811    0.575    0.425   81.423  222.112
  420.000    8.643    0.580    0.435   82.747  220.967
  420.250    8.042    0.568    0.425   92.261  219.540
  420.500    7.267    0.546    0.404  106.072  219.197
  420.750    6.706    0.521    0.359  111.757  221.963
  421.000    6.701    0.526    0.283  114.417  224.363
  421.250    7.042    0.518    0.261  112.500  224.304
  421.500    7.480    0.498    0.245  110.225  224.245
  421.750    8.007    0.476    0.223  107.006  224.190
  422.000    8.471    0.458    0.206  104.496  224.137
  422.250    8.389    0.446    0.224  106.866  224.071
  422.500    7.776    0.443    0.218  108.306  224.004
  422.750    7.545    0.447    0.204  107.100  223.160
  423.000    7.689    0.453    0.193  102.704  222.021
  423.250    8.464    0.452    0.198   96.069  220.787
  423.500   10.011    0.442    0.222   89.613  219.456
  423.750   12.409    0.427    0.261   86.772  217.325
  424.000   16.137    0.412    0.316   84.527  214.815
  424.250   21.033    0.412    0.304   83.781  213.971
  424.500   25.392    0.408    0.301   85.517  214.006
  424.750   28.294    0.405    0.307   91.374  214.730
  425.000   29.049    0.403    0.313   99.465  216.048
  425.250   26.768    0.404    0.310  105.216  218.111
  425.500   24.811    0.408    0.302  109.352  218.875
  425.750   20.589    0.420    0.290  112.619  219.988
  426.000   17.524    0.422    0.277  115.531  220.223
  426.250   15.272    0.417    0.261  118.912  220.557
  426.500   13.689    0.406    0.242  123.531  221.282
  426.750   12.763    0.390    0.219  130.431  222.072
  427.000   12.947    0.374    0.205  132.116  222.414
  427.250   12.932    0.377    0.194  134.434  222.378
  427.500   12.085    0.376    0.186  137.113  222.031
  427.750   11.152    0.375    0.184  141.441  221.770
  428.000   10.425    0.374    0.183  146.236  221.801
  428.250    9.840    0.378    0.175  147.597  222.205
  428.500    9.539    0.395    0.161  146.329  222.553
  428.750    9.524    0.401    0.168  143.002  222.512
  429.000    9.518    0.393    0.176  137.900  222.458
  429.250    9.684    0.384    0.182  132.325  222.393
  429.500   10.051    0.380    0.188  126.341  222.327
  429.750   10.690    0.379    0.195  116.941  222.263
  430.000   11.796    0.376    0.206  107.822  222.208
  430.250   12.937    0.372    0.210  104.724  222.144
  430.500   13.904    0.362    0.216  102.681  222.088
  430.750   14.676    0.357    0.220  101.585  222.226
  431.000   15.265    0.358    0.220  100.377  222.460
  431.250   15.746    0.358    0.218   96.249  222.482
  431.500   15.969    0.353    0.224   92.282  222.824
  431.750   15.956    0.349    0.225   93.185  223.152
  432.000   15.940    0.350    0.219   94.802  223.190
  432.250   15.810    0.353    0.207   96.539  223.135
  432.500   15.424    0.358    0.194   98.216  223.180
  432.750   14.578    0.371    0.193  100.395  223.587
  433.000   14.237    0.385    0.190  102.076  223.923
  433.250   14.436    0.392    0.191  103.226  223.876
  433.500   15.432    0.395    0.185  101.190  223.816
  433.750   16.879    0.393    0.182   97.502  223.754
  434.000   18.294    0.390    0.191   93.461  223.697
  434.250   18.953    0.389    0.223   89.674  223.635
  434.500   18.937    0.386    0.242   87.428  223.586
  434.750   18.508    0.381    0.261   80.092  223.527
  435.000   18.286    0.375    0.255   74.871  223.460
  435.250   17.536    0.373    0.252   73.657  223.398
  435.500   16.108    0.374    0.255   76.217  223.247
  435.750   14.010    0.364    0.239   80.966  222.790
  436.000   12.510    0.352    0.225   84.861  222.729
  436.250   12.319    0.350    0.222   87.889  222.676
  436.500   12.331    0.353    0.213   91.980  222.913
  436.750   12.229    0.357    0.200   96.660  223.242
  437.000   11.909    0.356    0.191  100.748  223.470
  437.250   11.422    0.329    0.195  102.503  223.408
  437.500   11.154    0.261    0.173  103.206  223.359
  437.750   11.146    0.242    0.152  102.229  223.300
  438.000   11.137    0.232    0.121  101.251  222.947
  438.250   10.923    0.228    0.106  100.862  222.689
  438.500   10.504    0.227    0.109  101.297  222.626
  438.750   10.062    0.226    0.113  102.283  222.637
