~VERSION INFORMATION
 VERS.                 2.0:   CWLS LOG ASCII STANDARD -VERSION 2.0
 WRAP.                  NO:   ONE LINE PER DEPTH STEP
~WELL INFORMATION BLOCK
#MNEM.UNIT           DATA                    DESCRIPTION OF MNEMONIC
#---------    -------------------            -------------------------------
# Generated from Intellog Unique Number	CW_73_75/WELL/3519
WELL.         PINNACLE RESOURCES             : Well_name    - WELL
LOC .         00/04-05-074-02W5/0            : Location     - LOCATION
UWI .         00/04-05-074-02W5/0            : Uwi          - UNIQUE WELL ID
ENTR.         T                              : Entered      - ENTERED BY
SRVC.         SCHLUMBERGER                   : Scn          - SERVICE COMPANY
STRT.M        390                            : top_depth    - START DEPTH
STOP.M        655                            : bot_depth    - STOP DEPTH
STEP.M        0.25                           : increment    - STEP LENGTH
 NULL. -999.2500:NULL Value
~CURVE INFORMATION BLOCK
#MNEM UNIT       ERCB CURVE CODE    CURVE DESCRIPTION
#-----------   ------------------   ----------------------------------
DEPT.M        00 001 00 00         : DEPTH        - DEPTH
ILD .OHMM     00 120 00 00         : RESD         - DEEP RESISTIVITY (DIL)
DPHI.V/V      00 890 00 00         : PHID         - DENSITY POROSITY (SANDSTONE)
NPHI.V/V      00 330 00 00         : PHIN         - NEUTRON POROSITY (SANDSTONE)
GR  .API      00 310 00 00         : GR           - GAMMA RAY
~PARAMETER INFORMATION
#MNEM.UNIT           DATA             DESCRIPTION OF MNEMONIC
#---------         -----------     ------------------------------
GL  .M        665                  : gl           - GROUND LEVEL ELEVATION
EREF.M        669.22               : kb           - ELEVATION OF DEPTH REFERENCE
DATM.M        669.22               : datum        - DATUM ELEVATION
TDD .M        670                  : tdd          - TOTAL DEPTH DRILLER
RUN .         ONE                  : Run          - RUN NUMBER
ENG .         BILL                 : Engineer     - RECORDING ENGINEER
WIT .         JIM                  : Witness      - WITNESSED BY
MUD .         GEL                  : Mud_type     - MUD TYPE
MATR.         SANDSTONE            : Logunit      - NEUTRON MATRIX
TMAX.C        30                   : BHT          - MAXIMUM RECORDED TEMPERATURE
BHTD.M        670                  : BHTDEP       - MAXIMUM RECORDED TEMPERATURE
RMT .C        30                   : MDTP         - TEMPERATURE OF MUD
MUDD.KG/M     1120                 : MWT          - MUD DENSITY
NEUT.         1                    : NEUTRON      - NEUTRON TYPE
RESI.         0                    : RESIST       - RESISTIVITY TYPE
RM  .OHMM     3.1                  : RM           - RESISTIVITY OF MUD
RMC .OHMM     0.29                 : RMC          - RESISTIVITY OF MUD CAKE
RMF .OHMM     2.26                 : RMF          - RESISTIVITY OF MUD FILTRATE
SUFT.C        4                    : SUFT         - SURFACE TEMPERATURE
~A  DEPTH     RESD     PHID     PHIN       GR
# ...
  564.000    4.389    0.211    0.379   87.914
  564.250    4.380    0.221    0.385   84.955
  564.500    4.214    0.227    0.390   84.324
  564.750    4.050    0.220    0.389   81.948
  565.000    3.971    0.201    0.387   74.321
  565.250    3.893    0.195    0.386   74.260
  565.500    3.811    0.190    0.391   78.296
  565.750    3.805    0.189    0.397   84.649
  566.000    3.868    0.198    0.407   88.674
  566.250    3.932    0.219    0.415   91.534
  566.500    3.997    0.227    0.425   89.157
  566.750    4.136    0.247    0.426   82.113
  567.000    4.207    0.264    0.421   76.838
  567.250    4.274    0.278    0.415   83.191
  567.500    4.266    0.288    0.396   68.581
  567.750    4.182    0.301    0.393   62.130
  568.000    4.172    0.307    0.387   52.757
  568.250    4.164    0.300    0.384   55.036
  568.500    4.156    0.292    0.377   54.987
  568.750    4.224    0.276    0.354   51.446
  569.000    4.296    0.280    0.360   49.651
  569.250    4.288    0.293    0.386   54.840
  569.500    4.359    0.282    0.393   53.033
  569.750    4.426    0.267    0.397   52.984
  570.000    4.418    0.275    0.402   54.681
  570.250    4.493    0.288    0.402   54.631
  570.500    4.482    0.292    0.399   54.000
  570.750    4.473    0.294    0.392   54.533
  571.000    4.385    0.295    0.390   55.054
  571.250    4.217    0.288    0.387   55.017
  571.500    4.134    0.278    0.389   54.374
  571.750    3.973    0.267    0.391   56.653
  572.000    3.895    0.272    0.395   56.022
  572.250    3.748    0.280    0.400   54.809
  572.500    3.671    0.289    0.405   54.760
  572.750    3.665    0.290    0.401   57.038
  573.000    3.590    0.294    0.395   59.317
  573.250    3.584    0.299    0.381   57.535
  573.500    3.644    0.299    0.344   53.981
  573.750    3.704    0.286    0.314   52.756
  574.000    3.765    0.215    0.269   50.949
  574.250    3.898    0.115    0.239   49.761
  574.500    4.587    0.098    0.219   48.548
  574.750    4.333    0.089    0.268   47.335
  575.000    4.093    0.099    0.311   45.528
  575.250    3.939    0.175    0.340   48.388
  575.500    3.517    0.228    0.371   51.843
  575.750    3.448    0.272    0.399   56.450
  576.000    3.317    0.282    0.420   56.401
  576.250    3.373    0.287    0.438   55.757
  576.500    3.621    0.286    0.410   54.544
  576.750    3.817    0.274    0.403   52.749
  577.000    3.954    0.260    0.379   50.942
  577.250    4.021    0.230    0.374   49.742
  577.500    4.011    0.216    0.402   49.086
  577.750    4.003    0.245    0.412   49.062
  578.000    3.923    0.263    0.424   49.594
  578.250    3.915    0.271    0.400   51.291
  578.500    3.838    0.280    0.383   58.808
  578.750    3.757    0.280    0.373   59.340
  579.000    3.680    0.281    0.378   59.291
  579.250    3.610    0.277    0.404   60.988
  579.500    3.535    0.251    0.415   67.923
  579.750    3.530    0.245    0.424   67.292
  580.000    3.523    0.238    0.430   60.247
  580.250    3.516    0.213    0.420   72.431
  580.500    3.509    0.197    0.402   84.021
  580.750    3.566    0.183    0.401   92.701
  581.000    3.625    0.190    0.411   89.161
  581.250    3.617    0.194    0.412   81.546
  581.500    3.745    0.191    0.407   78.575
  581.750    3.807    0.187    0.401   75.616
  582.000    3.870    0.187    0.397   72.063
  582.250    4.007    0.192    0.396   70.268
  582.500    4.147    0.197    0.396   71.965
  582.750    4.217    0.199    0.397   68.424
  583.000    4.445    0.202    0.391   67.781
  583.250    4.521    0.206    0.387   71.818
  583.500    4.678    0.209    0.385   74.109
  583.750    4.841    0.196    0.386   69.392
  584.000    5.015    0.185    0.384   65.839
  584.250    5.192    0.185    0.379   69.294
  584.500    5.576    0.184    0.374   73.888
  584.750    6.097    0.178    0.369   74.421
  585.000    6.319    0.169    0.365   74.966
  585.250    6.913    0.140    0.355   77.245
  585.500    7.841    0.116    0.322   80.663
  585.750    8.430    0.095    0.311   80.639
  586.000    8.102    0.070    0.298   75.352
  586.250    7.243    0.059    0.282   61.906
  586.500    6.354    0.128    0.290   62.439
  586.750    6.120    0.154    0.343   76.356
  587.000    5.675    0.171    0.368   76.307
  587.250    5.258    0.191    0.380   72.767
  587.500    5.061    0.195    0.379   73.882
  587.750    4.867    0.190    0.377   76.742
  588.000    4.771    0.177    0.371   79.603
  588.250    4.673    0.169    0.367   82.464
  588.500    4.579    0.168    0.374   83.566
  588.750    4.572    0.156    0.382   88.185
  589.000    4.564    0.162    0.390   89.300
  589.250    4.639    0.186    0.392   86.911
  589.500    4.630    0.206    0.392   83.952
  589.750    4.619    0.196    0.391   80.981
  590.000    4.609    0.175    0.389   79.768
  590.250    4.598    0.160    0.390   79.731
  590.500    4.598    0.161    0.389   80.846
  590.750    5.203    0.158    0.389   83.125
  591.000    5.101    0.157    0.389   85.985
  591.250    5.096    0.156    0.388   86.506
  591.500    5.083    0.159    0.383   84.141
  591.750    5.167    0.160    0.378   81.765
  592.000    5.253    0.160    0.374   76.478
  592.250    5.245    0.161    0.370   82.249
  592.500    5.332    0.164    0.370   89.765
  592.750    5.420    0.164    0.373   92.043
  593.000    5.611    0.159    0.374   93.134
  593.250    5.698    0.155    0.372   93.109
  593.500    5.903    0.155    0.369   93.630
  593.750    6.225    0.156    0.365   88.913
  594.000    6.809    0.161    0.363   91.180
  594.250    7.314    0.165    0.361   92.901
  594.500    7.859    0.172    0.358   92.852
  594.750    8.748    0.182    0.357   89.311
  595.000    9.066    0.192    0.356   82.848
  595.250    9.216    0.190    0.354   78.713
  595.500    9.031    0.183    0.355   78.677
  595.750    8.840    0.180    0.355   80.361
  596.000    8.823    0.174    0.356   80.894
  596.250    8.650    0.167    0.356   79.693
  596.500    8.624    0.161    0.355   76.734
  596.750    8.459    0.155    0.354   73.194
  597.000    8.439    0.155    0.353   74.890
  597.250    8.426    0.165    0.351   80.079
  597.500    8.406    0.173    0.347   84.103
  597.750    8.393    0.166    0.342   81.727
  598.000    8.528    0.159    0.338   72.354
  598.250    8.833    0.154    0.335   69.953
  598.500    9.478    0.165    0.335   72.838
  598.750    9.644    0.180    0.338   77.445
  599.000   10.165    0.170    0.343   75.650
  599.250   10.530    0.145    0.342   73.842
  599.500   10.698    0.175    0.339   73.793
  599.750    9.922    0.175    0.330   73.162
  600.000    9.202    0.164    0.329   73.695
  600.250    8.534    0.154    0.337   77.150
  600.500    7.770    0.152    0.341   85.249
  600.750    7.340    0.148    0.354   91.601
  601.000    7.192    0.145    0.349   96.207
  601.250    7.311    0.138    0.341   97.322
  601.500    7.852    0.114    0.328   93.200
  601.750    8.590    0.112    0.312   89.077
  602.000    9.744    0.104    0.306   82.602
  602.250   10.270    0.052    0.302   79.073
  602.500   10.450    0.062    0.302   72.623
  602.750   10.622    0.084    0.307   64.414
  603.000   10.787    0.110    0.328   70.185
  603.250   10.771    0.122    0.351   77.701
  603.500   10.750    0.136    0.357   82.889
  603.750   10.724    0.152    0.358   79.349
  604.000   10.317    0.172    0.337   74.062
  604.250    9.056    0.125    0.329   69.939
  604.500    8.250    0.111    0.303   66.968
  604.750    7.238    0.120    0.323   66.931
  605.000    7.092    0.136    0.347   77.939
  605.250    6.946    0.151    0.372   81.952
  605.500    6.936    0.147    0.377   83.067
  605.750    6.916    0.140    0.355   83.600
  606.000    6.909    0.138    0.351   82.387
  606.250    7.020    0.151    0.348   81.174
  606.500    7.009    0.158    0.343   81.707
  606.750    6.992    0.151    0.344   82.240
  607.000    6.975    0.140    0.344   80.445
  607.250    6.968    0.134    0.342   75.740
