~VERSION INFORMATION
 VERS.                 2.0:   CWLS LOG ASCII STANDARD -VERSION 2.0
 WRAP.                  NO:   ONE LINE PER DEPTH STEP
~WELL INFORMATION BLOCK
#MNEM.UNIT           DATA                    DESCRIPTION OF MNEMONIC
#---------    -------------------            -------------------------------
# Generated from Intellog Unique Number	CN_91_93/WELL/3007
WELL.         05-25-093-20W4                 : Well_name    - WELL
LOC .         00/05-25-093-20W4/0            : Location     - LOCATION
UWI .         00/05-25-093-20W4/0            : Uwi          - UNIQUE WELL ID
ENTR.         JOETTE                         : Entered      - ENTERED BY
SRVC.         SCHLUMBERGER                   : Scn          - SERVICE COMPANY
DATE.         04/09/92                       : Date         - LOG DATE
STRT.F        350                            : top_depth    - START DEPTH
STOP.F        850.328                        : bot_depth    - STOP DEPTH
STEP.F        0.82                           : increment    - STEP LENGTH
 NULL. -999.2500:NULL Value
~CURVE INFORMATION BLOCK
#MNEM UNIT       ERCB CURVE CODE    CURVE DESCRIPTION
#-----------   ------------------   ----------------------------------
DEPT.F        00 001 00 00         : DEPTH        - DEPTH
CALI.IN       00 280 01 00         : CAL          - CALIPER
GR  .API      00 310 00 00         : GR           - GAMMA RAY
NPHI.V/V      00 330 00 00         : PHIN         - NEUTRON POROSITY (SANDSTONE)
DPHI.V/V      00 890 00 00         : PHID         - DENSITY POROSITY (SANDSTONE)
ILD .OHMM     00 120 00 00         : RESD         - DEEP RESISTIVITY (DIL)
~PARAMETER INFORMATION
#MNEM.UNIT           DATA             DESCRIPTION OF MNEMONIC
#---------         -----------     ------------------------------
GL  .M        534.01               : gl           - GROUND LEVEL ELEVATION
EREF.M        535.534              : kb           - ELEVATION OF DEPTH REFERENCE
DATM.M        535.534              : datum        - DATUM ELEVATION
TDD .M        261.518              : tdd          - TOTAL DEPTH DRILLER
RUN .         ONE                  : Run          - RUN NUMBER
ENG .         BILL                 : Engineer     - RECORDING ENGINEER
WIT .         JIM                  : Witness      - WITNESSED BY
MUD .         GEL                  : Mud_type     - MUD TYPE
MATR.         SANDSTONE            : Logunit      - NEUTRON MATRIX
TMAX.F        84                   : BHT          - MAXIMUM RECORDED TEMPERATURE
BHTD.F        858                  : BHTDEP       - MAXIMUM RECORDED TEMPERATURE
RMT .F        98                   : MDTP         - TEMPERATURE OF MUD
MUDD.LB/G     9.5                  : MWT          - MUD DENSITY
NEUT.         1                    : NEUTRON      - NEUTRON TYPE
RESI.         0                    : RESIST       - RESISTIVITY TYPE
RM  .OHMM     1.4                  : RM           - RESISTIVITY OF MUD
RMC .OHMM     1.4                  : RMC          - RESISTIVITY OF MUD CAKE
RMF .OHMM     1.4                  : RMF          - RESISTIVITY OF MUD FILTRATE
SUFT.F        -4                   : SUFT         - SURFACE TEMPERATURE
~A  DEPTH      CAL       GR     PHIN     PHID     RESD
# ...
  709.252    6.726   73.100    0.303    0.076   19.175
  710.072    6.550   72.520    0.309    0.096   25.632
  710.892    6.414   75.165    0.279    0.065   24.938
  711.713    6.649   82.798    0.263    0.100   19.338
  712.533    6.669   93.948    0.363    0.177   15.409
  713.353    6.474  105.978    0.385    0.210   13.444
  714.173    6.474  109.798    0.388    0.199   12.500
  714.993    6.495   97.489    0.393    0.199   11.728
  715.814    6.299   91.338    0.414    0.201   11.308
  716.634    6.124   79.322    0.423    0.218   10.902
  717.454    6.242   78.743    0.427    0.217   10.900
  718.274    6.223   79.629    0.409    0.205   11.097
  719.094    6.204   74.651    0.394    0.189   12.039
  719.915    6.185   69.382    0.382    0.172   12.943
  720.735    6.165   66.749    0.377    0.152   14.042
  721.555    6.146   64.704    0.352    0.122   15.096
  722.375    6.460   66.469    0.302    0.109   14.164
  723.196    6.597   72.342    0.325    0.169   15.228
  724.016    6.265   75.869    0.356    0.188   15.645
  724.836    6.148   74.116    0.343    0.136   14.546
  725.656    6.364   71.484    0.309    0.105   14.412
  726.476    6.521   75.597    0.322    0.143   12.349
  727.297    6.502   82.349    0.363    0.176   10.296
  728.117    6.483   88.807    0.436    0.166    8.822
  728.937    6.561   87.641    0.457    0.146    8.278
  729.757    6.718   88.824    0.460    0.149    8.427
  730.577    6.816   91.176    0.471    0.197    8.897
  731.398    6.856   93.822    0.461    0.196    9.478
  732.218    6.857   92.657    0.445    0.200    9.650
  733.038    6.818   92.078    0.468    0.201    9.736
  733.858    6.760   92.377    0.486    0.186    9.473
  734.678    6.819   93.851    0.481    0.176    9.051
  735.499    6.859   96.790    0.499    0.189    9.469
  736.319    6.879  100.316    0.506    0.177   10.180
  737.139    6.840  100.910    0.487    0.160    9.994
  737.959    6.801  100.038    0.459    0.129    9.813
  738.780    6.802   99.165    0.468    0.136   10.174
  739.600    6.822   96.240    0.492    0.180   10.547
  740.420    6.822   91.262    0.475    0.167    9.807
  741.240    6.823   91.270    0.454    0.185    9.541
  742.060    6.823   94.795    0.448    0.207    9.626
  742.881    6.902   95.095    0.475    0.194    9.624
  743.701    6.805   91.583    0.457    0.182    8.708
  744.521    7.001   93.644    0.454    0.180    8.549
  745.341    6.923   90.719    0.458    0.165    9.275
  746.161    6.767   87.207    0.440    0.125    8.782
  746.982    6.748   88.681    0.413    0.097    8.390
  747.802    6.827   93.087    0.453    0.171    8.542
  748.622    6.944   96.613    0.465    0.203    8.541
  749.442    6.964   99.847    0.469    0.199    8.616
  750.262    6.926  101.026    0.464    0.195    8.772
  751.083    6.907  101.914    0.455    0.193    9.095
  751.903    6.907   99.575    0.450    0.202    9.690
  752.723    6.908   96.063    0.423    0.170   10.705
  753.543    6.810   91.084    0.389    0.102   11.934
  754.364    6.694   87.572    0.365    0.047   10.604
  755.184    6.792   92.565    0.384    0.140    9.252
  756.004    6.929  102.836    0.462    0.185    8.524
  756.824    6.910  107.242    0.480    0.182    7.304
  757.644    6.832  107.248    0.473    0.179    6.431
  758.465    6.892  104.618    0.475    0.179    5.872
  759.285    7.029  104.918    0.505    0.176    5.978
  760.105    7.010  104.631    0.520    0.187    6.427
  760.925    6.913   93.788    0.543    0.198    7.036
  761.745    6.894   82.652    0.519    0.215    8.061
  762.566    6.855   64.478    0.470    0.240    8.986
  763.386    6.621   40.732    0.424    0.269   10.018
  764.206    6.328   32.236    0.433    0.299   10.481
  765.026    6.133   27.844    0.391    0.296    9.657
  765.846    6.114   23.453    0.371    0.297    9.227
  766.667    6.193   22.580    0.371    0.308    9.058
  767.487    6.174   22.880    0.363    0.307    9.057
  768.307    6.135   24.355    0.366    0.307    9.221
  769.127    6.116   26.416    0.387    0.311   10.095
  769.948    6.097   27.887    0.418    0.308   11.884
  770.768    6.097   29.361    0.455    0.316   15.742
  771.588    6.078   32.008    0.487    0.309   23.465
  772.408    6.079   33.481    0.458    0.314   40.077
  773.228    6.118   33.195    0.431    0.319   66.610
  774.049    6.197   34.961    0.427    0.317   95.745
  774.869    6.276   34.382    0.469    0.319   91.479
  775.689    6.315   36.736    0.487    0.318   83.522
  776.509    6.355   35.865    0.501    0.328   82.003
  777.329    6.355   34.697    0.497    0.336   78.349
  778.150    6.356   32.652    0.473    0.334   74.855
  778.970    6.376   31.193    0.466    0.328   74.840
  779.790    6.376   29.735    0.476    0.322   76.195
  780.610    6.396   27.690    0.458    0.314   79.712
  781.430    6.397   27.110    0.447    0.317   80.427
  782.251    6.417   27.409    0.469    0.309   81.141
  783.071    6.476   25.071    0.488    0.302   79.665
  783.891    6.515   23.319    0.468    0.302   80.375
  784.711    6.555   24.206    0.433    0.309   85.630
  785.531    6.614   28.318    0.420    0.309   84.839
  786.352    6.654   32.724    0.422    0.307   76.066
  787.172    6.674   36.543    0.426    0.312   73.339
  787.992    6.694   39.776    0.456    0.315   68.811
  788.812    6.694   40.371    0.487    0.313   63.398
  789.633    6.675   41.258    0.498    0.320   58.948
  790.453    6.617   43.024    0.490    0.314   52.854
  791.273    6.559   45.377    0.476    0.308   48.258
  792.093    6.462   45.384    0.471    0.301   42.878
  792.913    6.462   42.166    0.474    0.295   39.150
  793.734    6.521   41.293    0.462    0.304   36.072
  794.554    6.541   44.233    0.472    0.306   33.235
  795.374    6.600   45.999    0.467    0.301   31.182
  796.194    6.562   43.074    0.453    0.290   29.793
  797.014    6.308   42.495    0.459    0.303   28.207
  797.835    6.191   43.677    0.451    0.307   27.197
  798.655    6.153   46.909    0.446    0.308   24.384
  799.475    6.153   50.141    0.465    0.290   22.467
  800.295    6.193   56.307    0.481    0.272   20.328
  801.115    6.252   61.300    0.496    0.252   18.227
  801.936    6.428   62.186    0.521    0.221   15.617
  802.756    6.605   63.953    0.504    0.223   13.382
  803.576    6.429   68.359    0.424    0.204   12.218
  804.396    6.293   67.779    0.447    0.205   13.376
  805.217    6.235   61.628    0.471    0.229   15.324
  806.037    6.333   57.823    0.489    0.248   17.396
  806.857    6.529   56.658    0.482    0.272   19.218
  807.677    6.627   57.839    0.473    0.280   20.661
  808.497    6.647   60.192    0.506    0.285   21.616
  809.318    6.648   61.665    0.519    0.283   21.031
  810.138    6.668   63.140    0.513    0.284   19.553
  810.958    6.668   66.079    0.513    0.282   18.682
  811.778    6.688   71.364    0.517    0.256   18.343
  812.598    6.747   76.942    0.517    0.237   19.542
  813.419    6.787   90.733    0.439    0.221   21.786
  814.239    6.553   93.966    0.339    0.176   24.733
  815.059    6.280   87.521    0.215    0.024   27.324
  815.879    6.613   62.895    0.201    0.011   28.847
  816.699    6.750   58.505    0.207    0.045   28.581
  817.520    6.770   64.963    0.216    0.053   25.625
  818.340    6.712   70.542    0.233    0.045   22.769
  819.160    6.693   72.310    0.241    0.034   20.601
  819.980    6.654   74.076    0.257    0.045   19.154
  820.801    6.635   79.654    0.268    0.060   17.331
  821.621    6.635   79.955    0.263    0.069   15.399
  822.441    6.558   84.654    0.271    0.071   13.806
  823.261    6.441   86.128    0.301    0.067   13.311
  824.081    6.598   86.721    0.309    0.064   13.069
  824.902    6.774   88.781    0.320    0.064   12.832
  825.722    6.951   91.428    0.339    0.063   12.039
  826.542    7.029   94.367    0.354    0.082   11.093
  827.362    7.010  101.119    0.359    0.099   10.036
  828.182    7.011  102.299    0.354    0.109    8.918
