~VERSION INFORMATION
 VERS.                 2.0:   CWLS LOG ASCII STANDARD -VERSION 2.0
 WRAP.                  NO:   ONE LINE PER DEPTH STEP
~WELL INFORMATION BLOCK
#MNEM.UNIT           DATA                    DESCRIPTION OF MNEMONIC
#---------    -------------------            -------------------------------
# Generated from Intellog Unique Number	CW_76_78/WELL/2572
WELL.         BAYSEL WILLOW R                : Well_name    - WELL
LOC .         00/07-10-078-03W5/0            : Location     - LOCATION
UWI .         00/07-10-078-03W5/0            : Uwi          - UNIQUE WELL ID
ENTR.         MAX                            : Entered      - ENTERED BY
SRVC.         SCHLUMBERGER                   : Scn          - SERVICE COMPANY
STRT.M        365.76                         : top_depth    - START DEPTH
STOP.M        640.01                         : bot_depth    - STOP DEPTH
STEP.M        0.25                           : increment    - STEP LENGTH
 NULL. -999.2500:NULL Value
~CURVE INFORMATION BLOCK
#MNEM UNIT       ERCB CURVE CODE    CURVE DESCRIPTION
#-----------   ------------------   ----------------------------------
DEPT.M        00 001 00 00         : DEPTH        - DEPTH
ILD .OHMM     00 120 00 00         : RESD         - DEEP RESISTIVITY (DIL)
NPHI.V/V      00 330 00 00         : PHIN         - NEUTRON POROSITY (SANDSTONE)
DPHI.V/V      00 890 00 00         : PHID         - DENSITY POROSITY (SANDSTONE)
CALI.MM       00 280 01 00         : CAL          - CALIPER
GR  .API      00 310 00 00         : GR           - GAMMA RAY
~PARAMETER INFORMATION
#MNEM.UNIT           DATA             DESCRIPTION OF MNEMONIC
#---------         -----------     ------------------------------
GL  .M        660.197              : gl           - GROUND LEVEL ELEVATION
EREF.M        664.403              : kb           - ELEVATION OF DEPTH REFERENCE
DATM.M        660.197              : datum        - DATUM ELEVATION
TDD .M        658.063              : tdd          - TOTAL DEPTH DRILLER
RUN .         ONE                  : Run          - RUN NUMBER
ENG .         BILL                 : Engineer     - RECORDING ENGINEER
WIT .         JIM                  : Witness      - WITNESSED BY
MUD .         GEL                  : Mud_type     - MUD TYPE
MATR.         SANDSTONE            : Logunit      - NEUTRON MATRIX
TMAX.C        26.6667              : BHT          - MAXIMUM RECORDED TEMPERATURE
BHTD.M        658.063              : BHTDEP       - MAXIMUM RECORDED TEMPERATURE
RMT .C        15                   : MDTP         - TEMPERATURE OF MUD
MUDD.KG/M     9300                 : MWT          - MUD DENSITY
NEUT.         1                    : NEUTRON      - NEUTRON TYPE
RESI.         0                    : RESIST       - RESISTIVITY TYPE
RM  .OHMM     0.25                 : RM           - RESISTIVITY OF MUD
RMC .OHMM     0.25                 : RMC          - RESISTIVITY OF MUD CAKE
RMF .OHMM     3.74                 : RMF          - RESISTIVITY OF MUD FILTRATE
SUFT.C        -15                  : SUFT         - SURFACE TEMPERATURE
~A  DEPTH     RESD     PHIN     PHID      CAL       GR
# ...
  621.260    3.311    0.502    0.146  191.816  128.504
  621.510    3.337    0.510    0.136  190.205  118.925
  621.760    3.363    0.495    0.139  185.452  103.804
  622.010    3.298    0.454    0.132  182.805   86.221
  622.260    3.326    0.410    0.158  172.839   71.708
  622.510    3.444    0.323    0.181  167.558   82.766
  622.760    3.665    0.327    0.182  170.110  101.508
  623.010    3.901    0.375    0.146  177.360  114.414
  623.260    4.077    0.397    0.125  180.948  123.617
  623.510    4.147    0.419    0.137  176.717  134.052
  623.760    4.141    0.456    0.142  171.964  133.400
  624.010    4.098    0.481    0.161  174.509  110.583
  624.260    4.131    0.459    0.163  177.075   93.923
  624.510    4.203    0.377    0.132  179.620   76.648
  624.760    4.392    0.335    0.157  183.214   68.608
  625.010    4.632    0.314    0.180  186.281   49.485
  625.260    4.707    0.314    0.160  185.705   45.447
  625.510    4.836    0.288    0.152  179.916   41.105
  625.760    5.054    0.267    0.194  166.823   36.755
  626.010    5.282    0.252    0.210  164.155   35.495
  626.260    5.134    0.251    0.223  165.144   35.147
  626.510    4.945    0.264    0.236  167.702   34.499
  626.760    4.945    0.279    0.267  167.634   32.312
  627.010    4.628    0.313    0.282  165.501   31.661
  627.260    4.341    0.334    0.300  165.962   35.019
  627.510    4.341    0.347    0.328  165.900   46.369
  627.760    4.026    0.360    0.353  166.367   57.427
  628.010    3.846    0.373    0.360  166.834   64.779
  628.260    3.477    0.386    0.325  166.258   73.679
  628.510    3.259    0.393    0.269  165.154   82.266
  628.760    3.140    0.392    0.260  164.051   75.153
  629.010    3.025    0.359    0.252  162.954   76.960
  629.260    2.835    0.309    0.249  161.850   79.395
  629.510    2.658    0.289    0.262  163.366   84.284
  629.760    2.631    0.303    0.256  166.432   85.488
  630.010    2.700    0.323    0.252  171.070   89.761
  630.260    2.822    0.316    0.251  173.093  100.808
  630.510    3.030    0.365    0.268  175.652  107.856
  630.760    3.168    0.429    0.246  177.683  107.212
  631.010    3.827    0.456    0.237  179.707  101.938
  631.260    3.928    0.444    0.237  171.312  108.991
  631.510    4.218    0.388    0.229  170.215  121.272
  631.760    4.571    0.372    0.242  173.803  128.321
  632.010    5.424    0.389    0.257  172.705  134.753
  632.260    6.433    0.417    0.271  172.123  141.802
  632.510    6.972    0.421    0.272  172.583  145.771
  632.760    7.420    0.406    0.261  174.620  143.276
  633.010    7.824    0.396    0.246  177.166  103.216
  633.260    8.178    0.373    0.218  171.377   66.543
  633.510    8.471    0.345    0.215  158.284   40.336
  633.760    8.854    0.285    0.200  156.659   28.294
  634.010    9.251    0.214    0.153  157.647   25.795
  634.260    9.325    0.196    0.129  158.628   24.835
  634.510    9.149    0.192    0.102  159.623   23.875
  634.760    8.499    0.204    0.095  160.076   23.851
  635.010    7.753    0.215    0.110  158.972   23.815
  635.260    7.009    0.229    0.135  157.889   22.244
  635.510    6.395    0.242    0.149  158.349   22.244
  635.760    5.996    0.257    0.174  160.380   21.240
  636.010    5.933    0.268    0.194  161.882   21.835
  636.260    6.202    0.256    0.231  162.870   22.415
  636.510    6.660    0.251    0.185  163.330   22.071
  636.760    7.023    0.248    0.172  162.762   21.731
  637.010    7.407    0.243    0.176  163.222   23.234
  637.260    7.883    0.246    0.164  163.682   25.049
  637.510    8.316    0.252    0.194  164.148   26.252
  637.760    8.689    0.254    0.201  165.137   26.216
  638.010    8.523    0.257    0.219  164.040   25.876
  638.260    8.211    0.262    0.216  162.943   25.224
  638.510    7.909    0.272    0.200  162.875   25.500
  638.760    7.688    0.276    0.207  162.299   26.387
  639.010    7.534    0.273    0.210  162.231   27.278
  639.260    7.463    0.267    0.206  164.275   29.401
  639.510    7.388    0.267    0.194  168.899   32.751
  639.760    7.447    0.269    0.187  169.365   34.262
  640.010    7.711    0.268    0.180  169.839   34.230
