~VERSION INFORMATION
 VERS.                 2.0:   CWLS LOG ASCII STANDARD -VERSION 2.0
 WRAP.                  NO:   ONE LINE PER DEPTH STEP
~WELL INFORMATION BLOCK
#MNEM.UNIT           DATA                    DESCRIPTION OF MNEMONIC
#---------    -------------------            -------------------------------
# Generated from Intellog Unique Number	CS_73_76/WELL/2162
WELL.         HOUSTON OILS LIMITED           : Well_name    - WELL
LOC .         00/06-08-074-14W4/0            : Location     - LOCATION
UWI .         00/06-08-074-14W4/0            : Uwi          - UNIQUE WELL ID
ENTR.         SP                             : Entered      - ENTERED BY
SRVC.         SCHLUMBERGER                   : Scn          - SERVICE COMPANY
STRT.M        365.76                         : top_depth    - START DEPTH
STOP.M        600.26                         : bot_depth    - STOP DEPTH
STEP.M        0.25                           : increment    - STEP LENGTH
 NULL. -999.2500:NULL Value
~CURVE INFORMATION BLOCK
#MNEM UNIT       ERCB CURVE CODE    CURVE DESCRIPTION
#-----------   ------------------   ----------------------------------
DEPT.M        00 001 00 00         : DEPTH        - DEPTH
GR  .API      00 310 00 00         : GR           - GAMMA RAY
DPHI.V/V      00 890 00 00         : PHID         - DENSITY POROSITY (SANDSTONE)
NPHI.V/V      00 330 00 00         : PHIN         - NEUTRON POROSITY (SANDSTONE)
ILD .OHMM     00 120 00 00         : RESD         - DEEP RESISTIVITY (DIL)
~PARAMETER INFORMATION
#MNEM.UNIT           DATA             DESCRIPTION OF MNEMONIC
#---------         -----------     ------------------------------
GL  .M        712.318              : gl           - GROUND LEVEL ELEVATION
EREF.M        715.366              : kb           - ELEVATION OF DEPTH REFERENCE
DATM.M        712.318              : datum        - DATUM ELEVATION
TDD .M        611.124              : tdd          - TOTAL DEPTH DRILLER
RUN .         ONE                  : Run          - RUN NUMBER
ENG .         BILL                 : Engineer     - RECORDING ENGINEER
WIT .         JIM                  : Witness      - WITNESSED BY
MUD .         GEL                  : Mud_type     - MUD TYPE
MATR.         SANDSTONE            : Logunit      - NEUTRON MATRIX
TMAX.C        25.5556              : BHT          - MAXIMUM RECORDED TEMPERATURE
BHTD.M        611.124              : BHTDEP       - MAXIMUM RECORDED TEMPERATURE
MATR.         1                    : LOGUNIT      - NEUTRON MATRIX
RMT .C        25                   : MDTP         - TEMPERATURE OF MUD
NEUT.         1                    : NEUTRON      - NEUTRON TYPE
RESI.         0                    : RESIST       - RESISTIVITY TYPE
RMC .OHMM     0.25                 : RMC          - RESISTIVITY OF MUD CAKE
RMF .OHMM     0.25                 : RMF          - RESISTIVITY OF MUD FILTRATE
SUFT.C        15                   : SUFT         - SURFACE TEMPERATURE
~A  DEPTH       GR     PHID     PHIN     RESD
# ...
  539.760   69.117    0.227    0.396    8.830
  540.010   64.967    0.254    0.410   15.551
  540.260   63.289    0.257    0.414   19.735
  540.510   65.816    0.265    0.389   20.811
  540.760   68.469    0.265    0.390   20.474
  541.010   69.738    0.262    0.394   20.159
  541.260   72.722    0.253    0.401   20.139
  541.510   73.203    0.239    0.418   20.131
  541.760   71.728    0.233    0.394   20.123
  542.010   70.065    0.221    0.412   19.970
  542.260   69.174    0.202    0.428   19.781
  542.510   68.736    0.189    0.399   19.482
  542.760   70.188    0.202    0.387   19.290
  543.010   73.936    0.226    0.399   19.060
  543.260   73.139    0.234    0.391   18.507
  543.510   72.097    0.222    0.388   17.443
  543.760   72.074    0.217    0.399   15.941
  544.010   72.299    0.232    0.398   14.271
  544.260   78.361    0.232    0.400   13.055
  544.510   85.532    0.236    0.396   12.150
  544.760   95.286    0.231    0.412   11.374
  545.010  100.580    0.255    0.440   13.207
  545.260   89.168    0.267    0.439   15.864
  545.510   80.306    0.275    0.431   18.306
  545.760   76.048    0.270    0.409   22.209
  546.010   73.144    0.260    0.390   24.405
  546.260   70.317    0.257    0.388   25.830
  546.510   69.584    0.266    0.377   22.529
  546.760   75.005    0.242    0.368   16.506
  547.010   90.077    0.218    0.369   13.395
  547.260  102.987    0.199    0.384   10.566
  547.510  110.407    0.188    0.425    8.867
  547.760  114.505    0.198    0.444    7.985
  548.010  116.522    0.204    0.436    7.169
  548.260  116.273    0.191    0.435    6.799
  548.510  115.144    0.189    0.442    6.459
  548.760  113.421    0.201    0.464    7.460
  549.010   98.458    0.219    0.478   10.344
  549.260   89.553    0.239    0.492   15.134
  549.510   76.968    0.273    0.439   18.533
  549.760   64.360    0.287    0.413   24.245
  550.010   72.817    0.256    0.421   25.187
  550.260   78.259    0.242    0.438   21.663
  550.510   82.366    0.236    0.421   19.146
  550.760   84.154    0.245    0.428   16.666
  551.010   86.563    0.247    0.444   15.245
  551.260   91.289    0.233    0.429   13.694
  551.510   90.019    0.222    0.435   13.513
  551.760   84.020    0.217    0.439   14.239
  552.010   79.205    0.210    0.443   15.095
  552.260   73.833    0.226    0.425   15.207
  552.510   76.338    0.237    0.398   13.989
  552.760   84.187    0.209    0.354   12.554
  553.010   89.298    0.190    0.347   11.210
  553.260   93.112    0.195    0.364   10.737
  553.510   95.585    0.192    0.373   10.454
  553.760   92.143    0.182    0.373   10.141
  554.010   92.591    0.179    0.375   10.089
  554.260   94.563    0.176    0.386    9.932
  554.510   96.376    0.179    0.399    9.630
  554.760   96.541    0.185    0.405    9.571
  555.010   91.717    0.211    0.416   10.176
  555.260   85.862    0.224    0.424   10.733
  555.510   80.995    0.223    0.408   11.270
  555.760   79.021    0.219    0.380   11.911
  556.010   77.902    0.211    0.358   13.208
  556.260   72.888    0.218    0.369   15.575
  556.510   68.076    0.253    0.400   18.151
  556.760   63.739    0.289    0.419   21.377
  557.010   66.698    0.296    0.404   22.959
  557.260   74.519    0.291    0.394   22.005
  557.510   77.621    0.284    0.403   19.669
  557.760   78.513    0.266    0.406   16.968
  558.010   79.417    0.245    0.387   13.955
  558.260   77.291    0.229    0.381   12.268
  558.510   77.655    0.221    0.384   10.528
  558.760   78.643    0.213    0.374    9.054
  559.010   78.585    0.189    0.391    8.102
  559.260   78.219    0.139    0.439    7.520
  559.510   74.302    0.111    0.401    8.863
  559.760   77.103    0.115    0.387   10.759
  560.010   79.252    0.236    0.457   12.747
  560.260   73.708    0.263    0.481   14.681
  560.510   69.922    0.263    0.446   14.822
  560.760   70.099    0.273    0.431   13.387
  561.010   71.183    0.258    0.402   10.908
  561.260   68.456    0.244    0.390    8.909
  561.510   68.822    0.237    0.381    7.853
  561.760   67.696    0.243    0.375    7.403
  562.010   67.564    0.231    0.362    7.724
  562.260   72.738    0.197    0.372    8.193
  562.510   79.036    0.211    0.397    8.876
  562.760   76.155    0.207    0.398    9.255
  563.010   74.769    0.199    0.383    9.608
  563.260   77.036    0.227    0.387    9.739
  563.510   79.292    0.244    0.415    9.659
  563.760   83.231    0.249    0.423    9.362
  564.010   90.772    0.232    0.399    9.077
  564.260   97.001    0.210    0.394    8.673
  564.510  101.774    0.190    0.398    8.245
  564.760  104.945    0.176    0.403    7.837
  565.010  104.930    0.164    0.413    7.779
  565.260  103.906    0.148    0.417    7.684
  565.510  103.972    0.164    0.397    7.814
  565.760  103.225    0.166    0.382    7.947
  566.010  103.301    0.161    0.381    7.823
  566.260  102.232    0.175    0.390    7.824
  566.510  103.931    0.193    0.382    7.826
  566.760  108.935    0.190    0.380    7.826
  567.010  111.961    0.198    0.402    7.816
  567.260  113.430    0.209    0.417    7.994
  567.510  113.606    0.218    0.419    8.234
  567.760  110.786    0.214    0.404    8.472
  568.010  107.873    0.198    0.420    8.912
  568.260  103.364    0.197    0.406    9.179
  568.510   96.233    0.184    0.381    9.501
  568.760   88.957    0.171    0.379    9.073
  569.010   86.256    0.146    0.369    8.535
  569.260   89.916    0.167    0.398    8.229
  569.510   92.581    0.218    0.423    8.125
  569.760   86.090    0.265    0.452    7.824
  570.010   77.830    0.298    0.544    7.345
  570.260   72.186    0.274    0.595    6.816
  570.510   67.503    0.251    0.461    6.292
  570.760   66.701    0.253    0.380    5.950
  571.010   63.475    0.268    0.382    6.231
  571.260   71.974    0.269    0.372    6.604
  571.510   82.925    0.244    0.369    7.157
  571.760   88.410    0.209    0.365    7.466
  572.010   97.945    0.199    0.354    7.767
  572.260  106.334    0.193    0.354    8.129
  572.510  111.768    0.183    0.361    7.906
  572.760  112.373    0.152    0.374    7.511
  573.010  111.445    0.111    0.389    7.307
  573.260  108.206    0.046    0.395    7.157
  573.510  107.420    0.097    0.375    7.016
  573.760  112.261    0.159    0.370    7.014
  574.010  110.708    0.166    0.373    7.166
  574.260  109.566    0.177    0.362    7.149
  574.510  114.701    0.183    0.371    7.017
  574.760  117.938    0.178    0.391    7.025
  575.010  114.273    0.168    0.406    7.027
  575.260   96.123    0.192    0.416    7.096
  575.510   79.345    0.215    0.425    7.294
  575.760   62.908    0.242    0.410    7.404
  576.010   57.411    0.256    0.393    7.869
  576.260   59.908    0.261    0.378    8.400
  576.510   63.774    0.269    0.370    9.050
  576.760   66.918    0.256    0.374    9.466
  577.010   68.619    0.250    0.377    9.230
  577.260   76.327    0.225    0.366    8.845
  577.510   81.213    0.198    0.354    8.379
  577.760   83.103    0.188    0.365    7.982
  578.010   77.902    0.194    0.376    7.852
  578.260   72.727    0.203    0.381    7.647
  578.510   70.613    0.183    0.379    7.567
  578.760   71.764    0.187    0.365    7.330
  579.010   76.419    0.174    0.360    7.269
  579.260   76.632    0.177    0.368    7.167
  579.510   76.072    0.185    0.378    7.020
  579.760   79.648    0.189    0.382    7.034
  580.010   86.515    0.194    0.358    7.023
  580.260   93.083    0.184    0.352    7.178
  580.510  106.258    0.178    0.359    7.166
  580.760  116.220    0.171    0.361    7.153
  581.010  127.746    0.143    0.374    7.320
  581.260  130.004    0.135    0.395    7.166
  581.510  127.778    0.136    0.412    6.897
  581.760  125.752    0.151    0.426    6.358
  582.010  129.775    0.168    0.426    5.791
  582.260  134.291    0.166    0.444    5.400
  582.510  136.438    0.170    0.488    5.015
  582.760  135.311    0.173    0.500    4.808
  583.010  135.203    0.177    0.480    4.662
