~VERSION INFORMATION
 VERS.                 2.0:   CWLS LOG ASCII STANDARD -VERSION 2.0
 WRAP.                  NO:   ONE LINE PER DEPTH STEP
~WELL INFORMATION BLOCK
#MNEM.UNIT           DATA                    DESCRIPTION OF MNEMONIC
#---------    -------------------            -------------------------------
# Generated from Intellog Unique Number	CS_77_79/WELL/903
WELL.         CANADIAN WORLDWIDE ENERGY      : Well_name    - WELL
LOC .         00/07-22-077-05W4/0            : Location     - LOCATION
UWI .         00/07-22-077-05W4/0            : Uwi          - UNIQUE WELL ID
ENTR.         SP                             : Entered      - ENTERED BY
SRVC.         SCHLUMBERGER                   : Scn          - SERVICE COMPANY
STRT.M        175                            : top_depth    - START DEPTH
STOP.M        425                            : bot_depth    - STOP DEPTH
STEP.M        0.25                           : increment    - STEP LENGTH
 NULL. -999.2500:NULL Value
~CURVE INFORMATION BLOCK
#MNEM UNIT       ERCB CURVE CODE    CURVE DESCRIPTION
#-----------   ------------------   ----------------------------------
DEPT.M        00 001 00 00         : DEPTH        - DEPTH
GR  .API      00 310 00 00         : GR           - GAMMA RAY
DPHI.V/V      00 890 00 00         : PHID         - DENSITY POROSITY (LIMESTONE)
NPHI.V/V      00 330 00 00         : PHIN         - NEUTRON POROSITY (LIMESTONE)
ILD .OHMM     00 120 00 00         : RESD         - DEEP RESISTIVITY (DIL)
~PARAMETER INFORMATION
#MNEM.UNIT           DATA             DESCRIPTION OF MNEMONIC
#---------         -----------     ------------------------------
GL  .M        582                  : gl           - GROUND LEVEL ELEVATION
EREF.M        585                  : kb           - ELEVATION OF DEPTH REFERENCE
DATM.M        582                  : datum        - DATUM ELEVATION
TDD .M        434                  : tdd          - TOTAL DEPTH DRILLER
RUN .         ONE                  : Run          - RUN NUMBER
ENG .         BILL                 : Engineer     - RECORDING ENGINEER
WIT .         JIM                  : Witness      - WITNESSED BY
MUD .         GEL                  : Mud_type     - MUD TYPE
MATR.         LIMESTONE            : Logunit      - NEUTRON MATRIX
TMAX.C        23                   : BHT          - MAXIMUM RECORDED TEMPERATURE
BHTD.M        434                  : BHTDEP       - MAXIMUM RECORDED TEMPERATURE
MATR.         1                    : LOGUNIT      - NEUTRON MATRIX
RMT .C        25                   : MDTP         - TEMPERATURE OF MUD
NEUT.         1                    : NEUTRON      - NEUTRON TYPE
RESI.         0                    : RESIST       - RESISTIVITY TYPE
RMC .OHMM     0.25                 : RMC          - RESISTIVITY OF MUD CAKE
RMF .OHMM     0.25                 : RMF          - RESISTIVITY OF MUD FILTRATE
SUFT.C        15                   : SUFT         - SURFACE TEMPERATURE
~A  DEPTH       GR     PHID     PHIN     RESD
# ...
  262.000   90.435    0.226    0.395    8.732
  262.250   90.455    0.233    0.414    8.732
  262.500   90.467    0.235    0.420    8.731
  262.750   91.725    0.238    0.421    8.731
  263.000   93.606    0.238    0.423    8.730
  263.250   94.247    0.237    0.431    8.567
  263.500   94.256    0.241    0.435    8.407
  263.750   96.142    0.243    0.401    8.250
  264.000   93.664    0.249    0.383    7.945
  264.250   90.566    0.253    0.386    7.796
  264.500   94.940    0.247    0.395    7.508
  264.750   96.821    0.234    0.413    7.230
  265.000   98.081    0.226    0.417    7.095
  265.250  100.589    0.223    0.408    6.705
  265.500  104.959    0.223    0.413    6.705
  265.750  101.238    0.223    0.431    6.457
  266.000   96.898    0.223    0.442    6.336
  266.250   96.287    0.224    0.445    6.336
  266.500   95.683    0.233    0.437    6.336
  266.750   94.453    0.235    0.435    6.335
  267.000   94.466    0.239    0.433    6.335
  267.250   96.352    0.235    0.432    6.217
  267.500   96.983    0.230    0.432    6.216
  267.750   93.886    0.228    0.446    5.986
  268.000   94.523    0.228    0.466    5.986
  268.250  102.633    0.230    0.456    5.874
  268.500  105.134    0.230    0.429    5.764
  268.750  103.906    0.228    0.436    5.764
  269.000  101.432    0.222    0.445    5.656
  269.250   99.579    0.229    0.454    5.447
  269.500   97.729    0.235    0.459    5.345
  269.750   95.872    0.231    0.462    5.245
  270.000   93.403    0.230    0.455    5.051
  270.250   94.657    0.228    0.450    4.957
  270.500   99.652    0.226    0.456    4.864
  270.750   95.935    0.230    0.458    5.147
  271.000   99.059    0.236    0.448    6.096
  271.250  105.298    0.257    0.452    6.698
  271.500  100.956    0.279    0.471    7.786
  271.750   82.300    0.306    0.485    9.944
  272.000   73.601    0.337    0.453   12.002
  272.250   63.658    0.341    0.422   14.488
  272.500   60.558    0.338    0.425   15.916
  272.750   61.199    0.335    0.411   17.160
  273.000   61.836    0.336    0.405   17.485
  273.250   60.606    0.349    0.407   17.817
  273.500   59.373    0.353    0.419   17.816
  273.750   56.901    0.353    0.443   17.815
  274.000   58.160    0.353    0.449   17.814
  274.250   60.668    0.362    0.436   17.481
  274.500   61.299    0.363    0.417   17.480
  274.750   61.314    0.362    0.405   17.480
  275.000   60.707    0.359    0.397   17.153
  275.250   62.591    0.350    0.399   17.152
  275.500   64.474    0.344    0.417   17.477
  275.750   58.264    0.345    0.427   17.477
  276.000   55.791    0.347    0.433   17.808
  276.250   58.295    0.344    0.431   17.807
  276.500   61.420    0.345    0.419   17.806
  276.750   60.190    0.353    0.413   17.805
  277.000   58.339    0.359    0.401   17.804
  277.250   58.352    0.364    0.395   17.803
  277.500   60.236    0.354    0.401   17.803
  277.750   60.247    0.349    0.423   17.802
  278.000   59.639    0.346    0.460   17.801
  278.250   61.525    0.349    0.474   17.800
  278.500   62.784    0.350    0.476   17.467
  278.750   63.423    0.348    0.464   17.466
  279.000   64.060    0.346    0.449   17.140
  279.250   64.071    0.346    0.415   17.139
  279.500   60.973    0.334    0.425   17.464
  279.750   55.391    0.325    0.425   18.478
  280.000   51.668    0.324    0.415   21.079
  280.250   47.327    0.309    0.386   23.598
  280.500   43.605    0.219    0.275   24.968
  280.750   43.621    0.166    0.247   24.967
  281.000   47.993    0.083    0.238   24.500
  281.250   54.860    0.091    0.242   22.298
  281.500   59.230    0.194    0.266   19.916
  281.750   61.109    0.330    0.315   18.471
  282.000   61.745    0.342    0.389   17.130
  282.250   63.007    0.347    0.404   16.496
  282.500   63.643    0.351    0.413   16.188
  282.750   64.281    0.352    0.414   15.885
  283.000   64.300    0.343    0.419   15.588
  283.250   64.318    0.335    0.422   15.297
  283.500   64.327    0.325    0.431   15.297
  283.750   65.592    0.325    0.453   15.296
  284.000   66.845    0.329    0.457   15.586
  284.250   67.484    0.331    0.446   15.881
  284.500   67.495    0.335    0.426   15.881
  284.750   65.645    0.338    0.428   16.489
  285.000   65.034    0.335    0.464   16.488
  285.250   65.052    0.330    0.484   16.487
  285.500   65.690    0.331    0.470   16.800
  285.750   68.198    0.333    0.448   16.799
  286.000   68.829    0.334    0.441   16.798
  286.250   68.843    0.333    0.441   16.797
  286.500   66.368    0.329    0.441   16.483
  286.750   62.652    0.331    0.442   16.483
  287.000   59.553    0.341    0.432   16.482
  287.250   58.325    0.347    0.426   16.481
  287.500   58.960    0.344    0.428   16.480
  287.750   62.090    0.338    0.440   16.172
  288.000   63.970    0.335    0.442   15.870
  288.250   64.610    0.339    0.434   15.869
  288.500   64.622    0.339    0.432   15.572
  288.750   64.014    0.333    0.432   14.996
  289.000   63.405    0.325    0.446   14.996
  289.250   63.423    0.323    0.446   14.441
  289.500   65.304    0.322    0.437   13.144
  289.750   67.809    0.328    0.420   11.306
  290.000   70.939    0.333    0.415    9.725
  290.250   72.192    0.333    0.418    8.056
  290.500   75.943    0.318    0.434    6.800
  290.750   81.561    0.301    0.446    5.849
  291.000   89.668    0.281    0.444    5.225
  291.250   94.040    0.255    0.444    4.845
  291.500   96.541    0.229    0.496    4.494
  291.750   98.425    0.221    0.508    4.090
  292.000   98.440    0.228    0.493    3.793
  292.250   94.718    0.240    0.470    3.518
  292.500   95.980    0.247    0.462    3.083
  292.750  100.356    0.255    0.471    2.860
  293.000  101.611    0.258    0.514    2.703
  293.250  101.002    0.257    0.579    2.603
  293.500  104.131    0.256    0.584    2.652
  293.750  104.768    0.246    0.553    2.753
  294.000  106.651    0.240    0.539    2.913
  294.250  109.152    0.230    0.530    3.025
  294.500  102.321    0.222    0.519    3.082
  294.750   97.978    0.226    0.498    3.323
  295.000   98.621    0.236    0.489    3.386
  295.250   98.633    0.245    0.500    3.651
  295.500   97.403    0.247    0.515    3.936
  295.750   91.816    0.236    0.505    4.490
  296.000   90.584    0.226    0.479    5.027
  296.250   89.979    0.222    0.459    5.627
  296.500   89.991    0.238    0.447    6.183
  296.750   85.653    0.263    0.446    7.053
  297.000   83.176    0.273    0.454    7.323
  297.250   76.343    0.276    0.463    7.604
  297.500   68.266    0.278    0.464    8.045
  297.750   62.683    0.266    0.454    8.512
  298.000   66.434    0.238    0.437    9.177
  298.250   68.933    0.203    0.410    9.529
  298.500   72.690    0.236    0.390   10.082
  298.750   73.320    0.263    0.387   10.667
  299.000   68.978    0.265    0.375   11.286
  299.250   65.883    0.211    0.361   11.719
  299.500   70.881    0.147    0.329   12.168
  299.750   74.631    0.238    0.333   12.874
  300.000   76.505    0.265    0.351   13.880
  300.250   59.094    0.245    0.366   14.964
  300.500   56.618    0.161    0.335   15.833
  300.750   62.237    0.071    0.251   16.440
  301.000   66.610    0.119    0.218   16.751
  301.250   69.112    0.150    0.236   16.750
  301.500   71.618    0.139    0.294   15.245
  301.750   73.498    0.175    0.322   13.616
  302.000   78.492    0.204    0.344   12.162
  302.250   79.132    0.268    0.378   11.279
  302.500   78.523    0.283    0.404   10.862
  302.750   74.184    0.275    0.417   10.265
  303.000   74.196    0.278    0.403   10.073
  303.250   77.322    0.292    0.397   10.073
  303.500   73.601    0.303    0.395   10.072
  303.750   72.996    0.286    0.408   10.072
  304.000   74.878    0.272    0.430   10.071
  304.250   76.141    0.269    0.442   10.071
  304.500   76.778    0.281    0.447   10.070
  304.750   78.037    0.293    0.442    9.882
  305.000   79.918    0.297    0.440    9.517
  305.250   79.933    0.287    0.440    9.339
