~VERSION INFORMATION
 VERS.                 2.0:   CWLS LOG ASCII STANDARD -VERSION 2.0
 WRAP.                  NO:   ONE LINE PER DEPTH STEP
~WELL INFORMATION BLOCK
#MNEM.UNIT           DATA                    DESCRIPTION OF MNEMONIC
#---------    -------------------            -------------------------------
# Generated from Intellog Unique Number	CW_73_75/WELL/288
WELL.         CALGAS ET AL MITSUE 02-06      : Well_name    - WELL
LOC .         00/02-06-074-04W5/0            : Location     - LOCATION
UWI .         00/02-06-074-04W5/0            : Uwi          - UNIQUE WELL ID
ENTR.         JAYE                           : Entered      - ENTERED BY
SRVC.         SCHLUMBERGER                   : Scn          - SERVICE COMPANY
DATE.         6 SEP 88                       : Date         - LOG DATE
STRT.M        365                            : top_depth    - START DEPTH
STOP.M        620                            : bot_depth    - STOP DEPTH
STEP.M        0.25                           : increment    - STEP LENGTH
 NULL. -999.2500:NULL Value
~CURVE INFORMATION BLOCK
#MNEM UNIT       ERCB CURVE CODE    CURVE DESCRIPTION
#-----------   ------------------   ----------------------------------
DEPT.M        00 001 00 00         : DEPTH        - DEPTH
ILD .OHMM     00 120 00 00         : RESD         - DEEP RESISTIVITY (DIL)
DPHI.V/V      00 890 00 00         : PHID         - DENSITY POROSITY (SANDSTONE)
NPHI.V/V      00 330 00 00         : PHIN         - NEUTRON POROSITY (SANDSTONE)
GR  .API      00 310 00 00         : GR           - GAMMA RAY
CALI.MM       00 280 01 00         : CAL          - CALIPER
~PARAMETER INFORMATION
#MNEM.UNIT           DATA             DESCRIPTION OF MNEMONIC
#---------         -----------     ------------------------------
GL  .M        596.5                : gl           - GROUND LEVEL ELEVATION
EREF.M        596.5                : kb           - ELEVATION OF DEPTH REFERENCE
DATM.M        596.5                : datum        - DATUM ELEVATION
TDD .M        1650                 : tdd          - TOTAL DEPTH DRILLER
RUN .         ONE                  : Run          - RUN NUMBER
ENG .         ASHTOM               : Engineer     - RECORDING ENGINEER
WIT .         WORK                 : Witness      - WITNESSED BY
BASE.         SLAVE LAKE           : Branch       - HOME BASE OF LOGGING UNIT
MUD .         GEL CHEM             : Mud_type     - MUD TYPE
MATR.         SANDSTONE            : Logunit      - NEUTRON MATRIX
TMAX.C        47                   : BHT          - MAXIMUM RECORDED TEMPERATURE
BHTD.M        1652.8               : BHTDEP       - MAXIMUM RECORDED TEMPERATURE
RMT .C        29                   : MDTP         - TEMPERATURE OF MUD
MUDD.KG/M     1150                 : MWT          - MUD DENSITY
NEUT.         1                    : NEUTRON      - NEUTRON TYPE
RESI.         0                    : RESIST       - RESISTIVITY TYPE
RM  .OHMM     0.73                 : RM           - RESISTIVITY OF MUD
RMC .OHMM     0                    : RMC          - RESISTIVITY OF MUD CAKE
RMF .OHMM     0.74                 : RMF          - RESISTIVITY OF MUD FILTRATE
SUFT.C        0                    : SUFT         - SURFACE TEMPERATURE
~A  DEPTH     RESD     PHID     PHIN       GR      CAL
# ...
  511.000    5.557    0.287    1.033   64.010  225.460
  511.250    5.545    0.296    1.020   67.081  225.477
  511.500    5.391    0.294    1.008   65.806  225.493
  511.750    5.146    0.280    1.010   64.591  226.632
  512.000    4.630    0.257    1.009   65.091  230.016
  512.250    4.444    0.241    1.008   66.081  234.420
  512.500    4.525    0.254    1.004   67.193  237.398
  512.750    4.660    0.244    1.013   68.489  239.453
  513.000    4.816    0.226    1.031   70.213  242.431
  513.250    4.841    0.217    1.040   71.570  244.181
  513.500    4.803    0.214    1.032   72.804  246.139
  513.750    4.829    0.201    1.018   73.549  248.297
  514.000    4.827    0.187    1.019   73.988  250.659
  514.250    4.772    0.184    1.006   70.569  252.412
  514.500    4.753    0.193    0.998   68.008  253.346
  514.750    4.786    0.212    1.022   68.201  254.180
  515.000    4.901    0.224    1.027   69.069  255.318
  515.250    5.056    0.229    1.016   68.833  256.458
  515.500    5.129    0.224    1.006   66.945  256.578
  515.750    5.128    0.219    1.019   68.547  256.796
  516.000    5.079    0.227    1.020   67.333  258.447
  516.250    5.012    0.238    0.999   65.507  262.443
  516.500    4.955    0.235    1.008   65.088  266.438
  516.750    4.899    0.219    1.020   66.506  274.415
  517.000    4.816    0.192    1.013   68.720  278.310
  517.250    4.753    0.180    1.015   73.995  277.816
  517.500    4.673    0.201    1.010   73.454  276.302
  517.750    4.620    0.205    0.987   71.934  275.909
  518.000    4.592    0.206    0.986   75.862  276.947
  518.250    4.582    0.212    1.056   67.362  279.719
  518.500    4.589    0.228    1.054   64.066  281.266
  518.750    4.752    0.217    1.039   63.892  277.404
  519.000    4.993    0.206    0.994   65.188  275.891
  519.250    5.374    0.209    0.989   67.280  278.459
  519.500    5.493    0.214    1.024   69.004  278.375
  519.750    5.461    0.209    1.025   69.749  276.452
  520.000    5.098    0.202    1.000   71.289  277.082
  520.250    4.857    0.196    1.012   69.034  281.790
  520.500    4.602    0.205    1.024   67.697  285.277
  520.750    4.401    0.210    1.024   66.912  286.314
  521.000    4.271    0.211    1.012   66.431  285.718
  521.250    4.230    0.209    1.020   65.952  284.411
  521.500    4.268    0.207    1.022   66.206  283.307
  521.750    4.339    0.206    1.022   68.053  282.708
  522.000    4.426    0.206    0.996   71.798  281.909
  522.250    4.474    0.204    1.003   70.767  281.619
  522.500    4.641    0.200    1.007   71.022  281.332
  522.750    5.032    0.192    1.012   74.767  280.427
  523.000    5.549    0.190    1.029   75.572  275.853
  523.250    5.745    0.212    1.023   68.296  270.052
  523.500    5.009    0.225    1.003   66.287  267.926
  523.750    4.616    0.238    0.992   66.786  270.596
  524.000    4.398    0.232    0.982   69.552  273.980
  524.250    4.152    0.200    0.986   71.766  277.671
  524.500    3.933    0.182    0.973   72.204  279.626
  524.750    3.818    0.171    1.007   71.847  279.949
  525.000    3.802    0.162    1.031   72.898  278.638
  525.250    3.794    0.159    1.037   74.316  276.716
  525.500    3.943    0.166    1.036   75.612  274.386
  525.750    4.371    0.172    1.023   76.662  268.892
  526.000    5.296    0.171    0.982   71.162  262.890
  526.250    7.578    0.162    0.952   59.661  254.946
  526.500    9.232    0.146    0.977   56.733  249.452
  526.750   10.368    0.208    1.019   62.132  250.592
  527.000   10.288    0.247    1.034   64.896  254.180
  527.250    8.953    0.256    0.965   60.131  258.484
  527.500    7.481    0.214    0.911   57.691  262.275
  527.750    6.137    0.170    0.872   58.253  266.679
  528.000    5.272    0.157    0.911   63.038  271.901
  528.250    4.495    0.190    0.971   71.559  275.795
  528.500    3.956    0.205    1.060   75.977  279.892
  528.750    3.686    0.221    1.078   76.537  285.725
  529.000    3.571    0.218    1.085   75.690  286.252
  529.250    3.530    0.207    1.078   74.354  287.188
  529.500    3.542    0.203    1.066   73.936  290.470
  529.750    3.614    0.242    1.049   74.557  293.241
  530.000    3.694    0.250    1.034   75.669  294.380
  530.250    3.817    0.237    1.030   76.046  295.827
  530.500    4.034    0.252    1.036   70.608  295.740
  530.750    4.317    0.227    1.026   66.148  293.105
  531.000    4.462    0.184    1.014   62.240  293.938
  531.250    4.315    0.238    1.030   59.066  295.586
  531.500    3.853    0.261    1.033   63.791  296.113
  531.750    3.525    0.244    0.989   65.025  296.640
  532.000    3.148    0.221    0.993   64.301  300.637
  532.250    2.950    0.266    1.064   65.475  311.674
  532.500    2.911    0.322    1.094   66.281  325.874
  532.750    3.031    0.392    1.106   66.351  352.624
  533.000    3.256    0.429    1.095   66.545  369.887
  533.250    3.434    0.413    1.112   67.412  341.025
  533.500    3.549    0.642    1.167   65.646  327.879
  533.750    3.515    0.446    1.142   64.738  344.732
  534.000    3.288    0.411    1.103   69.768  332.199
  534.250    3.168    0.338    1.089   71.493  311.909
  534.500    3.184    0.260    1.107   67.706  300.599
  534.750    3.321    0.280    1.086   66.247  294.187
  535.000    3.608    0.305    1.058   68.462  290.224
  535.250    3.927    0.261    1.029   71.839  289.017
  535.500    4.243    0.229    1.033   73.441  289.951
  535.750    4.352    0.209    1.035   68.064  291.501
  536.000    4.154    0.197    1.023   65.807  292.437
  536.250    3.389    0.187    1.006   65.817  293.165
  536.500    3.026    0.185    0.992   69.931  294.306
  536.750    2.571    0.187    0.983   73.613  295.038
  537.000    2.113    0.192    1.032   75.644  295.565
  537.250    1.987    0.188    1.058   68.735  295.783
  537.500    2.346    0.175    1.049   65.684  295.391
  537.750    3.176    0.169    1.017   65.756  293.776
  538.000    4.128    0.195    0.991   67.112  292.160
  538.250    4.602    0.228    1.004   68.163  291.055
  538.500    4.898    0.247    1.046   64.561  290.357
  538.750    4.745    0.262    1.063   59.611  289.556
  539.000    4.546    0.267    1.028   58.152  288.962
  539.250    4.348    0.255    1.018   61.775  288.164
  539.500    4.188    0.233    1.020   66.254  287.361
  539.750    4.088    0.208    1.007   70.734  285.338
  540.000    3.974    0.195    1.003   76.192  282.293
  540.250    3.900    0.193    1.000   72.712  277.922
  540.500    3.737    0.194    1.004   67.518  275.900
  540.750    3.482    0.192    1.013   64.957  274.182
  541.000    3.392    0.188    1.023   62.824  272.667
  541.250    3.441    0.197    1.034   65.895  270.542
  541.500    3.550    0.195    1.048   69.273  268.719
  541.750    3.751    0.183    1.044   70.446  266.491
  542.000    4.075    0.207    1.033   70.456  263.855
  542.250    4.419    0.236    1.026   69.853  260.301
  542.500    6.634    0.237    1.053   65.823  254.399
  542.750    8.172    0.179    1.023   66.629  247.374
  543.000    8.368    0.158    0.991   59.414  241.574
  543.250    7.612    0.058    0.764   44.975  240.775
  543.500    6.564    0.030    0.860   50.251  244.057
  543.750    5.618    0.100    0.893   58.036  248.666
  544.000    5.027    0.167    0.930   61.658  253.172
  544.250    4.658    0.209    1.000   62.771  257.885
  544.500    4.471    0.215    0.985   63.577  261.267
  544.750    4.276    0.218    0.981   64.260  264.957
  545.000    4.119    0.208    1.001   66.658  268.546
  545.250    4.087    0.201    1.015   70.218  270.806
  545.500    3.974    0.202    1.016   74.392  273.477
  545.750    3.807    0.223    1.019   72.810  275.534
  546.000    3.483    0.245    0.980   68.289  276.775
  546.250    3.264    0.231    1.036   70.626  278.629
  546.500    3.323    0.225    1.058   72.841  282.319
  546.750    3.499    0.239    1.065   73.035  284.580
  547.000    3.643    0.260    1.057   72.249  285.719
  547.250    3.696    0.270    1.056   70.667  285.634
