~VERSION INFORMATION
 VERS.                 2.0:   CWLS LOG ASCII STANDARD -VERSION 2.0
 WRAP.                  NO:   ONE LINE PER DEPTH STEP
~WELL INFORMATION BLOCK
#MNEM.UNIT           DATA                    DESCRIPTION OF MNEMONIC
#---------    -------------------            -------------------------------
# Generated from Intellog Unique Number	CS_77_79/WELL/3296
WELL.         ALLIED ROXANA MINERALS LTD.    : Well_name    - WELL
LOC .         00/07-11-078-17W4/0            : Location     - LOCATION
UWI .         00/07-11-078-17W4/0            : Uwi          - UNIQUE WELL ID
ENTR.         JOETTE                         : Entered      - ENTERED BY
SRVC.         SCHLUMBERGER                   : Scn          - SERVICE COMPANY
DATE.         08-24-92                       : Date         - LOG DATE
STRT.M        185.928                        : top_depth    - START DEPTH
STOP.M        377.928                        : bot_depth    - STOP DEPTH
STEP.M        0.25                           : increment    - STEP LENGTH
 NULL. -999.2500:NULL Value
~CURVE INFORMATION BLOCK
#MNEM UNIT       ERCB CURVE CODE    CURVE DESCRIPTION
#-----------   ------------------   ----------------------------------
DEPT.M        00 001 00 00         : DEPTH        - DEPTH
GR  .API      00 310 00 00         : GR           - GAMMA RAY
NPHI.V/V      00 330 00 00         : PHIN         - NEUTRON POROSITY (SANDSTONE)
ILD .OHMM     00 120 00 00         : RESD         - DEEP RESISTIVITY (DIL)
~PARAMETER INFORMATION
#MNEM.UNIT           DATA             DESCRIPTION OF MNEMONIC
#---------         -----------     ------------------------------
GL  .M        593.446              : gl           - GROUND LEVEL ELEVATION
EREF.M        596.494              : kb           - ELEVATION OF DEPTH REFERENCE
DATM.M        596.494              : datum        - DATUM ELEVATION
TDD .M        396.85               : tdd          - TOTAL DEPTH DRILLER
RUN .         ONE                  : Run          - RUN NUMBER
ENG .         BILL                 : Engineer     - RECORDING ENGINEER
WIT .         JIM                  : Witness      - WITNESSED BY
MUD .         GEL                  : Mud_type     - MUD TYPE
MATR.         SANDSTONE            : Logunit      - NEUTRON MATRIX
TMAX.C        24.4444              : BHT          - MAXIMUM RECORDED TEMPERATURE
BHTD.M        396.85               : BHTDEP       - MAXIMUM RECORDED TEMPERATURE
RMT .C        13.3333              : MDTP         - TEMPERATURE OF MUD
MUDD.KG/M     8700                 : MWT          - MUD DENSITY
NEUT.         1                    : NEUTRON      - NEUTRON TYPE
RESI.         0                    : RESIST       - RESISTIVITY TYPE
RM  .OHMM     3.82                 : RM           - RESISTIVITY OF MUD
RMC .OHMM     3.82                 : RMC          - RESISTIVITY OF MUD CAKE
RMF .OHMM     3.82                 : RMF          - RESISTIVITY OF MUD FILTRATE
SUFT.C        15                   : SUFT         - SURFACE TEMPERATURE
~A  DEPTH       GR     PHIN     RESD
# ...
  240.178   55.261    0.373    9.495
  240.428   56.493    0.368    9.507
  240.678   55.974    0.362    9.525
  240.928   55.427    0.353    9.742
  241.178   52.553    0.352   10.568
  241.428   48.475    0.346   11.196
  241.678   44.411    0.348   11.405
  241.928   47.997    0.356   11.625
  242.178   46.875    0.360   11.652
  242.428   49.900    0.358   11.461
  242.678   52.897    0.356   11.472
  242.928   52.938    0.351   11.293
  243.178   48.874    0.337   11.110
  243.428   42.456    0.343   11.125
  243.678   37.215    0.350   11.136
  243.928   33.164    0.349   11.162
  244.178   32.028    0.345   11.173
  244.428   31.509    0.349   11.196
  244.678   35.081    0.352   11.207
  244.928   38.106    0.356   11.229
  245.178   37.545    0.361   11.237
  245.428   35.834    0.353   11.256
  245.678   38.846    0.357   11.073
  245.928   43.608    0.362   11.084
  246.178   49.562    0.366   10.905
  246.428   50.780    0.364   10.923
  246.678   46.730    0.354   10.938
  246.928   50.316    0.350   10.953
  247.178   54.490    0.349   10.766
  247.428   58.678    0.346   10.789
  247.678   54.012    0.353   10.800
  247.928   47.607    0.356   10.613
  248.178   49.414    0.363   10.236
  248.428   57.133    0.371   10.045
  248.678   52.466    0.377    9.858
  248.928   59.009    0.370    9.672
  249.178   57.887    0.360    9.485
  249.428   56.765    0.361    9.104
  249.678   62.116    0.367    8.917
  249.928   69.835    0.378    8.730
  250.178   74.598    0.384    8.547
  250.428   75.830    0.384    8.562
  250.678   72.354    0.380    8.782
  250.928   70.644    0.372    9.205
  251.178   67.757    0.368    9.619
  251.428   64.281    0.364   10.046
  251.678   61.407    0.361   10.666
  251.928   58.520    0.360   11.088
  252.178   58.575    0.355   11.305
  252.428   61.572    0.352   11.323
  252.678   66.937    0.355   11.133
  252.928   69.921    0.358   11.152
  253.178   68.224    0.363   10.980
  253.428   64.735    0.368   10.991
  253.678   62.450    0.358   10.998
  253.928   66.022    0.358   11.017
  254.178   68.458    0.361   11.036
  254.428   67.309    0.362   11.051
  254.678   71.497    0.362   11.268
  254.928   68.610    0.363   11.286
  255.178   69.855    0.363   11.507
  255.428   68.131    0.361   11.727
  255.678   58.182    0.357   11.940
  255.928   49.985    0.352   12.568
  256.178   43.566    0.346   12.983
  256.428   43.621    0.340   14.220
  256.678   43.088    0.337   15.038
  256.928   46.688    0.336   16.667
  257.178   45.566    0.336   21.932
  257.428   42.692    0.337   29.417
  257.678   40.968    0.338   34.076
  257.928   38.094    0.339   34.091
  258.178   35.795    0.327   31.890
  258.428   33.483    0.330   29.080
  258.678   31.184    0.334   25.463
  258.928   30.651    0.332   20.636
  259.178   34.825    0.331   15.808
  259.428   36.071    0.331   12.796
  259.678   40.245    0.331    9.986
  259.928   44.419    0.332    8.996
  260.178   45.077    0.334    9.015
  260.428   42.189    0.335    9.441
  260.678   39.316    0.329    9.654
  260.928   38.166    0.313    9.871
  261.178   35.867    0.292   10.498
  261.428   33.569    0.219   10.917
  261.678   34.212    0.127   11.130
  261.928   35.458    0.103   10.951
  262.178   32.557    0.078   10.558
  262.428   36.157    0.043    9.774
  262.678   43.862    0.014    9.381
  262.928   38.620   -0.015    8.597
  263.178   33.981   -0.034    8.204
  263.428   35.200   -0.024    7.618
  263.678   35.255   -0.003    7.229
  263.928   35.912    0.030    7.042
  264.178   35.953    0.056    6.459
  264.428   38.390    0.112    6.471
  264.678   40.197    0.133    6.089
  264.928   44.371    0.168    5.899
  265.178   50.899    0.207    5.914
  265.428   55.101    0.317    5.936
  265.678   52.200    0.344    5.948
  265.928   49.901    0.345    5.966
  266.178   55.253    0.353    5.966
  266.428   78.272    0.354    7.214
  266.678   78.327    0.355    6.220
  266.928   74.852    0.350    6.235
  267.178   70.787    0.346    6.452
  267.428   62.015    0.348    6.676
  267.678   60.318    0.349    6.691
  267.928   64.493    0.340    6.710
  268.178   68.653    0.337    6.725
  268.428   74.607    0.328    6.740
  268.678   79.958    0.384    6.557
  268.928   84.721    0.394    5.974
  269.178   90.675    0.403    5.981
  269.428   86.022    0.401    6.807
  269.678   81.383    0.400    7.839
  269.928   79.070    0.401    8.059
  270.178   76.183    0.405    8.067
  270.428   79.783    0.407    8.493
  270.678   84.532    0.404    8.911
  270.928   92.237    0.412    8.926
  271.178   92.320    0.410    8.134
  271.428   89.419    0.397    5.728
  271.678   85.368    0.391    3.329
  271.928   86.012    0.395    2.738
  272.178   87.244    0.402    3.766
  272.428   83.754    0.413    4.184
  272.678   82.057    0.417    4.401
  272.928   83.289    0.414    4.424
  273.178   83.344    0.413    4.237
  273.428   84.576    0.410    3.844
  273.678   85.206    0.404    3.661
  273.928   77.022    0.396    3.475
  274.178   70.016    0.389    3.691
  274.428   69.496    0.395    3.915
  274.678   73.082    0.399    4.330
  274.928   70.783    0.404    5.160
  275.178   69.073    0.400    5.575
  275.428   70.319    0.396    6.610
  275.678   73.302    0.384    6.819
  275.928   78.065    0.378    6.636
  276.178   82.842    0.378    6.258
  276.428   80.529    0.368    6.068
  276.678   74.699    0.367    5.885
  276.928   70.046    0.372    6.307
  277.178   68.924    0.378    6.726
  277.428   74.878    0.376    7.342
  277.678   72.579    0.372    8.572
  277.928   64.382    0.371    9.599
  278.178   67.981    0.378   10.227
  278.428   72.744    0.396   10.238
  278.678   78.096    0.410   10.253
  278.928   87.580    0.421   10.268
  279.178   88.224    0.431   10.283
  279.428   82.394    0.432   10.709
  279.678   76.564    0.432   12.140
  279.928   78.385    0.431   20.832
  280.178   80.205    0.425   29.127
  280.428   87.322    0.416   31.563
  280.678   86.214    0.414   35.617
  280.928   84.490    0.415   36.440
  281.178   81.014    0.415   31.007
  281.428   85.216    0.411   22.551
  281.678   84.696    0.404   18.123
  281.928   84.135    0.397   14.102
  282.178   81.850    0.395   11.090
  282.428   79.565    0.404   10.306
  282.678   81.947    0.415   10.317
  282.928   83.192    0.417   10.339
  283.178   82.645    0.413   10.552
  283.428   79.197    0.411   10.552
  283.678   77.459    0.403    9.988
  283.928   73.394    0.397   10.399
  284.178   71.109    0.390   10.422
  284.428   67.620    0.385   10.037
  284.678   62.967    0.376    9.652
  284.928   57.726    0.369    9.458
  285.178   51.896    0.355    8.875
  285.428   42.549    0.333    8.684
  285.678   38.484    0.334    8.303
  285.928   37.363    0.332    8.113
  286.178   36.829    0.323    7.933
  286.428   35.707    0.311    7.945
  286.678   37.514    0.284    7.963
  286.928   45.822    0.279    7.986
  287.178   44.700    0.253    8.199
  287.428   47.109    0.245    8.217
  287.678   47.752    0.222    8.229
  287.928   46.042    0.175    8.046
  288.178   44.331    0.053    8.064
  288.428   42.621    0.055    7.478
  288.678   43.867    0.079    7.089
  288.928   44.510    0.106    6.906
  289.178   45.140    0.228    6.917
  289.428   50.505    0.325    6.940
  289.678   57.622    0.339    6.958
  289.928   61.796    0.341    7.171
  290.178   58.909    0.342    7.190
  290.428   58.964    0.340    7.414
  290.678   73.156    0.338    7.422
  290.928   73.800    0.338    7.440
  291.178   65.616    0.332    7.459
  291.428   60.375    0.325    7.470
  291.678   66.903    0.323    7.493
  291.928   64.618    0.326    7.508
  292.178   61.731    0.336    7.321
  292.428   69.436    0.351    7.336
  292.678   75.376    0.358    7.157
  292.928   73.077    0.361    6.970
  293.178   74.898    0.361    6.787
  293.428   76.718    0.362    6.394
  293.678   73.831    0.362    5.808
  293.928   69.766    0.363    5.023
  294.178   72.203    0.364    4.631
