~VERSION INFORMATION
 VERS.                 2.0:   CWLS LOG ASCII STANDARD -VERSION 2.0
 WRAP.                  NO:   ONE LINE PER DEPTH STEP
~WELL INFORMATION BLOCK
#MNEM.UNIT           DATA                    DESCRIPTION OF MNEMONIC
#---------    -------------------            -------------------------------
# Generated from Intellog Unique Number	CS_69_70/WELL/855
WELL.         ET AL HEART LAKE               : Well_name    - WELL
LOC .         00/09-09-069-09W4/0            : Location     - LOCATION
UWI .         00/09-09-069-09W4/0            : Uwi          - UNIQUE WELL ID
ENTR.         SP                             : Entered      - ENTERED BY
SRVC.         SCHLUMBERGER                   : Scn          - SERVICE COMPANY
STRT.M        400                            : top_depth    - START DEPTH
STOP.M        635                            : bot_depth    - STOP DEPTH
STEP.M        0.25                           : increment    - STEP LENGTH
 NULL. -999.2500:NULL Value
~CURVE INFORMATION BLOCK
#MNEM UNIT       ERCB CURVE CODE    CURVE DESCRIPTION
#-----------   ------------------   ----------------------------------
DEPT.M        00 001 00 00         : DEPTH        - DEPTH
ILD .OHMM     00 120 00 00         : RESD         - DEEP RESISTIVITY (DIL)
DPHI.V/V      00 890 00 00         : PHID         - DENSITY POROSITY (LIMESTONE)
NPHI.V/V      00 330 00 00         : PHIN         - NEUTRON POROSITY (LIMESTONE)
GR  .API      00 310 00 00         : GR           - GAMMA RAY
~PARAMETER INFORMATION
#MNEM.UNIT           DATA             DESCRIPTION OF MNEMONIC
#---------         -----------     ------------------------------
GL  .M        743.29               : gl           - GROUND LEVEL ELEVATION
EREF.M        746.5                : kb           - ELEVATION OF DEPTH REFERENCE
DATM.M        743.29               : datum        - DATUM ELEVATION
TDD .M        640                  : tdd          - TOTAL DEPTH DRILLER
RUN .         ONE                  : Run          - RUN NUMBER
ENG .         BILL                 : Engineer     - RECORDING ENGINEER
WIT .         JIM                  : Witness      - WITNESSED BY
MUD .         GEL                  : Mud_type     - MUD TYPE
MATR.         LIMESTONE            : Logunit      - NEUTRON MATRIX
TMAX.C        23.3                 : BHT          - MAXIMUM RECORDED TEMPERATURE
BHTD.M        640                  : BHTDEP       - MAXIMUM RECORDED TEMPERATURE
MATR.         1                    : LOGUNIT      - NEUTRON MATRIX
RMT .C        25                   : MDTP         - TEMPERATURE OF MUD
NEUT.         1                    : NEUTRON      - NEUTRON TYPE
RESI.         0                    : RESIST       - RESISTIVITY TYPE
RMC .OHMM     0.25                 : RMC          - RESISTIVITY OF MUD CAKE
RMF .OHMM     0.25                 : RMF          - RESISTIVITY OF MUD FILTRATE
SUFT.C        15                   : SUFT         - SURFACE TEMPERATURE
~A  DEPTH     RESD     PHID     PHIN       GR
  400.000    2.577    0.222    0.505  118.957
  400.250    2.601    0.226    0.497  121.683
  400.500    2.635    0.222    0.478  125.014
  400.750    2.665    0.214    0.469  125.133
  401.000    2.690    0.214    0.490  124.099
  401.250    2.695    0.219    0.507  121.368
  401.500    2.751    0.221    0.497  116.818
  401.750    2.782    0.221    0.486  114.148
  402.000    2.761    0.224    0.477  112.265
  402.250    2.725    0.220    0.486  113.778
  402.500    2.715    0.223    0.502  117.353
  402.750    2.715    0.227    0.512  116.744
  403.000    2.705    0.231    0.519  115.165
  403.250    2.690    0.233    0.513  115.344
  403.500    2.665    0.233    0.504  116.432
  403.750    2.670    0.237    0.494  114.308
  404.000    2.690    0.234    0.480  111.636
  404.250    2.710    0.225    0.471  110.846
  404.500    2.735    0.217    0.502  110.479
  404.750    2.771    0.221    0.528  110.234
  405.000    2.777    0.225    0.534  110.656
  405.250    2.787    0.228    0.536  112.290
  405.500    2.829    0.240    0.544  114.227
  405.750    2.845    0.245    0.554  115.134
  406.000    2.850    0.241    0.562  115.920
  406.250    2.813    0.247    0.567  115.553
  406.500    2.782    0.250    0.519  113.731
  406.750    2.710    0.250    0.496  111.849
  407.000    2.655    0.249    0.537  110.694
  407.250    2.650    0.254    0.564  110.328
  407.500    2.660    0.256    0.576  109.476
  407.750    2.695    0.257    0.555  108.625
  408.000    2.725    0.250    0.510  108.197
  408.250    2.725    0.245    0.489  108.862
  408.500    2.725    0.241    0.507  110.436
  408.750    2.725    0.238    0.504  111.099
  409.000    2.720    0.236    0.498  108.671
  409.250    2.690    0.234    0.515  105.637
  409.500    2.645    0.229    0.526  104.483
  409.750    2.601    0.225    0.533  105.995
  410.000    2.567    0.228    0.532  109.994
  410.250    2.567    0.235    0.540  113.023
  410.500    2.515    0.239    0.546  113.930
  410.750    2.482    0.255    0.525  114.412
  411.000    2.464    0.258    0.510  113.864
  411.250    2.459    0.245    0.521  112.527
  411.500    2.464    0.247    0.511  112.100
  411.750    2.482    0.256    0.497  112.400
  412.000    2.506    0.236    0.511  112.337
  412.250    2.524    0.220    0.529  112.273
  412.500    2.562    0.208    0.533  110.331
  412.750    2.616    0.209    0.505  106.933
  413.000    2.655    0.017    0.529   95.774
  413.250    2.710    0.004    0.544   85.525
  413.500    2.797   -0.003    0.507   95.829
  413.750    2.877    0.140    0.469  114.561
  414.000    2.953    0.164    0.487  115.043
  414.250    2.970    0.191    0.512  118.739
  414.500    2.909    0.217    0.517  119.828
  414.750    2.818    0.216    0.506  116.369
  415.000    2.797    0.214    0.486  112.183
  415.250    2.953    0.215    0.471  122.487
  415.500    3.014    0.216    0.476  124.364
  415.750    2.986    0.225    0.481  116.964
  416.000    3.003    0.211    0.477  109.140
  416.250    3.083    0.200    0.463  104.469
  416.500    3.188    0.192    0.449  104.587
  416.750    3.218    0.198    0.440  107.555
  417.000    3.188    0.223    0.456  113.616
  417.250    3.117    0.220    0.472  115.492
  417.500    3.003    0.210    0.477  118.279
  417.750    2.872    0.208    0.480  119.974
  418.000    2.725    0.222    0.505  113.058
  418.250    2.665    0.233    0.530  110.267
  418.500    2.630    0.223    0.515  107.172
  418.750    2.650    0.213    0.506  109.110
  419.000    2.735    0.213    0.497  113.230
  419.250    2.818    0.203    0.499  115.349
  419.500    2.829    0.202    0.503  113.224
  419.750    2.824    0.213    0.493  110.614
  420.000    2.840    0.217    0.479  109.339
  420.250    2.882    0.217    0.466  108.366
  420.500    2.915    0.211    0.459  109.333
  420.750    2.942    0.207    0.466  108.724
  421.000    2.904    0.203    0.487  106.963
  421.250    2.834    0.201    0.499  104.717
  421.500    2.829    0.204    0.497  106.412
  421.750    2.893    0.232    0.480  115.140
  422.000    2.931    0.222    0.467  115.743
  422.250    2.953    0.221    0.460  112.951
  422.500    2.920    0.215    0.452  109.614
  422.750    2.782    0.209    0.445  107.550
  423.000    2.690    0.251    0.468  104.758
  423.250    2.986    0.292    0.496   97.419
  423.500    3.613    0.304    0.417   88.079
  423.750    4.843    0.254    0.261   80.316
  424.000    8.448    0.288    0.191   65.579
  424.250   15.498    0.317    0.179   50.722
  424.500   20.015    0.337    0.184   45.566
  424.750   23.854    0.350    0.206   43.441
  425.000   26.582    0.366    0.215   47.804
  425.250   27.749    0.331    0.202   47.983
  425.500   25.848    0.324    0.205   45.858
  425.750   21.932    0.348    0.246   49.251
  426.000   19.209    0.348    0.284   54.280
  426.250   15.849    0.336    0.329   58.158
  426.500   13.523    0.317    0.356   64.461
  426.750   11.389    0.294    0.374   70.945
  427.000    9.574    0.274    0.394   77.794
  427.250    8.169    0.255    0.405   85.249
  427.500    6.983    0.244    0.398   93.492
  427.750    6.232    0.256    0.389  102.887
  428.000    5.848    0.241    0.386  105.491
  428.250    5.708    0.220    0.385  109.005
  428.500    5.613    0.206    0.385  112.094
  428.750    5.592    0.204    0.390  108.029
  429.000    5.561    0.197    0.391  112.695
  429.250    5.530    0.210    0.406  115.724
  429.500    5.489    0.207    0.425  116.812
  429.750    5.397    0.202    0.439  116.628
  430.000    5.258    0.209    0.421  116.686
  430.250    5.065    0.210    0.404  117.652
  430.500    4.999    0.202    0.408  117.590
  430.750    5.199    0.197    0.397  108.068
  431.000    5.489    0.225    0.372  100.365
  431.250    5.826    0.258    0.350   91.934
  431.500    6.116    0.277    0.334   85.081
  431.750    6.185    0.300    0.358   80.470
  432.000    6.139    0.321    0.379   87.258
  432.250    5.947    0.282    0.396   94.955
  432.500    5.489    0.309    0.413  105.320
  432.750    5.180    0.291    0.428  115.018
  433.000    5.027    0.271    0.413   90.400
  433.250    5.458    0.253    0.353   80.150
  433.500    6.337    0.251    0.329   78.996
  433.750    7.049    0.237    0.333   82.449
  434.000    7.652    0.225    0.365   78.869
  434.250    7.372    0.217    0.382   88.627
  434.500    6.517    0.196    0.397   99.417
  434.750    5.783    0.181    0.409  110.085
  435.000    5.317    0.167    0.422  114.326
  435.250    5.037    0.142    0.433  110.261
  435.500    4.622    0.101    0.430  113.533
  435.750    4.403    0.114    0.421  124.079
  436.000    4.140    0.172    0.451  128.624
  436.250    3.821    0.183    0.472  132.138
  436.500    3.606    0.184    0.482  127.224
  436.750    3.391    0.173    0.483  129.889
  437.000    3.043    0.179    0.490  135.465
  437.250    2.787    0.196    0.506  139.706
  437.500    2.606    0.214    0.513  141.643
  437.750    2.558    0.230    0.514  126.422
  438.000    3.309    0.243    0.523  109.443
  438.250    4.990    0.231    0.489   93.616
  438.500    6.867    0.261    0.484   81.608
  438.750    8.480    0.297    0.442   70.692
  439.000    8.448    0.318    0.366   61.109
  439.250    7.155    0.363    0.254   54.680
  439.500    6.243    0.382    0.328   50.676
  439.750    5.407    0.355    0.365   58.008
  440.000    4.843    0.340    0.388   64.069
  440.250    4.816    0.330    0.402   69.948
  440.500    4.834    0.336    0.394   74.553
  440.750    5.103    0.347    0.415   70.367
  441.000    5.719    0.356    0.424   66.908
  441.250    6.093    0.352    0.417   65.571
  441.500    6.349    0.352    0.421   68.054
  441.750    6.337    0.352    0.440   70.780
  442.000    5.697    0.359    0.437   70.777
  442.250    5.258    0.361    0.432   61.255
  442.500    4.934    0.349    0.410   57.736
  442.750    4.486    0.339    0.392   56.581
  443.000    4.242    0.329    0.387   56.397
  443.250    4.041    0.326    0.405   56.818
