~VERSION INFORMATION
 VERS.                 2.0:   CWLS LOG ASCII STANDARD -VERSION 2.0
 WRAP.                  NO:   ONE LINE PER DEPTH STEP
~WELL INFORMATION BLOCK
#MNEM.UNIT           DATA                    DESCRIPTION OF MNEMONIC
#---------    -------------------            -------------------------------
# Generated from Intellog Unique Number	CW_70_72/WELL/2904
NULL.         -999.25                        : NULL_VALUE
COMP .        CALMARK RESOURCES LTD          :  COMPANY
WELL.         CALMARK ET AL MISTAHAE         : Well_name    - WELL              
LOC .         09-25-079-01W5                 : Location     - LOCATION          
UWI .         00/09-25-079-01W5/0            : Uwi          - UNIQUE WELL ID    
ENTR.         MAX                            : Entered      - ENTERED BY        
SRVC.         COMPUTALOG                     : Scn          - SERVICE COMPANY   
DATE.         25 FEB 89                      : Date         - LOG DATE
STRT.M        245                            : top_depth    - START DEPTH       
STOP.M        500                            : bot_depth    - STOP DEPTH        
STEP.M        0.25                           : increment    - STEP LENGTH       
~CURVE INFORMATION BLOCK
#MNEM UNIT       ERCB CURVE CODE    CURVE DESCRIPTION
#-----------   ------------------   ----------------------------------
DEPT.M        00 001 00 00         : DEPTH        - DEPTH                       
ILD .OHMM     00 120 00 00         : RESD         - DEEP RESISTIVITY (DIL)      
NPHI.V/V      00 330 00 00         : PHIN         - NEUTRON POROSITY (SANDSTONE)
DPHI.V/V      00 890 00 00         : PHID         - DENSITY POROSITY (SANDSTONE)
CALI.MM       00 280 01 00         : CAL          - CALIPER                     
GR  .API      00 310 00 00         : GR           - GAMMA RAY                   
~PARAMETER INFORMATION       
#MNEM.UNIT           DATA             DESCRIPTION OF MNEMONIC
#---------         -----------     ------------------------------
GL  .M        570.5                : gl           - GROUND LEVEL ELEVATION      
EREF.M        574.14               : kb           - ELEVATION OF DEPTH REFERENCE
DATM.M        570.5                : datum        - DATUM ELEVATION             
TDD .M        521                  : tdd          - TOTAL DEPTH DRILLER         
RUN .         ONE                  : Run          - RUN NUMBER                  
ENG .         BILL                 : Engineer     - RECORDING ENGINEER          
WIT .         JIM                  : Witness      - WITNESSED BY                
MUD .         GEL                  : Mud_type     - MUD TYPE                    
MATR.         SANDSTONE            : Logunit      - NEUTRON MATRIX              
TMAX.C        21                   : BHT          - MAXIMUM RECORDED TEMPERATURE
BHTD.M        521                  : BHTDEP       - MAXIMUM RECORDED TEMPERATURE
RMT .C        14.4                 : MDTP         - TEMPERATURE OF MUD          
MUDD.KG/M     950                  : MWT          - MUD DENSITY                 
NEUT.         1                    : NEUTRON      - NEUTRON TYPE                
RESI.         0                    : RESIST       - RESISTIVITY TYPE            
RM  .OHMM     2.2                  : RM           - RESISTIVITY OF MUD          
RMC .OHMM     1.9                  : RMC          - RESISTIVITY OF MUD CAKE     
RMF .OHMM     2                    : RMF          - RESISTIVITY OF MUD FILTRATE 
SUFT.C        -20                  : SUFT         - SURFACE TEMPERATURE         
~A  DEPTH     RESD     PHIN     PHID      CAL       GR
  245.000    2.927    0.511    0.234  174.962   96.102
  245.250    2.926    0.498    0.236  172.994   96.685
  245.500    2.926    0.487    0.236  172.006   96.974
  245.750    2.952    0.483    0.234  174.937   96.382
  246.000    2.979    0.509    0.239  178.845   95.495
  246.250    3.005    0.514    0.235  181.288   95.197
  246.500    3.005    0.507    0.240  179.811   95.486
  246.750    2.977    0.505    0.254  177.843   95.480
  247.000    2.950    0.512    0.255  176.365   96.945
  247.250    2.922    0.521    0.244  175.867   97.529
  247.500    2.895    0.517    0.232  174.879   98.699
  247.750    2.921    0.511    0.218  174.380  100.458
  248.000    3.141    0.504    0.206  174.374  100.746
  248.250    3.979    0.493    0.210  174.856   99.272
  248.500    5.087    0.455    0.230  175.337   93.390
  248.750    6.328    0.413    0.235  172.881   82.805
  249.000    7.800    0.369    0.194  167.974   42.830
  249.250   10.247    0.334    0.189  165.516   34.302
  249.500   12.863    0.342    0.219  167.956   37.236
  249.750   15.429    0.368    0.242  171.377   42.227
  250.000   17.364    0.390    0.272  170.879   45.456
  250.250   19.364    0.407    0.308  167.933   46.039
  250.500   21.013    0.434    0.305  166.455   45.446
  250.750   23.434    0.440    0.291  167.428   45.735
  251.000   25.663    0.414    0.284  167.419   46.318
  251.250   27.596    0.401    0.272  167.412   45.725
  251.500   30.496    0.383    0.240  166.912   45.133
  251.750   33.093    0.360    0.203  167.394   45.421
  252.000   34.944    0.361    0.191  169.345   47.179
  252.250   36.235    0.385    0.250  171.297   48.939
  252.500   37.572    0.401    0.300  173.248   49.228
  252.750   38.957    0.401    0.312  173.729   46.577
  253.000   40.394    0.387    0.313  174.211   45.691
  253.250   41.885    0.380    0.327  174.694   46.862
  253.500   43.430    0.390    0.329  174.683   47.738
  253.750   45.860    0.397    0.327  175.167   48.028
  254.000   48.427    0.396    0.312  175.648   47.434
  254.250   52.075    0.368    0.289  173.681   46.841
  254.500   57.548    0.340    0.261  169.754   46.543
  254.750   61.323    0.314    0.225  168.766   45.068
  255.000   61.312    0.285    0.175  168.758   43.889
  255.250   56.995    0.270    0.154  169.241   43.884
  255.500   50.169    0.280    0.146  170.212   45.349
  255.750   43.361    0.336    0.172  173.632   47.988
  256.000   41.805    0.385    0.268  176.564   51.216
  256.250   41.417    0.402    0.304  177.534   52.094
  256.500   42.171    0.412    0.321  177.526   52.089
  256.750   43.330    0.421    0.320  177.517   50.908
  257.000   45.340    0.432    0.319  177.511   50.903
  257.250   47.444    0.435    0.322  178.481   52.662
  257.500   49.644    0.417    0.324  178.473   54.714
  257.750   50.548    0.414    0.325  178.466   56.473
  258.000   50.539    0.431    0.326  178.457   57.056
  258.250   48.724    0.440    0.329  178.449   53.524
  258.500   44.074    0.443    0.334  178.931   50.580
  258.750   39.507    0.426    0.331  178.923   49.694
  259.000   37.742    0.401    0.309  177.935   51.159
  259.250   37.055    0.397    0.303  176.458   50.272
  259.500   37.055    0.403    0.314  175.470   49.386
  259.750   37.041    0.408    0.317  175.950   50.261
  260.000   38.060    0.416    0.322  175.454   48.200
  260.250   39.107    0.425    0.331  172.996   47.607
  260.500   39.458    0.441    0.339  173.478   48.484
  260.750   38.388    0.447    0.341  173.471   49.067
  261.000   36.340    0.431    0.340  173.463   47.886
  261.250   34.405    0.411    0.340  173.455   49.352
  261.500   31.983    0.401    0.345  173.934   53.755
  261.750   29.462    0.406    0.345  175.397   55.807
  262.000   29.190    0.407    0.342  177.349   54.039
  262.250   29.451    0.415    0.339  178.319   49.626
  262.500   29.716    0.429    0.335  177.331   46.681
  262.750   29.441    0.453    0.331  174.385   47.852
  263.000   28.905    0.452    0.332  171.929   49.611
  263.250   27.615    0.442    0.333  169.471   50.782
  263.500   26.623    0.443    0.333  168.482   49.013
  263.750   25.434    0.441    0.334  167.984   46.364
  264.000   24.743    0.440    0.334  168.467   47.240
  264.250   24.739    0.436    0.332  167.968   49.586
  264.500   25.190    0.428    0.329  167.469   49.288
  264.750   27.087    0.425    0.326  166.973   47.520
  265.000   28.865    0.436    0.323  165.986   45.164
  265.250   31.039    0.452    0.324  164.998   46.628
  265.500   32.479    0.437    0.318  164.988   45.742
  265.750   33.986    0.353    0.270  164.981   43.092
  266.000   35.239    0.295    0.149  164.973   39.854
  266.250   34.282    0.247    0.039  164.473   39.555
  266.500   32.160    0.201    0.038  164.956   40.139
  266.750   29.898    0.176    0.083  165.438   42.779
  267.000   26.800    0.196    0.126  165.920   46.007
  267.250   23.589    0.282    0.157  165.912   45.707
  267.500   21.533    0.332    0.217  166.391   46.290
  267.750   20.760    0.371    0.284  166.876   46.873
  268.000   20.381    0.396    0.323  167.356   44.517
  268.250   20.378    0.413    0.333  167.349   43.924
  268.500   20.560    0.436    0.339  167.340   46.565
  268.750   20.746    0.448    0.354  166.844   47.736
  269.000   20.931    0.453    0.361  166.345   44.792
  269.250   21.119    0.450    0.360  165.847   43.906
  269.500   21.308    0.447    0.356  165.839   44.489
  269.750   21.499    0.441    0.355  165.829   47.716
  270.000   21.692    0.445    0.358  165.331   48.593
  270.250   21.886    0.451    0.361  165.323   47.118
  270.500   21.883    0.455    0.360  164.826   46.232
  270.750   21.879    0.452    0.363  164.328   46.227
  271.000   21.875    0.438    0.371  163.831   46.516
  271.250   21.871    0.443    0.368  163.824   46.511
  271.500   21.867    0.446    0.353  166.263   45.625
  271.750   21.863    0.442    0.351  167.236   44.444
  272.000   21.859    0.442    0.356  166.738   45.027
  272.250   21.658    0.447    0.356  164.770   47.373
  272.500   21.654    0.454    0.347  164.272   48.251
  272.750   21.454    0.453    0.347  164.263   49.714
  273.000   21.256    0.434    0.348  165.235   51.179
  273.250   20.680    0.421    0.344  165.718   52.938
  273.500   19.224    0.431    0.334  165.708   54.697
  273.750   15.877    0.435    0.331  165.700   56.750
  274.000   12.192    0.442    0.329  164.712   57.332
  274.250    9.193    0.455    0.323  164.706   57.620
  274.500    7.059    0.458    0.303  165.186   59.380
  274.750    6.993    0.465    0.272  166.158   62.901
  275.000    7.520    0.455    0.257  166.640   63.191
  275.250    9.021    0.451    0.236  166.632   61.422
  275.500   10.918    0.424    0.233  167.603   58.773
  275.750   14.608    0.402    0.250  168.086   53.183
  276.000   19.017    0.397    0.262  169.057   38.484
  276.250   25.674    0.402    0.271  169.538   37.597
  276.500   29.964    0.410    0.278  169.530   37.593
  276.750   30.234    0.413    0.291  169.033   39.351
  277.000   28.363    0.421    0.321  168.046   41.698
  277.250   25.424    0.424    0.345  166.568   44.631
  277.500   22.175    0.418    0.372  166.069   45.803
  277.750   20.803    0.407    0.373  170.960   46.091
  278.000   20.239    0.421    0.359  172.909   45.497
  278.250   20.421    0.424    0.343  170.943   45.199
  278.500   20.232    0.416    0.339  167.014   45.783
  278.750   19.864    0.406    0.335  167.009   45.778
  279.000   19.150    0.397    0.332  167.000   45.773
  279.250   18.631    0.401    0.326  167.482   45.768
  279.500   18.459    0.406    0.319  167.473   46.057
  279.750   18.122    0.415    0.316  167.464   45.170
  280.000   18.120    0.421    0.323  167.947   45.164
  280.250   18.449    0.421    0.317  168.918   45.160
  280.500   18.957    0.415    0.305  168.909   45.449
  280.750   19.301    0.405    0.311  168.413   46.327
  281.000   18.949    0.406    0.325  166.936   45.146
  281.250   18.269    0.414    0.330  165.948   43.672
