~VERSION INFORMATION
 VERS.                 2.0:   CWLS LOG ASCII STANDARD -VERSION 2.0
 WRAP.                  NO:   ONE LINE PER DEPTH STEP
~WELL INFORMATION BLOCK
#MNEM.UNIT           DATA                    DESCRIPTION OF MNEMONIC
#---------    -------------------            -------------------------------
# Generated from Intellog Unique Number	CW_79_81/WELL/416
WELL.         05-12-079-21W4                 : Well_name    - WELL
LOC .         00/05-12-079-21W4/0            : Location     - LOCATION
UWI .         00/05-12-079-21W4/0            : Uwi          - UNIQUE WELL ID
ENTR.         MAX                            : Entered      - ENTERED BY
SRVC.         SCHLUMBERGER                   : Scn          - SERVICE COMPANY
STRT.M        190                            : top_depth    - START DEPTH
STOP.M        415                            : bot_depth    - STOP DEPTH
STEP.M        0.25                           : increment    - STEP LENGTH
 NULL. -999.2500:NULL Value
~CURVE INFORMATION BLOCK
#MNEM UNIT       ERCB CURVE CODE    CURVE DESCRIPTION
#-----------   ------------------   ----------------------------------
DEPT.M        00 001 00 00         : DEPTH        - DEPTH
ILD .OHMM     00 120 00 00         : RESD         - DEEP RESISTIVITY (DIL)
NPHI.V/V      00 330 00 00         : PHIN         - NEUTRON POROSITY (SANDSTONE)
DPHI.V/V      00 890 00 00         : PHID         - DENSITY POROSITY (SANDSTONE)
CALI.MM       00 280 01 00         : CAL          - CALIPER
GR  .API      00 310 00 00         : GR           - GAMMA RAY
~PARAMETER INFORMATION
#MNEM.UNIT           DATA             DESCRIPTION OF MNEMONIC
#---------         -----------     ------------------------------
GL  .M        566.25               : gl           - GROUND LEVEL ELEVATION
EREF.M        569.55               : kb           - ELEVATION OF DEPTH REFERENCE
DATM.M        566.25               : datum        - DATUM ELEVATION
TDD .M        420                  : tdd          - TOTAL DEPTH DRILLER
RUN .         ONE                  : Run          - RUN NUMBER
ENG .         BILL                 : Engineer     - RECORDING ENGINEER
WIT .         JIM                  : Witness      - WITNESSED BY
MUD .         GEL                  : Mud_type     - MUD TYPE
MATR.         SANDSTONE            : Logunit      - NEUTRON MATRIX
TMAX.C        23.3                 : BHT          - MAXIMUM RECORDED TEMPERATURE
BHTD.M        420                  : BHTDEP       - MAXIMUM RECORDED TEMPERATURE
RMT .C        12.8                 : MDTP         - TEMPERATURE OF MUD
MUDD.KG/M     1160                 : MWT          - MUD DENSITY
NEUT.         1                    : NEUTRON      - NEUTRON TYPE
RESI.         0                    : RESIST       - RESISTIVITY TYPE
RM  .OHMM     10.7                 : RM           - RESISTIVITY OF MUD
RMC .OHMM     0.25                 : RMC          - RESISTIVITY OF MUD CAKE
RMF .OHMM     11.3                 : RMF          - RESISTIVITY OF MUD FILTRATE
SUFT.C        -5                   : SUFT         - SURFACE TEMPERATURE
~A  DEPTH     RESD     PHIN     PHID      CAL       GR
# ...
  336.000   11.264    0.422    0.205  156.744   99.522
  336.250   10.763    0.424    0.199  156.745   97.741
  336.500   10.571    0.432    0.192  156.747   98.632
  336.750   10.669    0.438    0.185  156.253  101.306
  337.000   10.770    0.427    0.188  155.265  101.901
  337.250   10.772    0.438    0.177  154.771  100.714
  337.500   10.676    0.445    0.187  154.773  101.012
  337.750   10.485    0.436    0.182  154.775  101.013
  338.000   10.487    0.435    0.177  155.271   99.826
  338.250   10.781    0.432    0.174  156.263   97.451
  338.500   11.184    0.434    0.162  156.264   95.670
  338.750   12.145    0.445    0.135  156.761   92.405
  339.000   12.833    0.396    0.098  157.257   88.248
  339.250   12.835    0.357    0.106  156.764   89.437
  339.500   12.605    0.381    0.158  154.785   95.377
  339.750   12.266    0.431    0.180  155.777   98.942
  340.000   11.508    0.439    0.188  155.779   98.646
  340.250   11.199    0.427    0.180  155.780   98.646
  340.500   10.999    0.430    0.172  155.782   97.460
  340.750   11.001    0.431    0.164  155.783   95.679
  341.000   11.206    0.417    0.172  156.280   96.867
  341.250   11.415    0.416    0.179  156.281   98.947
  341.500   11.735    0.425    0.167  155.293   97.760
  341.750   11.845    0.437    0.147  155.294   95.385
  342.000   11.847    0.440    0.132  155.296   97.762
  342.250   11.958    0.459    0.170  154.803   98.060
  342.500   12.070    0.464    0.152  154.804   96.873
  342.750   11.854    0.430    0.128  155.301   97.468
  343.000   11.642    0.405    0.147  155.302   99.547
  343.250   11.329    0.430    0.177  157.284  102.815
  343.500   10.925    0.436    0.183  157.285  103.410
  343.750   10.534    0.442    0.193  157.782  103.114
  344.000   10.346    0.453    0.176  158.278  103.115
  344.250   10.254    0.459    0.153  158.279  102.522
  344.500   10.350    0.451    0.137  158.776  102.523
  344.750   10.352    0.443    0.138  159.767  102.524
  345.000   10.261    0.435    0.153  159.769  102.821
  345.250   10.261    0.422    0.128  158.781  105.792
  345.500    9.986    0.427    0.141  158.782  110.841
  345.750    9.988    0.439    0.183  158.289  107.872
  346.000   10.082    0.438    0.190  159.280  108.764
  346.250   10.176    0.445    0.176  159.776  109.656
  346.500   10.367    0.449    0.172  159.778  106.390
  346.750   10.463    0.446    0.174  159.779  105.797
  347.000   10.465    0.441    0.142  159.781  106.095
  347.250   10.468    0.424    0.127  158.793  107.284
  347.500   10.280    0.406    0.112  159.289  110.255
  347.750    9.823    0.400    0.134  161.271  115.304
  348.000    8.967    0.433    0.179  169.686  115.008
  348.250    8.568    0.453    0.189  169.688  111.742
  348.500    8.414    0.447    0.195  169.194  108.476
  348.750    8.493    0.441    0.205  163.751  104.320
  349.000    8.651    0.421    0.180  160.783  103.430
  349.250    8.813    0.419    0.172  161.280  105.807
  349.500    8.655    0.419    0.169  161.281  108.183
  349.750    8.816    0.410    0.163  161.283  107.293
  350.000    9.230    0.404    0.154  160.789  105.216
  350.250    9.576    0.404    0.133  158.812  102.841
  350.500    9.576    0.385    0.127  157.328   96.606
  350.750    9.669    0.398    0.203  155.845   93.043
  351.000    9.848    0.389    0.238  153.867   88.293
  351.250   11.825    0.373    0.261  152.384   79.979
  351.500   15.417    0.361    0.260  151.890   80.277
  351.750   17.052    0.363    0.243  152.386   80.278
  352.000   17.055    0.401    0.195  152.883   78.794
  352.250   15.568    0.419    0.157  152.885   80.576
  352.500   12.505    0.423    0.182  152.886   83.844
  352.750   11.732    0.424    0.190  153.383   92.160
  353.000   11.417    0.421    0.185  153.879   95.130
  353.250   11.421    0.431    0.182  154.870   98.101
  353.500   11.318    0.430    0.187  155.367   97.211
  353.750   11.528    0.427    0.195  155.864   94.836
  354.000   13.346    0.428    0.170  155.865   85.334
  354.250   18.550    0.415    0.133  155.372   70.190
  354.500   22.073    0.329    0.072  155.373   60.689
  354.750   24.412    0.251    0.094  155.870   63.956
  355.000   24.195    0.289    0.129  157.356   68.114
  355.250   22.700    0.325    0.168  157.852   70.194
  355.500   19.260    0.326    0.151  157.854   72.571
  355.750   16.341    0.325    0.144  156.866   76.135
  356.000   14.382    0.366    0.178  156.867   79.700
  356.250   13.493    0.406    0.235  156.869   79.403
  356.500   13.012    0.423    0.235  156.376   75.247
  356.750   13.254    0.419    0.209  156.377   72.575
  357.000   13.750    0.393    0.186  156.873   69.607
  357.250   14.264    0.387    0.153  156.875   69.904
  357.500   15.072    0.393    0.160  157.866   71.093
  357.750   15.780    0.381    0.144  158.858   67.531
  358.000   15.928    0.368    0.129  158.859   67.532
  358.250   15.931    0.362    0.134  158.366   70.205
  358.500   15.646    0.379    0.165  157.378   74.364
  358.750   15.087    0.388    0.183  154.410   73.474
  359.000   14.285    0.409    0.199  153.916   71.693
  359.250   13.649    0.415    0.226  154.907   71.991
  359.500   12.923    0.429    0.240  155.899   73.773
  359.750   12.926    0.436    0.243  156.395   76.744
  360.000   13.410    0.449    0.215  156.892   77.933
  360.250   14.039    0.457    0.242  157.388   74.964
  360.500   14.834    0.421    0.214  154.915   71.995
  360.750   14.837    0.376    0.146  153.432   71.402
  361.000   14.177    0.348    0.175  152.939   74.076
  361.250   13.061    0.384    0.228  152.940   76.749
  361.500   12.710    0.429    0.267  153.437   77.938
  361.750   13.065    0.432    0.266  153.438   78.236
  362.000   14.059    0.445    0.247  153.935   77.643
  362.250   15.408    0.444    0.236  153.935   77.347
  362.500   16.131    0.439    0.216  153.443   75.566
  362.750   16.432    0.422    0.203  153.444   76.161
  363.000   16.586    0.409    0.196  153.446   77.053
  363.250   16.289    0.386    0.170  153.447   76.460
  363.500   15.852    0.370    0.163  153.449   77.055
  363.750   15.427    0.395    0.215  153.450   79.728
  364.000   15.429    0.416    0.233  152.958   79.432
  364.250   15.432    0.429    0.205  152.959   78.542
  364.500   16.010    0.418    0.190  152.465   79.731
  364.750   16.762    0.434    0.185  152.962   81.217
  365.000   17.389    0.445    0.185  153.458   80.030
  365.250   17.393    0.452    0.183  153.955   77.655
  365.500   16.772    0.425    0.175  154.452   77.656
  365.750   16.321    0.409    0.167  154.453   79.142
  366.000   15.596    0.406    0.188  154.455   81.518
  366.250   14.766    0.419    0.205  154.456   85.677
  366.500   13.981    0.435    0.210  155.447   88.350
  366.750   13.981    0.430    0.198  156.438   89.836
  367.000   13.363    0.422    0.194  157.430   90.431
  367.250   12.884    0.419    0.185  157.927   92.213
  367.500   12.424    0.429    0.173  158.918   93.105
  367.750   12.091    0.446    0.143  159.414   92.512
  368.000   11.766    0.433    0.105  158.426   95.186
  368.250   11.555    0.418    0.155  156.943   97.859
  368.500   11.348    0.424    0.173  157.439  101.721
  368.750   11.348    0.421    0.156  157.441  103.503
  369.000   11.147    0.418    0.140  156.947  104.395
  369.250   10.749    0.422    0.133  156.949  101.426
  369.500   10.365    0.422    0.096  156.951  101.724
  369.750    9.814    0.418    0.088  157.942  106.180
  370.000    9.638    0.422    0.100  160.418  116.277
  370.250    9.552    0.440    0.120  163.884  116.575
  370.500    9.554    0.461    0.147  168.835  112.716
  370.750    9.732    0.448    0.176  167.352  113.904
  371.000   10.189    0.436    0.170  163.394  114.796
  371.250   10.380    0.414    0.173  159.932  112.718
  371.500   10.768    0.405    0.181  158.448  109.453
  371.750   11.070    0.398    0.169  157.954  107.672
  372.000   11.276    0.414    0.160  157.956  106.485
  372.250   11.592    0.419    0.145  157.463  105.001
