~VERSION INFORMATION
 VERS.                 2.0:   CWLS LOG ASCII STANDARD -VERSION 2.0
 WRAP.                  NO:   ONE LINE PER DEPTH STEP
~WELL INFORMATION BLOCK
#MNEM.UNIT           DATA                    DESCRIPTION OF MNEMONIC
#---------    -------------------            -------------------------------
# Generated from Intellog Unique Number	CW_73_75/WELL/35
WELL.         IMP MARTEN 06-06               : Well_name    - WELL
LOC .         00/06-06-075-05W5/0            : Location     - LOCATION
UWI .         00/06-06-075-05W5/0            : Uwi          - UNIQUE WELL ID
ENTR.         JJ                             : Entered      - ENTERED BY
SRVC.         SCHLUMBERGER                   : Scn          - SERVICE COMPANY
DATE.         11 SEP 60                      : Date         - LOG DATE
STRT.M        731.52                         : top_depth    - START DEPTH
STOP.M        859.52                         : bot_depth    - STOP DEPTH
STEP.M        0.25                           : increment    - STEP LENGTH
 NULL. -999.2500:NULL Value
~CURVE INFORMATION BLOCK
#MNEM UNIT       ERCB CURVE CODE    CURVE DESCRIPTION
#-----------   ------------------   ----------------------------------
DEPT.M        00 001 00 00         : DEPTH        - DEPTH
DELT.US/F     00 520 00 00         : DELT         - SONIC TRAVEL TIME
ILD .OHMM     00 120 00 00         : RESD         - DEEP RESISTIVITY (DIL)
GR  .API      00 310 00 00         : GR           - GAMMA RAY
~PARAMETER INFORMATION
#MNEM.UNIT           DATA             DESCRIPTION OF MNEMONIC
#---------         -----------     ------------------------------
GL  .M        842.467              : gl           - GROUND LEVEL ELEVATION
EREF.M        846.125              : kb           - ELEVATION OF DEPTH REFERENCE
DATM.M        846.125              : datum        - DATUM ELEVATION
TDD .M        1890.98              : tdd          - TOTAL DEPTH DRILLER
RUN .         ONE                  : Run          - RUN NUMBER
ENG .         JAMES                : Engineer     - RECORDING ENGINEER
WIT .         STEPHEN              : Witness      - WITNESSED BY
BASE.         SKW                  : Branch       - HOME BASE OF LOGGING UNIT
MUD .         GEL                  : Mud_type     - MUD TYPE
MATR.         SANDSTONE            : Logunit      - NEUTRON MATRIX
TMAX.C        129                  : BHT          - MAXIMUM RECORDED TEMPERATURE
BHTD.M        1891.89              : BHTDEP       - MAXIMUM RECORDED TEMPERATURE
RMT .C        20                   : MDTP         - TEMPERATURE OF MUD
MUDD.KG/M     1188                 : MWT          - MUD DENSITY
NEUT.         1                    : NEUTRON      - NEUTRON TYPE
RESI.         0                    : RESIST       - RESISTIVITY TYPE
RM  .OHMM     2.43                 : RM           - RESISTIVITY OF MUD
RMC .OHMM     3.2                  : RMC          - RESISTIVITY OF MUD CAKE
RMF .OHMM     2.7                  : RMF          - RESISTIVITY OF MUD FILTRATE
SUFT.C        5                    : SUFT         - SURFACE TEMPERATURE
~A  DEPTH     DELT     RESD       GR
# ...
  785.770  359.837    3.292   92.135
  786.020  366.634    3.297   90.213
  786.270  356.469    3.300   88.344
  786.520  353.396    3.247   89.087
  786.770  358.656    3.196   92.107
  787.020  360.725    3.162   94.458
  787.270  351.091    3.092   95.811
  787.520  369.532    3.077   92.723
  787.770  367.404    3.044   90.193
  788.020  369.946    3.029   89.157
  788.270  370.242    3.089   87.897
  788.520  369.533    3.316   86.253
  788.770  373.848    3.768   85.276
  789.020  346.837    4.069   83.185
  789.270  362.855    4.521   81.204
  789.520  367.701    4.765   79.614
  789.770  364.510    5.086   73.303
  790.020  239.861    5.295   65.772
  790.270  200.380    5.337   60.459
  790.520  195.061    5.136   66.033
  790.770  237.852    4.655   73.943
  791.020  343.529    3.988   82.793
  791.270  361.379    3.379   87.035
  791.520  351.273    3.103   88.004
  791.770  360.848    3.218   86.465
  792.020  356.297    3.390   83.210
  792.270  341.344    3.710   82.340
  792.520  357.302    4.012   81.474
  792.770  349.146    4.240   80.273
  793.020  352.338    4.392   81.903
  793.270  338.153    4.490   84.481
  793.520  351.688    4.456   86.058
  793.770  345.778    4.237   87.910
  794.020  347.847    3.980   91.985
  794.270  363.273    3.538   95.669
  794.520  360.614    3.373   95.690
  794.770  364.810    3.098   90.049
  795.020  376.395    2.990   85.070
  795.270  387.802    2.956   81.705
  795.520  392.412    3.016   80.110
  795.770  395.013    3.207   82.634
  796.020  322.020    3.378   83.318
  796.270  351.277    3.345   84.229
  796.520  367.531    3.200   89.416
  796.770  343.062    3.055   94.098
  797.020  356.715    2.761   96.509
  797.270  484.379    2.597   91.253
  797.520  470.490    2.676   81.608
  797.770  374.092    3.033   75.076
  798.020  298.026    3.651   78.319
  798.270  298.145    4.494   76.562
  798.520  311.325    5.354   74.639
  798.770  321.255    5.880   74.438
  799.020  328.643    6.088   75.846
  799.270  329.116    6.185   77.755
  799.520  267.648    6.189   76.837
  799.770  285.202    6.174   77.630
  800.020  333.549    6.234   80.816
  800.270  328.408    6.462   79.784
  800.520  321.906    6.745   77.527
  800.770  317.060    7.214   75.603
  801.020  314.519    7.740   72.406
  801.270  322.734    8.079   68.869
  801.520  253.525    7.934   66.836
  801.770  246.137    7.547   70.353
  802.020  262.568    7.029   79.261
  802.270  321.494    6.418   89.112
  802.520  326.105    5.789   92.798
  802.770  343.540    5.476   91.825
  803.020  328.174    5.201   91.345
  803.270  337.453    5.112   91.640
  803.520  329.593    5.004   91.492
  803.770  329.711    4.934   90.630
  804.020  343.719    4.826   89.536
  804.270  340.705    4.811   88.221
  804.520  335.622    4.760   85.856
  804.770  343.660    4.931   88.151
  805.020  325.516    5.382   90.116
  805.270  342.597    6.094   90.749
  805.520  328.767    6.824   90.047
  805.770  322.266    7.609   87.681
  806.020  321.616    8.693   84.368
  806.270  306.840    9.722   78.335
  806.520  265.764    9.688   74.525
  806.770  257.016    8.892   74.940
  807.020  257.371    7.909   75.959
  807.270  259.204    7.000   77.142
  807.520  294.548    5.961   79.771
  807.770  328.060    5.294   81.960
  808.020  330.306    4.684   83.589
  808.270  330.838    4.241   85.997
  808.520  333.616    3.872   84.521
  808.770  345.023    3.615   81.874
  809.020  392.188    3.340   82.896
  809.270  408.087    3.139   85.469
  809.520  398.867    2.827   88.881
  809.770  340.414    2.700   91.457
  810.020  375.404    2.667   90.031
  810.270  401.646    2.615   86.663
  810.520  385.511    2.637   82.635
  810.770  390.299    2.585   82.820
  811.020  399.933    2.589   84.559
  811.270  450.289    2.574   87.026
  811.520  369.849    2.616   91.157
  811.770  343.076    2.657   95.730
  812.020  379.129    2.792   94.197
  812.270  399.461    3.019   90.443
  812.520  304.186    3.432   89.682
  812.770  288.288    4.144   90.375
  813.020  342.959    4.539   90.895
  813.270  362.227    4.711   91.410
  813.520  353.893    4.696   93.376
  813.770  347.274    4.626   94.735
  814.020  336.517    4.556   94.528
  814.270  339.473    4.558   91.659
  814.520  335.395    4.618   92.181
  814.770  332.263    4.697   94.423
  815.020  336.991    4.756   94.336
  815.270  340.597    4.873   93.575
  815.520  320.383    5.007   91.598
  815.770  323.930    5.122   90.340
  816.020  334.214    5.256   90.474
  816.270  333.682    5.391   93.219
  816.520  339.061    5.394   94.737
  816.770  334.097    5.324   94.757
  817.020  325.172    5.328   92.054
  817.270  332.324    5.257   89.187
  817.520  339.949    5.149   87.875
  817.770  342.668    5.135   90.952
  818.020  334.157    5.120   93.749
  818.270  326.592    5.161   96.045
  818.520  346.865    5.203   96.570
  818.770  338.649    5.095   95.312
  819.020  348.520    4.894   93.386
  819.270  353.840    4.433   88.409
  819.520  367.788    3.785   87.762
  819.770  370.212    2.913   87.452
  820.020  402.187    2.321   86.693
  820.270  433.335    1.822   86.550
  820.520  405.497    1.324   86.345
  820.770  491.552    1.103   86.143
  821.020  485.642    0.810   85.389
  821.270  483.633    0.721   85.018
  821.520  469.212    0.651   86.317
  821.770  483.456    0.635   88.448
  822.020  507.157    0.695   90.860
  822.270  517.382    0.699   92.049
  822.520  527.607    0.982   92.231
  822.770  537.655    1.377   90.642
  823.020  528.317    1.884   89.107
  823.270  501.838    2.260   83.853
  823.520  472.051    3.028   83.207
  823.770  417.262    3.777   87.670
  824.020  317.732    4.321   90.134
  824.270  385.405    4.530   85.545
  824.520  350.180    4.571   80.402
  824.770  275.178    4.444   81.534
  825.020  389.248    4.317   84.940
  825.270  367.734    4.210   87.962
  825.520  311.882    4.084   89.536
  825.770  383.752    4.013   86.224
  826.020  377.901    3.998   86.968
  826.270  349.827    4.039   89.101
  826.520  376.778    4.080   90.788
  826.770  405.089    4.103   86.586
  827.020  403.139    4.033   82.109
  827.270  246.988    3.925   79.296
  827.520  220.628    3.779   73.374
  827.770  394.392    3.597   72.285
  828.020  415.256    3.303   76.858
  828.270  341.554    2.991   80.433
  828.520  433.106    2.622   80.624
  828.770  412.893    2.030   83.252
  829.020  386.710    1.848   85.827
  829.270  398.117    1.721   89.236
  829.520  381.923    1.576   89.147
  829.770  404.856    1.339   89.504
  830.020  390.789    1.323   90.575
  830.270  438.663    1.402   92.984
  830.520  481.159    1.536   93.894
  830.770  460.177    1.671   93.916
  831.020  389.490    1.805   91.993
  831.270  365.671    1.957   88.237
  831.520  356.747    2.092   85.090
  831.770  367.563    2.170   83.445
  832.020  392.328    2.286   82.523
  832.270  425.840    2.308   82.431
  832.520  395.402    2.331   82.507
  832.770  214.072    2.335   86.307
  833.020  394.752    2.358   92.604
  833.270  431.455    2.400   96.622
  833.520  402.377    2.402   95.808
  833.770  383.050    2.481   94.830
  834.020  390.911    2.560   96.629
  834.270  368.452    2.545   92.816
  834.520  385.947    2.493   85.895
  834.770  406.988    2.441   83.360
  835.020  382.756    2.370   82.326
  835.270  374.659    2.281   84.627
  835.520  402.674    2.229   86.421
  835.770  392.981    2.121   89.219
  836.020  382.579    1.939   93.684
  836.270  417.569    1.794   91.926
  836.520  396.351    1.575   97.000
  836.770  448.421    1.411  100.412
  837.020  482.347    1.321  101.818
  837.270  475.196    1.269   99.231
  837.520  470.704    1.404   95.361
  837.770  432.110    1.743   89.944
  838.020  440.148    2.232   87.353
  838.270  445.763    2.775   84.930
  838.520  451.555    3.375   84.005
  838.770  218.629    4.123   90.246
  839.020  207.990    4.873   97.209
  839.270  336.895    5.379  102.116
  839.520  512.906    5.700   99.248
  839.770  505.223    6.374   83.052
