~VERSION INFORMATION
 VERS.                 2.0:   CWLS LOG ASCII STANDARD -VERSION 2.0
 WRAP.                  NO:   ONE LINE PER DEPTH STEP
~WELL INFORMATION BLOCK
#MNEM.UNIT           DATA                    DESCRIPTION OF MNEMONIC
#---------    -------------------            -------------------------------
# Generated from Intellog Unique Number	CW_70_72/WELL/502
NULL.         -999.25                        : NULL_VALUE
WELL.         NORCEN ET AL VICTOR 05-07      : Well_name    - WELL              
LOC .         05-07-071-01W5                 : Location     - LOCATION          
UWI .         00/05-07-071-01W5/0            : Uwi          - UNIQUE WELL ID    
ENTR.         JAYE                           : Entered      - ENTERED BY        
SRVC.         COMPUTALOG                     : Scn          - SERVICE COMPANY   
DATE.         16 MAR 82                      : Date         - LOG DATE          
STRT.M        390                            : top_depth    - START DEPTH       
STOP.M        626                            : bot_depth    - STOP DEPTH        
STEP.M        0.25                           : increment    - STEP LENGTH       
~CURVE INFORMATION BLOCK
#MNEM UNIT       ERCB CURVE CODE    CURVE DESCRIPTION
#-----------   ------------------   ----------------------------------
DEPT.M        00 001 00 00         : DEPTH        - DEPTH                       
DPHI.V/V      00 890 00 00         : PHID         - DENSITY POROSITY (SANDSTONE)
NPHI.V/V      00 330 00 00         : PHIN         - NEUTRON POROSITY (SANDSTONE)
GR  .API      00 310 00 00         : GR           - GAMMA RAY                   
CALI.MM       00 280 01 00         : CAL          - CALIPER                     
ILD .OHMM     00 120 00 00         : RESD         - DEEP RESISTIVITY (DIL)      
~PARAMETER INFORMATION       
#MNEM.UNIT           DATA             DESCRIPTION OF MNEMONIC
#---------         -----------     ------------------------------
GL  .M        591.23               : gl           - GROUND LEVEL ELEVATION      
EREF.M        595.33               : kb           - ELEVATION OF DEPTH REFERENCE
DATM.M        591.23               : datum        - DATUM ELEVATION             
TDD .M        642                  : tdd          - TOTAL DEPTH DRILLER         
RUN .         ONE                  : Run          - RUN NUMBER                  
ENG .         DROMLEWICZ/MURRAY    : Engineer     - RECORDING ENGINEER          
WIT .         BOGNER               : Witness      - WITNESSED BY                
BASE.         EDM                  : Branch       - HOME BASE OF LOGGING UNIT   
MUD .         GEL CHEM             : Mud_type     - MUD TYPE                    
MATR.         SANDSTONE            : Logunit      - NEUTRON MATRIX              
TMAX.C        30                   : BHT          - MAXIMUM RECORDED TEMPERATURE
BHTD.M        643                  : BHTDEP       - MAXIMUM RECORDED TEMPERATURE
RMT .C        10                   : MDTP         - TEMPERATURE OF MUD          
MUDD.KG/M     1140                 : MWT          - MUD DENSITY                 
NEUT.         1                    : NEUTRON      - NEUTRON TYPE                
RESI.         0                    : RESIST       - RESISTIVITY TYPE            
RM  .OHMM     3.2                  : RM           - RESISTIVITY OF MUD          
RMC .OHMM     2.2                  : RMC          - RESISTIVITY OF MUD CAKE     
RMF .OHMM     1.8                  : RMF          - RESISTIVITY OF MUD FILTRATE 
SUFT.C        0                    : SUFT         - SURFACE TEMPERATURE         
~A  DEPTH     PHID     PHIN       GR      CAL     RESD
# ...
  536.000    0.124    0.290   99.635  203.025    5.000
  536.250    0.130    0.288   99.552  203.100    4.954
  536.500    0.149    0.290  102.826  203.167    4.908
  536.750    0.149    0.297  106.227  203.335    4.899
  537.000    0.141    0.297  109.502  203.510    4.919
  537.250    0.128    0.295  108.734  203.164    4.947
  537.500    0.157    0.292  100.438  202.505    5.052
  537.750    0.191    0.288   92.517  201.538    5.267
  538.000    0.209    0.281   86.772  199.114    6.013
  538.250    0.228    0.275   79.721  197.422    7.251
  538.500    0.236    0.266   72.981  195.620    9.776
  538.750    0.241    0.252   67.172  194.755   12.082
  539.000    0.244    0.235   63.355  194.411   13.082
  539.250    0.251    0.228   63.149  194.058   13.334
  539.500    0.258    0.238   65.055  193.919   13.412
  539.750    0.260    0.267   66.777  193.991   13.438
  540.000    0.259    0.286   67.439  194.885   13.466
  540.250    0.259    0.253   66.294  195.991   13.519
  540.500    0.258    0.240   65.465  196.787   13.495
  540.750    0.257    0.233   65.321  197.475   13.497
  541.000    0.256    0.244   66.106  197.852   13.473
  541.250    0.248    0.252   66.833  198.132   13.551
  541.500    0.251    0.248   67.372  198.505   13.759
  541.750    0.238    0.238   67.101  198.368   14.291
  542.000    0.179    0.137   64.902  198.538   15.013
  542.250    0.005    0.106   61.895  198.806   16.072
  542.500   -0.002    0.093   58.888  199.193   18.141
  542.750    0.010    0.090   56.067  199.885   20.017
  543.000    0.029    0.091   53.494  200.680   22.171
  543.250    0.046    0.095   53.287  200.948   22.300
  543.500    0.089    0.106   55.318  199.880   19.725
  543.750    0.164    0.138   60.771  198.081   16.863
  544.000    0.248    0.212   66.844  196.179   13.934
  544.250    0.261    0.242   72.547  195.000   11.912
  544.500    0.267    0.257   76.818  194.337   10.050
  544.750    0.269    0.257   72.378  194.099    8.740
  545.000    0.270    0.253   71.175  193.963    8.642
  545.250    0.268    0.244   71.028  194.235    9.079
  545.500    0.254    0.238   70.387  194.721    9.574
  545.750    0.247    0.235   68.807  195.614    9.831
  546.000    0.246    0.239   67.295  196.406    9.795
  546.250    0.243    0.251   65.282  196.992    9.505
  546.500    0.235    0.254   63.831  197.479    9.085
  546.750    0.224    0.249   62.813  198.269    8.601
  547.000    0.212    0.267   61.608  199.066    8.190
  547.250    0.201    0.288   60.966  199.027    7.667
  547.500    0.197    0.302   60.572  199.199    7.314
  547.750    0.199    0.309   60.861  199.369    6.951
  548.000    0.190    0.297   62.208  199.331    6.507
  548.250    0.169    0.284   64.551  199.195    6.137
  548.500    0.150    0.266   70.128  198.852    5.855
  548.750    0.139    0.255   75.082  198.502    5.575
  549.000    0.153    0.250   71.203  198.262    5.328
  549.250    0.166    0.267   64.714  198.121    5.092
  549.500    0.181    0.276   63.074  197.871    4.895
  549.750    0.195    0.295   62.368  197.733    4.714
  550.000    0.186    0.297   64.643  195.359    4.420
  550.250    0.188    0.290   67.456  194.961    4.356
  550.500    0.199    0.296   71.408  193.809    4.285
  550.750    0.206    0.304   73.110  192.364    4.271
  551.000    0.202    0.320   74.432  190.306    4.297
  551.250    0.207    0.331   75.076  188.531    4.332
  551.500    0.207    0.321   75.701  187.170    4.375
  551.750    0.205    0.323   76.527  185.413    4.436
  552.000    0.201    0.332   77.098  184.180    4.488
  552.250    0.194    0.341   77.285  183.862    4.551
  552.500    0.187    0.359   76.908  188.685    4.588
  552.750    0.199    0.355   73.542  192.965    4.555
  553.000    0.209    0.315   75.420  195.072    4.549
  553.250    0.213    0.290   71.794  195.815    4.560
  553.500    0.201    0.285   70.803  196.349    4.536
  553.750    0.186    0.303   74.812  196.663    4.565
  554.000    0.179    0.327   77.573  196.893    4.689
  554.250    0.191    0.336   77.221  197.523    4.854
  554.500    0.190    0.291   76.589  198.585    5.091
  554.750    0.180    0.282   75.778  199.107    5.370
  555.000    0.181    0.291   75.846  199.117    5.601
  555.250    0.204    0.285   76.984  198.411    5.614
  555.500    0.212    0.271   75.795  197.155    5.460
  555.750    0.200    0.261   73.550  195.085    5.280
  556.000    0.182    0.281   74.437  193.945    5.087
  556.250    0.182    0.309   76.315  193.743    4.911
  556.500    0.194    0.325   77.575  193.782    4.794
  556.750    0.195    0.348   77.836  194.084    4.680
  557.000    0.187    0.368   76.276  195.262    4.578
  557.250    0.181    0.348   75.347  196.398    4.520
  557.500    0.177    0.323   78.288  197.243    4.463
  557.750    0.172    0.288   84.183  195.584    4.432
  558.000    0.167    0.284   88.259  193.412    4.451
  558.250    0.162    0.294   85.261  193.416    4.521
  558.500    0.151    0.297   80.448  195.735    4.688
  558.750    0.126    0.263   76.260  197.932    5.002
  559.000    0.036    0.231   72.577  199.602    5.583
  559.250    0.069    0.198   69.635  200.136    6.533
  559.500    0.079    0.181   65.943  200.146    7.502
  559.750    0.087    0.245   64.571  199.324    8.763
  560.000    0.098    0.259   67.403  198.190    9.331
  560.250    0.115    0.268   70.095  197.360    8.905
  560.500    0.142    0.283   73.485  196.767    8.001
  560.750    0.158    0.298   76.371  196.649    6.988
  561.000    0.160    0.287   81.823  196.975    6.149
  561.250    0.151    0.264   84.464  198.662    5.748
  561.500    0.142    0.243   83.591  200.344    5.549
  561.750    0.129    0.227   82.722  201.298    5.468
  562.000    0.129    0.214   90.243  202.026    5.660
  562.250    0.133    0.201   96.953  202.879    5.804
  562.500    0.147    0.189  105.475  203.196    5.884
  562.750    0.150    0.212  106.731  203.316    6.011
  563.000    0.141    0.240   94.150  203.535    6.222
  563.250    0.120    0.254   81.506  203.440    6.575
  563.500    0.088    0.262   71.934  203.140    7.027
  563.750    0.100    0.261   69.308  202.843    7.568
  564.000    0.099    0.234   65.120  202.331    8.544
  564.250    0.043    0.202   61.178  202.329    9.868
  564.500    0.023    0.164   60.807  202.443   10.448
  564.750    0.047    0.138   67.328  203.937   10.572
  565.000    0.080    0.214   76.915  204.570    9.809
  565.250    0.101    0.231   79.497  205.402    8.680
  565.500    0.105    0.235   82.948  205.835    7.425
  565.750    0.100    0.264   89.777  205.940    6.785
  566.000    0.103    0.297   96.482  205.852    6.260
  566.250    0.115    0.314   90.602  205.665    6.008
  566.500    0.127    0.312   86.285  205.359    5.811
  566.750    0.131    0.285   89.112  205.169    5.716
  567.000    0.124    0.275   95.200  204.866    5.676
  567.250    0.113    0.290   94.384  204.878    5.700
  567.500    0.084    0.320   87.383  205.187    5.779
  567.750    0.073    0.335   84.065  205.530    5.836
  568.000    0.078    0.292   84.134  205.734    5.951
  568.250    0.094    0.269   87.347  205.639    5.954
  568.500    0.103    0.274   90.285  205.750    5.924
  568.750    0.092    0.292   94.864  205.766    5.882
  569.000    0.082    0.303   96.433  205.982    5.885
  569.250    0.075    0.287   92.557  205.780    5.888
  569.500    0.086    0.271   91.499  205.587    5.880
  569.750    0.102    0.263   92.010  205.174    5.928
  570.000    0.104    0.242   93.642  204.370    5.975
  570.250    0.075    0.233   95.023  203.108    6.255
  570.500    0.064    0.236   92.401  199.687    6.463
  570.750    0.071    0.245   84.769  197.301    6.540
  571.000    0.078    0.250   90.096  196.465    6.445
  571.250    0.084    0.248   96.304  197.309    6.293
  571.500    0.097    0.244   92.932  198.985    6.189
  571.750    0.111    0.243   93.128  200.881    6.158
  572.000    0.109    0.241   98.263  200.679    6.337
  572.250    0.106    0.233   92.884  197.983    6.761
