~VERSION INFORMATION
 VERS.                 2.0:   CWLS LOG ASCII STANDARD -VERSION 2.0
 WRAP.                  NO:   ONE LINE PER DEPTH STEP
~WELL INFORMATION BLOCK
#MNEM.UNIT           DATA                    DESCRIPTION OF MNEMONIC
#---------    -------------------            -------------------------------
# Generated from Intellog Unique Number	CS_69_70/WELL/618
WELL.         HUSKY AEC FISHER               : Well_name    - WELL
LOC .         00/05-12-069-06W4/0            : Location     - LOCATION
UWI .         00/05-12-069-06W4/0            : Uwi          - UNIQUE WELL ID
ENTR.         T                              : Entered      - ENTERED BY
SRVC.         SCHLUMBERGER                   : Scn          - SERVICE COMPANY
STRT.M        365                            : top_depth    - START DEPTH
STOP.M        570                            : bot_depth    - STOP DEPTH
STEP.M        0.25                           : increment    - STEP LENGTH
 NULL. -999.2500:NULL Value
~CURVE INFORMATION BLOCK
#MNEM UNIT       ERCB CURVE CODE    CURVE DESCRIPTION
#-----------   ------------------   ----------------------------------
DEPT.M        00 001 00 00         : DEPTH        - DEPTH
GR  .API      00 310 00 00         : GR           - GAMMA RAY
NPHI.V/V      00 330 00 00         : PHIN         - NEUTRON POROSITY (SANDSTONE)
DPHI.V/V      00 890 00 00         : PHID         - DENSITY POROSITY (SANDSTONE)
ILD .OHMM     00 120 00 00         : RESD         - DEEP RESISTIVITY (DIL)
~PARAMETER INFORMATION
#MNEM.UNIT           DATA             DESCRIPTION OF MNEMONIC
#---------         -----------     ------------------------------
GL  .M        716                  : gl           - GROUND LEVEL ELEVATION
EREF.M        719.6                : kb           - ELEVATION OF DEPTH REFERENCE
DATM.M        719.6                : datum        - DATUM ELEVATION
TDD .M        581                  : tdd          - TOTAL DEPTH DRILLER
RUN .         ONE                  : Run          - RUN NUMBER
ENG .         TIM                  : Engineer     - RECORDING ENGINEER
WIT .         JIM                  : Witness      - WITNESSED BY
MUD .         GEL                  : Mud_type     - MUD TYPE
MATR.         SANDSTONE            : Logunit      - NEUTRON MATRIX
TMAX.C        24                   : BHT          - MAXIMUM RECORDED TEMPERATURE
BHTD.M        581                  : BHTDEP       - MAXIMUM RECORDED TEMPERATURE
MATR.         1                    : LOGUNIT      - NEUTRON MATRIX
RMT .C        20                   : MDTP         - TEMPERATURE OF MUD
NEUT.         1                    : NEUTRON      - NEUTRON TYPE
RESI.         9.3                  : RESIST       - RESISTIVITY TYPE
RMC .OHMM     8.5                  : RMC          - RESISTIVITY OF MUD CAKE
RMF .OHMM     9.2                  : RMF          - RESISTIVITY OF MUD FILTRATE
SUFT.C        15                   : SUFT         - SURFACE TEMPERATURE
~A  DEPTH       GR     PHIN     PHID     RESD
# ...
  408.500   82.107    0.474    0.289    7.200
  408.750   78.475    0.474    0.272    6.942
  409.000   77.282    0.472    0.279    6.823
  409.250   84.626    0.409    0.289    6.704
  409.500   85.873    0.426    0.302    6.460
  409.750   81.644    0.469    0.312    6.349
  410.000   81.047    0.497    0.309    6.238
  410.250   81.684    0.469    0.304    6.127
  410.500   84.773    0.470    0.297    6.135
  410.750   84.793    0.477    0.279    6.028
  411.000   80.544    0.486    0.269    6.266
  411.250   71.424    0.493    0.276    6.765
  411.500   60.474    0.489    0.287    7.033
  411.750   50.134    0.385    0.238    7.883
  412.000   42.843    0.337    0.192   11.291
  412.250   38.602    0.135    0.045   16.786
  412.500   40.458    0.138    0.015   22.290
  412.750   49.021    0.156    0.043   22.317
  413.000   57.585    0.246    0.188   20.337
  413.250   64.929    0.280    0.270   18.192
  413.500   63.127    0.351    0.326   16.573
  413.750   58.282    0.405    0.334   14.007
  414.000   55.253    0.467    0.331   11.838
  414.250   52.237    0.469    0.340    9.279
  414.500   51.660    0.464    0.358    7.553
  414.750   51.680    0.459    0.370    6.628
  415.000   52.317    0.452    0.367    5.817
  415.250   52.960    0.445    0.361    5.400
  415.500   54.193    0.441    0.358    5.305
  415.750   57.885    0.437    0.360    5.416
  416.000   61.570    0.439    0.367    5.527
  416.250   64.646    0.446    0.371    5.532
  416.500   62.227    0.449    0.372    5.644
  416.750   54.936    0.453    0.373    5.760
  417.000   48.255    0.465    0.377    5.873
  417.250   42.800    0.473    0.384    5.882
  417.500   45.869    0.471    0.378    6.001
  417.750   49.554    0.447    0.363    6.009
  418.000   58.728    0.433    0.356    6.014
  418.250   67.908    0.432    0.353    6.021
  418.500   72.203    0.428    0.350    6.145
  418.750   75.286    0.427    0.345    6.151
  419.000   76.532    0.442    0.339    6.275
  419.250   75.339    0.467    0.327    6.402
  419.500   72.926    0.467    0.323    6.656
  419.750   69.904    0.451    0.328    6.792
  420.000   65.662    0.438    0.333    6.930
  420.250   63.853    0.450    0.329    6.811
  420.500   65.709    0.462    0.325    6.817
  420.750   76.109    0.454    0.323    6.698
  421.000   77.958    0.445    0.320    6.704
  421.250   79.211    0.445    0.320    6.712
  421.500   79.238    0.441    0.320    6.852
  421.750   79.271    0.437    0.320    6.856
  422.000   78.674    0.444    0.321    6.867
  422.250   78.701    0.453    0.320    7.006
  422.500   79.338    0.461    0.317    7.152
  422.750   79.974    0.452    0.315    7.294
  423.000   82.440    0.429    0.319    7.301
  423.250   84.906    0.438    0.321    7.451
  423.500   89.207    0.444    0.309    7.602
  423.750   88.021    0.449    0.288    7.756
  424.000   87.425    0.448    0.292    7.765
  424.250   83.183    0.457    0.317    7.630
  424.500   70.404    0.472    0.327    7.496
  424.750   64.332    0.463    0.341    7.365
  425.000   60.097    0.451    0.353    7.235
  425.250   57.684    0.452    0.358    6.595
  425.500   57.101    0.448    0.352    6.240
  425.750   57.738    0.446    0.347    6.129
  426.000   59.594    0.444    0.344    6.022
  426.250   62.060    0.445    0.343    5.919
  426.500   66.348    0.446    0.343    5.926
  426.750   67.594    0.449    0.342    5.933
  427.000   66.408    0.457    0.341    5.721
  427.250   65.825    0.460    0.336    6.537
  427.500   67.681    0.458    0.327    6.923
  427.750   70.750    0.455    0.319    7.471
  428.000   75.662    0.450    0.271    7.917
  428.250   77.518    0.442    0.242    8.231
  428.500   78.764    0.437    0.225    8.397
  428.750   80.620    0.441    0.233    8.097
  429.000   84.312    0.434    0.248    7.661
  429.250   86.771    0.426    0.253    7.249
  429.500   88.024    0.420    0.241    7.121
  429.750   84.392    0.412    0.220    7.129
  430.000   80.767    0.410    0.184    7.276
  430.250   78.951    0.400    0.189    7.854
  430.500   76.538    0.393    0.208    8.321
  430.750   75.345    0.399    0.253    8.331
  431.000   75.372    0.395    0.251    8.033
  431.250   76.008    0.380    0.239    7.601
  431.500   77.864    0.389    0.247    7.468
  431.750   80.330    0.419    0.256    7.479
  432.000   84.016    0.434    0.274    7.349
  432.250   80.993    0.429    0.283    7.220
  432.500   68.214    0.405    0.279    6.962
  432.750   59.087    0.417    0.282    6.715
  433.000   55.455    0.432    0.304    6.594
  433.250   49.993    0.435    0.311    6.480
  433.500   46.368    0.416    0.321    6.367
  433.750   50.047    0.407    0.332    6.256
  434.000   53.122    0.415    0.337    6.262
  434.250   56.198    0.420    0.341    6.152
  434.500   58.061    0.416    0.346    5.932
  434.750   61.136    0.402    0.352    5.941
  435.000   63.602    0.408    0.356    5.837
  435.250   60.586    0.416    0.362    5.734
  435.500   58.160    0.433    0.365    5.637
  435.750   53.919    0.447    0.365    5.642
  436.000   48.457    0.447    0.364    5.647
  436.250   47.264    0.441    0.361    5.549
  436.500   48.510    0.428    0.361    5.452
  436.750   48.537    0.404    0.365    5.357
  437.000   41.246    0.419    0.366    5.365
  437.250   40.670    0.442    0.365    5.271
  437.500   43.739    0.453    0.360    5.279
  437.750   44.382    0.446    0.359    5.282
  438.000   43.798    0.428    0.360    5.190
  438.250   44.428    0.429    0.362    5.196
  438.500   45.078    0.431    0.363    5.105
  438.750   45.098    0.429    0.356    5.018
  439.000   45.125    0.425    0.355    5.025
  439.250   43.932    0.436    0.358    4.935
  439.500   43.342    0.441    0.360    4.849
  439.750   42.759    0.439    0.361    4.854
  440.000   41.566    0.436    0.362    4.862
  440.250   40.373    0.437    0.364    4.869
  440.500   39.187    0.443    0.368    4.965
  440.750   39.823    0.434    0.364    5.163
  441.000   41.686    0.429    0.357    5.369
  441.250   42.919    0.435    0.349    5.478
  441.500   44.788    0.429    0.337    5.589
  441.750   44.205    0.419    0.323    5.702
  442.000   44.231    0.406    0.307    5.707
  442.250   45.478    0.410    0.301    5.714
  442.500   46.724    0.419    0.307    5.721
  442.750   46.141    0.430    0.324    5.621
  443.000   44.948    0.447    0.355    5.523
  443.250   45.591    0.458    0.361    5.426
  443.500   46.824    0.441    0.360    5.333
  443.750   49.296    0.414    0.351    5.240
  444.000   51.762    0.410    0.349    5.149
  444.250   53.008    0.418    0.352    5.153
  444.500   49.370    0.426    0.345    5.159
  444.750   43.908    0.439    0.347    5.166
  445.000   45.154    0.450    0.355    5.172
  445.250   48.243    0.437    0.361    5.178
  445.500   49.476    0.426    0.369    5.088
  445.750   53.168    0.432    0.371    5.095
  446.000   57.457    0.437    0.369    4.915
  446.250   63.581    0.439    0.360    4.826
  446.500   70.316    0.439    0.347    4.742
  446.750   75.837    0.439    0.331    4.659
  447.000   78.303    0.441    0.319    4.577
  447.250   81.989    0.447    0.309    4.414
  447.500   86.900    0.460    0.298    4.337
  447.750   89.360    0.472    0.290    4.181
  448.000   90.612    0.489    0.310    3.883
  448.250   90.639    0.501    0.339    3.674
  448.500   90.666    0.510    0.390    3.542
  448.750   89.473    0.530    0.428    3.417
  449.000   85.834    0.536    0.434    3.357
  449.250   82.202    0.506    0.357    3.490
  449.500   85.894    0.506    0.367    3.628
  449.750   84.701    0.513    0.346    3.633
  450.000   81.069    0.512    0.362    3.636
  450.250   80.479    0.517    0.402    3.574
  450.500   81.725    0.552    0.491    3.511
  450.750   86.630    0.578    0.546    3.322
  451.000   91.535    0.590    0.571    3.204
  451.250   97.057    0.577    0.543    3.088
  451.500   97.077    0.566    0.485    3.035
  451.750   87.347    0.554    0.429    3.038
