~VERSION INFORMATION
 VERS.                 2.0:   CWLS LOG ASCII STANDARD -VERSION 2.0
 WRAP.                  NO:   ONE LINE PER DEPTH STEP
~WELL INFORMATION BLOCK
#MNEM.UNIT           DATA                    DESCRIPTION OF MNEMONIC
#---------    -------------------            -------------------------------
# Generated from Intellog Unique Number	CS_67_68/WELL/737
WELL.         BRASCAN RESOURCES              : Well_name    - WELL
LOC .         00/06-31-068-18W4/0            : Location     - LOCATION
UWI .         00/06-31-068-18W4/0            : Uwi          - UNIQUE WELL ID
ENTR.         SP                             : Entered      - ENTERED BY
SRVC.         SCHLUMBERGER                   : Scn          - SERVICE COMPANY
STRT.M        274.32                         : top_depth    - START DEPTH
STOP.M        517.82                         : bot_depth    - STOP DEPTH
STEP.M        0.25                           : increment    - STEP LENGTH
 NULL. -999.2500:NULL Value
~CURVE INFORMATION BLOCK
#MNEM UNIT       ERCB CURVE CODE    CURVE DESCRIPTION
#-----------   ------------------   ----------------------------------
DEPT.M        00 001 00 00         : DEPTH        - DEPTH
GR  .API      00 310 00 00         : GR           - GAMMA RAY
DPHI.V/V      00 890 00 00         : PHID         - DENSITY POROSITY (SANDSTONE)
NPHI.V/V      00 330 00 00         : PHIN         - NEUTRON POROSITY (SANDSTONE)
ILD .OHMM     00 120 00 00         : RESD         - DEEP RESISTIVITY (DIL)
~PARAMETER INFORMATION
#MNEM.UNIT           DATA             DESCRIPTION OF MNEMONIC
#---------         -----------     ------------------------------
GL  .M        551.993              : gl           - GROUND LEVEL ELEVATION
EREF.M        554.431              : kb           - ELEVATION OF DEPTH REFERENCE
DATM.M        551.993              : datum        - DATUM ELEVATION
TDD .M        525.78               : tdd          - TOTAL DEPTH DRILLER
RUN .         ONE                  : Run          - RUN NUMBER
ENG .         BILL                 : Engineer     - RECORDING ENGINEER
WIT .         JIM                  : Witness      - WITNESSED BY
MUD .         GEL                  : Mud_type     - MUD TYPE
MATR.         SANDSTONE            : Logunit      - NEUTRON MATRIX
TMAX.C        15                   : BHT          - MAXIMUM RECORDED TEMPERATURE
BHTD.M        526.085              : BHTDEP       - MAXIMUM RECORDED TEMPERATURE
MATR.         1                    : LOGUNIT      - NEUTRON MATRIX
RMT .C        25                   : MDTP         - TEMPERATURE OF MUD
NEUT.         1                    : NEUTRON      - NEUTRON TYPE
RESI.         0                    : RESIST       - RESISTIVITY TYPE
RMC .OHMM     0.25                 : RMC          - RESISTIVITY OF MUD CAKE
RMF .OHMM     0.25                 : RMF          - RESISTIVITY OF MUD FILTRATE
SUFT.C        15                   : SUFT         - SURFACE TEMPERATURE
~A  DEPTH       GR     PHID     PHIN     RESD
# ...
  404.820   77.225    0.269    0.487    3.397
  405.070   76.417    0.278    0.484    3.507
  405.320   76.532    0.290    0.493    3.653
  405.570   76.897    0.294    0.485    3.899
  405.820   72.712    0.276    0.496    4.388
  406.070   69.374    0.222    0.424    4.996
  406.320   67.066    0.122    0.294    5.380
  406.570   69.078    0.086    0.268    5.600
  406.820   75.548    0.087    0.286    5.038
  407.070   79.648    0.126    0.441    4.700
  407.320   83.054    0.165    0.484    4.289
  407.570   84.152    0.204    0.500    4.016
  407.820   81.678    0.238    0.497    3.977
  408.070   86.100    0.260    0.487    4.108
  408.320   88.191    0.241    0.477    4.207
  408.570   89.562    0.232    0.471    4.331
  408.820   87.016    0.223    0.468    4.395
  409.070   83.947    0.218    0.477    4.439
  409.320   86.679    0.217    0.488    4.458
  409.570   88.567    0.218    0.474    4.474
  409.820   90.370    0.225    0.465    4.459
  410.070   92.255    0.212    0.478    4.460
  410.320   94.993    0.193    0.495    4.448
  410.570   96.711    0.185    0.496    4.443
  410.820   96.620    0.181    0.500    4.443
  411.070   95.296    0.181    0.499    4.459
  411.320   96.451    0.175    0.489    4.516
  411.570   97.065    0.168    0.499    4.541
  411.820   96.635    0.171    0.489    4.587
  412.070   95.781    0.176    0.485    4.597
  412.320   94.719    0.183    0.488    4.633
  412.570   93.802    0.183    0.493    4.635
  412.820   91.985    0.203    0.476    4.616
  413.070   91.811    0.220    0.457    4.579
  413.320   93.540    0.220    0.448    4.515
  413.570   95.178    0.218    0.462    4.351
  413.820   96.595    0.213    0.459    4.181
  414.070   97.497    0.207    0.471    4.032
  414.320   99.188    0.191    0.470    3.865
  414.570   99.456    0.177    0.460    3.786
  414.820   98.364    0.182    0.468    3.938
  415.070   96.043    0.188    0.484    4.109
  415.320   93.675    0.201    0.493    4.284
  415.570   93.215    0.203    0.484    4.480
  415.820   94.185    0.195    0.474    4.722
  416.070   95.132    0.189    0.466    4.883
  416.320   95.715    0.178    0.459    4.802
  416.570   95.949    0.182    0.468    4.686
  416.820   96.455    0.177    0.482    4.537
  417.070   96.760    0.170    0.498    4.432
  417.320   93.606    0.172    0.509    4.360
  417.570   94.855    0.179    0.501    4.269
  417.820   97.235    0.187    0.502    4.210
  418.070   98.478    0.199    0.510    4.117
  418.320   95.465    0.207    0.496    4.010
  418.570   88.770    0.192    0.473    3.919
  418.820   84.848    0.192    0.455    3.838
  419.070   83.204    0.223    0.453    3.765
  419.320   83.281    0.249    0.458    3.742
  419.570   83.227    0.240    0.464    3.712
  419.820   82.457    0.239    0.474    3.700
  420.070   80.611    0.241    0.462    3.703
  420.320   79.489    0.240    0.455    3.740
  420.570   78.994    0.250    0.460    3.787
  420.820   79.688    0.262    0.469    3.824
  421.070   81.074    0.240    0.465    3.828
  421.320   81.417    0.230    0.473    3.739
  421.570   81.420    0.243    0.468    3.531
  421.820   84.696    0.250    0.464    3.271
  422.070   91.406    0.249    0.479    2.846
  422.320   98.394    0.243    0.526    2.470
  422.570  103.504    0.211    0.557    2.081
  422.820  106.478    0.210    0.597    1.914
  423.070  106.310    0.206    0.619    1.878
  423.320  102.740    0.220    0.611    2.060
  423.570  101.312    0.250    0.591    2.221
  423.820  101.639    0.222    0.573    2.398
  424.070  102.078    0.232    0.551    2.653
  424.320  100.001    0.216    0.526    2.899
  424.570   94.907    0.196    0.509    3.241
  424.820   89.639    0.182    0.510    3.489
  425.070   84.368    0.202    0.515    3.588
  425.320   79.769    0.215    0.505    3.646
  425.570   81.667    0.204    0.487    3.761
  425.820   82.664    0.218    0.475    3.852
  426.070   87.521    0.221    0.473    3.900
  426.320   90.636    0.216    0.477    3.917
  426.570   91.572    0.221    0.477    3.920
  426.820   91.512    0.227    0.480    3.916
  427.070   90.643    0.199    0.484    3.902
  427.320   89.511    0.186    0.477    3.859
  427.570   86.854    0.201    0.464    3.810
  427.820   82.346    0.184    0.452    3.764
  428.070   77.987    0.187    0.459    3.808
  428.320   74.980    0.208    0.469    3.869
  428.570   69.837    0.204    0.449    3.987
  428.820   64.934    0.228    0.413    4.097
  429.070   59.238    0.252    0.388    4.160
  429.320   62.423    0.194    0.369    4.118
  429.570   67.713    0.173    0.400    3.821
  429.820   71.179    0.176    0.452    3.578
  430.070   66.641    0.272    0.477    3.241
  430.320   61.760    0.286    0.472    2.980
  430.570   60.583    0.289    0.471    2.725
  430.820   61.035    0.285    0.486    2.538
  431.070   62.246    0.300    0.476    2.387
  431.320   62.730    0.302    0.468    2.333
  431.570   62.135    0.298    0.463    2.326
  431.820   60.932    0.307    0.483    2.334
  432.070   59.421    0.305    0.475    2.348
  432.320   58.314    0.304    0.465    2.354
  432.570   58.522    0.296    0.460    2.357
  432.820   60.722    0.297    0.470    2.365
  433.070   64.258    0.308    0.469    2.367
  433.320   67.202    0.300    0.471    2.388
  433.570   69.491    0.294    0.478    2.461
  433.820   71.582    0.289    0.473    2.593
  434.070   72.414    0.272    0.470    2.785
  434.320   73.239    0.259    0.468    3.048
  434.570   75.233    0.270    0.471    3.420
  434.820   78.413    0.242    0.475    3.860
  435.070   80.265    0.214    0.466    4.319
  435.320   80.445    0.196    0.464    4.762
  435.570   77.423    0.182    0.460    5.182
  435.820   73.282    0.170    0.437    5.497
  436.070   76.019    0.161    0.421    5.288
  436.320   78.513    0.192    0.445    5.030
  436.570   80.859    0.182    0.466    4.760
  436.820   83.348    0.172    0.475    4.498
  437.070   85.605    0.182    0.468    4.345
  437.320   87.979    0.178    0.460    4.329
  437.570   90.108    0.193    0.452    4.393
  437.820   91.178    0.194    0.443    4.509
  438.070   90.913    0.194    0.437    4.656
  438.320   92.392    0.201    0.426    4.789
  438.570   96.944    0.201    0.433    4.904
  438.820   99.968    0.190    0.452    5.036
  439.070   97.489    0.199    0.465    5.157
  439.320   92.597    0.200    0.469    5.218
  439.570   90.728    0.186    0.458    5.229
  439.820   89.605    0.179    0.448    5.172
  440.070   88.387    0.183    0.455    5.083
  440.320   88.254    0.178    0.464    4.807
  440.570   88.618    0.172    0.468    4.845
  440.820   88.370    0.179    0.469    4.923
  441.070   86.878    0.181    0.462    4.969
  441.320   88.309    0.178    0.458    5.008
  441.570   91.112    0.178    0.460    5.030
  441.820   92.548    0.184    0.461    5.067
  442.070   92.057    0.198    0.459    5.065
  442.320   91.449    0.201    0.449    5.019
  442.570   91.547    0.191    0.458    4.958
  442.820   92.515    0.178    0.466    4.922
  443.070   93.889    0.164    0.459    4.900
  443.320   95.257    0.161    0.447    4.870
  443.570   96.032    0.172    0.444    4.848
  443.820   94.913    0.177    0.461    4.861
  444.070   94.866    0.194    0.470    4.876
  444.320   94.669    0.204    0.479    4.901
  444.570   93.124    0.210    0.488    4.940
  444.820   88.834    0.217    0.494    4.933
  445.070   86.240    0.207    0.476    4.916
  445.320   84.376    0.190    0.444    4.674
  445.570   85.901    0.174    0.427    4.250
  445.820   91.479    0.155    0.414    3.982
  446.070   98.973    0.132    0.472    3.701
  446.320  103.791    0.099    0.507    3.416
  446.570  103.559    0.224    0.535    3.099
  446.820  101.272    0.213    0.542    2.879
  447.070  100.647    0.206    0.553    2.690
  447.320  101.774    0.203    0.567    2.629
  447.570  103.255    0.207    0.574    2.600
  447.820  104.855    0.198    0.571    2.553
  448.070  105.840    0.190    0.583    2.597
