~VERSION INFORMATION
 VERS.                 2.0:   CWLS LOG ASCII STANDARD -VERSION 2.0
 WRAP.                  NO:   ONE LINE PER DEPTH STEP
~WELL INFORMATION BLOCK
#MNEM.UNIT           DATA                    DESCRIPTION OF MNEMONIC
#---------    -------------------            -------------------------------
# Generated from Intellog Unique Number	CS_67_68/WELL/2400
WELL.         BVI ET AL TOUCHWOOD            : Well_name    - WELL
LOC .         00/06-27-067-10W4/0            : Location     - LOCATION
UWI .         00/06-27-067-10W4/0            : Uwi          - UNIQUE WELL ID
ENTR.         ANDERSEN                       : Entered      - ENTERED BY
SRVC.         COMPUTALOG                     : Scn          - SERVICE COMPANY
STRT.M        355                            : top_depth    - START DEPTH
STOP.M        570                            : bot_depth    - STOP DEPTH
STEP.M        0.25                           : increment    - STEP LENGTH
 NULL. -999.2500:NULL Value
~CURVE INFORMATION BLOCK
#MNEM UNIT       ERCB CURVE CODE    CURVE DESCRIPTION
#-----------   ------------------   ----------------------------------
DEPT.M        00 001 00 00         : DEPTH        - DEPTH
GR  .API      00 310 00 00         : GR           - GAMMA RAY
CALI.MM       00 280 01 00         : CAL          - CALIPER
NPHI.V/V      00 330 00 00         : PHIN         - NEUTRON POROSITY (SANDSTONE)
DPHI.V/V      00 890 00 00         : PHID         - DENSITY POROSITY (SANDSTONE)
ILD .OHMM     00 120 00 00         : RESD         - DEEP RESISTIVITY (DIL)
~PARAMETER INFORMATION
#MNEM.UNIT           DATA             DESCRIPTION OF MNEMONIC
#---------         -----------     ------------------------------
GL  .M        645                  : gl           - GROUND LEVEL ELEVATION
EREF.M        649.15               : kb           - ELEVATION OF DEPTH REFERENCE
DATM.M        649.15               : datum        - DATUM ELEVATION
TDD .M        583                  : tdd          - TOTAL DEPTH DRILLER
RUN .         ONE                  : Run          - RUN NUMBER
ENG .         BILL                 : Engineer     - RECORDING ENGINEER
WIT .         JIM                  : Witness      - WITNESSED BY
MUD .         GEL                  : Mud_type     - MUD TYPE
MATR.         SANDSTONE            : Logunit      - NEUTRON MATRIX
TMAX.C        28                   : BHT          - MAXIMUM RECORDED TEMPERATURE
BHTD.M        583                  : BHTDEP       - MAXIMUM RECORDED TEMPERATURE
MATR.         1                    : LOGUNIT      - NEUTRON MATRIX
RMT .C        18                   : MDTP         - TEMPERATURE OF MUD
NEUT.         1                    : NEUTRON      - NEUTRON TYPE
RESI.         0                    : RESIST       - RESISTIVITY TYPE
RMC .OHMM     3.2                  : RMC          - RESISTIVITY OF MUD CAKE
RMF .OHMM     2.8                  : RMF          - RESISTIVITY OF MUD FILTRATE
SUFT.C        15                   : SUFT         - SURFACE TEMPERATURE
~A  DEPTH       GR      CAL     PHIN     PHID     RESD
# ...
  501.000   87.662  188.231    0.421    0.221    2.029
  501.250   85.267  188.173    0.415    0.222    2.028
  501.500   83.471  189.137    0.444    0.219    2.027
  501.750   80.477  190.066    0.450    0.204    2.026
  502.000   78.082  191.006    0.450    0.194    2.101
  502.250   76.870  189.974    0.456    0.187    2.100
  502.500   76.843  187.955    0.455    0.177    2.099
  502.750   74.448  187.932    0.438    0.165    2.060
  503.000   73.835  186.899    0.415    0.161    1.947
  503.250   74.984  186.853    0.423    0.174    1.983
  503.500   74.957  186.807    0.456    0.186    1.982
  503.750   75.521  187.736    0.452    0.170    2.055
  504.000   76.099  187.690    0.452    0.184    2.171
  504.250   75.480  186.669    0.438    0.199    2.211
  504.500   78.404  185.637    0.452    0.213    2.292
  504.750   78.377  185.579    0.404    0.212    2.334
  505.000   77.757  186.520    0.398    0.218    2.465
  505.250   75.369  185.487    0.421    0.207    2.557
  505.500   71.198  185.441    0.426    0.177    2.603
  505.750   67.620  184.409    0.393    0.143    2.650
  506.000   66.408  184.363    0.359    0.132    2.698
  506.250   71.116  183.330    0.374    0.196    2.747
  506.500   74.040  182.310    0.388    0.210    2.957
  506.750   72.829  182.264    0.395    0.199    3.123
  507.000   71.026  182.206    0.387    0.196    3.239
  507.250   69.223  182.172    0.388    0.198    3.298
  507.500   68.018  183.112    0.399    0.188    3.358
  507.750   67.991  183.054    0.390    0.171    3.356
  508.000   69.147  184.018    0.375    0.177    3.354
  508.250   71.480  183.960    0.372    0.191    3.352
  508.500   71.452  183.914    0.392    0.206    3.542
  508.750   70.840  183.868    0.389    0.213    3.673
  509.000   69.628  183.811    0.382    0.213    3.740
  509.250   71.975  183.776    0.382    0.216    3.737
  509.500   79.050  183.730    0.392    0.217    3.735
  509.750   80.206  183.696    0.398    0.196    3.664
  510.000   75.443  183.650    0.403    0.159    3.664
  510.250   84.886  183.604    0.410    0.112    3.594
  510.500   88.994  183.546    0.419    0.135    3.336
  510.750   90.150  182.514    0.433    0.179    3.155
  511.000   87.170  182.468    0.437    0.192    2.929
  511.250   84.183  181.447    0.439    0.202    2.769
  511.500   79.421  181.401    0.435    0.178    2.717
  511.750   73.475  181.355    0.417    0.138    2.767
  512.000   70.488  182.272    0.373    0.119    2.977
  512.250   82.290  182.249    0.345    0.149    3.203
  512.500   84.038  182.203    0.382    0.176    3.384
  512.750   84.603  182.157    0.400    0.194    3.575
  513.000   84.589  182.111    0.417    0.204    3.708
  513.250   84.561  182.077    0.421    0.200    3.775
  513.500   84.527  182.019    0.398    0.185    3.570
  513.750   83.315  181.973    0.393    0.175    3.376
  514.000   81.512  181.927    0.391    0.165    3.312
  514.250   77.940  182.868    0.378    0.134    3.310
  514.500   76.137  182.833    0.367    0.099    3.563
  514.750   73.150  183.762    0.352    0.069    4.052
  515.000   71.347  183.716    0.327    0.095    4.695
  515.250   68.945  184.657    0.325    0.183    5.243
  515.500   67.149  184.611    0.330    0.204    5.963
  515.750   63.570  183.578    0.334    0.215    6.417
  516.000   60.583  182.546    0.333    0.214    6.779
  516.250   88.373  181.513    0.329    0.195    6.900
  516.500   93.073  181.467    0.337    0.183    6.898
  516.750   88.318  181.421    0.349    0.193    7.153
  517.000   71.718  181.364    0.357    0.224    7.418
  517.250   59.853  181.341    0.353    0.288    7.838
  517.500   70.472  181.295    0.341    0.290    7.978
  517.750   64.533  181.237    0.343    0.285    8.124
  518.000   57.403  181.214    0.344    0.282    8.120
  518.250   62.110  182.155    0.342    0.289    7.677
  518.500   72.736  182.109    0.353    0.281    7.261
  518.750   51.401  181.076    0.367    0.270    6.865
  519.000   38.945  180.032    0.357    0.277    6.613
  519.250   47.203  179.986    0.328    0.277    6.370
  519.500   78.551  179.940    0.331    0.261    6.250
  519.750   70.238  179.906    0.346    0.233    6.133
  520.000   66.067  180.846    0.341    0.145    6.129
  520.250   73.734  180.789    0.313    0.177    6.126
  520.500   79.625  180.743    0.324    0.202    6.011
  520.750   78.413  180.685    0.338    0.220    5.684
  521.000   71.283  180.662    0.338    0.226    5.276
  521.250   58.228  180.616    0.337    0.234    4.720
  521.500   55.241  180.570    0.335    0.243    4.222
  521.750   52.853  180.524    0.330    0.248    3.993
  522.000   48.090  180.478    0.329    0.250    3.775
  522.250   49.246  181.407    0.332    0.250    3.570
  522.500   48.627  182.347    0.334    0.260    3.503
  522.750   43.864  183.311    0.330    0.271    3.374
  523.000   38.510  184.251    0.339    0.271    3.191
  523.250   35.523  185.192    0.335    0.268    3.074
  523.500   32.536  186.132    0.328    0.277    3.016
  523.750   48.489  186.075    0.320    0.289    3.071
  524.000   50.829  186.029    0.307    0.288    3.244
  524.250   50.801  185.983    0.259    0.198    3.900
  524.500   59.651  185.948    0.216    0.041    5.238
  524.750   69.100  185.902    0.251    0.093    6.068
  525.000   79.727  185.845    0.305    0.185    6.411
  525.250   83.842  185.810    0.322    0.183    7.158
  525.500   82.631  184.778    0.325    0.163    7.424
  525.750   79.045  184.732    0.331    0.158    7.151
  526.000   77.242  184.686    0.326    0.169    6.397
  526.250   75.439  184.640    0.307    0.170    6.276
  526.500   73.043  184.594    0.293    0.165    6.390
  526.750   60.002  184.548    0.295    0.169    6.627
  527.000   50.504  184.502    0.301    0.188    6.748
  527.250   43.966  184.456    0.306    0.213    6.500
  527.500   41.571  185.407    0.310    0.232    6.034
  527.750   39.176  185.361    0.312    0.246    5.398
  528.000   36.182  184.329    0.314    0.261    4.829
  528.250   34.971  183.285    0.314    0.267    4.013
  528.500   34.944  183.251    0.309    0.264    3.657
  528.750   37.283  183.205    0.304    0.266    3.458
  529.000   39.630  183.159    0.307    0.266    3.393
  529.250   44.337  183.113    0.302    0.258    3.519
  529.500   46.670  183.067    0.307    0.245    3.648
  529.750   50.201  183.009    0.324    0.260    3.580
  530.000   54.908  181.988    0.331    0.274    3.385
  530.250   67.316  181.942    0.326    0.263    3.447
  530.500   73.799  182.871    0.315    0.247    3.641
  530.750   82.058  182.837    0.310    0.219    4.065
  531.000   91.500  183.765    0.317    0.183    4.540
  531.250   96.214  183.719    0.336    0.152    4.976
  531.500   99.731  183.685    0.373    0.102    5.257
  531.750   99.111  183.639    0.392    0.076    5.352
  532.000   97.900  183.593    0.377    0.077    5.449
  532.250   90.185  181.574    0.362    0.088    5.347
  532.500   75.946  181.528    0.347    0.140    5.247
  532.750   67.632  181.471    0.330    0.193    5.054
  533.000   61.686  181.448    0.317    0.229    4.779
  533.250   65.210  182.365    0.303    0.212    4.776
  533.500   73.475  182.342    0.303    0.183    4.687
  533.750   76.999  182.273    0.310    0.170    4.683
  534.000   76.971  182.250    0.316    0.167    4.769
  534.250   75.753  182.204    0.315    0.172    5.132
  534.500   73.956  182.158    0.308    0.179    5.523
  534.750   72.146  181.125    0.308    0.189    5.943
  535.000   70.343  181.079    0.314    0.189    5.940
  535.250   70.316  180.047    0.321    0.190    5.721
  535.500   72.655  180.001    0.326    0.201    5.410
  535.750   75.594  179.955    0.319    0.208    5.308
  536.000   79.118  180.895    0.317    0.208    5.208
  536.250   82.641  181.836    0.313    0.198    5.110
  536.500   79.062  181.790    0.312    0.180    5.107
  536.750   80.810  181.732    0.319    0.161    5.296
  537.000   84.926  181.686    0.320    0.156    5.494
  537.250   87.272  181.663    0.322    0.157    5.804
