~VERSION INFORMATION
 VERS.                 2.0:   CWLS LOG ASCII STANDARD -VERSION 2.0
 WRAP.                  NO:   ONE LINE PER DEPTH STEP
~WELL INFORMATION BLOCK
#MNEM.UNIT           DATA                    DESCRIPTION OF MNEMONIC
#---------    -------------------            -------------------------------
# Generated from Intellog Unique Number	CS_71_72/WELL/786
WELL.         BOW VALLEY EXPLORATION         : Well_name    - WELL
LOC .         00/06-34-072-18W4/0            : Location     - LOCATION
UWI .         00/06-34-072-18W4/0            : Uwi          - UNIQUE WELL ID
ENTR.         SP                             : Entered      - ENTERED BY
SRVC.         SCHLUMBERGER                   : Scn          - SERVICE COMPANY
STRT.M        268.224                        : top_depth    - START DEPTH
STOP.M        462.974                        : bot_depth    - STOP DEPTH
STEP.M        0.25                           : increment    - STEP LENGTH
 NULL. -999.2500:NULL Value
~CURVE INFORMATION BLOCK
#MNEM UNIT       ERCB CURVE CODE    CURVE DESCRIPTION
#-----------   ------------------   ----------------------------------
DEPT.M        00 001 00 00         : DEPTH        - DEPTH
GR  .API      00 310 00 00         : GR           - GAMMA RAY
DPHI.V/V      00 890 00 00         : PHID         - DENSITY POROSITY (SANDSTONE)
NPHI.V/V      00 330 00 00         : PHIN         - NEUTRON POROSITY (SANDSTONE)
ILD .OHMM     00 120 00 00         : RESD         - DEEP RESISTIVITY (DIL)
~PARAMETER INFORMATION
#MNEM.UNIT           DATA             DESCRIPTION OF MNEMONIC
#---------         -----------     ------------------------------
GL  .M        585.734              : gl           - GROUND LEVEL ELEVATION
EREF.M        588.874              : kb           - ELEVATION OF DEPTH REFERENCE
DATM.M        585.734              : datum        - DATUM ELEVATION
TDD .M        472.44               : tdd          - TOTAL DEPTH DRILLER
RUN .         ONE                  : Run          - RUN NUMBER
ENG .         BILL                 : Engineer     - RECORDING ENGINEER
WIT .         JIM                  : Witness      - WITNESSED BY
MUD .         GEL                  : Mud_type     - MUD TYPE
MATR.         SANDSTONE            : Logunit      - NEUTRON MATRIX
TMAX.C        21.1111              : BHT          - MAXIMUM RECORDED TEMPERATURE
BHTD.M        472.44               : BHTDEP       - MAXIMUM RECORDED TEMPERATURE
MATR.         1                    : LOGUNIT      - NEUTRON MATRIX
RMT .C        25                   : MDTP         - TEMPERATURE OF MUD
NEUT.         1                    : NEUTRON      - NEUTRON TYPE
RESI.         0                    : RESIST       - RESISTIVITY TYPE
RMC .OHMM     0.25                 : RMC          - RESISTIVITY OF MUD CAKE
RMF .OHMM     0.25                 : RMF          - RESISTIVITY OF MUD FILTRATE
SUFT.C        15                   : SUFT         - SURFACE TEMPERATURE
~A  DEPTH       GR     PHID     PHIN     RESD
# ...
  311.724   99.045    0.285    0.481    8.659
  311.974   94.581    0.302    0.484    9.922
  312.224   86.237    0.308    0.474   11.449
  312.474   79.094    0.300    0.465   11.765
  312.724   75.157    0.291    0.461   11.045
  312.974   71.808    0.314    0.443   10.169
  313.224   72.507    0.321    0.423    9.121
  313.474   73.925    0.313    0.420    8.132
  313.724   76.467    0.331    0.428    7.297
  313.974   79.675    0.325    0.442    6.709
  314.224   81.444    0.302    0.458    6.130
  314.474   85.287    0.272    0.446    5.794
  314.724   90.588    0.262    0.444    5.632
  314.974   94.909    0.263    0.444    5.697
  315.224   98.268    0.247    0.451    6.165
  315.474  100.989    0.283    0.456    6.674
  315.724   95.423    0.320    0.443    7.094
  315.974   87.522    0.312    0.432    7.316
  316.224   83.860    0.302    0.422    7.325
  316.474   84.413    0.292    0.416    6.977
  316.724   88.448    0.287    0.412    6.606
  316.974   90.804    0.302    0.406    6.125
  317.224   93.711    0.282    0.413    5.833
  317.474   96.580    0.267    0.440    5.557
  317.724   99.226    0.291    0.470    5.302
  317.974   96.194    0.359    0.496    5.177
  318.224   88.863    0.410    0.543    5.300
  318.474   80.183    0.447    0.611    5.524
  318.724   76.994    0.337    0.584    6.036
  318.974   78.575    0.323    0.483    6.606
  319.224   82.314    0.333    0.457    7.247
  319.474   83.575    0.304    0.438    7.738
  319.724   83.582    0.268    0.426    8.227
  319.974   78.830    0.292    0.462    8.756
  320.224   73.320    0.307    0.477    9.091
  320.474   69.979    0.314    0.451    9.246
  320.724   67.877    0.319    0.429    8.953
  320.974   68.129    0.320    0.403    8.078
  321.224   69.677    0.322    0.410    7.636
  321.474   70.641    0.321    0.415    7.220
  321.724   71.641    0.320    0.421    7.166
  321.974   71.686    0.322    0.426    6.940
  322.224   70.866    0.326    0.426    6.887
  322.474   69.910    0.327    0.423    6.799
  322.724   70.272    0.319    0.417    6.805
  322.974   70.406    0.322    0.417    6.810
  323.224   69.448    0.317    0.415    6.815
  323.474   67.527    0.318    0.412    6.820
  323.724   65.538    0.313    0.406    6.825
  323.974   62.957    0.311    0.403    6.829
  324.224   62.677    0.315    0.405    6.835
  324.474   61.667    0.312    0.404    6.839
  324.724   61.251    0.310    0.399    6.857
  324.974   61.137    0.315    0.398    6.712
  325.224   61.145    0.324    0.408    6.730
  325.474   61.145    0.331    0.415    6.732
  325.724   61.057    0.316    0.419    6.709
  325.974   60.043    0.327    0.415    6.622
  326.224   59.330    0.334    0.411    6.627
  326.474   60.167    0.335    0.406    6.633
  326.724   61.157    0.336    0.401    6.638
  326.974   61.923    0.338    0.402    6.643
  327.224   61.893    0.340    0.410    6.648
  327.474   61.909    0.339    0.416    6.652
  327.724   61.969    0.326    0.410    6.658
  327.974   61.310    0.323    0.405    6.662
  328.224   60.737    0.334    0.402    6.579
  328.474   60.758    0.340    0.399    6.552
  328.724   61.381    0.343    0.407    6.557
  328.974   61.957    0.337    0.406    6.430
  329.224   63.582    0.334    0.411    6.442
  329.474   65.015    0.342    0.419    6.456
  329.724   65.056    0.353    0.424    6.326
  329.974   65.086    0.361    0.429    6.342
  330.224   65.108    0.362    0.443    6.347
  330.474   65.177    0.359    0.445    6.361
  330.724   64.491    0.357    0.434    6.235
  330.974   63.128    0.350    0.419    6.247
  331.224   61.292    0.342    0.411    6.251
  331.474   61.025    0.338    0.423    6.254
  331.724   61.330    0.341    0.426    6.181
  331.974   63.087    0.348    0.428    6.146
  332.224   64.031    0.352    0.439    6.262
  332.474   65.319    0.350    0.449    6.270
  332.724   67.318    0.344    0.453    6.277
  332.974   69.847    0.347    0.458    6.282
  333.224   71.594    0.348    0.450    6.286
  333.474   71.551    0.343    0.440    6.290
  333.724   67.763    0.337    0.432    6.295
  333.974   67.109    0.348    0.431    6.300
  334.224   67.214    0.346    0.437    6.305
  334.474   66.888    0.348    0.436    6.309
  334.724   65.058    0.352    0.430    6.314
  334.974   63.091    0.348    0.423    6.318
  335.224   62.731    0.345    0.440    6.324
  335.474   62.504    0.334    0.448    6.334
  335.724   63.101    0.341    0.446    6.225
  335.974   63.464    0.339    0.449    6.221
  336.224   63.760    0.335    0.444    6.206
  336.474   63.799    0.336    0.444    6.210
  336.724   63.856    0.332    0.435    6.231
  336.974   63.163    0.338    0.429    6.240
  337.224   62.225    0.341    0.434    6.245
  337.474   61.423    0.343    0.438    6.248
  337.724   61.492    0.339    0.441    6.254
  337.974   61.879    0.337    0.435    6.259
  338.224   62.906    0.334    0.435    6.263
  338.474   63.913    0.329    0.433    6.267
  338.724   63.246    0.324    0.443    6.272
  338.974   62.882    0.324    0.447    6.275
  339.224   64.413    0.324    0.441    6.284
  339.474   66.165    0.320    0.445    6.347
  339.724   67.136    0.319    0.442    6.415
  339.974   67.609    0.324    0.433    6.631
  340.224   68.315    0.339    0.425    6.933
  340.474   68.254    0.341    0.419    7.457
  340.724   67.733    0.324    0.415    8.068
  340.974   67.104    0.317    0.418    8.866
  341.224   66.551    0.303    0.421   11.541
  341.474   66.262    0.296    0.412   13.638
  341.724   65.374    0.282    0.391   21.278
  341.974   64.881    0.279    0.358   30.179
  342.224   64.254    0.024    0.149   45.948
  342.474   63.604    0.053    0.150   42.946
  342.724   63.643    0.053    0.162   31.735
  342.974   64.591    0.057    0.204   21.714
  343.224   65.592    0.098    0.289   16.904
  343.474   66.029    0.169    0.331   14.854
  343.724   67.550    0.281    0.368   13.236
  343.974   69.790    0.332    0.408   11.404
  344.224   71.031    0.346    0.434    9.849
  344.474   73.699    0.343    0.450    8.267
  344.724   74.502    0.338    0.459    7.537
  344.974   77.510    0.335    0.462    7.188
  345.224   78.437    0.338    0.457    6.855
  345.474   80.532    0.337    0.444    6.887
  345.724   80.862    0.334    0.437    7.014
  345.974   81.911    0.330    0.432    7.315
  346.224   83.824    0.327    0.423    7.771
  346.474   86.321    0.316    0.415    8.432
  346.724   87.853    0.275    0.405    8.938
  346.974   84.741    0.247    0.397    8.933
  347.224   82.846    0.212    0.375    8.602
  347.474   86.145    0.184    0.382    7.449
  347.724   90.920    0.223    0.420    6.806
  347.974   94.568    0.238    0.434    6.375
  348.224   97.484    0.245    0.448    6.112
  348.474   99.910    0.233    0.457    5.985
  348.724  105.367    0.231    0.448    5.982
  348.974  108.248    0.229    0.444    5.891
  349.224  107.850    0.225    0.441    5.890
  349.474  106.580    0.215    0.442    6.024
  349.724  107.509    0.201    0.440    5.928
  349.974  109.681    0.208    0.437    5.873
  350.224  112.694    0.226    0.429    5.809
  350.474  114.063    0.215    0.426    5.637
  350.724  113.730    0.214    0.421    5.475
  350.974  111.581    0.226    0.429    5.316
  351.224  108.206    0.245    0.434    5.103
  351.474  104.440    0.234    0.442    4.905
  351.724  103.775    0.228    0.451    4.702
  351.974  105.048    0.230    0.444    4.377
  352.224  106.285    0.220    0.440    4.264
  352.474  105.338    0.215    0.436    4.204
  352.724  101.855    0.216    0.439    4.230
  352.974   92.124    0.229    0.463    4.463
  353.224   85.838    0.250    0.470    4.763
  353.474   81.182    0.296    0.423    4.854
  353.724   76.448    0.320    0.411    4.978
  353.974   72.963    0.313    0.410    5.083
  354.224   75.082    0.325    0.417    5.082
  354.474   71.953    0.340    0.418    4.997
  354.724   69.280    0.348    0.414    4.902
  354.974   67.308    0.348    0.412    4.793
