~VERSION INFORMATION
 VERS.                 2.0:   CWLS LOG ASCII STANDARD -VERSION 2.0
 WRAP.                  NO:   ONE LINE PER DEPTH STEP
~WELL INFORMATION BLOCK
#MNEM.UNIT           DATA                    DESCRIPTION OF MNEMONIC
#---------    -------------------            -------------------------------
# Generated from Intellog Unique Number	CW_73_75/WELL/591
WELL.         ASHLAND ET AL MCMILLAN 06-31   : Well_name    - WELL
LOC .         00/06-31-074-19W4/0            : Location     - LOCATION
UWI .         00/06-31-074-19W4/0            : Uwi          - UNIQUE WELL ID
ENTR.         JAYE                           : Entered      - ENTERED BY
SRVC.         WESTERN ATLAS                  : Scn          - SERVICE COMPANY
DATE.         17 JAN 76                      : Date         - LOG DATE
STRT.M        298.704                        : top_depth    - START DEPTH
STOP.M        508.954                        : bot_depth    - STOP DEPTH
STEP.M        0.25                           : increment    - STEP LENGTH
 NULL. -999.2500:NULL Value
~CURVE INFORMATION BLOCK
#MNEM UNIT       ERCB CURVE CODE    CURVE DESCRIPTION
#-----------   ------------------   ----------------------------------
DEPT.M        00 001 00 00         : DEPTH        - DEPTH
ILD .OHMM     00 120 00 00         : RESD         - DEEP RESISTIVITY (DIL)
GR  .API      00 310 00 00         : GR           - GAMMA RAY
CALI.MM       00 280 01 00         : CAL          - CALIPER
NPHI.V/V      00 330 00 00         : PHIN         - NEUTRON POROSITY (SANDSTONE)
DPHI.V/V      00 890 00 00         : PHID         - DENSITY POROSITY (SANDSTONE)
COND.MMHO                          : COND         - DEEP CONDUCTIVITY (DIL)
~PARAMETER INFORMATION
#MNEM.UNIT           DATA             DESCRIPTION OF MNEMONIC
#---------         -----------     ------------------------------
GL  .M        616.61               : gl           - GROUND LEVEL ELEVATION
EREF.M        619.658              : kb           - ELEVATION OF DEPTH REFERENCE
DATM.M        616.61               : datum        - DATUM ELEVATION
TDD .M        514.502              : tdd          - TOTAL DEPTH DRILLER
RUN .         ONE                  : Run          - RUN NUMBER
BASE.         EDMONTON             : Branch       - HOME BASE OF LOGGING UNIT
MATR.         SANDSTONE            : Logunit      - NEUTRON MATRIX
TMAX.C        23.8889              : BHT          - MAXIMUM RECORDED TEMPERATURE
BHTD.M        512.978              : BHTDEP       - MAXIMUM RECORDED TEMPERATURE
RMT .C        -15.7222             : MDTP         - TEMPERATURE OF MUD
MUDD.KG/M     0                    : MWT          - MUD DENSITY
NEUT.         1                    : NEUTRON      - NEUTRON TYPE
RESI.         0                    : RESIST       - RESISTIVITY TYPE
RM  .OHMM     4                    : RM           - RESISTIVITY OF MUD
RMC .OHMM     0                    : RMC          - RESISTIVITY OF MUD CAKE
RMF .OHMM     3.9                  : RMF          - RESISTIVITY OF MUD FILTRATE
SUFT.C        -17.7778             : SUFT         - SURFACE TEMPERATURE
~A  DEPTH     RESD       GR      CAL     PHIN     PHID     COND
  298.704    3.300  100.268  227.364    0.390    0.249  303.014
  298.954    3.227   99.826  227.861    0.395    0.259  309.929
  299.204    3.146   96.560  229.091    0.407    0.278  317.837
  299.454    3.415   91.145  230.423    0.420    0.415  292.847
  299.704    3.818   83.827  230.299    0.401    0.400  261.912
  299.954    4.322   76.754  227.263    0.371    0.254  231.373
  300.204    4.888   72.567  218.407    0.365    0.107  204.600
  300.454    6.289   79.432  215.786    0.369    0.128  159.000
  300.704    7.418   86.850  217.843    0.375    0.249  134.803
  300.954    7.553   87.882  219.283    0.374    0.246  132.405
  301.204    7.137   86.949  220.301    0.377    0.239  140.114
  301.454    6.990   82.393  221.217    0.379    0.248  143.067
  301.704    7.049   82.136  218.703    0.376    0.340  141.858
  301.954    7.110   84.273  210.470    0.359    0.304  140.649
  302.204    6.907   82.788  206.603    0.351    0.275  144.791
  302.454    6.618   85.662  210.843    0.349    0.271  151.113
  302.704    6.188   88.598  217.895    0.353    0.278  161.596
  302.954    5.611   85.639  223.490    0.359    0.287  178.223
  303.204    4.837   88.083  225.236    0.365    0.279  206.740
  303.454    4.574   97.650  225.530    0.371    0.268  218.611
  303.704    4.734  101.690  223.430    0.363    0.280  211.259
  303.954    5.246   89.337  216.965    0.355    0.317  190.628
  304.204    6.270   79.072  209.562    0.353    0.336  159.496
  304.454    8.645   78.077  204.760    0.360    0.353  115.679
  304.704    8.969   76.898  202.452    0.354    0.349  111.497
  304.954    8.891   73.879  200.977    0.344    0.335  112.469
  305.204    8.518   79.760  198.772    0.343    0.318  117.404
  305.454    8.227   82.267  198.023    0.384    0.298  121.545
  305.704    7.749   82.562  199.046    0.378    0.275  129.056
  305.954    7.564   90.716  202.145    0.373    0.259  132.207
  306.204    7.668   96.905  202.229    0.371    0.242  130.404
  306.454    7.670  101.192  207.303    0.368    0.240  130.384
  306.704    7.434  104.557  215.082    0.379    0.256  134.525
  306.954    7.031  105.774  223.276    0.379    0.255  142.235
  307.204    6.531  106.070  231.365    0.378    0.234  153.115
  307.454    6.018  106.426  229.058    0.376    0.228  166.175
  307.704    5.667  113.045  223.528    0.374    0.239  176.460
  307.954    5.680  112.113  220.181    0.377    0.260  176.043
  308.204    6.115  104.733  220.679    0.389    0.276  163.539
  308.454    6.799   97.844  222.948    0.392    0.276  147.070
  308.704    7.487   91.938  226.359    0.401    0.253  133.574
  308.954    8.036   84.435  216.357    0.383    0.247  124.439
  309.204    8.441   89.520  205.005    0.372    0.253  118.473
  309.454    8.303   94.297  201.762    0.381    0.262  120.436
  309.704    7.756   91.952  205.692    0.392    0.262  128.937
  309.954    7.003   95.993  216.383    0.393    0.299  142.790
  310.204    6.352  100.647  233.102    0.388    0.328  157.435
  310.454    5.934  102.171  233.914    0.382    0.346  168.513
  310.704    5.866   98.046  246.163    0.381    0.384  170.475
  310.954    6.283   95.148  241.984    0.376    0.355  159.159
  311.204    6.846   90.654  218.467    0.369    0.268  146.060
  311.454    7.612   92.055  202.331    0.368    0.224  131.375
  311.704    8.570   94.805  199.711    0.363    0.219  116.690
  311.954    9.402   96.758  209.256    0.359    0.211  106.365
  312.204    9.730  100.431  215.994    0.357    0.208  102.777
  312.454    9.865  102.507  222.214    0.352    0.227  101.371
  312.704    9.790  101.206  222.298    0.355    0.236  102.144
  312.954    9.792   97.264  212.297    0.362    0.228  102.124
  313.204   10.335   89.025  205.621    0.369    0.251   96.754
  313.454   14.493   79.926  203.522    0.376    0.269   83.060
  313.704   23.400   66.958  202.670    0.383    0.295   69.366
  313.954   48.781   53.376  205.457    0.391    0.340   57.654
  314.204   52.976   52.382  210.013    0.398    0.335   55.256
  314.454   45.801   53.414  221.014    0.408    0.325   39.779
  314.704   37.461   54.570  226.817    0.404    0.318   11.817
  314.954   28.730   55.909  225.859    0.398    0.305   13.580
  315.204   17.246   59.827  220.955    0.391    0.292   15.939
  315.454   12.421   62.148  214.281    0.381    0.285   22.855
  315.704   11.535   62.259  209.372    0.367    0.304   31.951
  315.954    9.060   67.405  205.713    0.375    0.284   43.227
  316.204   15.719   70.832  204.134    0.374    0.258   63.619
  316.454   12.103   71.189  203.803    0.366    0.266   82.625
  316.704    9.615   75.905  204.303    0.358    0.253  104.008
  316.954    8.674   82.954  205.635    0.348    0.229  115.284
  317.204    7.939   90.311  209.359    0.339    0.229  125.964
  317.454    7.686   93.430  218.697    0.343    0.233  130.107
  317.704    7.549   97.348  226.993    0.369    0.238  132.465
  317.954    7.539   96.231  231.133    0.374    0.228  132.643
  318.204    7.655   92.227  227.994    0.374    0.225  130.642
  318.454    7.846   88.655  221.424    0.378    0.235  127.451
  318.704    8.086   89.503  222.548    0.388    0.241  123.667
  318.954    7.487   94.035  229.806    0.405    0.218  133.556
  319.204    5.945  101.821  233.841    0.416    0.201  168.217
  319.454    5.161  109.852  234.444    0.443    0.191  193.761
  319.704    4.366  119.112  233.488    0.453    0.188  229.017
  319.954    3.655  118.917  232.220    0.443    0.187  273.586
  320.204    3.137  117.677  231.370    0.435    0.210  318.750
  320.454    2.943  118.094  231.764    0.435    0.229  339.737
  320.704    2.959  117.838  232.058    0.431    0.218  337.933
  320.954    3.012  115.124  232.557    0.435    0.178  331.969
  321.204    3.073  114.989  233.161    0.442    0.149  325.409
  321.454    2.932  109.881  233.141    0.437    0.126  341.045
  321.704    3.022  111.835  232.186    0.413    0.107  330.918
  321.954    3.267  112.744  220.833    0.401    0.100  306.126
  322.204    3.647  112.548  220.500    0.393    0.271  274.201
  322.454    4.318  109.343  243.356    0.386    0.306  231.573
  322.704    5.400  106.200  250.924    0.387    0.279  185.181
  322.954    6.752  104.100  248.931    0.374    0.254  148.102
  323.204    7.026  103.904  247.974    0.368    0.247  142.335
  323.454    7.037  102.726  248.578    0.375    0.301  142.116
  323.704    6.719  102.223  250.324    0.383    0.265  148.835
  323.954    6.445  100.369  251.447    0.388    0.255  155.157
  324.204    6.479   99.926  252.157    0.394    0.274  154.345
  324.454    6.785   99.671  252.343    0.408    0.283  147.389
  324.704    7.414   97.571  251.390    0.405    0.256  134.884
  324.954    8.252   89.455  241.803    0.401    0.250  121.189
  325.204    9.069   83.241  234.195    0.391    0.252  110.270
  325.454    9.830   83.598  226.168    0.381    0.246  101.729
  325.704   10.442   85.612  220.429    0.384    0.245   95.764
  325.954   10.598   86.215  218.225    0.377    0.250   94.357
  326.204   10.404   86.264  216.543    0.375    0.259   96.121
  326.454   10.492   88.340  212.677    0.380    0.271   95.308
  326.704   10.809   89.311  207.771    0.390    0.281   92.514
  326.954   11.245   86.291  204.007    0.390    0.284   88.927
  327.204   11.075   82.718  204.091    0.371    0.273   90.294
  327.454   10.081   85.284  208.853    0.361    0.265   99.193
  327.704    8.575   92.334  215.073    0.365    0.272  116.613
  327.954    7.880   96.989  221.290    0.389    0.263  126.897
  328.204    7.857   94.766  224.910    0.394    0.257  127.274
  328.454    7.786   94.386  225.825    0.392    0.255  128.444
  328.704    8.086   97.628  225.806    0.384    0.271  123.667
  328.954    8.425  101.670  224.329    0.371    0.262  118.692
  329.204    8.688  108.964  226.909    0.368    0.232  115.107
  329.454    8.857  118.347  232.921    0.377    0.208  112.907
  329.704    8.237  121.159  238.201    0.397    0.209  121.408
