~VERSION INFORMATION
 VERS.                 2.0:   CWLS LOG ASCII STANDARD -VERSION 2.0
 WRAP.                  NO:   ONE LINE PER DEPTH STEP
~WELL INFORMATION BLOCK
#MNEM.UNIT           DATA                    DESCRIPTION OF MNEMONIC
#---------    -------------------            -------------------------------
# Generated from Intellog Unique Number	CW_79_81/WELL/2453
WELL.         06-24-081-23W4                 : Well_name    - WELL
LOC .         00/06-24-081-23W4/0            : Location     - LOCATION
UWI .         00/06-24-081-23W4/0            : Uwi          - UNIQUE WELL ID
ENTR.         MAX                            : Entered      - ENTERED BY
SRVC.         WESTERN ATLAS                  : Scn          - SERVICE COMPANY
STRT.M        200                            : top_depth    - START DEPTH
STOP.M        452                            : bot_depth    - STOP DEPTH
STEP.M        0.25                           : increment    - STEP LENGTH
 NULL. -999.2500:NULL Value
~CURVE INFORMATION BLOCK
#MNEM UNIT       ERCB CURVE CODE    CURVE DESCRIPTION
#-----------   ------------------   ----------------------------------
DEPT.M        00 001 00 00         : DEPTH        - DEPTH
ILD .OHMM     00 120 00 00         : RESD         - DEEP RESISTIVITY (DIL)
NPHI.V/V      00 330 00 00         : PHIN         - NEUTRON POROSITY (SANDSTONE)
DPHI.V/V      00 890 00 00         : PHID         - DENSITY POROSITY (SANDSTONE)
GR  .API      00 310 00 00         : GR           - GAMMA RAY
CALI.MM       00 280 01 00         : CAL          - CALIPER
~PARAMETER INFORMATION
#MNEM.UNIT           DATA             DESCRIPTION OF MNEMONIC
#---------         -----------     ------------------------------
GL  .M        610                  : gl           - GROUND LEVEL ELEVATION
EREF.M        614.3                : kb           - ELEVATION OF DEPTH REFERENCE
DATM.M        610                  : datum        - DATUM ELEVATION
TDD .M        458.5                : tdd          - TOTAL DEPTH DRILLER
RUN .         ONE                  : Run          - RUN NUMBER
ENG .         BILL                 : Engineer     - RECORDING ENGINEER
WIT .         JIM                  : Witness      - WITNESSED BY
MUD .         GEL                  : Mud_type     - MUD TYPE
MATR.         SANDSTONE            : Logunit      - NEUTRON MATRIX
TMAX.C        28                   : BHT          - MAXIMUM RECORDED TEMPERATURE
BHTD.M        458.5                : BHTDEP       - MAXIMUM RECORDED TEMPERATURE
MATR.         1                    : LOGUNIT      - NEUTRON MATRIX
RMT .C        15                   : MDTP         - TEMPERATURE OF MUD
NEUT.         1                    : NEUTRON      - NEUTRON TYPE
RESI.         0                    : RESIST       - RESISTIVITY TYPE
RMC .OHMM     5.6                  : RMC          - RESISTIVITY OF MUD CAKE
RMF .OHMM     5                    : RMF          - RESISTIVITY OF MUD FILTRATE
SUFT.C        -20                  : SUFT         - SURFACE TEMPERATURE
~A  DEPTH     RESD     PHIN     PHID       GR      CAL
  200.000    3.632    0.396    0.240  118.621  219.360
  200.250    3.612    0.404    0.236  117.669  217.780
  200.500    3.572    0.426    0.239  120.024  217.214
  200.750    3.564    0.428    0.246  124.023  216.689
  201.000    3.608    0.401    0.256  126.767  215.965
  201.250    3.723    0.369    0.263  123.741  214.909
  201.500    3.875    0.386    0.260  122.789  213.330
  201.750    4.144    0.380    0.256  126.666  212.590
  202.000    4.505    0.366    0.249  127.848  212.460
  202.250    4.929    0.355    0.239  124.893  212.737
  202.500    5.360    0.355    0.228  119.660  212.917
  202.750    5.757    0.373    0.218  118.016  211.960
  203.000    6.086    0.375    0.214  121.556  210.766
  203.250    6.323    0.359    0.207  123.033  209.250
  203.500    6.499    0.348    0.197  116.967  208.621
  203.750    6.582    0.347    0.188  111.262  208.491
  204.000    6.491    0.354    0.182  109.928  208.564
  204.250    6.008    0.363    0.180  113.893  208.488
  204.500    5.452    0.377    0.181  117.927  207.740
  204.750    5.182    0.401    0.186  117.736  207.007
  205.000    4.900    0.398    0.192  118.978  206.879
  205.250    4.679    0.382    0.196  120.939  207.152
  205.500    4.517    0.363    0.200  123.557  207.721
  205.750    4.349    0.361    0.202  126.988  208.760
  206.000    4.289    0.392    0.204  124.784  209.668
  206.250    4.359    0.390    0.206  122.193  209.349
  206.500    4.650    0.377    0.205  122.300  209.014
  206.750    5.172    0.376    0.203  119.826  208.880
  207.000    6.057    0.382    0.201  111.059  208.954
  207.250    8.261    0.358    0.208   90.265  209.125
  207.500   11.815    0.348    0.237   72.336  209.618
  207.750   16.242    0.329    0.270   57.044  210.489
  208.000   25.089    0.315    0.300   43.726  211.361
  208.250   37.787    0.306    0.340   33.464  211.830
  208.500   44.052    0.298    0.376   27.699  211.401
  208.750   38.611    0.285    0.346   29.580  209.166
  209.000   29.149    0.267    0.249   36.367  207.571
  209.250   16.928    0.278    0.190   45.031  207.652
  209.500   13.358    0.303    0.197   51.721  207.117
  209.750   11.207    0.325    0.234   52.963  206.388
  210.000    9.188    0.339    0.266   49.413  206.765
  210.250    6.916    0.354    0.256   49.462  210.857
  210.500    5.867    0.358    0.245   67.479  213.020
  210.750    4.366    0.358    0.241   80.702  212.679
  211.000    3.906    0.360    0.241   95.902  211.451
  211.250    3.885    0.363    0.241  100.380  209.931
  211.500    4.232    0.365    0.240   92.757  208.711
  211.750    5.382    0.360    0.241   80.938  208.391
  212.000    6.553    0.350    0.246   70.748  208.460
  212.250    8.419    0.334    0.259   72.704  209.332
  212.500   10.197    0.322    0.276   71.070  211.712
  212.750   11.295    0.314    0.282   63.805  214.380
  213.000   11.566    0.310    0.276   54.204  216.045
  213.250   11.514    0.313    0.264   51.852  215.186
  213.500   11.185    0.327    0.258   56.639  214.408
  213.750   10.320    0.341    0.250   54.523  213.675
  214.000    9.093    0.354    0.246   58.338  213.259
  214.250    8.237    0.371    0.246   66.170  212.936
  214.500    7.781    0.384    0.251   74.724  212.705
  214.750    7.515    0.368    0.259   78.637  212.707
  215.000    7.527    0.356    0.267   75.185  212.352
  215.250    7.763    0.345    0.275   68.752  212.433
  215.500    8.577    0.348    0.271   64.479  212.502
  215.750    9.408    0.350    0.261   62.245  212.572
  216.000    9.781    0.349    0.252   62.289  212.747
  216.250    9.694    0.352    0.257   65.168  213.241
  216.500    9.562    0.356    0.264   64.969  213.309
  216.750    9.508    0.353    0.262   63.331  213.383
  217.000    9.505    0.346    0.259   63.677  213.146
  217.250    9.519    0.333    0.256   65.280  213.012
  217.500    9.602    0.318    0.254   67.359  213.089
  217.750    9.999    0.307    0.256   68.936  213.106
  218.000   10.487    0.308    0.259   68.238  212.751
  218.250   11.298    0.317    0.257   65.394  212.824
  218.500   12.046    0.314    0.255   59.865  212.898
  218.750   12.705    0.309    0.257   57.753  212.967
  219.000   13.183    0.310    0.262   59.293  213.039
  219.250   13.264    0.317    0.267   58.815  213.305
  219.500   13.085    0.326    0.270   58.620  214.198
  219.750   12.625    0.319    0.263   62.253  215.462
  220.000   12.050    0.310    0.254   66.784  217.030
  220.250   11.373    0.311    0.245   70.300  218.505
  220.500   10.596    0.318    0.237   71.901  219.482
  220.750    9.540    0.314    0.226   71.416  219.570
  221.000    8.722    0.308    0.216   69.969  219.647
  221.250    8.418    0.317    0.214   70.487  219.705
  221.500    7.852    0.320    0.219   73.701  219.781
  221.750    7.195    0.319    0.228   79.614  219.854
  222.000    6.604    0.318    0.235   86.012  220.023
  222.250    5.970    0.325    0.235   88.567  220.602
  222.500    5.065    0.334    0.235   89.103  221.094
  222.750    4.924    0.336    0.241   89.382  221.566
  223.000    4.924    0.325    0.248   89.485  222.338
  223.250    5.041    0.316    0.251   87.490  223.203
  223.500    5.256    0.313    0.249   83.340  223.964
  223.750    5.629    0.318    0.249   79.095  224.618
  224.000    6.091    0.324    0.248   80.383  225.526
  224.250    6.146    0.332    0.247   83.302  225.999
  224.500    6.099    0.343    0.244   88.017  226.466
  224.750    5.950    0.348    0.240   93.451  227.138
  225.000    5.710    0.348    0.234   97.449  228.117
  225.250    5.264    0.352    0.223   95.688  229.657
  225.500    4.705    0.360    0.220   90.235  230.966
  225.750    4.181    0.387    0.232   90.048  231.039
  226.000    3.784    0.400    0.244   87.696  231.107
  226.250    3.551    0.407    0.248   86.418  231.979
  226.500    3.441    0.411    0.244   87.535  233.453
  226.750    3.367    0.410    0.240   91.258  234.333
  227.000    3.347    0.407    0.245   95.301  234.409
  227.250    3.326    0.409    0.250   97.496  234.475
  227.500    3.289    0.410    0.255   99.156  234.552
  227.750    3.233    0.411    0.259   98.721  234.230
  228.000    3.149    0.412    0.259   97.029  233.101
  228.250    2.986    0.410    0.254   98.074  230.617
  228.500    2.835    0.393    0.249  101.858  229.876
  228.750    2.696    0.417    0.245   98.305  228.745
  229.000    2.607    0.414    0.240   98.347  228.212
  229.250    2.554    0.398    0.235   99.949  228.278
  229.500    2.530    0.380    0.229  101.729  228.647
  229.750    2.535    0.376    0.227  103.281  228.743
  230.000    2.538    0.412    0.229  104.828  228.819
  230.250    2.543    0.424    0.234  106.061  228.486
  230.500    2.491    0.417    0.237  107.121  228.463
  230.750    2.431    0.404    0.237  107.045  228.536
  231.000    2.381    0.398    0.234  105.172  228.602
  231.250    2.329    0.408    0.230  100.599  228.683
  231.500    2.315    0.399    0.231   97.900  228.760
  231.750    2.370    0.416    0.235   97.704  228.848
  232.000    2.414    0.436    0.235  101.461  228.919
  232.250    2.453    0.426    0.231  106.656  228.985
  232.500    2.493    0.398    0.224  110.474  229.151
  232.750    2.546    0.407    0.214  109.712  229.881
  233.000    2.610    0.403    0.210  109.254  231.205
  233.250    2.672    0.417    0.210  109.294  232.476
  233.500    2.736    0.428    0.215  110.058  233.742
  233.750    2.801    0.423    0.216  112.139  235.013
  234.000    2.862    0.397    0.213  114.275  236.287
  234.250    2.919    0.358    0.210  112.471  237.817
  234.500    2.970    0.383    0.215  108.021  239.149
  234.750    2.973    0.386    0.213  108.313  240.013
  235.000    2.994    0.383    0.209  108.592  240.883
  235.250    3.010    0.376    0.205  109.470  241.752
  235.500    3.015    0.368    0.204  111.131  242.721
  235.750    3.020    0.364    0.211  112.942  244.189
  236.000    3.024    0.365    0.218  110.996  245.097
  236.250    3.007    0.381    0.222  110.557  245.155
