~VERSION INFORMATION
 VERS.                 2.0:   CWLS LOG ASCII STANDARD -VERSION 2.0
 WRAP.                  NO:   ONE LINE PER DEPTH STEP
~WELL INFORMATION BLOCK
#MNEM.UNIT           DATA                    DESCRIPTION OF MNEMONIC
#---------    -------------------            -------------------------------
# Generated from Intellog Unique Number	CS_69_70/WELL/813
WELL.         ET AL TWEEDIE                  : Well_name    - WELL
LOC .         00/07-07-069-12W4/0            : Location     - LOCATION
UWI .         00/07-07-069-12W4/0            : Uwi          - UNIQUE WELL ID
ENTR.         SP                             : Entered      - ENTERED BY
SRVC.         SCHLUMBERGER                   : Scn          - SERVICE COMPANY
STRT.M        290                            : top_depth    - START DEPTH
STOP.M        499                            : bot_depth    - STOP DEPTH
STEP.M        0.25                           : increment    - STEP LENGTH
 NULL. -999.2500:NULL Value
~CURVE INFORMATION BLOCK
#MNEM UNIT       ERCB CURVE CODE    CURVE DESCRIPTION
#-----------   ------------------   ----------------------------------
DEPT.M        00 001 00 00         : DEPTH        - DEPTH
ILD .OHMM     00 120 00 00         : RESD         - DEEP RESISTIVITY (DIL)
DPHI.V/V      00 890 00 00         : PHID         - DENSITY POROSITY (LIMESTONE)
NPHI.V/V      00 330 00 00         : PHIN         - NEUTRON POROSITY (LIMESTONE)
GR  .API      00 310 00 00         : GR           - GAMMA RAY
~PARAMETER INFORMATION
#MNEM.UNIT           DATA             DESCRIPTION OF MNEMONIC
#---------         -----------     ------------------------------
GL  .M        598.64               : gl           - GROUND LEVEL ELEVATION
EREF.M        601.19               : kb           - ELEVATION OF DEPTH REFERENCE
DATM.M        598.64               : datum        - DATUM ELEVATION
TDD .M        495                  : tdd          - TOTAL DEPTH DRILLER
RUN .         ONE                  : Run          - RUN NUMBER
ENG .         BILL                 : Engineer     - RECORDING ENGINEER
WIT .         JIM                  : Witness      - WITNESSED BY
MUD .         GEL                  : Mud_type     - MUD TYPE
MATR.         LIMESTONE            : Logunit      - NEUTRON MATRIX
TMAX.C        27                   : BHT          - MAXIMUM RECORDED TEMPERATURE
BHTD.M        495                  : BHTDEP       - MAXIMUM RECORDED TEMPERATURE
MATR.         1                    : LOGUNIT      - NEUTRON MATRIX
RMT .C        25                   : MDTP         - TEMPERATURE OF MUD
NEUT.         1                    : NEUTRON      - NEUTRON TYPE
RESI.         0                    : RESIST       - RESISTIVITY TYPE
RMC .OHMM     0.25                 : RMC          - RESISTIVITY OF MUD CAKE
RMF .OHMM     0.25                 : RMF          - RESISTIVITY OF MUD FILTRATE
SUFT.C        15                   : SUFT         - SURFACE TEMPERATURE
~A  DEPTH     RESD     PHID     PHIN       GR
# ...
  377.000    3.770    0.255    0.349   62.051
  377.250    3.773    0.261    0.345   59.128
  377.500    3.754    0.263    0.344   55.962
  377.750    3.715    0.252    0.385   59.500
  378.000    3.628    0.251    0.398   66.086
  378.250    3.524    0.269    0.396   66.576
  378.500    3.411    0.275    0.372   59.631
  378.750    3.326    0.265    0.374   55.001
  379.000    3.248    0.292    0.392   58.723
  379.250    3.179    0.306    0.392   58.786
  379.500    3.140    0.317    0.379   54.401
  379.750    3.125    0.309    0.383   56.720
  380.000    3.132    0.313    0.388   59.222
  380.250    3.170    0.305    0.377   64.040
  380.500    3.231    0.296    0.368   65.994
  380.750    3.350    0.290    0.363   64.656
  381.000    3.498    0.289    0.358   66.365
  381.250    3.674    0.294    0.366   68.745
  381.500    3.822    0.295    0.367   64.908
  381.750    3.889    0.294    0.364   66.679
  382.000    3.849    0.294    0.366   69.120
  382.250    3.739    0.299    0.380   69.976
  382.500    3.658    0.302    0.395   60.349
  382.750    3.521    0.307    0.394   58.402
  383.000    3.439    0.312    0.380   60.477
  383.250    3.372    0.319    0.363   55.299
  383.500    3.393    0.324    0.350   60.117
  383.750    3.433    0.327    0.371   65.667
  384.000    3.329    0.323    0.387   68.412
  384.250    3.319    0.324    0.391   59.943
  384.500    3.322    0.328    0.391   57.203
  384.750    3.335    0.327    0.391   64.277
  385.000    3.388    0.310    0.389   70.436
  385.250    3.460    0.305    0.380   70.500
  385.500    3.560    0.320    0.371   70.076
  385.750    3.629    0.327    0.365   73.859
  386.000    3.585    0.310    0.365   77.031
  386.250    3.463    0.301    0.372   81.178
  386.500    3.407    0.298    0.377   71.246
  386.750    3.347    0.302    0.385   63.386
  387.000    3.343    0.314    0.381   59.305
  387.250    3.389    0.322    0.370   58.638
  387.500    3.474    0.315    0.359   63.029
  387.750    3.575    0.303    0.349   67.360
  388.000    3.544    0.288    0.355   73.397
  388.250    3.354    0.292    0.360   75.717
  388.500    3.186    0.302    0.356   74.805
  388.750    3.067    0.311    0.354   73.041
  389.000    3.012    0.304    0.354   69.569
  389.250    3.037    0.296    0.361   63.904
  389.500    3.107    0.305    0.368   65.918
  389.750    3.227    0.299    0.366   69.822
  390.000    3.395    0.284    0.366   68.728
  390.250    3.533    0.272    0.365   64.220
  390.500    3.696    0.260    0.363   65.016
  390.750    3.810    0.265    0.361   64.653
  391.000    3.935    0.273    0.357   63.559
  391.250    4.012    0.270    0.342   69.779
  391.500    4.037    0.270    0.353   72.403
  391.750    4.077    0.272    0.351   75.027
  392.000    4.118    0.262    0.340   77.773
  392.250    4.090    0.251    0.335   78.934
  392.500    4.062    0.255    0.341   72.293
  392.750    4.095    0.252    0.347   67.602
  393.000    4.167    0.252    0.351   67.422
  393.250    4.289    0.263    0.367   73.399
  393.500    4.380    0.260    0.376   76.998
  393.750    4.507    0.245    0.378   75.904
  394.000    4.619    0.232    0.357   75.176
  394.250    4.789    0.238    0.342   75.544
  394.500    4.946    0.248    0.340   75.730
  394.750    5.118    0.252    0.349   75.794
  395.000    5.207    0.237    0.353   75.492
  395.250    5.298    0.222    0.351   75.069
  395.500    5.312    0.209    0.346   75.682
  395.750    5.286    0.205    0.349   76.416
  396.000    5.135    0.208    0.352   77.516
  396.250    4.979    0.210    0.353   79.713
  396.500    4.899    0.219    0.370   82.703
  396.750    4.821    0.222    0.383   77.769
  397.000    4.779    0.215    0.385   75.211
  397.250    4.730    0.209    0.367   78.567
  397.500    4.698    0.205    0.352   83.385
  397.750    4.667    0.205    0.344   88.386
  398.000    4.644    0.211    0.337   86.622
  398.250    4.612    0.212    0.332   84.369
  398.500    4.538    0.202    0.351   82.300
  398.750    4.433    0.198    0.354   82.303
  399.000    4.395    0.205    0.355   77.003
  399.250    4.333    0.207    0.362   79.078
  399.500    3.717    0.208    0.375   78.472
  399.750    3.199    0.206    0.386   74.452
  400.000    2.739    0.217    0.399   74.881
  400.250    2.498    0.225    0.402   70.801
  400.500    2.364    0.236    0.371   68.853
  400.750    2.313    0.247    0.367   76.231
  401.000    2.443    0.259    0.376   78.428
  401.250    2.628    0.265    0.390   72.520
  401.500    2.924    0.271    0.405   70.816
  401.750    3.253    0.260    0.429   76.670
  402.000    3.559    0.245    0.410   80.635
  402.250    3.723    0.233    0.386   83.441
  402.500    3.925    0.224    0.384   80.153
  402.750    4.023    0.232    0.401   73.695
  403.000    4.063    0.243    0.396   68.883
  403.250    4.075    0.250    0.382   74.494
  403.500    4.055    0.249    0.370   72.912
  403.750    4.034    0.238    0.362   68.343
  404.000    4.007    0.224    0.366   63.531
  404.250    3.871    0.214    0.368   59.816
  404.500    3.774    0.206    0.374   54.272
  404.750    3.659    0.221    0.386   51.349
  405.000    3.501    0.240    0.384   51.230
  405.250    3.369    0.257    0.377   51.050
  405.500    3.190    0.259    0.374   51.053
  405.750    3.075    0.251    0.374   49.289
  406.000    2.937    0.269    0.384   45.939
  406.250    2.816    0.285    0.395   45.028
  406.500    2.715    0.295    0.381   51.919
  406.750    2.614    0.297    0.363   58.017
  407.000    2.543    0.303    0.356   61.250
  407.250    2.471    0.317    0.361   64.789
  407.500    2.401    0.325    0.363   63.816
  407.750    2.384    0.318    0.362   58.821
  408.000    2.368    0.316    0.363   60.470
  408.250    2.374    0.319    0.369   60.778
  408.500    2.411    0.315    0.360   54.076
  408.750    2.466    0.317    0.360   50.117
  409.000    2.510    0.324    0.374   44.025
  409.250    2.582    0.327    0.379   68.165
  409.500    2.789    0.325    0.388   77.128
  409.750    3.125    0.319    0.396   76.338
  410.000    3.503    0.308    0.401   70.247
  410.250    3.948    0.292    0.405   67.201
  410.500    4.343    0.268    0.398   68.058
  410.750    4.689    0.207    0.414   72.085
  411.000    4.317    0.098    0.265   73.611
  411.250    4.040    0.074    0.206   76.905
  411.500    3.781    0.112    0.308   79.651
  411.750    3.646    0.154    0.355   81.117
  412.000    3.548    0.212    0.364   77.707
  412.250    3.524    0.211    0.358   74.418
  412.500    3.573    0.209    0.354   73.506
  412.750    3.676    0.208    0.359   78.203
  413.000    3.733    0.208    0.365   76.378
  413.250    3.017    0.199    0.371   74.247
  413.500    2.260    0.200    0.380   76.871
  413.750    1.934    0.211    0.386   80.348
  414.000    1.744    0.215    0.392   76.999
  414.250    1.632    0.217    0.405   72.674
  414.500    1.931    0.217    0.396   74.932
  414.750    2.292    0.218    0.386   77.800
  415.000    2.652    0.220    0.378   76.645
  415.250    2.934    0.221    0.374   73.296
  415.500    3.138    0.221    0.368   70.068
  415.750    3.358    0.215    0.355   67.024
  416.000    3.613    0.209    0.353   65.502
  416.250    3.851    0.203    0.361   65.871
  416.500    4.075    0.206    0.365   69.227
  416.750    4.263    0.211    0.359   77.336
  417.000    4.435    0.206    0.355   83.069
  417.250    4.538    0.199    0.353   78.561
  417.500    4.516    0.193    0.357   78.077
  417.750    4.395    0.199    0.359   86.430
  418.000    4.309    0.206    0.361   91.431
  418.250    4.256    0.206    0.366   91.008
  418.500    4.180    0.194    0.373   88.877
  418.750    3.950    0.189    0.362   87.112
  419.000    3.738    0.198    0.352   91.687
  419.250    3.408    0.207    0.364   97.298
  419.500    3.108    0.208    0.371  101.689
  419.750    2.947    0.215    0.376  105.776
  420.000    2.857    0.225    0.372   99.501
  420.250    2.781    0.239    0.389   91.580
