~VERSION INFORMATION
 VERS.                 2.0:   CWLS LOG ASCII STANDARD -VERSION 2.0
 WRAP.                  NO:   ONE LINE PER DEPTH STEP
~WELL INFORMATION BLOCK
#MNEM.UNIT           DATA                    DESCRIPTION OF MNEMONIC
#---------    -------------------            -------------------------------
# Generated from Intellog Unique Number	CW_79_81/WELL/2441
WELL.         01-32-080-22W4                 : Well_name    - WELL
LOC .         AA/01-32-080-22W4/0            : Location     - LOCATION
UWI .         AA/01-32-080-22W4/0            : Uwi          - UNIQUE WELL ID
ENTR.         MAX                            : Entered      - ENTERED BY
SRVC.         SCHLUMBERGER                   : Scn          - SERVICE COMPANY
STRT.M        220                            : top_depth    - START DEPTH
STOP.M        439.75                         : bot_depth    - STOP DEPTH
STEP.M        0.25                           : increment    - STEP LENGTH
 NULL. -999.2500:NULL Value
~CURVE INFORMATION BLOCK
#MNEM UNIT       ERCB CURVE CODE    CURVE DESCRIPTION
#-----------   ------------------   ----------------------------------
DEPT.M        00 001 00 00         : DEPTH        - DEPTH
ILD .OHMM     00 120 00 00         : RESD         - DEEP RESISTIVITY (DIL)
NPHI.V/V      00 330 00 00         : PHIN         - NEUTRON POROSITY (SANDSTONE)
DPHI.V/V      00 890 00 00         : PHID         - DENSITY POROSITY (SANDSTONE)
GR  .API      00 310 00 00         : GR           - GAMMA RAY
CALI.MM       00 280 01 00         : CAL          - CALIPER
~PARAMETER INFORMATION
#MNEM.UNIT           DATA             DESCRIPTION OF MNEMONIC
#---------         -----------     ------------------------------
GL  .M        588.6                : gl           - GROUND LEVEL ELEVATION
EREF.M        592.9                : kb           - ELEVATION OF DEPTH REFERENCE
DATM.M        588.6                : datum        - DATUM ELEVATION
TDD .M        443                  : tdd          - TOTAL DEPTH DRILLER
RUN .         ONE                  : Run          - RUN NUMBER
ENG .         BILL                 : Engineer     - RECORDING ENGINEER
WIT .         JIM                  : Witness      - WITNESSED BY
MUD .         GEL                  : Mud_type     - MUD TYPE
MATR.         SANDSTONE            : Logunit      - NEUTRON MATRIX
TMAX.C        27                   : BHT          - MAXIMUM RECORDED TEMPERATURE
BHTD.M        443                  : BHTDEP       - MAXIMUM RECORDED TEMPERATURE
MATR.         1                    : LOGUNIT      - NEUTRON MATRIX
RMT .C        15.6                 : MDTP         - TEMPERATURE OF MUD
NEUT.         1                    : NEUTRON      - NEUTRON TYPE
RESI.         0                    : RESIST       - RESISTIVITY TYPE
RMC .OHMM     3.23                 : RMC          - RESISTIVITY OF MUD CAKE
RMF .OHMM     4.36                 : RMF          - RESISTIVITY OF MUD FILTRATE
SUFT.C        -5                   : SUFT         - SURFACE TEMPERATURE
~A  DEPTH     RESD     PHIN     PHID       GR      CAL
# ...
  293.000   12.932    0.445    0.341   73.803  214.501
  293.250   12.295    0.461    0.339   72.411  215.611
  293.500   11.553    0.475    0.333   71.630  215.545
  293.750   11.123    0.478    0.333   71.103  215.873
  294.000   10.891    0.477    0.333   72.198  215.896
  294.250   10.801    0.473    0.332   73.830  215.826
  294.500   10.790    0.468    0.331   75.100  215.861
  294.750   10.775    0.469    0.331   74.642  216.258
  295.000   10.758    0.470    0.339   71.367  216.606
  295.250   10.755    0.471    0.336   70.618  217.324
  295.500   10.627    0.470    0.338   70.935  217.456
  295.750   10.500    0.469    0.343   71.967  217.393
  296.000   10.431    0.470    0.348   73.059  217.230
  296.250   10.370    0.467    0.346   73.002  216.672
  296.500   10.124    0.460    0.344   71.711  216.184
  296.750   10.041    0.460    0.340   71.673  215.319
  297.000   10.121    0.463    0.329   71.098  215.055
  297.250   10.373    0.467    0.326   70.223  214.988
  297.500   10.735    0.470    0.331   69.941  215.017
  297.750   11.043    0.470    0.333   72.243  215.413
  298.000   11.031    0.473    0.333   74.445  215.754
  298.250   11.031    0.471    0.330   74.880  215.691
  298.500   10.893    0.461    0.327   73.881  215.617
  298.750   10.557    0.458    0.324   73.244  215.543
  299.000   10.112    0.467    0.326   73.446  215.476
  299.250    9.690    0.485    0.335   73.531  215.485
  299.500    9.460    0.503    0.338   72.994  215.812
  299.750    9.312    0.504    0.333   73.191  215.756
  300.000    9.373    0.497    0.329   74.103  215.689
  300.250    9.502    0.494    0.328   74.778  215.622
  300.500    9.543    0.498    0.330   74.917  215.658
  300.750    9.310    0.502    0.333   74.914  216.061
  301.000    9.228    0.498    0.325   75.127  216.402
  301.250    9.220    0.494    0.321   75.323  216.325
  301.500    9.059    0.490    0.319   75.881  215.965
  301.750    8.586    0.482    0.314   77.511  215.500
  302.000    7.735    0.473    0.305   80.451  215.226
  302.250    6.509    0.476    0.286   84.556  215.622
  302.500    6.116    0.488    0.279   85.009  215.963
  302.750    6.525    0.482    0.274   80.915  216.702
  303.000    7.227    0.480    0.282   76.281  217.425
  303.250    8.367    0.480    0.290   72.660  217.753
  303.500   10.023    0.480    0.295   70.948  217.391
  303.750   11.640    0.478    0.303   71.921  216.034
  304.000   10.857    0.480    0.308   74.611  215.532
  304.250    9.995    0.497    0.300   76.720  215.860
  304.500    9.097    0.500    0.291   78.107  216.784
  304.750    8.387    0.497    0.279   79.380  217.913
  305.000    7.935    0.493    0.264   80.716  219.149
  305.250    7.743    0.492    0.256   82.106  221.001
  305.500    7.676    0.478    0.260   83.305  222.584
  305.750    7.676    0.459    0.255   84.941  222.514
  306.000    7.791    0.445    0.250   87.284  222.151
  306.250    8.124    0.438    0.243   89.153  221.683
  306.500    8.537    0.438    0.238   89.771  221.409
  306.750    8.540    0.444    0.235   89.056  221.806
  307.000    8.598    0.456    0.231   90.508  222.154
  307.250    8.844    0.453    0.227   90.952  222.872
  307.500    9.050    0.454    0.220   91.031  223.601
  307.750    9.143    0.452    0.214   90.987  224.535
  308.000    9.064    0.447    0.211   90.705  225.764
  308.250    8.709    0.443    0.209   89.857  227.259
  308.500    8.310    0.443    0.204   90.559  227.200
  308.750    7.941    0.445    0.203   91.709  226.342
  309.000    7.892    0.449    0.212   91.071  225.180
  309.250    8.030    0.460    0.224   91.027  224.712
  309.500    8.262    0.475    0.232   92.177  224.840
  309.750    8.525    0.485    0.233   93.829  224.359
  310.000    8.648    0.486    0.233   96.271  224.293
  310.250    8.577    0.479    0.230   97.660  225.011
  310.500    8.600    0.467    0.229   97.260  225.143
  310.750    8.651    0.458    0.228   96.619  224.874
  311.000    8.703    0.458    0.227   96.218  224.504
  311.250    8.750    0.477    0.229   95.211  224.349
  311.500    8.674    0.484    0.223   93.925  223.854
  311.750    8.665    0.484    0.219   91.024  224.586
  312.000    8.705    0.473    0.234   89.011  223.524
  312.250    8.761    0.459    0.243   88.728  221.664
  312.500    8.817    0.447    0.237   89.939  220.104
  312.750    8.829    0.439    0.227   91.375  220.110
  313.000    8.619    0.430    0.225   91.584  220.459
  313.250    8.422    0.430    0.232   92.019  219.991
  313.500    8.368    0.438    0.241   92.278  220.119
  313.750    8.452    0.445    0.249   91.880  220.848
  314.000    8.664    0.451    0.252   90.586  221.777
  314.250    9.034    0.459    0.251   88.436  222.173
  314.500    9.306    0.471    0.249   88.636  222.514
  314.750    9.364    0.484    0.246   87.644  222.841
  315.000    9.424    0.488    0.250   87.364  222.274
  315.250    9.482    0.487    0.254   87.444  221.415
  315.500    9.524    0.483    0.256   87.763  220.461
  315.750    9.488    0.481    0.252   88.779  219.183
  316.000    9.335    0.478    0.249   90.471  219.110
  316.250    8.918    0.473    0.251   92.346  218.635
  316.500    8.571    0.467    0.253   92.962  218.469
  316.750    8.285    0.472    0.251   93.156  218.796
  317.000    8.038    0.483    0.246   93.470  220.018
  317.250    7.771    0.481    0.244   94.039  222.985
  317.500    7.644    0.478    0.245   93.493  224.147
  317.750    7.693    0.485    0.236   91.074  224.084
  318.000    7.871    0.471    0.224   88.108  224.021
  318.250    8.244    0.455    0.223   84.129  223.556
  318.500    8.802    0.445    0.237   79.258  222.393
  318.750    9.441    0.437    0.261   74.246  219.655
  319.000    9.653    0.432    0.267   74.451  216.261
  319.250    9.643    0.434    0.262   74.409  215.409
  319.500    9.954    0.435    0.258   73.833  214.840
  319.750   10.246    0.433    0.258   73.197  214.564
  320.000   10.292    0.428    0.259   73.392  214.494
  320.250   10.008    0.415    0.234   76.120  214.428
  320.500    9.770    0.401    0.184   78.065  214.348
  320.750    9.688    0.428    0.220   78.274  214.285
  321.000    9.984    0.435    0.254   77.933  214.509
  321.250   10.757    0.436    0.261   76.696  214.638
  321.500   11.722    0.429    0.244   74.804  214.475
  321.750   11.567    0.399    0.225   73.429  213.999
  322.000   10.549    0.375    0.192   75.138  213.926
  322.250    9.494    0.365    0.175   77.959  214.246
  322.500    8.649    0.375    0.197   82.394  214.284
  322.750    7.815    0.409    0.225   87.009  214.015
  323.000    7.149    0.451    0.247   90.368  213.240
  323.250    6.986    0.477    0.269   91.079  211.575
  323.500    7.253    0.485    0.263   91.283  211.516
  323.750    7.572    0.489    0.267   88.382  211.439
  324.000    7.991    0.489    0.269   85.660  211.079
  324.250    8.317    0.484    0.264   85.143  210.618
  324.500    8.433    0.477    0.255   86.649  210.546
  324.750    8.335    0.473    0.253   88.083  211.899
  325.000    8.198    0.467    0.257   89.539  213.083
  325.250    8.072    0.461    0.255   91.883  214.987
  325.500    7.946    0.455    0.256   92.261  216.608
  325.750    7.792    0.445    0.259   91.150  218.335
  326.000    7.614    0.434    0.260   89.441  220.455
  326.250    7.393    0.432    0.256   88.434  223.479
  326.500    7.163    0.440    0.253   88.386  225.071
  326.750    6.999    0.452    0.251   88.821  225.398
  327.000    6.877    0.462    0.248   88.901  225.427
  327.250    6.744    0.471    0.244   88.742  225.563
  327.500    6.552    0.479    0.242   88.582  226.201
  327.750    6.302    0.489    0.251   88.575  227.631
  328.000    6.492    0.490    0.257   87.537  227.143
  328.250    7.027    0.491    0.257   87.495  225.475
  328.500    7.853    0.490    0.256   88.350  223.818
  328.750    8.951    0.487    0.254   87.835  222.757
  329.000    9.966    0.478    0.252   85.947  222.289
  329.250    9.831    0.448    0.250   85.140  221.724
