~VERSION INFORMATION
 VERS.                 2.0:   CWLS LOG ASCII STANDARD -VERSION 2.0
 WRAP.                  NO:   ONE LINE PER DEPTH STEP
~WELL INFORMATION BLOCK
#MNEM.UNIT           DATA                    DESCRIPTION OF MNEMONIC
#---------    -------------------            -------------------------------
# Generated from Intellog Unique Number	CS_69_70/WELL/819
NULL.         -999.25                        : NULL_VALUE
WELL.         AEC OIL AND GAS COMPANY        : Well_name    - WELL              
LOC .         00/07-14-070-05W4/0            : Location     - LOCATION          
UWI .         00/07-14-070-05W4/0            : Uwi          - UNIQUE WELL ID    
ENTR.         SP                             : Entered      - ENTERED BY        
SRVC.         SCHLUMBERGER                   : Scn          - SERVICE COMPANY   
STRT.M        300                            : top_depth    - START DEPTH       
STOP.M        535                            : bot_depth    - STOP DEPTH        
STEP.M        0.25                           : increment    - STEP LENGTH       
~CURVE INFORMATION BLOCK
#MNEM UNIT       ERCB CURVE CODE    CURVE DESCRIPTION
#-----------   ------------------   ----------------------------------
DEPT.M        00 001 00 00         : DEPTH        - DEPTH                       
ILD .OHMM     00 120 00 00         : RESD         - DEEP RESISTIVITY (DIL)      
DPHI.V/V      00 890 00 00         : PHID         - DENSITY POROSITY (LIMESTONE)
NPHI.V/V      00 330 00 00         : PHIN         - NEUTRON POROSITY (LIMESTONE)
GR  .API      00 310 00 00         : GR           - GAMMA RAY                   
~PARAMETER INFORMATION       
#MNEM.UNIT           DATA             DESCRIPTION OF MNEMONIC
#---------         -----------     ------------------------------
GL  .M        676.5                : gl           - GROUND LEVEL ELEVATION      
EREF.M        680.4                : kb           - ELEVATION OF DEPTH REFERENCE
DATM.M        676.5                : datum        - DATUM ELEVATION             
TDD .M        547                  : tdd          - TOTAL DEPTH DRILLER         
RUN .         ONE                  : Run          - RUN NUMBER                  
ENG .         BILL                 : Engineer     - RECORDING ENGINEER          
WIT .         JIM                  : Witness      - WITNESSED BY                
MUD .         GEL                  : Mud_type     - MUD TYPE                    
MATR.         LIMESTONE            : Logunit      - NEUTRON MATRIX              
TMAX.C        28                   : BHT          - MAXIMUM RECORDED TEMPERATURE
BHTD.M        547                  : BHTDEP       - MAXIMUM RECORDED TEMPERATURE
MATR.         1                    : LOGUNIT      - NEUTRON MATRIX              
RMT .C        25                   : MDTP         - TEMPERATURE OF MUD          
NEUT.         1                    : NEUTRON      - NEUTRON TYPE                
RESI.         0                    : RESIST       - RESISTIVITY TYPE            
RMC .OHMM     0.25                 : RMC          - RESISTIVITY OF MUD CAKE     
RMF .OHMM     0.25                 : RMF          - RESISTIVITY OF MUD FILTRATE 
SUFT.C        15                   : SUFT         - SURFACE TEMPERATURE         
~A  DEPTH     RESD     PHID     PHIN       GR
  300.000    2.816    0.252    0.544   82.859
  300.250    2.764    0.256    0.546   84.063
  300.500    2.663    0.258    0.549   88.291
  300.750    2.566    0.257    0.551   94.333
  301.000    2.566    0.252    0.502   96.141
  301.250    2.567    0.252    0.490   95.531
  301.500    2.666    0.249    0.503   93.708
  301.750    2.769    0.241    0.523   93.100
  302.000    2.876    0.225    0.512   91.278
  302.250    2.988    0.230    0.495   91.273
  302.500    3.103    0.244    0.519   94.291
  302.750    3.163    0.245    0.525   97.309
  303.000    3.164    0.246    0.535   98.512
  303.250    3.165    0.248    0.528   98.506
  303.500    3.166    0.248    0.524  102.129
  303.750    3.228    0.248    0.540  102.729
  304.000    3.290    0.249    0.479   98.487
  304.250    3.417    0.254    0.463   97.272
  304.500    3.549    0.255    0.473   98.474
  304.750    3.686    0.249    0.490   99.076
  305.000    3.829    0.235    0.472   97.859
  305.250    3.903    0.228    0.463   96.038
  305.500    3.904    0.227    0.490   97.846
  305.750    3.761    0.237    0.501   99.052
  306.000    3.555    0.243    0.516  100.255
  306.250    3.361    0.248    0.545  100.248
  306.500    3.300    0.251    0.562   98.428
  306.750    3.239    0.248    0.542   96.003
  307.000    3.240    0.242    0.509   91.763
  307.250    3.241    0.235    0.483   89.943
  307.500    3.242    0.228    0.480   94.776
  307.750    3.305    0.224    0.504   99.003
  308.000    3.306    0.224    0.533  101.416
  308.250    3.370    0.232    0.533  104.433
  308.500    3.435    0.237    0.510  103.823
  308.750    3.568    0.237    0.473   96.559
  309.000    3.705    0.239    0.458   92.318
  309.250    3.849    0.249    0.449   91.103
  309.500    3.923    0.260    0.441   98.960
  309.750    3.924    0.252    0.455  105.608
  310.000    3.780    0.242    0.480  101.972
  310.250    3.574    0.239    0.490   95.312
  310.500    3.379    0.238    0.504   92.887
  310.750    3.194    0.242    0.507   91.672
  311.000    3.136    0.244    0.506   89.850
  311.250    3.137    0.243    0.495   91.055
  311.500    4.929    0.307    0.492   80.162
  311.750    9.528    0.350    0.478   65.037
  312.000   14.974    0.397    0.405   55.957
  312.250   26.345    0.384    0.197   52.927
  312.500   36.292    0.369    0.187   49.292
  312.750   40.645    0.364    0.161   45.052
  313.000   36.317    0.352    0.160   45.047
  313.250   34.332    0.342    0.183   51.090
  313.500   32.457    0.326    0.198   56.527
  313.750   31.268    0.304    0.205   51.681
  314.000   30.694    0.324    0.219   52.886
  314.250   28.477    0.368    0.244   67.999
  314.500   25.442    0.390    0.249   71.017
  314.750   21.085    0.350    0.244   72.221
  315.000   18.488    0.324    0.242   75.842
  315.250   16.518    0.303    0.285   78.257
  315.500   14.758    0.292    0.339   80.065
  315.750   13.437    0.298    0.334   80.665
  316.000   12.703    0.308    0.340   79.448
  316.250   12.237    0.319    0.352   80.048
  316.500   11.569    0.311    0.358   86.694
  316.750   10.733    0.304    0.367   87.898
  317.000    9.958    0.300    0.372   87.892
  317.250    9.593    0.291    0.382   89.096
  317.500    9.069    0.286    0.390   90.905
  317.750    8.903    0.296    0.418   89.688
  318.000    8.576    0.305    0.412   89.078
  318.250    8.262    0.314    0.368   94.510
  318.500    7.522    0.295    0.409   96.322
  318.750    7.246    0.258    0.425   99.341
  319.000    7.114    0.250    0.442  100.545
  319.250    7.251    0.246    0.428  101.143
  319.500    7.532    0.247    0.401   97.510
  319.750    7.823    0.248    0.383   90.245
  320.000    7.974    0.240    0.376   89.028
  320.250    8.128    0.228    0.384   90.232
  320.500    8.130    0.217    0.393   91.437
  320.750    7.982    0.212    0.411   95.059
  321.000    7.835    0.223    0.415   96.869
  321.250    7.838    0.252    0.417   90.813
  321.500    7.693    0.270    0.427   88.388
  321.750    7.695    0.289    0.437   88.383
  322.000    7.275    0.300    0.420   97.449
  322.250    6.878    0.220    0.428  106.516
  322.500    6.381    0.201    0.458  107.719
  322.750    5.920    0.138    0.479  110.737
  323.000    5.597    0.122    0.476  107.707
  323.250    5.192    0.138    0.470  104.072
  323.500    4.817    0.177    0.475  107.695
  323.750    4.641    0.195    0.497  108.897
  324.000    4.387    0.214    0.515  111.915
  324.250    4.307    0.220    0.529  116.747
  324.500    4.149    0.211    0.511  119.764
  324.750    3.922    0.217    0.502  120.365
  325.000    3.708    0.231    0.509  119.755
  325.250    3.572    0.244    0.513  113.700
  325.500    3.853    0.260    0.392  103.412
  325.750    5.722    0.272    0.260   99.174
  326.000   10.652    0.262    0.167   82.232
  326.250   17.713    0.315    0.118   61.057
  326.500   30.014    0.377    0.108   47.139
  326.750   42.131    0.431    0.109   39.272
  327.000   48.991    0.438    0.135   39.870
  327.250   51.852    0.427    0.157   45.911
  327.500   48.108    0.424    0.164   51.953
  327.750   39.868    0.427    0.161   54.973
  328.000   33.037    0.423    0.161   59.200
  328.250   25.875    0.419    0.186   63.425
  328.500   19.516    0.391    0.225   64.631
  328.750   15.870    0.374    0.263   65.834
  329.000   13.151    0.357    0.312   67.039
  329.250   10.898    0.350    0.353   64.612
  329.500    9.203    0.349    0.391   62.794
  329.750    8.700    0.333    0.396   67.626
  330.000    8.225    0.315    0.392   71.852
  330.250    8.384    0.301    0.386   75.477
  330.500    8.709    0.292    0.379   78.495
  330.750    8.877    0.282    0.392   76.673
  331.000    8.879    0.218    0.397   72.435
  331.250    8.883    0.191    0.384   61.541
  331.500    8.557    0.197    0.377   56.092
  331.750    8.243    0.278    0.385   51.247
  332.000    7.940    0.311    0.385   53.055
  332.250    7.795    0.314    0.379   58.493
  332.500    7.797    0.313    0.374   66.347
  332.750    7.948    0.308    0.389   68.159
  333.000    8.101    0.304    0.397   69.361
  333.250    8.258    0.313    0.409   67.541
  333.500    8.260    0.321    0.414   59.672
  333.750    7.958    0.333    0.402   54.223
  334.000    7.666    0.347    0.390   49.983
  334.250    7.525    0.351    0.386   48.768
  334.500    7.527    0.343    0.391   48.157
  334.750    7.673    0.341    0.394   51.174
  335.000    7.821    0.331    0.396   60.240
  335.250    7.972    0.315    0.394   65.074
  335.500    8.599    0.298    0.380   71.720
  335.750    8.764    0.286    0.370   77.159
  336.000    9.104    0.271    0.359   84.408
  336.250    9.279    0.239    0.359   88.030
  336.500    9.281    0.241    0.373   89.236
  336.750    9.111    0.249    0.381   86.810
  337.000    8.777    0.259    0.385   91.643
  337.250    8.455    0.261    0.389   95.871
  337.500    8.301    0.259    0.390   98.284
  337.750    8.148    0.253    0.392   97.674
  338.000    7.850    0.243    0.406   94.037
  338.250    7.282    0.233    0.422   91.613
  338.500    6.885    0.226    0.427   81.931
  338.750    7.151    0.232    0.430   62.570
  339.000    7.289    0.284    0.433   51.073
  339.250    7.430    0.309    0.434   36.550
  339.500    7.294    0.330    0.397   38.963
  339.750    6.895    0.340    0.386   44.401
  340.000    6.769    0.334    0.388   49.231
  340.250    6.521    0.325    0.393   51.646
  340.500    6.401    0.323    0.389   55.271
  340.750    6.284    0.308    0.384   77.642
  341.000    6.405    0.292    0.402   95.780
  341.250    6.529    0.257    0.443  103.637
  341.500    6.911    0.242    0.470  108.470
  341.750    7.044    0.248    0.500  109.674
  342.000    7.180    0.245    0.443   96.362
  342.250    7.182    0.240    0.432   77.002
  342.500    7.184    0.251    0.428   87.277
  342.750    6.921    0.268    0.448   95.133
  343.000    6.543    0.260    0.471   96.337
  343.250    6.186    0.260    0.480   93.911
