~VERSION INFORMATION
 VERS.                 2.0:   CWLS LOG ASCII STANDARD -VERSION 2.0
 WRAP.                  NO:   ONE LINE PER DEPTH STEP
~WELL INFORMATION BLOCK
#MNEM.UNIT           DATA                    DESCRIPTION OF MNEMONIC
#---------    -------------------            -------------------------------
# Generated from Intellog Unique Number	CX_WELLS/WELL/2581
WELL.         PARA ET AL PONY                : Well_name    - WELL
LOC .         00/03-11-080-08W4/0            : Location     - LOCATION
UWI .         00/03-11-080-08W400            : Uwi          - UNIQUE WELL ID
ENTR.         T                              : Entered      - ENTERED BY
SRVC.         SCHLUMBERGER                   : Scn          - SERVICE COMPANY
STRT.M        190                            : top_depth    - START DEPTH
STOP.M        410                            : bot_depth    - STOP DEPTH
STEP.M        0.25                           : increment    - STEP LENGTH
 NULL. -999.2500:NULL Value
~CURVE INFORMATION BLOCK
#MNEM UNIT       ERCB CURVE CODE    CURVE DESCRIPTION
#-----------   ------------------   ----------------------------------
DEPT.M        00 001 00 00         : DEPTH        - DEPTH
GR  .API      00 310 00 00         : GR           - GAMMA RAY
NPHI.V/V      00 330 00 00         : PHIN         - NEUTRON POROSITY (SANDSTONE)
DPHI.V/V      00 890 00 00         : PHID         - DENSITY POROSITY (SANDSTONE)
ILD .OHMM     00 120 00 00         : RESD         - DEEP RESISTIVITY (DIL)
~PARAMETER INFORMATION
#MNEM.UNIT           DATA             DESCRIPTION OF MNEMONIC
#---------         -----------     ------------------------------
GL  .M        631                  : gl           - GROUND LEVEL ELEVATION
EREF.M        634.5                : kb           - ELEVATION OF DEPTH REFERENCE
DATM.M        634.5                : datum        - DATUM ELEVATION
TDD .M        411                  : tdd          - TOTAL DEPTH DRILLER
RUN .         ONE                  : Run          - RUN NUMBER
ENG .         BILL                 : Engineer     - RECORDING ENGINEER
WIT .         JIM                  : Witness      - WITNESSED BY
MUD .         GEL                  : Mud_type     - MUD TYPE
MATR.         SANDSTONE            : Logunit      - NEUTRON MATRIX
TMAX.C        25                   : BHT          - MAXIMUM RECORDED TEMPERATURE
BHTD.M        411                  : BHTDEP       - MAXIMUM RECORDED TEMPERATURE
MATR.         1                    : LOGUNIT      - NEUTRON MATRIX
RMT .C        16                   : MDTP         - TEMPERATURE OF MUD
NEUT.         1                    : NEUTRON      - NEUTRON TYPE
RESI.         3.5                  : RESIST       - RESISTIVITY TYPE
RMC .OHMM     3.2                  : RMC          - RESISTIVITY OF MUD CAKE
RMF .OHMM     3.5                  : RMF          - RESISTIVITY OF MUD FILTRATE
SUFT.C        5                    : SUFT         - SURFACE TEMPERATURE
~A  DEPTH       GR     PHIN     PHID     RESD
# ...
  364.000   67.847    0.296    0.296   36.342
  364.250   64.297    0.316    0.265   42.889
  364.500   59.567    0.329    0.269   47.018
  364.750   58.373    0.329    0.293   39.097
  365.000   70.158    0.323    0.314   33.731
  365.250   76.633    0.320    0.313   29.101
  365.500   86.646    0.325    0.308   25.574
  365.750   93.710    0.334    0.297   22.892
  366.000   97.237    0.338    0.274   24.638
  366.250   96.632    0.342    0.251   27.010
  366.500   91.906    0.334    0.219   31.292
  366.750   86.587    0.319    0.280   34.307
  367.000   81.268    0.258    0.320   39.020
  367.250   78.305    0.226    0.330   34.928
  367.500   78.293    0.255    0.301   32.441
  367.750   68.847    0.297    0.286   27.476
  368.000   80.039    0.334    0.294   25.051
  368.250   88.873    0.353    0.274   23.267
  368.500   88.861    0.364    0.239   22.011
  368.750   87.667    0.370    0.246   20.823
  369.000   88.245    0.364    0.257   20.440
  369.250   89.415    0.357    0.244   20.434
  369.500   93.525    0.356    0.223   20.810
  369.750   95.289    0.351    0.227   21.586
  370.000  101.763    0.342    0.251   22.393
  370.250   96.444    0.335    0.284   24.548
  370.500   74.025    0.319    0.302   27.923
  370.750   68.116    0.319    0.310   32.352
  371.000   56.897    0.324    0.311   37.483
  371.250   52.171    0.328    0.311   41.858
  371.500   49.211    0.330    0.312   52.206
  371.750   50.375    0.334    0.312   70.093
  372.000   50.956    0.341    0.313   68.795
  372.250   52.714    0.349    0.315   62.726
  372.500   54.471    0.360    0.317   56.152
  372.750   55.638    0.382    0.325   48.445
  373.000   58.572    0.390    0.327   42.573
  373.250   61.509    0.395    0.327   36.059
  373.500   65.035    0.404    0.328   31.687
  373.750   69.154    0.413    0.327   29.427
  374.000   76.219    0.421    0.308   28.358
  374.250   86.232    0.429    0.297   27.326
  374.500   87.396    0.433    0.294   25.378
  374.750   86.205    0.429    0.296   23.569
  375.000   87.373    0.421    0.298   22.296
  375.250   89.130    0.410    0.299   21.887
  375.500   90.298    0.412    0.292   21.482
  375.750   89.107    0.417    0.286   21.476
  376.000   87.326    0.421    0.274   21.472
  376.250   86.135    0.418    0.224   20.692
  376.500   87.889    0.412    0.231   18.866
  376.750   89.062    0.407    0.247   17.522
  377.000   91.409    0.405    0.251   15.976
  377.250   97.295    0.410    0.251   15.114
  377.500  103.177    0.418    0.248   14.563
  377.750  107.296    0.426    0.247   14.033
  378.000  110.232    0.437    0.244   13.775
  378.250  114.349    0.448    0.230   13.771
  378.500  116.106    0.439    0.221   13.768
  378.750  114.322    0.430    0.212   13.765
  379.000  112.541    0.419    0.204   14.018
  379.250  111.350    0.403    0.196   14.542
  379.500  106.621    0.387    0.184   15.085
  379.750  103.074    0.374    0.175   16.234
  380.000  101.880    0.352    0.168   17.154
  380.250  101.871    0.339    0.166   18.127
  380.500  101.264    0.336    0.170   19.872
  380.750  100.078    0.333    0.182   24.785
  381.000   94.754    0.331    0.216   33.277
  381.250   89.438    0.337    0.246   45.509
  381.500   79.991    0.342    0.261   61.102
  381.750   64.058    0.344    0.279   86.700
  382.000   56.380    0.345    0.296  130.013
  382.250   49.292    0.346    0.306  153.426
  382.500   45.146    0.346    0.314  165.127
  382.750   45.727    0.345    0.316  171.299
  383.000   46.895    0.339    0.317  180.997
  383.250   49.242    0.336    0.315  184.324
  383.500   48.641    0.334    0.312  194.749
  383.750   45.680    0.334    0.311  202.017
  384.000   43.313    0.336    0.312  209.557
  384.250   45.070    0.344    0.315  209.501
  384.500   48.007    0.352    0.316  209.468
  384.750   52.709    0.355    0.317  209.435
  385.000   53.880    0.354    0.317  205.545
  385.250   53.279    0.358    0.317  201.771
  385.500   52.674    0.365    0.318  194.418
  385.750   50.307    0.368    0.318  187.354
  386.000   47.346    0.366    0.318  177.240
  386.250   43.797    0.363    0.318  167.672
  386.500   43.195    0.351    0.320  150.074
  386.750   43.773    0.332    0.321  147.318
  387.000   43.761    0.331    0.321  139.365
  387.250   44.336    0.339    0.320  127.071
  387.500   46.686    0.351    0.319  111.670
  387.750   52.569    0.368    0.314   44.432
  388.000   57.277    0.375    0.294   32.476
  388.250   80.263    0.372    0.204   24.178
  388.500   91.456    0.367    0.183   20.105
  388.750   96.161    0.367    0.183   16.717
  389.000   96.736    0.373    0.188   14.964
  389.250   94.955    0.376    0.192   14.155
  389.500   93.764    0.380    0.197   14.153
  389.750   92.576    0.381    0.203   14.151
  390.000   91.385    0.378    0.212   14.677
  390.250   89.014    0.381    0.217   15.227
  390.500   85.462    0.384    0.224   15.795
  390.750   83.091    0.387    0.229   16.085
  391.000   83.079    0.391    0.241   16.686
  391.250   84.250    0.394    0.257   17.308
  391.500   86.007    0.397    0.263   18.287
  391.750   87.764    0.394    0.257   19.323
  392.000   90.112    0.387    0.234   21.182
  392.250   93.638    0.375    0.234   21.974
  392.500   97.164    0.374    0.244   23.650
  392.750  101.280    0.371    0.256   25.453
  393.000  104.217    0.367    0.262   30.040
  393.250   88.281    0.369    0.274   45.047
  393.500   77.655    0.374    0.296   51.236
  393.750   67.028    0.385    0.312   53.148
  394.000   62.296    0.396    0.308   56.157
  394.250   63.464    0.390    0.306   59.337
  394.500   65.814    0.386    0.303   62.696
  394.750   70.520    0.385    0.308   67.477
  395.000   65.790    0.380    0.316   73.978
  395.250   60.471    0.378    0.325  115.095
  395.500   53.973    0.376    0.336  119.384
  395.750   46.292    0.378    0.340  121.592
  396.000   42.156    0.378    0.334  126.123
  396.250   39.782    0.375    0.328  126.103
  396.500   39.774    0.373    0.326  130.809
  396.750   40.938    0.370    0.327  138.215
  397.000   42.106    0.368    0.337  169.228
  397.250   42.094    0.368    0.341  182.144
  397.500   41.496    0.373    0.349  188.942
  397.750   36.766    0.380    0.356  199.617
  398.000   32.624    0.392    0.357  203.297
  398.250   30.843    0.405    0.358  207.045
  398.500   29.652    0.400    0.359  207.001
  398.750   29.637    0.389    0.355  210.784
  399.000   29.625    0.374    0.351  210.750
  399.250   30.203    0.371    0.351  210.717
  399.500   30.195    0.367    0.351  203.028
  399.750   30.773    0.366    0.351  192.078
  400.000   31.348    0.365    0.351  185.098
  400.250   32.518    0.367    0.350  175.097
  400.500   33.683    0.371    0.349  165.645
  400.750   34.261    0.371    0.349  162.586
  401.000   33.069    0.368    0.349  156.669
  401.250   31.289    0.365    0.349  148.212
  401.500   29.505    0.360    0.349  142.826
  401.750   28.909    0.354    0.349  132.642
  402.000   29.487    0.353    0.348  130.199
  402.250   30.065    0.352    0.344  120.916
  402.500   31.230    0.339    0.339  114.388
  402.750   32.401    0.293    0.331  106.237
  403.000   34.748    0.276    0.225  102.377
  403.250   35.325    0.234    0.177   95.082
  403.500   34.721    0.197    0.094   91.617
  403.750   34.709    0.169    0.052   89.930
  404.000   35.287    0.155    0.023   89.906
  404.250   35.275    0.150    0.007   89.892
  404.500   35.264    0.149    0.006   91.539
  404.750   34.665    0.147    0.004   94.951
  405.000   32.884    0.145    0.003   94.941
  405.250   31.104    0.143    0.002   98.484
  405.500   31.089    0.143    0.002   98.463
  405.750   31.077    0.147    0.002  102.138
  406.000   29.293    0.149    0.003  105.944
  406.250   28.698    0.153    0.003  107.892
  406.500   28.686    0.154    0.006  109.869
  406.750   29.854    0.154    0.007  109.857
  407.000   30.432    0.155    0.009  109.834
  407.250   29.824    0.155    0.011  107.806
