~VERSION INFORMATION
 VERS.                 2.0:   CWLS LOG ASCII STANDARD -VERSION 2.0
 WRAP.                  NO:   ONE LINE PER DEPTH STEP
~WELL INFORMATION BLOCK
#MNEM.UNIT           DATA                    DESCRIPTION OF MNEMONIC
#---------    -------------------            -------------------------------
# Generated from Intellog Unique Number	CS_73_76/WELL/1075
WELL.         HOME LIESMER                   : Well_name    - WELL
LOC .         00/06-23-075-07W4/0            : Location     - LOCATION
UWI .         00/06-23-075-07W4/0            : Uwi          - UNIQUE WELL ID
ENTR.         SP                             : Entered      - ENTERED BY
SRVC.         SCHLUMBERGER                   : Scn          - SERVICE COMPANY
STRT.M        274.32                         : top_depth    - START DEPTH
STOP.M        499.57                         : bot_depth    - STOP DEPTH
STEP.M        0.25                           : increment    - STEP LENGTH
 NULL. -999.2500:NULL Value
~CURVE INFORMATION BLOCK
#MNEM UNIT       ERCB CURVE CODE    CURVE DESCRIPTION
#-----------   ------------------   ----------------------------------
DEPT.M        00 001 00 00         : DEPTH        - DEPTH
GR  .API      00 310 00 00         : GR           - GAMMA RAY
DPHI.V/V      00 890 00 00         : PHID         - DENSITY POROSITY (SANDSTONE)
NPHI.V/V      00 330 00 00         : PHIN         - NEUTRON POROSITY (SANDSTONE)
ILD .OHMM     00 120 00 00         : RESD         - DEEP RESISTIVITY (DIL)
~PARAMETER INFORMATION
#MNEM.UNIT           DATA             DESCRIPTION OF MNEMONIC
#---------         -----------     ------------------------------
GL  .M        680.874              : gl           - GROUND LEVEL ELEVATION
EREF.M        680.874              : kb           - ELEVATION OF DEPTH REFERENCE
DATM.M        680.874              : datum        - DATUM ELEVATION
TDD .M        505.968              : tdd          - TOTAL DEPTH DRILLER
RUN .         ONE                  : Run          - RUN NUMBER
ENG .         BILL                 : Engineer     - RECORDING ENGINEER
WIT .         JIM                  : Witness      - WITNESSED BY
MUD .         GEL                  : Mud_type     - MUD TYPE
MATR.         SANDSTONE            : Logunit      - NEUTRON MATRIX
TMAX.C        15.5556              : BHT          - MAXIMUM RECORDED TEMPERATURE
BHTD.M        505.968              : BHTDEP       - MAXIMUM RECORDED TEMPERATURE
MATR.         1                    : LOGUNIT      - NEUTRON MATRIX
RMT .C        25                   : MDTP         - TEMPERATURE OF MUD
NEUT.         1                    : NEUTRON      - NEUTRON TYPE
RESI.         0                    : RESIST       - RESISTIVITY TYPE
RMC .OHMM     0.25                 : RMC          - RESISTIVITY OF MUD CAKE
RMF .OHMM     0.25                 : RMF          - RESISTIVITY OF MUD FILTRATE
SUFT.C        15                   : SUFT         - SURFACE TEMPERATURE
~A  DEPTH       GR     PHID     PHIN     RESD
  274.320  104.348    0.198    0.545    4.099
  274.570  101.983    0.176    0.531    4.123
  274.820  105.734    0.152    0.513    4.071
  275.070  109.515    0.129    0.519    3.891
  275.320  112.409    0.201    0.535    3.660
  275.570  110.453    0.223    0.550    3.523
  275.820  110.668    0.229    0.566    3.414
  276.070  111.601    0.225    0.569    3.519
  276.320  110.180    0.212    0.545    3.633
  276.570  108.772    0.207    0.535    3.809
  276.820  107.654    0.191    0.525    3.903
  277.070  107.329    0.201    0.514    3.898
  277.320  109.147    0.206    0.525    3.847
  277.570  111.485    0.219    0.532    3.813
  277.820  112.127    0.227    0.532    3.759
  278.070  108.574    0.216    0.516    4.022
  278.320  104.697    0.224    0.501    4.642
  278.570   99.886    0.225    0.482    5.974
  278.820   95.237    0.244    0.450    7.373
  279.070   92.884    0.284    0.396    9.504
  279.320   92.207    0.316    0.391   12.958
  279.570   95.761    0.319    0.403   16.218
  279.820   98.618    0.301    0.411   19.786
  280.070  102.546    0.280    0.416   19.990
  280.320  106.409    0.261    0.429   18.584
  280.570  110.307    0.247    0.442   17.285
  280.820  111.577    0.225    0.451   16.187
  281.070  109.424    0.201    0.433   15.020
  281.320  103.462    0.225    0.416   14.191
  281.570   99.239    0.247    0.433   13.464
  281.820   96.223    0.263    0.439   13.390
  282.070   87.095    0.254    0.398   13.992
  282.320   77.153    0.265    0.307   16.015
  282.570   64.396    0.319    0.240   19.684
  282.820   60.129    0.325    0.216   23.860
  283.070   64.867    0.339    0.236   28.388
  283.320   72.044    0.326    0.303   30.620
  283.570   77.449    0.301    0.365   27.912
  283.820   73.310    0.298    0.404   25.647
  284.070   72.335    0.301    0.413   24.209
  284.320   75.642    0.297    0.401   23.024
  284.570   78.805    0.292    0.390   22.305
  284.820   83.323    0.272    0.395   21.019
  285.070   86.886    0.252    0.402   19.633
  285.320   90.338    0.233    0.402   17.844
  285.570   89.597    0.240    0.404   16.632
  285.820   88.954    0.227    0.422   15.346
  286.070   85.186    0.242    0.434   14.514
  286.320   81.074    0.275    0.433   15.177
  286.570   81.755    0.294    0.426   16.539
  286.820   83.672    0.292    0.421   18.475
  287.070   88.896    0.286    0.436   19.604
  287.320   95.735    0.273    0.451   16.925
  287.570  102.943    0.250    0.465   14.418
  287.820  108.421    0.225    0.476   11.324
  288.070  106.883    0.209    0.474    9.532
  288.320   99.056    0.227    0.469    8.169
  288.570   83.692    0.247    0.465    8.843
  288.820   71.235    0.296    0.452   10.839
  289.070   59.379    0.312    0.436   12.931
  289.320   52.795    0.316    0.410   15.926
  289.570   48.062    0.302    0.397   20.525
  289.820   50.129    0.304    0.392   24.383
  290.070   55.078    0.300    0.397   27.506
  290.320   60.464    0.294    0.396   29.869
  290.570   63.438    0.305    0.396   30.162
  290.820   65.656    0.311    0.392   29.158
  291.070   69.134    0.301    0.391   26.951
  291.320   77.123    0.299    0.390   24.286
  291.570   85.604    0.287    0.397   19.918
  291.820   91.977    0.269    0.409   17.194
  292.070   95.295    0.250    0.408   14.716
  292.320   93.168    0.213    0.410   12.556
  292.570   98.444    0.180    0.427   10.794
  292.820  108.057    0.194    0.445    9.161
  293.070  115.779    0.168    0.468    8.017
  293.320  120.807    0.135    0.487    7.261
  293.570  122.809    0.142    0.493    6.346
  293.820  127.372    0.104    0.511    5.908
  294.070  130.585    0.172    0.530    5.350
  294.320  133.090    0.192    0.531    4.942
  294.570  134.032    0.190    0.528    4.670
  294.820  131.548    0.210    0.520    4.253
  295.070  130.667    0.206    0.532    4.153
  295.320  131.493    0.187    0.538    3.895
  295.570  124.425    0.203    0.543    3.800
  295.820  115.309    0.223    0.546    3.809
  296.070  105.427    0.241    0.528    4.090
  296.320   93.065    0.256    0.502    4.723
  296.570   83.687    0.270    0.468    5.591
  296.820   82.222    0.270    0.435    7.208
  297.070   84.309    0.274    0.422   10.415
  297.320   84.270    0.260    0.432   12.942
  297.570   85.162    0.247    0.429   13.307
  297.820   87.470    0.231    0.423   12.752
  298.070   88.447    0.223    0.432   12.630
  298.320   88.616    0.228    0.442   12.097
  298.570   90.382    0.226    0.450   11.883
  298.820   92.668    0.219    0.459   11.908
  299.070   90.388    0.225    0.464   11.910
  299.320   90.220    0.240    0.453   11.915
  299.570   91.665    0.226    0.449   11.778
  299.820   94.982    0.204    0.451   11.385
  300.070   97.841    0.193    0.455   10.697
  300.320   98.136    0.206    0.457   10.270
  300.570   97.874    0.213    0.449    9.899
  300.820   98.899    0.220    0.446    9.617
  301.070  101.888    0.208    0.457    9.183
  301.320  103.300    0.227    0.455    9.636
  301.570  101.849    0.240    0.453   10.716
  301.820  101.894    0.260    0.450   12.191
  302.070  107.712    0.302    0.444   14.509
  302.320  116.024    0.314    0.439   18.000
  302.570  123.727    0.314    0.439   21.058
  302.820  122.807    0.304    0.446   24.037
  303.070  116.489    0.311    0.455   25.380
  303.320  106.550    0.306    0.462   24.272
  303.570  101.514    0.303    0.465   22.065
  303.820  103.185    0.287    0.470   20.384
  304.070  102.480    0.276    0.478   18.503
  304.320  102.513    0.275    0.472   17.132
  304.570  103.056    0.273    0.471   16.491
  304.820  102.011    0.269    0.477   15.189
  305.070  100.190    0.268    0.475   14.784
  305.320   96.130    0.259    0.454   14.405
  305.570   87.542    0.264    0.438   14.732
  305.820   77.947    0.281    0.435   15.621
  306.070   59.903    0.309    0.441   16.475
  306.320   55.756    0.331    0.443   18.328
  306.570   57.658    0.326    0.431   20.509
  306.820   60.473    0.311    0.418   21.881
  307.070   62.721    0.293    0.407   22.893
  307.320   67.038    0.288    0.400   22.950
  307.570   69.135    0.270    0.402   22.450
  307.820   69.153    0.230    0.400   21.448
  308.070   68.573    0.197    0.377   20.636
  308.320   71.987    0.186    0.379   19.395
  308.570   74.325    0.184    0.385   18.576
  308.820   76.445    0.225    0.388   17.290
  309.070   77.771    0.235    0.397   16.522
  309.320   78.796    0.249    0.404   15.854
  309.570   78.933    0.242    0.413   15.298
  309.820   78.966    0.245    0.412   14.845
  310.070   77.728    0.250    0.409   14.565
  310.320   76.874    0.227    0.405   14.233
  310.570   78.377    0.227    0.401   14.041
  310.820   79.071    0.236    0.399   13.954
  311.070   78.267    0.252    0.403   13.553
  311.320   77.768    0.248    0.403   13.361
  311.570   78.093    0.232    0.400   13.254
  311.820   81.481    0.234    0.401   12.843
  312.070   85.972    0.232    0.396   12.704
  312.320   91.015    0.256    0.412   12.317
  312.570   96.670    0.235    0.427   11.960
  312.820  102.929    0.254    0.440   11.154
  313.070  109.112    0.246    0.450   10.200
  313.320  117.052    0.225    0.469    9.149
  313.570  122.432    0.220    0.482    8.538
  313.820  120.744    0.238    0.496    7.816
  314.070  119.354    0.220    0.494    7.609
  314.320  119.441    0.203    0.486    7.424
  314.570  117.352    0.199    0.481    7.602
  314.820  115.268    0.207    0.487    7.822
  315.070  116.816    0.216    0.497    8.292
  315.320  118.708    0.231    0.511    8.803
  315.570  117.529    0.215    0.496    9.505
  315.820  115.157    0.227    0.484   10.243
  316.070  111.079    0.239    0.467   11.136
  316.320  108.347    0.257    0.456   11.492
  316.570  106.577    0.245    0.448   11.869
  316.820  106.578    0.246    0.445   12.041
  317.070  109.310    0.255    0.442   12.042
  317.320  110.490    0.257    0.434   12.046
  317.570  110.998    0.243    0.432   12.056
