~VERSION INFORMATION
 VERS.                 2.0:   CWLS LOG ASCII STANDARD -VERSION 2.0
 WRAP.                  NO:   ONE LINE PER DEPTH STEP
~WELL INFORMATION BLOCK
#MNEM.UNIT           DATA                    DESCRIPTION OF MNEMONIC
#---------    -------------------            -------------------------------
# Generated from Intellog Unique Number	CS_73_76/WELL/1033
WELL.         CANADIAN SUPERIOR OIL          : Well_name    - WELL
LOC .         00/06-05-076-14W4/0            : Location     - LOCATION
UWI .         00/06-05-076-14W4/0            : Uwi          - UNIQUE WELL ID
ENTR.         SP                             : Entered      - ENTERED BY
SRVC.         SCHLUMBERGER                   : Scn          - SERVICE COMPANY
STRT.F        1150                           : top_depth    - START DEPTH
STOP.F        1839.8                         : bot_depth    - STOP DEPTH
STEP.F        0.82                           : increment    - STEP LENGTH
 NULL. -999.2500:NULL Value
~CURVE INFORMATION BLOCK
#MNEM UNIT       ERCB CURVE CODE    CURVE DESCRIPTION
#-----------   ------------------   ----------------------------------
DEPT.F        00 001 00 00         : DEPTH        - DEPTH
GR  .API      00 310 00 00         : GR           - GAMMA RAY
NPHI.V/V      00 330 00 00         : PHIN         - NEUTRON POROSITY (SANDSTONE)
DPHI.V/V      00 890 00 00         : PHID         - DENSITY POROSITY (SANDSTONE)
ILD .OHMM     00 120 00 00         : RESD         - DEEP RESISTIVITY (DIL)
~PARAMETER INFORMATION
#MNEM.UNIT           DATA             DESCRIPTION OF MNEMONIC
#---------         -----------     ------------------------------
GL  .F        2386                 : gl           - GROUND LEVEL ELEVATION
EREF.F        2398                 : kb           - ELEVATION OF DEPTH REFERENCE
DATM.F        2386                 : datum        - DATUM ELEVATION
TDD .F        1806                 : tdd          - TOTAL DEPTH DRILLER
RUN .         ONE                  : Run          - RUN NUMBER
ENG .         BILL                 : Engineer     - RECORDING ENGINEER
WIT .         JIM                  : Witness      - WITNESSED BY
MUD .         GEL                  : Mud_type     - MUD TYPE
MATR.         SANDSTONE            : Logunit      - NEUTRON MATRIX
TMAX.C        22.7778              : BHT          - MAXIMUM RECORDED TEMPERATURE
BHTD.M        550.469              : BHTDEP       - MAXIMUM RECORDED TEMPERATURE
MATR.         1                    : LOGUNIT      - NEUTRON MATRIX
RMT .C        25                   : MDTP         - TEMPERATURE OF MUD
NEUT.         1                    : NEUTRON      - NEUTRON TYPE
RESI.         0                    : RESIST       - RESISTIVITY TYPE
RMC .OHMM     0.25                 : RMC          - RESISTIVITY OF MUD CAKE
RMF .OHMM     0.25                 : RMF          - RESISTIVITY OF MUD FILTRATE
SUFT.C        15                   : SUFT         - SURFACE TEMPERATURE
~A  DEPTH       GR     PHIN     PHID     RESD
# ...
 1720.870   95.411    0.570    0.293    8.461
 1721.690   86.635    0.539    0.263    9.463
 1722.510   81.956    0.494    0.232   10.003
 1723.330   88.401    0.444    0.223   10.386
 1724.150  100.701    0.454    0.213   10.399
 1724.970  107.731    0.475    0.236    9.860
 1725.790  114.176    0.516    0.251    9.694
 1726.610  115.937    0.529    0.260    9.362
 1727.430  114.188    0.544    0.270    9.204
 1728.250  111.849    0.519    0.276    9.216
 1729.070  107.757    0.507    0.257    9.228
 1729.890  110.106    0.504    0.248    9.076
 1730.710  111.279    0.535    0.255    8.920
 1731.530  113.041    0.556    0.281    8.776
 1732.350  112.459    0.567    0.292    9.115
 1733.170  111.295    0.575    0.293    9.463
 1733.990  111.299    0.574    0.292    9.828
 1734.810  110.719    0.573    0.291   10.029
 1735.630  110.140    0.573    0.281   10.227
 1736.450  107.803    0.568    0.266   10.244
 1737.270  105.464    0.554    0.237   10.443
 1738.090  104.886    0.547    0.238   10.657
 1738.910  104.890    0.542    0.260   10.860
 1739.730  104.894    0.540    0.267   10.678
 1740.550  103.143    0.536    0.272    9.764
 1741.370   97.879    0.528    0.263    9.088
 1742.190   99.642    0.518    0.230    8.773
 1743.010  101.402    0.506    0.215    8.952
 1743.830  105.504    0.526    0.244    9.123
 1744.650  110.193    0.531    0.270    9.310
 1745.470  114.881    0.555    0.282    9.488
 1746.290  116.645    0.560    0.288    9.857
 1747.110  116.650    0.568    0.287   10.241
 1747.930  116.653    0.573    0.281   10.832
 1748.750  116.658    0.575    0.274   11.042
 1749.570  116.663    0.577    0.268   12.574
 1750.390  118.424    0.581    0.265   13.295
 1751.210  126.626    0.585    0.263   14.586
 1752.030  134.827    0.515    0.298   17.222
 1752.850  140.687    0.507    0.319   18.894
 1753.670  145.375    0.511    0.332   21.508
 1754.490  123.133    0.509    0.330   18.601
 1755.310  111.429    0.508    0.326   13.651
 1756.140   99.140    0.509    0.332   11.180
 1756.960   99.144    0.507    0.341   10.035
 1757.780  103.249    0.500    0.350   10.622
 1758.600  109.693    0.495    0.341   10.828
 1759.420  119.065    0.501    0.334   11.246
 1760.240  127.266    0.506    0.317   12.574
 1761.060  128.442    0.506    0.305   13.291
 1761.880  128.447    0.507    0.305   15.413
 1762.700  115.573    0.506    0.304   16.904
 1763.520  112.065    0.505    0.302   18.900
 1764.340  100.363    0.502    0.307   19.985
 1765.160   95.097    0.501    0.307   21.933
 1765.980   88.662    0.497    0.296   23.627
 1766.800   78.130    0.497    0.319   24.991
 1767.620   76.963    0.497    0.345   22.018
 1768.440   81.067    0.499    0.359   19.406
 1769.260   92.198    0.494    0.368   18.401
 1770.080   93.957    0.491    0.372   17.752
 1770.900   97.475    0.484    0.345   17.459
 1771.720   98.650    0.476    0.336   17.488
 1772.540  100.997    0.467    0.332   17.845
 1773.360  100.416    0.463    0.331   18.180
 1774.180   98.082    0.460    0.327   18.546
 1775.000   96.330    0.454    0.325   18.912
 1775.820   94.580    0.448    0.324   18.937
 1776.640   92.827    0.443    0.330   18.962
 1777.460   91.660    0.439    0.332   20.070
 1778.280   88.739    0.439    0.326   21.228
 1779.100   86.402    0.441    0.323   21.641
 1779.920   79.381    0.446    0.318   21.277
 1780.740   75.874    0.454    0.317   20.181
 1781.560   83.489    0.458    0.318   19.476
 1782.380   88.177    0.467    0.349   18.144
 1783.200   91.695    0.474    0.380   17.828
 1784.020   93.456    0.491    0.382   17.533
 1784.840   93.461    0.503    0.382   16.921
 1785.660   92.882    0.496    0.377   16.641
 1786.480   91.717    0.490    0.369   16.361
 1787.300   91.135    0.490    0.358   16.081
 1788.120   89.385    0.490    0.348   15.534
 1788.940   88.804    0.492    0.342   15.549
 1789.760   87.639    0.489    0.334   15.569
 1790.580   87.057    0.483    0.338   15.595
 1791.400   86.477    0.483    0.343   15.620
 1792.220   82.384    0.484    0.349   15.646
 1793.040   80.047    0.484    0.349   15.661
 1793.860   80.637    0.483    0.352   15.976
 1794.690   81.814    0.479    0.355   16.598
 1795.510   83.575    0.477    0.353   16.608
 1796.330   84.751    0.477    0.346   16.937
 1797.150   84.170    0.479    0.344   16.970
 1797.970   83.591    0.485    0.343   16.987
 1798.790   83.594    0.493    0.341   16.701
 1799.610   83.599    0.461    0.343   16.723
 1800.430   83.604    0.449    0.349   17.059
 1801.250   83.025    0.438    0.344   17.396
 1802.070   83.028    0.436    0.328   17.419
 1802.890   84.791    0.440    0.315   17.137
 1803.710   88.895    0.445    0.304   16.843
 1804.530   92.997    0.448    0.304   15.402
 1805.350   98.856    0.453    0.301   14.864
 1806.170  107.058    0.459    0.292   14.085
 1806.990  109.404    0.467    0.282   12.876
 1807.810  110.580    0.486    0.280   11.984
 1808.630  111.172    0.492    0.291   11.569
 1809.450  112.349    0.502    0.303   11.382
 1810.270  112.353    0.510    0.302   11.389
 1811.090  112.356    0.509    0.296   11.618
 1811.910  110.605    0.491    0.308   12.066
 1812.730  105.928    0.475    0.310   12.536
 1813.550  105.348    0.462    0.310   12.788
 1814.370  105.354    0.459    0.315   13.281
 1815.190  105.942    0.476    0.321   13.544
 1816.010  107.117    0.488    0.351   13.562
 1816.830  106.537    0.479    0.353   13.096
 1817.650  104.200    0.472    0.323   12.643
 1818.470  101.864    0.474    0.310   12.201
 1819.290  105.970    0.473    0.299   11.577
 1820.110  105.972    0.468    0.296   11.172
 1820.930  106.562    0.473    0.292   10.980
 1821.750  109.496    0.482    0.287   10.604
 1822.570  111.841    0.499    0.281   10.240
 1823.390  111.846    0.513    0.275   10.250
 1824.210  103.070    0.519    0.268   10.263
 1825.030   95.464    0.523    0.263   10.280
 1825.850   90.200    0.531    0.256   10.483
 1826.670   83.765    0.531    0.257   11.092
 1827.490   74.989    0.525    0.261   12.173
 1828.310   65.626    0.535    0.265   13.109
 1829.130   56.849    0.543    0.259   14.377
 1829.950   22.899    0.539    0.220   17.288
 1830.770   16.464    0.428    0.201   20.782
 1831.590   15.884    0.296    0.177   34.722
 1832.410   19.402    0.262    0.141   83.608
 1833.230   26.432    0.257    0.151  104.312
 1834.060   43.415    0.260    0.163  106.374
 1834.880   60.397    0.264    0.172  108.442
 1835.700   60.402    0.267    0.176  112.662
 1836.520   59.239    0.268    0.182  114.890
 1837.340   59.829    0.268    0.187  123.804
 1838.160   60.419    0.263    0.188  128.580
 1838.980   62.180    0.258    0.190  136.003
 1839.800   63.356    0.251    0.190  141.296
