~VERSION INFORMATION
 VERS.                 2.0:   CWLS LOG ASCII STANDARD -VERSION 2.0
 WRAP.                  NO:   ONE LINE PER DEPTH STEP
~WELL INFORMATION BLOCK
#MNEM.UNIT           DATA                    DESCRIPTION OF MNEMONIC
#---------    -------------------            -------------------------------
# Generated from Intellog Unique Number	CS_67_68/WELL/782
WELL.         MURPHY OIL COMPANY LTD         : Well_name    - WELL
LOC .         00/07-30-068-17W4/0            : Location     - LOCATION
UWI .         00/07-30-068-17W4/0            : Uwi          - UNIQUE WELL ID
ENTR.         SP                             : Entered      - ENTERED BY
SRVC.         SCHLUMBERGER                   : Scn          - SERVICE COMPANY
STRT.M        298.704                        : top_depth    - START DEPTH
STOP.M        493.454                        : bot_depth    - STOP DEPTH
STEP.M        0.152                          : increment    - STEP LENGTH
 NULL. -999.2500:NULL Value
~CURVE INFORMATION BLOCK
#MNEM UNIT       ERCB CURVE CODE    CURVE DESCRIPTION
#-----------   ------------------   ----------------------------------
DEPT.M        00 001 00 00         : DEPTH        - DEPTH
GR  .API      00 310 00 00         : GR           - GAMMA RAY
NPHI.V/V      00 330 00 00         : PHIN         - NEUTRON POROSITY (SANDSTONE)
DPHI.V/V      00 890 00 00         : PHID         - DENSITY POROSITY (SANDSTONE)
ILD .OHMM     00 120 00 00         : RESD         - DEEP RESISTIVITY (DIL)
~PARAMETER INFORMATION
#MNEM.UNIT           DATA             DESCRIPTION OF MNEMONIC
#---------         -----------     ------------------------------
GL  .M        543.154              : gl           - GROUND LEVEL ELEVATION
EREF.M        547.116              : kb           - ELEVATION OF DEPTH REFERENCE
DATM.M        543.154              : datum        - DATUM ELEVATION
TDD .M        502.92               : tdd          - TOTAL DEPTH DRILLER
RUN .         ONE                  : Run          - RUN NUMBER
ENG .         BILL                 : Engineer     - RECORDING ENGINEER
WIT .         JIM                  : Witness      - WITNESSED BY
MUD .         GEL                  : Mud_type     - MUD TYPE
MATR.         SANDSTONE            : Logunit      - NEUTRON MATRIX
TMAX.C        22.2222              : BHT          - MAXIMUM RECORDED TEMPERATURE
BHTD.M        502.92               : BHTDEP       - MAXIMUM RECORDED TEMPERATURE
MATR.         1                    : LOGUNIT      - NEUTRON MATRIX
RMT .C        25                   : MDTP         - TEMPERATURE OF MUD
NEUT.         1                    : NEUTRON      - NEUTRON TYPE
RESI.         0                    : RESIST       - RESISTIVITY TYPE
RMC .OHMM     0.25                 : RMC          - RESISTIVITY OF MUD CAKE
RMF .OHMM     0.25                 : RMF          - RESISTIVITY OF MUD FILTRATE
SUFT.C        15                   : SUFT         - SURFACE TEMPERATURE
~A  DEPTH       GR     PHIN     PHID     RESD
  298.704  112.947    0.579    0.176    2.485
  298.954  118.152    0.613    0.196    2.506
  299.204  119.422    0.476    0.207    2.539
  299.454  119.812    0.489    0.195    2.567
  299.704  120.427    0.462    0.189    2.594
  299.954  121.041    0.473    0.187    2.607
  300.204  121.628    0.489    0.188    2.604
  300.454  121.664    0.504    0.192    2.590
  300.704  121.134    0.518    0.179    2.551
  300.954  120.484    0.496    0.177    2.495
  301.204  120.844    0.493    0.177    2.448
  301.454  121.482    0.510    0.189    2.432
  301.704  117.871    0.531    0.201    2.469
  301.954  115.168    0.517    0.207    2.533
  302.204  114.941    0.485    0.202    2.621
  302.454  113.287    0.476    0.205    2.661
  302.704  107.703    0.479    0.208    2.638
  302.954  102.195    0.472    0.189    2.517
  303.204   98.956    0.454    0.181    2.446
  303.454   95.706    0.439    0.144    2.538
  303.704   98.416    0.402    0.096    2.646
  303.954  104.580    0.441    0.080    2.775
  304.204  109.152    0.475    0.134    2.893
  304.454  112.661    0.466    0.170    2.991
  304.704  103.141    0.435    0.203    2.944
  304.954   96.290    0.418    0.224    2.767
  305.204   98.700    0.404    0.240    2.640
  305.454   99.569    0.407    0.235    2.573
  305.704   96.242    0.393    0.242    2.554
  305.954   92.846    0.383    0.240    2.575
  306.204   91.926    0.390    0.252    2.641
  306.454   94.656    0.396    0.252    2.735
  306.704   98.504    0.390    0.258    2.834
  306.954  108.177    0.383    0.249    2.952
  307.204  115.789    0.386    0.244    3.068
  307.454  121.568    0.397    0.229    3.214
  307.704  125.941    0.392    0.218    3.337
  307.954  128.041    0.404    0.206    3.448
  308.204  127.307    0.414    0.209    3.493
  308.454  108.965    0.402    0.236    3.465
  308.704   93.230    0.387    0.247    3.424
  308.954   86.478    0.378    0.252    3.445
  309.204   82.344    0.379    0.242    3.597
  309.454   89.320    0.376    0.232    3.714
  309.704   95.558    0.366    0.224    3.827
  309.954   98.585    0.372    0.204    3.911
  310.204   90.733    0.382    0.223    3.900
  310.454   85.504    0.390    0.242    3.684
  310.704   81.993    0.392    0.262    3.573
  310.954   83.826    0.392    0.276    3.550
  311.204   85.681    0.374    0.284    3.590
  311.454   91.544    0.355    0.240    3.701
  311.704   97.811    0.331    0.218    3.835
  311.954  102.813    0.360    0.195    3.972
  312.204  104.706    0.376    0.179    4.100
  312.454  103.285    0.383    0.169    4.173
  312.704  102.205    0.388    0.163    4.123
  312.954  102.977    0.398    0.172    3.817
  313.204  107.126    0.406    0.187    3.484
  313.454  113.615    0.414    0.179    3.200
  313.704  119.691    0.427    0.159    3.018
  313.954  124.013    0.461    0.188    2.925
  314.204  114.853    0.486    0.183    3.002
  314.454  103.646    0.468    0.206    3.232
  314.704   97.083    0.452    0.217    3.541
  314.954   90.900    0.434    0.237    4.058
  315.204   88.406    0.421    0.245    4.563
  315.454   86.073    0.413    0.260    4.984
  315.704   84.202    0.407    0.267    5.326
  315.954   82.251    0.405    0.275    5.588
  316.204   82.080    0.418    0.271    5.738
  316.454   81.842    0.425    0.255    5.800
  316.704   79.102    0.429    0.247    5.901
  316.954   78.757    0.415    0.256    5.865
  317.204   80.043    0.406    0.251    5.669
  317.454   80.647    0.410    0.251    5.520
  317.704   77.191    0.416    0.262    5.298
  317.954   74.275    0.423    0.272    5.050
  318.204   72.279    0.429    0.270    4.705
  318.454   74.679    0.432    0.267    4.263
  318.704   78.356    0.430    0.270    4.000
  318.954   82.171    0.422    0.260    3.815
  319.204   84.916    0.425    0.247    3.726
  319.454   87.362    0.434    0.238    3.757
  319.704   88.696    0.443    0.230    3.854
  319.954   88.910    0.433    0.217    3.977
  320.204   89.816    0.423    0.239    4.170
  320.454   92.056    0.419    0.248    4.484
  320.704   89.991    0.424    0.246    4.804
  320.954   86.026    0.432    0.262    5.170
  321.204   81.902    0.433    0.262    5.592
  321.454   76.697    0.425    0.259    6.184
  321.704   75.115    0.417    0.272    6.701
  321.954   77.047    0.413    0.260    7.101
  322.204   78.570    0.420    0.244    7.382
  322.454   79.553    0.423    0.248    7.453
  322.704   77.865    0.422    0.239    7.074
  322.954   74.173    0.411    0.192    6.506
  323.204   72.607    0.364    0.119    5.594
  323.454   73.662    0.293    0.066    4.802
  323.704   81.166    0.283    0.069    4.185
  323.954   87.159    0.373    0.194    3.712
  324.204   93.925    0.386    0.241    3.491
  324.454  100.778    0.400    0.229    3.407
  324.704  107.447    0.414    0.217    3.371
  324.954  105.239    0.443    0.201    3.377
  325.204  102.964    0.454    0.199    3.415
  325.454  101.254    0.451    0.204    3.459
  325.704  101.765    0.441    0.214    3.478
  325.954  103.570    0.434    0.216    3.399
  326.204  110.143    0.430    0.193    3.300
  326.454  116.272    0.438    0.165    3.212
  326.704  121.055    0.456    0.136    3.186
  326.954  123.973    0.476    0.150    3.217
  327.204  125.408    0.491    0.172    3.297
  327.454  128.461    0.457    0.190    3.452
  327.704  128.189    0.420    0.201    3.641
  327.954  121.132    0.391    0.211    3.805
  328.204  116.221    0.372    0.197    3.967
  328.454  115.059    0.378    0.199    4.095
  328.704  115.406    0.393    0.193    4.228
  328.954  116.277    0.396    0.212    4.345
  329.204  116.249    0.384    0.200    4.411
  329.454  118.760    0.390    0.193    4.453
  329.704  120.417    0.401    0.190    4.458
  329.954  118.982    0.411    0.198    4.431
  330.204  116.829    0.410    0.197    4.385
  330.454  115.382    0.406    0.196    4.340
  330.704  115.171    0.394    0.201    4.276
  330.954  117.009    0.405    0.197    4.162
  331.204  118.980    0.414    0.196    4.050
  331.454  119.755    0.405    0.200    3.963
  331.704  120.889    0.413    0.189    3.897
  331.954  123.402    0.423    0.177    3.882
  332.204  125.863    0.429    0.169    4.026
  332.454  128.477    0.416    0.197    4.048
  332.704  131.772    0.405    0.202    4.102
  332.954  133.204    0.402    0.199    4.190
  333.204  127.386    0.406    0.198    4.273
  333.454  121.852    0.409    0.208    4.339
  333.704  122.778    0.404    0.191    4.354
  333.954  124.829    0.405    0.174    4.301
  334.204  127.438    0.398    0.168    4.174
  334.454  131.534    0.400    0.166    3.980
  334.704  135.415    0.417    0.168    3.697
  334.954  138.320    0.436    0.165    3.420
  335.204  138.228    0.475    0.159    3.066
  335.454  137.019    0.481    0.159    2.622
  335.704  133.618    0.469    0.162    2.305
  335.954  128.234    0.446    0.164    2.041
  336.204  121.566    0.430    0.168    1.904
  336.454  115.494    0.430    0.187    1.982
  336.704  109.148    0.434    0.134    2.151
  336.954  100.630    0.421    0.121    2.419
  337.204   98.333    0.427    0.168    2.612
  337.454  100.852    0.434    0.197    2.758
  337.704   99.796    0.438    0.220    2.918
  337.954   98.287    0.444    0.214    3.054
  338.204   98.851    0.440    0.238    3.128
  338.454   97.939    0.436    0.258    3.177
  338.704   94.304    0.453    0.285    3.171
  338.954   94.429    0.470    0.333    3.155
  339.204   96.426    0.525    0.302    3.116
  339.454   97.739    0.492    0.261    2.996
  339.704   98.500    0.446    0.244    2.841
  339.954   91.286    0.422    0.236    2.650
  340.204   85.773    0.419    0.244    2.507
  340.454   82.962    0.415    0.258    2.410
  340.704   83.171    0.408    0.266    2.304
  340.954   83.833    0.422    0.263    2.276
  341.204   83.767    0.436    0.258    2.263
  341.454   81.121    0.446    0.269    2.258
  341.704   81.117    0.438    0.270    2.248
  341.954   82.853    0.437    0.275    2.255
