~VERSION INFORMATION
 VERS.                 2.0:   CWLS LOG ASCII STANDARD -VERSION 2.0
 WRAP.                  NO:   ONE LINE PER DEPTH STEP
~WELL INFORMATION BLOCK
#MNEM.UNIT           DATA                    DESCRIPTION OF MNEMONIC
#---------    -------------------            -------------------------------
# Generated from Intellog Unique Number	CS_67_68/WELL/2170
WELL.         06-16-067-05W4                 : Well_name    - WELL
LOC .         00/06-16-067-05W4/0            : Location     - LOCATION
UWI .         00/06-16-067-05W4/0            : Uwi          - UNIQUE WELL ID
ENTR.         SP                             : Entered      - ENTERED BY
SRVC.         SCHLUMBERGER                   : Scn          - SERVICE COMPANY
STRT.M        325                            : top_depth    - START DEPTH
STOP.M        545                            : bot_depth    - STOP DEPTH
STEP.M        0.25                           : increment    - STEP LENGTH
 NULL. -999.2500:NULL Value
~CURVE INFORMATION BLOCK
#MNEM UNIT       ERCB CURVE CODE    CURVE DESCRIPTION
#-----------   ------------------   ----------------------------------
DEPT.M        00 001 00 00         : DEPTH        - DEPTH
ILD .OHMM     00 120 00 00         : RESD         - DEEP RESISTIVITY (DIL)
DPHI.V/V      00 890 00 00         : PHID         - DENSITY POROSITY (LIMESTONE)
NPHI.V/V      00 330 00 00         : PHIN         - NEUTRON POROSITY (LIMESTONE)
GR  .API      00 310 00 00         : GR           - GAMMA RAY
CALI.MM       00 280 01 00         : CAL          - CALIPER
~PARAMETER INFORMATION
#MNEM.UNIT           DATA             DESCRIPTION OF MNEMONIC
#---------         -----------     ------------------------------
GL  .M        656.66               : gl           - GROUND LEVEL ELEVATION
EREF.M        660.02               : kb           - ELEVATION OF DEPTH REFERENCE
DATM.M        660.02               : datum        - DATUM ELEVATION
TDD .M        550                  : tdd          - TOTAL DEPTH DRILLER
RUN .         ONE                  : Run          - RUN NUMBER
ENG .         BILL                 : Engineer     - RECORDING ENGINEER
WIT .         JIM                  : Witness      - WITNESSED BY
MUD .         GEL                  : Mud_type     - MUD TYPE
MATR.         LIMESTONE            : Logunit      - NEUTRON MATRIX
TMAX.C        24                   : BHT          - MAXIMUM RECORDED TEMPERATURE
BHTD.M        550.4                : BHTDEP       - MAXIMUM RECORDED TEMPERATURE
MATR.         1                    : LOGUNIT      - NEUTRON MATRIX
RMT .C        25                   : MDTP         - TEMPERATURE OF MUD
NEUT.         1                    : NEUTRON      - NEUTRON TYPE
RESI.         0                    : RESIST       - RESISTIVITY TYPE
RMC .OHMM     0.25                 : RMC          - RESISTIVITY OF MUD CAKE
RMF .OHMM     0.25                 : RMF          - RESISTIVITY OF MUD FILTRATE
SUFT.C        15                   : SUFT         - SURFACE TEMPERATURE
~A  DEPTH     RESD     PHID     PHIN       GR      CAL
# ...
  398.000    5.822    0.331    0.472   56.555  209.272
  398.250    5.662    0.332    0.464   54.861  208.993
  398.500    5.569    0.334    0.455   57.328  208.317
  398.750    5.498    0.348    0.457   58.815  207.939
  399.000    5.439    0.354    0.462   58.040  207.565
  399.250    5.390    0.344    0.461   59.039  207.599
  399.500    5.381    0.328    0.453   64.076  208.142
  399.750    5.424    0.312    0.448   67.949  208.180
  400.000    5.509    0.300    0.462   67.419  208.210
  400.250    5.542    0.325    0.470   62.363  208.140
  400.500    5.586    0.340    0.454   64.278  208.177
  400.750    5.598    0.348    0.443   68.399  208.208
  401.000    5.611    0.334    0.439   68.969  208.244
  401.250    5.592    0.325    0.445   67.888  207.866
  401.500    5.584    0.321    0.455   66.684  207.494
  401.750    5.617    0.315    0.473   60.833  207.016
  402.000    5.673    0.336    0.487   56.204  206.644
  402.250    5.739    0.353    0.471   52.186  206.574
  402.500    5.763    0.367    0.438   47.925  206.404
  402.750    5.754    0.361    0.410   53.817  206.236
  403.000    5.735    0.341    0.397   61.914  206.065
  403.250    5.673    0.321    0.397   66.275  205.996
  403.500    5.517    0.308    0.408   65.868  205.926
  403.750    5.416    0.329    0.419   64.360  206.164
  404.000    5.298    0.341    0.439   66.338  206.311
  404.250    5.211    0.343    0.462   68.865  206.641
  404.500    5.154    0.331    0.481   70.719  206.879
  404.750    5.117    0.320    0.488   70.372  207.429
  405.000    5.119    0.319    0.483   68.863  207.760
  405.250    5.121    0.324    0.470   69.742  208.204
  405.500    5.114    0.332    0.483   70.311  208.440
  405.750    5.125    0.333    0.480   71.554  208.678
  406.000    5.108    0.313    0.484   73.533  208.919
  406.250    5.138    0.308    0.491   71.596  209.054
  406.500    5.248    0.317    0.481   68.312  208.988
  406.750    5.410    0.315    0.463   66.008  209.117
  407.000    5.578    0.314    0.453   69.026  209.256
  407.250    5.675    0.306    0.464   71.860  209.494
  407.500    5.731    0.296    0.454   74.081  209.834
  407.750    5.712    0.298    0.442   72.268  209.764
  408.000    5.576    0.295    0.435   72.719  209.699
  408.250    5.382    0.279    0.450   75.244  209.728
  408.500    5.234    0.268    0.474   77.220  209.354
  408.750    5.266    0.309    0.486   71.368  208.776
  409.000    5.409    0.346    0.471   64.356  207.689
  409.250    5.461    0.359    0.454   60.766  207.316
  409.500    5.525    0.365    0.442   58.648  207.960
  409.750    5.528    0.348    0.439   62.396  210.031
  410.000    5.509    0.326    0.456   66.578  212.107
  410.250    5.459    0.321    0.466   68.188  212.851
  410.500    5.431    0.318    0.459   70.594  213.089
  410.750    5.413    0.305    0.454   73.488  211.291
  411.000    5.435    0.288    0.450   74.549  210.406
  411.250    5.437    0.305    0.453   70.103  209.931
  411.500    5.449    0.325    0.472   65.969  209.249
  411.750    5.452    0.346    0.497   63.783  208.570
  412.000    5.443    0.363    0.474   64.967  208.604
  412.250    5.415    0.361    0.457   66.392  208.737
  412.500    5.407    0.350    0.460   66.411  208.873
  412.750    5.378    0.343    0.463   66.615  208.607
  413.000    5.360    0.343    0.465   67.983  208.432
  413.250    5.362    0.343    0.473   66.230  208.160
  413.500    5.374    0.345    0.477   62.519  208.090
  413.750    5.417    0.351    0.471   59.294  208.328
  414.000    5.470    0.355    0.454   60.416  208.575
  414.250    5.513    0.318    0.444   67.776  208.599
  414.500    5.484    0.303    0.472   74.099  208.327
  414.750    5.384    0.292    0.468   79.256  208.365
  415.000    5.489    0.266    0.461   78.848  208.091
  415.250    5.919    0.241    0.372   74.833  207.716
  415.500    6.617    0.210    0.349   72.159  207.443
  415.750    7.163    0.231    0.386   74.444  206.969
  416.000    7.302    0.265    0.439   78.136  207.105
  416.250    7.022    0.291    0.444   80.907  207.751
  416.500    6.740    0.275    0.436   83.436  208.494
  416.750    6.397    0.248    0.433   85.106  209.855
  417.000    5.969    0.231    0.447   84.944  213.252
  417.250    5.591    0.215    0.462   85.147  222.055
  417.500    5.306    0.229    0.475   87.187  230.854
  417.750    5.074    0.270    0.487   89.101  238.330
  418.000    4.944    0.288    0.491   90.773  243.359
  418.250    4.899    0.278    0.491   90.671  228.412
  418.500    4.856    0.262    0.484   89.898  224.466
  418.750    4.821    0.250    0.480   88.941  222.153
  419.000    4.777    0.248    0.483   88.105  220.763
  419.250    4.888    0.236    0.471   87.697  220.092
  419.500    5.242    0.217    0.463   88.022  220.017
  419.750    5.622    0.207    0.455   90.120  220.558
  420.000    5.625    0.241    0.463   91.179  222.425
  420.250    5.522    0.262    0.480   88.447  225.925
  420.500    5.360    0.257    0.494   86.265  230.444
  420.750    5.164    0.265    0.498   88.735  234.558
  421.000    4.994    0.282    0.500   91.201  237.546
  421.250    4.949    0.301    0.487   92.688  234.624
  421.500    5.064    0.247    0.479   92.218  226.603
  421.750    5.231    0.240    0.464   90.099  217.767
  422.000    5.343    0.251    0.441   88.160  214.233
  422.250    5.354    0.261    0.429   85.674  209.985
  422.500    5.296    0.267    0.437   82.698  205.333
  422.750    5.151    0.254    0.435   82.288  204.240
  423.000    4.991    0.245    0.436   84.756  210.087
  423.250    4.772    0.264    0.460   86.916  214.503
  423.500    4.589    0.275    0.458   85.959  217.187
  423.750    4.463    0.261    0.446   85.245  209.577
  424.000    4.382    0.258    0.464   84.778  207.060
  424.250    4.310    0.268    0.489   84.244  206.893
  424.500    4.231    0.284    0.501   84.266  206.821
  424.750    4.185    0.294    0.491   88.142  206.039
  425.000    4.298    0.280    0.478   90.361  206.075
  425.250    4.627    0.272    0.467   92.094  205.805
  425.500    5.057    0.287    0.467   93.094  205.532
  425.750    5.444    0.302    0.476   92.379  204.753
  426.000    5.740    0.312    0.479   88.729  204.274
  426.250    5.918    0.325    0.483   81.775  204.102
  426.500    6.055    0.335    0.476   70.788  204.238
  426.750    6.069    0.341    0.478   67.015  204.481
  427.000    6.037    0.347    0.481   66.057  204.512
  427.250    5.983    0.347    0.480   66.320  204.542
  427.500    5.918    0.343    0.488   66.955  204.585
  427.750    5.854    0.345    0.494   67.281  204.507
  428.000    5.823    0.349    0.476   67.238  204.947
  428.250    5.847    0.345    0.462   67.074  205.495
  428.500    5.883    0.339    0.477   65.748  205.526
  428.750    5.918    0.348    0.477   62.037  206.275
  429.000    5.898    0.350    0.472   60.589  206.615
  429.250    5.889    0.345    0.474   60.550  206.645
  429.500    5.858    0.353    0.469   60.206  206.274
  429.750    5.839    0.356    0.461   59.305  204.980
  430.000    5.840    0.350    0.463   58.284  204.708
  430.250    5.865    0.348    0.465   57.938  205.865
  430.500    5.933    0.346    0.454   59.060  207.120
  430.750    6.152    0.342    0.447   59.571  208.692
  431.000    6.378    0.335    0.452   58.916  209.635
  431.250    6.625    0.338    0.467   59.364  210.382
  431.500    6.894    0.339    0.478   60.852  210.522
  431.750    7.189    0.333    0.464   63.136  210.247
  432.000    7.411    0.332    0.452   64.686  209.362
  432.250    7.512    0.335    0.441   62.997  208.481
  432.500    7.251    0.345    0.451   60.934  208.517
  432.750    6.960    0.355    0.465   58.815  209.259
  433.000    6.618    0.354    0.476   57.671  210.419
  433.250    6.412    0.356    0.479   57.938  211.468
  433.500    6.536    0.359    0.472   60.342  205.184
  433.750    6.700    0.348    0.483   62.442  201.340
  434.000    6.882    0.338    0.487   60.994  201.785
  434.250    7.122    0.327    0.453   57.958  203.140
