~VERSION INFORMATION
 VERS.                 2.0:   CWLS LOG ASCII STANDARD -VERSION 2.0
 WRAP.                  NO:   ONE LINE PER DEPTH STEP
~WELL INFORMATION BLOCK
#MNEM.UNIT           DATA                    DESCRIPTION OF MNEMONIC
#---------    -------------------            -------------------------------
# Generated from Intellog Unique Number	CX_WELLS/WELL/3254
WELL.         PAPA ET AL GRANOR              : Well_name    - WELL
LOC .         00/06-31-083-17W4/0            : Location     - LOCATION
UWI .         00/06-31-083-17W400            : Uwi          - UNIQUE WELL ID
ENTR.         T                              : Entered      - ENTERED BY
SRVC.         SCHLUMBERGER                   : Scn          - SERVICE COMPANY
STRT.M        100                            : top_depth    - START DEPTH
STOP.M        285                            : bot_depth    - STOP DEPTH
STEP.M        0.25                           : increment    - STEP LENGTH
 NULL. -999.2500:NULL Value
~CURVE INFORMATION BLOCK
#MNEM UNIT       ERCB CURVE CODE    CURVE DESCRIPTION
#-----------   ------------------   ----------------------------------
DEPT.M        00 001 00 00         : DEPTH        - DEPTH
GR  .API      00 310 00 00         : GR           - GAMMA RAY
NPHI.V/V      00 330 00 00         : PHIN         - NEUTRON POROSITY (SANDSTONE)
DPHI.V/V      00 890 00 00         : PHID         - DENSITY POROSITY (SANDSTONE)
ILD .OHMM     00 120 00 00         : RESD         - DEEP RESISTIVITY (DIL)
~PARAMETER INFORMATION
#MNEM.UNIT           DATA             DESCRIPTION OF MNEMONIC
#---------         -----------     ------------------------------
GL  .M        537.8                : gl           - GROUND LEVEL ELEVATION
EREF.M        541.4                : kb           - ELEVATION OF DEPTH REFERENCE
DATM.M        541.4                : datum        - DATUM ELEVATION
TDD .M        285                  : tdd          - TOTAL DEPTH DRILLER
RUN .         ONE                  : Run          - RUN NUMBER
ENG .         BILL                 : Engineer     - RECORDING ENGINEER
WIT .         JIM                  : Witness      - WITNESSED BY
MUD .         GEL                  : Mud_type     - MUD TYPE
MATR.         SANDSTONE            : Logunit      - NEUTRON MATRIX
TMAX.C        22                   : BHT          - MAXIMUM RECORDED TEMPERATURE
BHTD.M        285                  : BHTDEP       - MAXIMUM RECORDED TEMPERATURE
MATR.         1                    : LOGUNIT      - NEUTRON MATRIX
RMT .C        20                   : MDTP         - TEMPERATURE OF MUD
NEUT.         1                    : NEUTRON      - NEUTRON TYPE
RESI.         5.5                  : RESIST       - RESISTIVITY TYPE
RMC .OHMM     4.4                  : RMC          - RESISTIVITY OF MUD CAKE
RMF .OHMM     7                    : RMF          - RESISTIVITY OF MUD FILTRATE
SUFT.C        4                    : SUFT         - SURFACE TEMPERATURE
~A  DEPTH       GR     PHIN     PHID     RESD
# ...
  187.000   95.322    0.393    0.207    8.656
  187.250   95.978    0.403    0.207    8.681
  187.500   96.021    0.428    0.207    8.855
  187.750   97.275    0.469    0.207    8.872
  188.000   97.332    0.494    0.208    8.889
  188.250   97.389    0.496    0.208    9.076
  188.500   96.249    0.445    0.209    9.266
  188.750   95.708    0.412    0.209    9.460
  189.000   95.779    0.397    0.208    9.659
  189.250   96.421    0.424    0.208    9.861
  189.500   98.914    0.437    0.212    9.880
  189.750  100.154    0.447    0.217    9.719
  190.000  100.781    0.455    0.216    9.556
  190.250  102.035    0.457    0.211    9.400
  190.500  101.494    0.494    0.206    9.234
  190.750   99.157    0.522    0.199    9.261
  191.000   95.638    0.533    0.190    9.278
  191.250   93.914    0.526    0.193    9.292
  191.500   93.358    0.467    0.198    9.305
  191.750   94.000    0.457    0.205    9.510
  192.000   96.479    0.408    0.212    9.519
  192.250   97.106    0.388    0.221    9.537
  192.500   97.762    0.381    0.218    9.377
  192.750   95.425    0.383    0.213    9.220
  193.000   90.695    0.386    0.207    8.896
  193.250   86.549    0.428    0.199    8.747
  193.500   86.620    0.409    0.192    8.939
  193.750   89.085    0.402    0.185    8.952
  194.000   90.923    0.408    0.190    8.965
  194.250   93.403    0.432    0.199    8.650
  194.500   94.044    0.443    0.211    8.190
  194.750   94.685    0.451    0.217    7.614
  195.000   94.771    0.455    0.231    7.629
  195.250   94.799    0.457    0.216    7.361
  195.500   95.498    0.458    0.211    6.840
  195.750   96.111    0.455    0.217    6.596
  196.000   97.364    0.449    0.226    5.685
  196.250  100.428    0.440    0.234    5.089
  196.500   98.690    0.433    0.240    5.002
  196.750   96.339    0.437    0.240    5.614
  197.000   93.404    0.449    0.241    6.536
  197.250   90.483    0.461    0.242    7.613
  197.500   89.315    0.473    0.242    8.541
  197.750   87.577    0.473    0.245    9.227
  198.000   85.853    0.473    0.245    9.604
  198.250   84.115    0.475    0.247    9.806
  198.500   82.975    0.481    0.249    9.824
  198.750   83.032    0.482    0.251    9.839
  199.000   83.075    0.474    0.239    9.858
  199.250   81.365    0.453    0.229    9.697
  199.500   80.197    0.436    0.223    9.539
  199.750   80.254    0.419    0.199    9.548
  200.000   85.099    0.362    0.161    9.397
  200.250   89.943    0.410    0.191    9.235
  200.500   94.204    0.465    0.212    9.248
  200.750   94.859    0.471    0.226    8.757
  201.000   95.515    0.465    0.219    8.137
  201.250   96.199    0.404    0.213    7.427
  201.500   96.227    0.397    0.212    7.295
  201.750   93.905    0.443    0.209    7.309
  202.000   92.751    0.467    0.208    7.463
  202.250   91.611    0.472    0.204    7.619
  202.500   95.857    0.486    0.201    7.779
  202.750  100.716    0.493    0.202    7.802
  203.000  102.583    0.482    0.203    7.813
  203.250  102.626    0.480    0.208    7.828
  203.500  102.070    0.480    0.209    7.843
  203.750  100.973    0.454    0.209    7.858
  204.000  100.403    0.430    0.212    7.869
  204.250  100.446    0.412    0.213    7.884
  204.500   98.737    0.413    0.213    8.050
  204.750   98.181    0.418    0.212    8.065
  205.000   97.027    0.420    0.210    8.395
  205.250   95.916    0.410    0.210    8.734
  205.500   94.762    0.386    0.211    9.440
  205.750   94.192    0.385    0.211    9.629
  206.000   91.855    0.384    0.211   10.208
  206.250   87.125    0.378    0.208   11.034
  206.500   81.198    0.346    0.182   11.920
  206.750   77.679    0.297    0.018   13.372
  207.000   81.911    0.223    0.043   13.154
  207.250   87.354    0.191    0.080   12.455
  207.500   89.819    0.242    0.127   11.573
  207.750   91.087    0.313    0.193   10.754
  208.000   91.130    0.340    0.215   10.367
  208.250   91.785    0.367    0.212    9.816
  208.500   92.455    0.433    0.194    9.656
  208.750   92.512    0.432    0.187    9.494
  209.000   93.154    0.434    0.195    9.688
  209.250   93.196    0.427    0.205    9.896
  209.500   93.852    0.423    0.200   10.104
  209.750   93.909    0.422    0.199   10.123
  210.000   94.565    0.421    0.196   10.331
  210.250   94.622    0.417    0.192   10.356
  210.500   94.679    0.405    0.197   10.381
  210.750   95.334    0.395    0.213   10.391
  211.000   95.406    0.396    0.218   10.421
  211.250   95.449    0.406    0.220   10.431
  211.500   95.520    0.408    0.220   10.456
  211.750   95.563    0.416    0.221   10.481
  212.000   95.620    0.440    0.223   10.496
  212.250   95.706    0.439    0.224   10.511
  212.500   95.734    0.436    0.225   10.345
  212.750   95.806    0.432    0.225   10.166
  213.000   95.250    0.423    0.218   10.181
  213.250   94.709    0.426    0.215    9.833
  213.500   92.372    0.436    0.217    9.847
  213.750   90.634    0.439    0.223    9.861
  214.000   91.290    0.437    0.223    9.710
  214.250   94.367    0.431    0.220    9.724
  214.500   96.206    0.423    0.213    9.738
  214.750   97.445    0.414    0.208    9.752
  215.000   98.713    0.402    0.206    9.598
  215.250   98.756    0.389    0.205    9.611
  215.500   98.215    0.386    0.203    9.625
  215.750   98.286    0.452    0.200    9.644
  216.000   97.759    0.458    0.197    9.487
  216.250   97.788    0.463    0.192    9.500
  216.500   97.247    0.471    0.189    9.350
  216.750   97.304    0.476    0.189    9.359
  217.000   97.361    0.475    0.191    9.382
  217.250   97.447    0.460    0.194    9.229
  217.500   96.891    0.432    0.197    9.242
  217.750   95.766    0.407    0.199    9.260
  218.000   94.597    0.392    0.197    9.100
  218.250   92.873    0.366    0.196    9.126
  218.500   92.332    0.355    0.196    8.969
  218.750   95.980    0.376    0.194    8.823
  219.000   99.015    0.409    0.194    8.835
  219.250   98.502    0.427    0.195    8.683
  219.500   96.735    0.441    0.200    8.542
  219.750   93.230    0.453    0.215    8.394
  220.000   90.865    0.480    0.225    8.575
  220.250   87.332    0.478    0.222    9.268
  220.500   86.790    0.471    0.216    9.633
  220.750   86.249    0.448    0.213   10.406
  221.000   85.109    0.424    0.212   11.248
  221.250   82.773    0.382    0.216   11.702
  221.500   81.619    0.366    0.224   11.725
  221.750   79.881    0.342    0.237   11.318
  222.000   79.938    0.324    0.259   10.921
  222.250   81.805    0.320    0.259   10.733
  222.500   83.657    0.323    0.254   10.748
  222.750   84.312    0.394    0.244   10.774
  223.000   83.158    0.448    0.232   11.005
  223.250   81.420    0.491    0.223   11.236
  223.500   80.281    0.543    0.226   11.252
  223.750   78.557    0.554    0.233   11.712
  224.000   81.007    0.511    0.237   11.729
  224.250   82.860    0.482    0.219   12.203
  224.500   81.136    0.471    0.189   13.696
  224.750   79.968    0.466    0.137   16.566
  225.000   77.631    0.418    0.036   20.410
  225.250   75.294    0.138   -0.011   28.180
  225.500   72.359    0.123   -0.020   38.164
  225.750   71.818    0.133   -0.022   36.154
  226.000   71.875    0.164   -0.020   31.734
  226.250   71.933    0.203   -0.011   20.998
  226.500   72.004    0.251    0.022   15.565
  226.750   74.455    0.317    0.034   12.917
  227.000   77.490    0.405    0.115   12.003
  227.250   84.129    0.438    0.166   11.159
  227.500   85.398    0.462    0.201   10.767
  227.750   84.842    0.467    0.216   10.576
  228.000   83.702    0.453    0.229   10.596
  228.250   87.364    0.430    0.233   10.418
  228.500   91.012    0.406    0.237   10.053
  228.750   95.258    0.405    0.227    9.528
  229.000   98.307    0.435    0.211    9.189
  229.250   99.576    0.456    0.199    8.701
  229.500   99.049    0.467    0.194    8.399
  229.750   97.296    0.477    0.193    8.250
  230.000   95.558    0.455    0.195    8.423
  230.250   93.221    0.452    0.202    8.935
