~VERSION INFORMATION
 VERS.                 2.0:   CWLS LOG ASCII STANDARD -VERSION 2.0
 WRAP.                  NO:   ONE LINE PER DEPTH STEP
~WELL INFORMATION BLOCK
#MNEM.UNIT           DATA                    DESCRIPTION OF MNEMONIC
#---------    -------------------            -------------------------------
# Generated from Intellog Unique Number	CX_WELLS/WELL/2729
WELL.         05-14-080-12W4                 : Well_name    - WELL
LOC .         00/05-14-080-12W4/0            : Location     - LOCATION
UWI .         00/05-14-080-12W4/0            : Uwi          - UNIQUE WELL ID
ENTR.         T                              : Entered      - ENTERED BY
SRVC.         SCHLUMBERGER                   : Scn          - SERVICE COMPANY
STRT.M        260                            : top_depth    - START DEPTH
STOP.M        485                            : bot_depth    - STOP DEPTH
STEP.M        0.25                           : increment    - STEP LENGTH
 NULL. -999.2500:NULL Value
~CURVE INFORMATION BLOCK
#MNEM UNIT       ERCB CURVE CODE    CURVE DESCRIPTION
#-----------   ------------------   ----------------------------------
DEPT.M        00 001 00 00         : DEPTH        - DEPTH
GR  .API      00 310 00 00         : GR           - GAMMA RAY
NPHI.V/V      00 330 00 00         : PHIN         - NEUTRON POROSITY (SANDSTONE)
DPHI.V/V      00 890 00 00         : PHID         - DENSITY POROSITY (SANDSTONE)
ILD .OHMM     00 120 00 00         : RESD         - DEEP RESISTIVITY (DLL)
~PARAMETER INFORMATION
#MNEM.UNIT           DATA             DESCRIPTION OF MNEMONIC
#---------         -----------     ------------------------------
GL  .M        686                  : gl           - GROUND LEVEL ELEVATION
EREF.M        689.7                : kb           - ELEVATION OF DEPTH REFERENCE
DATM.M        689.7                : datum        - DATUM ELEVATION
TDD .M        495                  : tdd          - TOTAL DEPTH DRILLER
RUN .         ONE                  : Run          - RUN NUMBER
ENG .         BILL                 : Engineer     - RECORDING ENGINEER
WIT .         JIM                  : Witness      - WITNESSED BY
MUD .         GEL                  : Mud_type     - MUD TYPE
MATR.         SANDSTONE            : Logunit      - NEUTRON MATRIX
TMAX.C        0                    : BHT          - MAXIMUM RECORDED TEMPERATURE
BHTD.M        22                   : BHTDEP       - MAXIMUM RECORDED TEMPERATURE
MATR.         495                  : LOGUNIT      - NEUTRON MATRIX
RMT .C        1                    : MDTP         - TEMPERATURE OF MUD
NEUT.         17                   : NEUTRON      - NEUTRON TYPE
RESI.         1                    : RESIST       - RESISTIVITY TYPE
RMC .OHMM     4                    : RMC          - RESISTIVITY OF MUD CAKE
RMF .OHMM     3.9                  : RMF          - RESISTIVITY OF MUD FILTRATE
SUFT.C        3.8                  : SUFT         - SURFACE TEMPERATURE
SUFT.C        4                    : SUFT         - SURFACE TEMPERATURE
~A  DEPTH       GR     PHIN     PHID     RESD
# ...
  303.500   83.338    0.457    0.284   13.864
  303.750   81.594    0.457    0.282   13.883
  304.000   82.825    0.448    0.274   13.401
  304.250   84.640    0.457    0.271   13.171
  304.500   88.847    0.467    0.268   12.260
  304.750   92.468    0.473    0.261   11.623
  305.000   92.519    0.476    0.262   11.420
  305.250   92.560    0.483    0.264   11.027
  305.500   92.600    0.492    0.264   11.039
  305.750   93.831    0.493    0.265   10.861
  306.000   95.668    0.483    0.266   10.872
  306.250   96.283    0.470    0.272   10.887
  306.500   98.109    0.460    0.277   10.898
  306.750   98.745    0.450    0.297   10.921
  307.000   98.201    0.438    0.302   10.737
  307.250   97.041    0.430    0.303   10.752
  307.500   94.712    0.423    0.305   10.767
  307.750   92.373    0.420    0.308   10.782
  308.000   91.819    0.418    0.309   10.793
  308.250   89.469    0.421    0.311   11.012
  308.500   85.939    0.446    0.313   11.227
  308.750   81.815    0.448    0.316   11.879
  309.000   75.300    0.454    0.323   13.531
  309.250   69.390    0.460    0.341   15.127
  309.500   64.076    0.470    0.389   16.598
  309.750   56.976    0.480    0.427   18.218
  310.000   52.851    0.450    0.359   20.381
  310.250   51.702    0.431    0.340   21.557
  310.500   51.148    0.419    0.338   22.825
  310.750   50.593    0.400    0.338   23.263
  311.000   50.039    0.397    0.339   24.175
  311.250   50.090    0.407    0.344   24.665
  311.500   50.141    0.416    0.347   24.682
  311.750   50.777    0.407    0.350   24.716
  312.000   50.808    0.398    0.352   25.218
  312.250   51.444    0.390    0.351   25.244
  312.500   51.474    0.393    0.347   25.288
  312.750   52.120    0.395    0.344   25.332
  313.000   52.151    0.398    0.343   25.358
  313.250   52.807    0.403    0.343   25.384
  313.500   52.838    0.410    0.343   25.428
  313.750   52.868    0.412    0.343   25.454
  314.000   52.930    0.414    0.343   25.499
  314.250   52.960    0.409    0.344   25.525
  314.500   53.586    0.401    0.345   25.104
  314.750   54.222    0.400    0.346   25.148
  315.000   54.283    0.402    0.348   25.174
  315.250   54.303    0.393    0.348   24.750
  315.500   53.770    0.383    0.348   24.776
  315.750   53.195    0.383    0.348   24.359
  316.000   52.641    0.388    0.348   24.410
  316.250   52.097    0.395    0.346   23.991
  316.500   51.553    0.402    0.345   24.016
  316.750   51.583    0.406    0.345   23.620
  317.000   51.614    0.408    0.345   23.223
  317.250   52.250    0.407    0.347   23.247
  317.500   53.501    0.409    0.347   22.863
  317.750   54.127    0.410    0.348   22.078
  318.000   54.178    0.412    0.349   22.101
  318.250   54.198    0.417    0.349   21.729
  318.500   54.259    0.420    0.352   21.363
  318.750   53.695    0.427    0.352   21.385
  319.000   53.725    0.432    0.353   21.033
  319.250   54.371    0.431    0.353   21.062
  319.500   55.017    0.425    0.350   20.700
  319.750   55.653    0.422    0.349   20.729
  320.000   55.694    0.421    0.346   20.758
  320.250   55.735    0.424    0.344   20.409
  320.500   55.766    0.425    0.339   20.437
  320.750   55.221    0.423    0.336   20.479
  321.000   53.477    0.394    0.329   20.887
  321.250   51.138    0.373    0.319   22.093
  321.500   49.968    0.364    0.269   23.808
  321.750   47.034    0.333    0.178   25.657
  322.000   43.504    0.305    0.102   27.649
  322.250   42.950    0.332    0.124   28.201
  322.500   49.546    0.367    0.137   28.240
  322.750   53.753    0.419    0.215   27.774
  323.000   53.793    0.439    0.297   26.820
  323.250   52.644    0.436    0.333   25.880
  323.500   51.495    0.433    0.358   24.519
  323.750   49.761    0.430    0.360   23.238
  324.000   48.601    0.431    0.360   22.023
  324.250   48.057    0.435    0.359   20.500
  324.500   48.108    0.437    0.358   19.429
  324.750   48.139    0.439    0.356   19.449
  325.000   48.180    0.442    0.355   18.781
  325.250   48.220    0.446    0.354   18.800
  325.500   48.261    0.443    0.354   18.484
  325.750   48.292    0.439    0.354   18.173
  326.000   48.333    0.436    0.353   17.542
  326.250   48.394    0.434    0.353   16.625
  326.500   48.414    0.434    0.353   16.957
  326.750   48.455    0.435    0.353   17.301
  327.000   48.506    0.435    0.354   17.325
  327.250   48.547    0.437    0.355   17.664
  327.500   48.588    0.443    0.356   18.022
  327.750   48.628    0.453    0.358   18.053
  328.000   48.659    0.461    0.360   18.066
  328.250   48.700    0.449    0.363   18.426
  328.500   49.336    0.441    0.363   18.458
  328.750   49.387    0.440    0.366   18.490
  329.000   50.023    0.440    0.362   18.503
  329.250   50.063    0.441    0.361   18.535
  329.500   50.094    0.442    0.358   18.554
  329.750   50.155    0.439    0.357   18.254
  330.000   50.186    0.437    0.354   18.267
  330.250   50.812    0.436    0.352   18.292
  330.500   50.862    0.443    0.348   18.324
  330.750   51.498    0.448    0.347   18.022
  331.000   52.134    0.458    0.347   18.034
  331.250   52.175    0.457    0.347   18.059
  331.500   52.801    0.449    0.348   17.756
  331.750   52.852    0.449    0.348   17.780
  332.000   53.477    0.450    0.347   17.811
  332.250   53.528    0.450    0.347   17.836
  332.500   54.174    0.450    0.348   17.860
  332.750   54.205    0.447    0.348   17.885
  333.000   54.841    0.438    0.349   17.910
  333.250   55.497    0.426    0.349   17.941
  333.500   56.112    0.418    0.347   17.966
  333.750   56.759    0.416    0.342   17.991
  334.000   57.395    0.416    0.338   18.022
  334.250   57.425    0.418    0.337   18.034
  334.500   58.061    0.422    0.336   18.065
  334.750   58.707    0.426    0.334   17.761
  335.000   59.343    0.426    0.329   17.786
  335.250   59.384    0.427    0.326   17.811
  335.500   60.009    0.430    0.324   17.829
  335.750   60.050    0.435    0.328   17.866
  336.000   60.091    0.432    0.330   17.885
  336.250   60.142    0.435    0.335   17.578
  336.500   60.172    0.444    0.336   17.608
  336.750   60.224    0.453    0.332   17.312
  337.000   61.454    0.457    0.331   16.711
  337.250   63.886    0.462    0.331   16.126
  337.500   65.691    0.464    0.330   14.469
  337.750   68.122    0.468    0.322   13.708
  338.000   69.938    0.468    0.320   12.992
  338.250   68.194    0.459    0.315   12.787
  338.500   64.069    0.452    0.315   12.796
  338.750   60.550    0.448    0.312   12.813
  339.000   58.211    0.455    0.305   13.069
  339.250   56.477    0.461    0.300   13.571
  339.500   55.902    0.468    0.292   14.369
  339.750   55.953    0.460    0.285   14.651
  340.000   55.409    0.448    0.293   15.214
  340.250   54.834    0.436    0.315   15.805
  340.500   52.505    0.428    0.331   16.120
  340.750   50.155    0.421    0.344   16.746
  341.000   49.016    0.414    0.344   17.396
  341.250   49.057    0.418    0.344   17.742
  341.500   49.703    0.421    0.345   18.438
  341.750   49.724    0.422    0.345   18.805
  342.000   50.975    0.422    0.345   18.838
  342.250   50.995    0.422    0.346   18.857
  342.500   51.641    0.423    0.347   18.896
  342.750   51.682    0.423    0.350   18.909
  343.000   51.138    0.421    0.350   18.936
  343.250   51.158    0.420    0.349   18.968
  343.500   50.604    0.419    0.349   18.995
  343.750   50.666    0.419    0.349   19.014
  344.000   50.696    0.420    0.347   19.047
  344.250   51.332    0.422    0.345   18.720
  344.500   51.958    0.423    0.339   18.071
  344.750   53.188    0.429    0.330   17.126
  345.000   55.025    0.435    0.323   15.646
  345.250   56.245    0.444    0.317   14.034
  345.500   58.676    0.455    0.306   13.064
  345.750   61.097    0.460    0.305   12.602
  346.000   61.138    0.462    0.307   12.173
  346.250   59.989    0.454    0.307   12.181
  346.500   59.435    0.444    0.307   12.897
  346.750   61.856    0.433    0.308   13.398
