~VERSION INFORMATION
 VERS.                 2.0:   CWLS LOG ASCII STANDARD -VERSION 2.0
 WRAP.                  NO:   ONE LINE PER DEPTH STEP
~WELL INFORMATION BLOCK
#MNEM.UNIT           DATA                    DESCRIPTION OF MNEMONIC
#---------    -------------------            -------------------------------
# Generated from Intellog Unique Number	CX_WELLS/WELL/3156
WELL.         SURMONT                        : Well_name    - WELL
LOC .         00/06-27-083-09W4/0            : Location     - LOCATION
UWI .         00/06-27-083-09W400            : Uwi          - UNIQUE WELL ID
ENTR.         TIM                            : Entered      - ENTERED BY
SRVC.         SCHLUMBERGER                   : Scn          - SERVICE COMPANY
DATE.         03/04/92                       : Date         - LOG DATE
STRT.F        900                            : top_depth    - START DEPTH
STOP.F        1649.67                        : bot_depth    - STOP DEPTH
STEP.F        0.82                           : increment    - STEP LENGTH
 NULL. -999.2500:NULL Value
~CURVE INFORMATION BLOCK
#MNEM UNIT       ERCB CURVE CODE    CURVE DESCRIPTION
#-----------   ------------------   ----------------------------------
DEPT.F        00 001 00 00         : DEPTH        - DEPTH
GR  .API      00 310 00 00         : GR           - GAMMA RAY
NPHI.V/V      00 330 00 00         : PHIN         - NEUTRON POROSITY (SANDSTONE)
DPHI.V/V      00 890 00 00         : PHID         - DENSITY POROSITY (SANDSTONE)
ILD .OHMM     00 120 00 00         : RESD         - DEEP RESISTIVITY (OTHER)
~PARAMETER INFORMATION
#MNEM.UNIT           DATA             DESCRIPTION OF MNEMONIC
#---------         -----------     ------------------------------
GL  .F        2455.75              : gl           - GROUND LEVEL ELEVATION
EREF.F        2465.25              : kb           - ELEVATION OF DEPTH REFERENCE
DATM.F        2465.25              : datum        - DATUM ELEVATION
TDD .F        1694                 : tdd          - TOTAL DEPTH DRILLER
RUN .         ONE                  : Run          - RUN NUMBER
ENG .         JO                   : Engineer     - RECORDING ENGINEER
WIT .         TIM                  : Witness      - WITNESSED BY
MUD .         GEL                  : Mud_type     - MUD TYPE
MATR.         SANDSTONE            : Logunit      - NEUTRON MATRIX
TMAX.F        72                   : BHT          - MAXIMUM RECORDED TEMPERATURE
BHTD.F        1694                 : BHTDEP       - MAXIMUM RECORDED TEMPERATURE
RMT .F        72                   : MDTP         - TEMPERATURE OF MUD
MUDD.LB/G     1                    : MWT          - MUD DENSITY
NEUT.         1                    : NEUTRON      - NEUTRON TYPE
RESI.         8.35                 : RESIST       - RESISTIVITY TYPE
RM  .OHMM     7.8                  : RM           - RESISTIVITY OF MUD
RMC .OHMM     9.7                  : RMC          - RESISTIVITY OF MUD CAKE
RMF .OHMM     9.7                  : RMF          - RESISTIVITY OF MUD FILTRATE
SUFT.F        32                   : SUFT         - SURFACE TEMPERATURE
~A  DEPTH       GR     PHIN     PHID     RESD
# ...
 1470.870  104.515    0.518    0.181    4.737
 1471.690  103.954    0.514    0.177    4.664
 1472.510  102.799    0.516    0.171    4.672
 1473.330  101.643    0.519    0.167    4.596
 1474.150  100.488    0.515    0.171    4.691
 1474.970   98.738    0.512    0.177    4.793
 1475.790   98.194    0.511    0.184    4.985
 1476.610  100.115    0.510    0.191    5.090
 1477.430  101.372    0.508    0.202    5.297
 1478.250  103.293    0.507    0.211    5.409
 1479.070  102.749    0.503    0.219    5.527
 1479.890  100.370    0.501    0.230    5.540
 1480.710   97.362    0.494    0.238    5.348
 1481.530   92.537    0.484    0.249    5.163
 1482.350   88.357    0.473    0.260    5.081
 1483.170   87.813    0.452    0.268    4.992
 1483.990   87.235    0.448    0.275    4.825
 1484.810   86.692    0.436    0.271    4.833
 1485.630   86.777    0.426    0.268    4.936
 1486.450   86.845    0.430    0.260    5.233
 1487.270   86.913    0.441    0.253    5.654
 1488.090   87.593    0.448    0.245    6.465
 1488.910   88.273    0.461    0.237    6.976
 1489.730   89.564    0.470    0.228    8.438
 1490.550   91.468    0.470    0.223    9.826
 1491.370   93.983    0.471    0.218   11.448
 1492.190   96.498    0.469    0.212   11.684
 1493.010   99.625    0.469    0.208   11.939
 1493.830  101.511    0.469    0.202   11.966
 1494.650  103.448    0.470    0.191   11.993
 1495.470  104.111    0.472    0.164   12.013
 1496.290  107.884    0.474    0.142   11.823
 1497.110  109.141    0.476    0.163   11.414
 1497.930  112.880    0.478    0.172   11.019
 1498.750  114.171    0.479    0.177   10.637
 1499.570  109.346    0.478    0.184   10.275
 1500.390   99.031    0.477    0.186   10.101
 1501.210   97.230    0.474    0.191    9.757
 1502.030   93.033    0.473    0.194    9.774
 1502.850   90.025    0.466    0.202    9.801
 1503.670   86.423    0.460    0.204    9.818
 1504.490   83.432    0.450    0.211   10.032
 1505.310   81.053    0.438    0.213   10.239
 1506.140   81.156    0.435    0.214   10.856
 1506.960   81.819    0.441    0.213   11.080
 1507.780   83.093    0.450    0.208   11.748
 1508.600   83.807    0.455    0.203   12.691
 1509.420   83.841    0.462    0.196   13.986
 1510.240   80.256    0.468    0.191   14.820
 1511.060   76.042    0.469    0.195   16.019
 1511.880   76.076    0.466    0.198   16.669
 1512.700   76.161    0.464    0.201   17.345
 1513.520   76.875    0.464    0.210   17.723
 1514.340   78.149    0.466    0.212   17.753
 1515.160   80.664    0.467    0.212   18.130
 1515.980   82.568    0.467    0.220   18.160
 1516.800   82.636    0.467    0.227   18.546
 1517.620   82.075    0.467    0.236   18.242
 1518.440   81.531    0.466    0.239   18.304
 1519.260   80.988    0.469    0.244   18.325
 1520.080   78.609    0.469    0.245   18.046
 1520.900   74.412    0.470    0.247   18.066
 1521.720   72.016    0.471    0.247   17.117
 1522.540   70.844    0.471    0.245   16.217
 1523.360   72.764    0.469    0.237   16.263
 1524.180   75.279    0.468    0.235   16.599
 1525.000   74.752    0.465    0.236   17.599
 1525.820   71.779    0.463    0.237   19.023
 1526.640   69.995    0.460    0.239   20.551
 1527.460   67.616    0.456    0.243   20.215
 1528.280   65.832    0.456    0.245   19.884
 1529.100   63.453    0.456    0.251   19.559
 1529.920   62.892    0.458    0.255   19.592
 1530.740   62.349    0.458    0.261   19.283
 1531.560   64.898    0.459    0.264   19.326
 1532.380   66.155    0.459    0.270   19.725
 1533.200   68.670    0.460    0.269   20.525
 1534.020   69.962    0.463    0.267   23.456
 1534.840   72.511    0.469    0.268   30.015
 1535.660   73.820    0.476    0.273   36.286
 1536.480   74.483    0.483    0.272   41.514
 1537.300   75.757    0.484    0.263   40.032
 1538.120   77.660    0.482    0.255   36.574
 1538.940   80.821    0.479    0.258   35.287
 1539.760   81.467    0.475    0.259   33.414
 1540.580   82.759    0.473    0.249   29.927
 1541.400   84.067    0.471    0.231   26.305
 1542.220   84.730    0.471    0.217   24.446
 1543.040   86.650    0.471    0.207   21.488
 1543.860   88.554    0.472    0.199   19.610
 1544.690   92.292    0.475    0.194   17.895
 1545.510   96.048    0.479    0.190   16.340
 1546.330   98.546    0.480    0.187   15.473
 1547.150  102.284    0.488    0.187   13.866
 1547.970  105.411    0.501    0.189   13.130
 1548.790  108.538    0.512    0.194   12.675
 1549.610  111.070    0.521    0.203   12.002
 1550.430  112.990    0.529    0.206   11.166
 1551.250  114.282    0.533    0.207   10.780
 1552.070  113.738    0.534    0.208   10.219
 1552.890  113.178    0.534    0.208   10.041
 1553.710  112.039    0.534    0.209    9.698
 1554.530  111.496    0.532    0.213    9.013
 1555.350  109.117    0.525    0.216    8.716
 1556.170  107.944    0.518    0.221    8.559
 1556.990  106.177    0.504    0.214    8.428
 1557.810  102.558    0.491    0.196    8.597
 1558.630   98.973    0.482    0.180    9.115
 1559.450   97.206    0.471    0.186    9.853
 1560.270   95.421    0.466    0.192   10.247
 1561.090   93.043    0.469    0.197   11.076
 1561.910   88.217    0.472    0.203   11.966
 1562.730   79.092    0.478    0.212   12.679
 1563.550   68.760    0.481    0.219   14.237
 1564.370   64.563    0.487    0.215   14.806
 1565.190   64.614    0.490    0.218   16.013
 1566.010   66.535    0.492    0.223   16.644
 1566.830   67.843    0.493    0.228   17.666
 1567.650   69.118    0.494    0.232   18.372
 1568.470   70.392    0.495    0.234   19.117
 1569.290   72.313    0.495    0.233   19.881
 1570.110   73.587    0.490    0.223   20.688
 1570.930   76.103    0.486    0.215   21.539
 1571.750   78.635    0.482    0.209   21.984
 1572.570   80.521    0.475    0.205   22.875
 1573.390   82.441    0.469    0.204   23.803
 1574.210   78.822    0.465    0.207   24.782
 1575.030   74.608    0.461    0.210   25.308
 1575.850   69.799    0.455    0.214   23.533
 1576.670   63.733    0.452    0.220   21.895
 1577.490   63.835    0.452    0.230   21.512
 1578.310   64.481    0.454    0.237   22.422
 1579.130   66.401    0.456    0.237   22.448
 1579.950   68.287    0.459    0.232   23.787
 1580.770   70.191    0.460    0.221   26.709
 1581.590   71.482    0.464    0.217   27.776
 1582.410   69.103    0.465    0.219   31.154
 1583.230   66.725    0.467    0.219   35.623
 1584.060   65.586    0.469    0.219   37.769
 1584.880   66.283    0.471    0.219   37.151
 1585.700   67.541    0.473    0.219   33.923
 1586.520   70.056    0.474    0.216   32.711
 1587.340   73.199    0.476    0.213   29.869
 1588.160   75.698    0.477    0.209   28.283
 1588.980   76.394    0.478    0.203   25.360
 1589.800   76.445    0.478    0.197   24.917
 1590.620   75.307    0.478    0.194   23.607
 1591.440   73.557    0.474    0.195   22.777
 1592.260   72.368    0.468    0.197   21.988
 1593.080   71.824    0.463    0.202   21.629
 1593.900   71.297    0.461    0.213   20.504
 1594.720   71.382    0.468    0.215   20.157
 1595.540   71.434    0.476    0.222   19.470
 1596.360   72.725    0.480    0.212   18.785
 1597.180   75.852    0.481    0.191   18.155
 1598.000   83.261    0.483    0.147   17.838
 1598.820   90.075    0.481    0.146   16.901
 1599.640   92.573    0.474    0.149   16.022
 1600.460   94.477    0.466    0.152   15.751
 1601.280   96.414    0.459    0.157   15.206
 1602.100   95.870    0.463    0.163   14.965
 1602.920   95.310    0.471    0.167   15.008
 1603.740   94.783    0.470    0.171   14.746
 1604.560   96.092    0.467    0.167   14.513
 1605.380   97.383    0.462    0.160   13.758
 1606.200   99.269    0.456    0.152   13.281
 1607.020  101.802    0.449    0.145   12.807
 1607.840  103.059    0.444    0.137   12.134
 1608.660  104.979    0.439    0.131   12.399
 1609.480  107.495    0.436    0.126   12.655
 1610.300  109.398    0.436    0.127   12.923
 1611.120  111.913    0.436    0.157   13.198
 1611.940  113.816    0.436    0.161   13.741
 1612.760  115.125    0.434    0.169   13.764
