~VERSION INFORMATION
 VERS.                 2.0:   CWLS LOG ASCII STANDARD -VERSION 2.0
 WRAP.                  NO:   ONE LINE PER DEPTH STEP
~WELL INFORMATION BLOCK
#MNEM.UNIT           DATA                    DESCRIPTION OF MNEMONIC
#---------    -------------------            -------------------------------
# Generated from Intellog Unique Number	CS_67_68/WELL/770
WELL.         FISHER CREEK                   : Well_name    - WELL
LOC .         00/07-12-068-05W4/0            : Location     - LOCATION
UWI .         00/07-12-068-05W4/0            : Uwi          - UNIQUE WELL ID
ENTR.         SP                             : Entered      - ENTERED BY
SRVC.         SCHLUMBERGER                   : Scn          - SERVICE COMPANY
STRT.M        330                            : top_depth    - START DEPTH
STOP.M        560                            : bot_depth    - STOP DEPTH
STEP.M        0.25                           : increment    - STEP LENGTH
 NULL. -999.2500:NULL Value
~CURVE INFORMATION BLOCK
#MNEM UNIT       ERCB CURVE CODE    CURVE DESCRIPTION
#-----------   ------------------   ----------------------------------
DEPT.M        00 001 00 00         : DEPTH        - DEPTH
ILD .OHMM     00 120 00 00         : RESD         - DEEP RESISTIVITY (DIL)
DPHI.V/V      00 890 00 00         : PHID         - DENSITY POROSITY (LIMESTONE)
NPHI.V/V      00 330 00 00         : PHIN         - NEUTRON POROSITY (LIMESTONE)
GR  .API      00 310 00 00         : GR           - GAMMA RAY
~PARAMETER INFORMATION
#MNEM.UNIT           DATA             DESCRIPTION OF MNEMONIC
#---------         -----------     ------------------------------
GL  .M        683.1                : gl           - GROUND LEVEL ELEVATION
EREF.M        686.8                : kb           - ELEVATION OF DEPTH REFERENCE
DATM.M        683.1                : datum        - DATUM ELEVATION
TDD .M        565                  : tdd          - TOTAL DEPTH DRILLER
RUN .         ONE                  : Run          - RUN NUMBER
ENG .         BILL                 : Engineer     - RECORDING ENGINEER
WIT .         JIM                  : Witness      - WITNESSED BY
MUD .         GEL                  : Mud_type     - MUD TYPE
MATR.         LIMESTONE            : Logunit      - NEUTRON MATRIX
TMAX.C        26.6                 : BHT          - MAXIMUM RECORDED TEMPERATURE
BHTD.M        565                  : BHTDEP       - MAXIMUM RECORDED TEMPERATURE
MATR.         1                    : LOGUNIT      - NEUTRON MATRIX
RMT .C        25                   : MDTP         - TEMPERATURE OF MUD
NEUT.         1                    : NEUTRON      - NEUTRON TYPE
RESI.         0                    : RESIST       - RESISTIVITY TYPE
RMC .OHMM     0.25                 : RMC          - RESISTIVITY OF MUD CAKE
RMF .OHMM     0.25                 : RMF          - RESISTIVITY OF MUD FILTRATE
SUFT.C        15                   : SUFT         - SURFACE TEMPERATURE
~A  DEPTH     RESD     PHID     PHIN       GR
  330.000    2.901    0.230    0.506   97.526
  330.250    2.885    0.226    0.511   96.856
  330.500    2.912    0.218    0.482   98.211
  330.750    3.227    0.214    0.478   99.198
  331.000    3.294    0.213    0.475   95.889
  331.250    3.276    0.224    0.479   92.151
  331.500    2.963    0.218    0.488   96.513
  331.750    2.865    0.212    0.504  101.429
  332.000    2.771    0.232    0.518  104.993
  332.250    2.735    0.235    0.529  103.158
  332.500    2.730    0.231    0.526  101.505
  332.750    2.761    0.238    0.533  101.203
  333.000    2.824    0.237    0.508  101.393
  333.250    2.981    0.223    0.493   99.863
  333.500    3.031    0.215    0.506  101.772
  333.750    3.083    0.212    0.503  104.477
  334.000    3.095    0.229    0.483  102.580
  334.250    3.095    0.237    0.478  104.120
  334.500    3.142    0.241    0.482  106.886
  334.750    3.237    0.234    0.469  102.963
  335.000    3.430    0.234    0.454   98.304
  335.250    3.462    0.243    0.459   95.793
  335.500    3.547    0.243    0.470  108.686
  335.750    3.621    0.235    0.474  114.461
  336.000    3.635    0.231    0.492  106.796
  336.250    3.642    0.241    0.509  103.731
  336.500    3.801    0.245    0.523  101.650
  336.750    3.917    0.246    0.520  101.531
  337.000    4.331    0.256    0.506  102.028
  337.250    4.907    0.275    0.474   98.350
  337.500    5.738    0.303    0.449   88.536
  337.750    6.786    0.327    0.422   81.974
  338.000    8.533    0.355    0.383   76.333
  338.250   10.015    0.350    0.304   73.820
  338.500   12.807    0.321    0.303   68.547
  338.750   14.006    0.290    0.309   70.639
  339.000   12.024    0.271    0.328   79.852
  339.250   10.614    0.254    0.343   83.048
  339.500    9.780    0.278    0.357   81.579
  339.750   10.636    0.324    0.370   77.043
  340.000   12.577    0.338    0.284   78.767
  340.250   14.845    0.330    0.321   73.555
  340.500   17.167    0.348    0.338   63.127
  340.750   20.188    0.365    0.264   58.160
  341.000   22.450    0.371    0.227   52.335
  341.250   25.577    0.376    0.203   46.387
  341.500   28.817    0.383    0.185   40.377
  341.750   31.454    0.393    0.165   38.050
  342.000   27.511    0.383    0.148   34.373
  342.250   22.293    0.355    0.183   29.407
  342.500   18.302    0.297    0.224   28.429
  342.750   15.858    0.238    0.248   31.074
  343.000   13.716    0.242    0.273   29.544
  343.250   11.622    0.256    0.298   25.253
  343.500   10.298    0.239    0.288   22.620
  343.750    8.875    0.244    0.279   22.317
  344.000    8.582    0.284    0.303   23.305
  344.250    8.117    0.241    0.316   28.465
  344.500    7.493    0.224    0.323   38.843
  344.750    7.301    0.266    0.341   46.213
  345.000    6.917    0.288    0.362   37.687
  345.250    6.665    0.304    0.336   30.389
  345.500    6.518    0.287    0.319   39.907
  345.750    6.435    0.251    0.318   65.444
  346.000    6.792    0.230    0.419   94.480
  346.250    6.705    0.221    0.450   97.370
  346.500    6.643    0.214    0.442   93.324
  346.750    6.644    0.206    0.428   91.733
  347.000    6.807    0.202    0.416   90.574
  347.250    6.859    0.207    0.417   84.808
  347.500    6.975    0.211    0.405   81.745
  347.750    7.028    0.215    0.385   85.126
  348.000    7.055    0.207    0.398   87.524
  348.250    7.029    0.204    0.421   86.486
  348.500    6.977    0.205    0.420   86.368
  348.750    6.914    0.195    0.408   87.970
  349.000    6.901    0.188    0.413   86.687
  349.250    6.876    0.197    0.427   84.359
  349.500    6.851    0.201    0.432   81.847
  349.750    6.700    0.194    0.416   81.484
  350.000    6.504    0.191    0.415   84.067
  350.250    6.337    0.189    0.427   86.711
  350.500    6.233    0.195    0.442   89.294
  350.750    6.233    0.202    0.454   90.834
  351.000    6.268    0.205    0.467   90.532
  351.250    6.411    0.205    0.461   84.768
  351.500    6.544    0.190    0.445   80.170
  351.750    6.742    0.169    0.421   75.756
  352.000    6.960    0.143    0.382   72.755
  352.250    7.051    0.103    0.363   76.380
  352.500    6.820    0.203    0.398   83.075
  352.750    6.707    0.227    0.425   90.875
  353.000    6.733    0.226    0.432   96.588
  353.250    6.847    0.211    0.412  100.889
  353.500    6.924    0.202    0.407   98.317
  353.750    6.977    0.203    0.420   90.036
  354.000    6.952    0.209    0.400   84.579
  354.250    6.913    0.206    0.384   85.014
  354.500    6.888    0.199    0.380   88.763
  354.750    6.850    0.194    0.412   93.801
  355.000    6.864    0.196    0.427   97.182
  355.250    6.826    0.210    0.440   97.862
  355.500    6.763    0.209    0.445   95.842
  355.750    6.802    0.204    0.448   95.786
  356.000    6.841    0.214    0.434   92.292
  356.250    6.879    0.219    0.415   88.615
  356.500    6.919    0.196    0.403   88.191
  356.750    6.894    0.180    0.412   89.731
  357.000    6.894    0.199    0.404   88.815
  357.250    6.843    0.209    0.388   87.531
  357.500    6.768    0.209    0.387   85.941
  357.750    6.668    0.207    0.417   85.086
  358.000    6.497    0.207    0.413   85.951
  358.250    6.331    0.210    0.414   87.491
  358.500    6.284    0.215    0.428   88.723
  358.750    6.285    0.217    0.435   90.140
  359.000    6.368    0.222    0.446   90.207
  359.250    6.549    0.230    0.453   90.457
  359.500    6.648    0.232    0.434   91.322
  359.750    6.773    0.222    0.416   90.406
  360.000    6.901    0.214    0.405   85.562
  360.250    6.953    0.209    0.420   84.708
  360.500    6.928    0.207    0.437   85.573
  360.750    6.864    0.210    0.449   85.394
  361.000    6.852    0.212    0.417   84.478
  361.250    6.917    0.216    0.399   82.520
  361.500    7.100    0.218    0.407   79.579
  361.750    7.234    0.221    0.411   78.785
  362.000    7.343    0.230    0.386   82.412
  362.250    7.385    0.225    0.374   86.530
  362.500    7.386    0.210    0.382   89.419
  362.750    7.291    0.213    0.405   87.153
  363.000    7.237    0.232    0.410   91.271
  363.250    7.104    0.220    0.419   94.406
  363.500    6.846    0.212    0.443   90.606
  363.750    6.795    0.217    0.422   87.972
  364.000    6.720    0.217    0.388   88.529
  364.250    6.671    0.211    0.396   89.517
  364.500    6.646    0.210    0.422   89.706
  364.750    6.684    0.209    0.437   88.545
  365.000    6.710    0.203    0.436   84.622
  365.250    6.926    0.198    0.440   81.988
  365.500    7.110    0.198    0.427   81.625
  365.750    7.190    0.201    0.405   86.418
  366.000    7.204    0.203    0.390   88.325
  366.250    7.205    0.204    0.407   83.912
  366.500    7.047    0.204    0.423   82.321
  366.750    7.008    0.205    0.413   85.518
  367.000    6.879    0.210    0.422   89.205
  367.250    6.715    0.213    0.440   90.315
  367.500    6.690    0.214    0.453   92.284
  367.750    6.617    0.217    0.430   96.893
  368.000    6.568    0.221    0.415   99.967
  368.250    6.424    0.228    0.435  101.261
  368.500    6.189    0.223    0.446   97.828
  368.750    6.167    0.210    0.438   92.433
  369.000    6.145    0.202    0.430   91.210
  369.250    6.179    0.202    0.432   88.638
  369.500    6.249    0.232    0.455   76.000
  369.750    6.320    0.260    0.464   62.748
  370.000    6.439    0.287    0.408   52.871
  370.250    6.500    0.316    0.369   40.049
  370.500    6.549    0.321    0.374   38.090
  370.750    6.453    0.320    0.387   36.806
  371.000    6.382    0.324    0.380   38.776
  371.250    6.323    0.309    0.361   44.181
  371.500    6.254    0.303    0.352   48.238
  371.750    6.196    0.309    0.376   50.268
  372.000    6.151    0.327    0.410   48.984
  372.250    6.106    0.339    0.419   53.654
  372.500    6.027    0.326    0.415   59.060
  372.750    5.938    0.307    0.426   64.651
  373.000    5.873    0.296    0.416   65.086
  373.250    5.895    0.287    0.418   56.314
