~VERSION INFORMATION
 VERS.                 2.0:   CWLS LOG ASCII STANDARD -VERSION 2.0
 WRAP.                  NO:   ONE LINE PER DEPTH STEP
~WELL INFORMATION BLOCK
#MNEM.UNIT           DATA                    DESCRIPTION OF MNEMONIC
#---------    -------------------            -------------------------------
# Generated from Intellog Unique Number	CW_79_81/WELL/591
NULL.         -999.25                        : NULL_VALUE
COMP .        INTERCITY GAS CORPORATION      :  COMPANY
WELL.         HOMESTEAD ET AL WEAVER         : Well_name    - WELL              
LOC .         07-21-080-01W5                 : Location     - LOCATION          
UWI .         00/07-21-080-01W5/0            : Uwi          - UNIQUE WELL ID    
ENTR.         MAX                            : Entered      - ENTERED BY        
SRVC.         SCHLUMBERGER                   : Scn          - SERVICE COMPANY   
DATE.         24 NOV 77                      : Date         - LOG DATE
STRT.M        225                            : top_depth    - START DEPTH       
STOP.M        490                            : bot_depth    - STOP DEPTH        
STEP.M        0.25                           : increment    - STEP LENGTH       
~CURVE INFORMATION BLOCK
#MNEM UNIT       ERCB CURVE CODE    CURVE DESCRIPTION
#-----------   ------------------   ----------------------------------
DEPT.M        00 001 00 00         : DEPTH        - DEPTH                       
ILD .OHMM     00 120 00 00         : RESD         - DEEP RESISTIVITY (DIL)      
NPHI.V/V      00 330 00 00         : PHIN         - NEUTRON POROSITY (SANDSTONE)
DPHI.V/V      00 890 00 00         : PHID         - DENSITY POROSITY (SANDSTONE)
CALI.MM       00 280 01 00         : CAL          - CALIPER                     
GR  .API      00 310 00 00         : GR           - GAMMA RAY                   
~PARAMETER INFORMATION       
#MNEM.UNIT           DATA             DESCRIPTION OF MNEMONIC
#---------         -----------     ------------------------------
GL  .M        570.6                : gl           - GROUND LEVEL ELEVATION      
EREF.M        574.3                : kb           - ELEVATION OF DEPTH REFERENCE
DATM.M        570.6                : datum        - DATUM ELEVATION             
TDD .M        512                  : tdd          - TOTAL DEPTH DRILLER         
RUN .         ONE                  : Run          - RUN NUMBER                  
ENG .         BILL                 : Engineer     - RECORDING ENGINEER          
WIT .         JIM                  : Witness      - WITNESSED BY                
MUD .         GEL                  : Mud_type     - MUD TYPE                    
MATR.         SANDSTONE            : Logunit      - NEUTRON MATRIX              
TMAX.C        36.3                 : BHT          - MAXIMUM RECORDED TEMPERATURE
BHTD.M        512                  : BHTDEP       - MAXIMUM RECORDED TEMPERATURE
RMT .C        17.5                 : MDTP         - TEMPERATURE OF MUD          
MUDD.KG/M     1120                 : MWT          - MUD DENSITY                 
NEUT.         1                    : NEUTRON      - NEUTRON TYPE                
RESI.         0                    : RESIST       - RESISTIVITY TYPE            
RM  .OHMM     16.4                 : RM           - RESISTIVITY OF MUD          
RMC .OHMM     0.25                 : RMC          - RESISTIVITY OF MUD CAKE     
RMF .OHMM     12.3                 : RMF          - RESISTIVITY OF MUD FILTRATE 
SUFT.C        4                    : SUFT         - SURFACE TEMPERATURE         
~A  DEPTH     RESD     PHIN     PHID      CAL       GR
  225.000   19.696    0.427    0.339  217.223   45.659
  225.250   22.250    0.409    0.330  221.282   44.771
  225.500   22.695    0.415    0.327  227.364   42.369
  225.750   22.716    0.419    0.347  224.372   40.876
  226.000   22.741    0.429    0.359  242.543   40.895
  226.250   22.559    0.444    0.388  246.606   40.011
  226.500   21.963    0.440    0.380  234.040   40.028
  226.750   21.186    0.444    0.365  228.024   40.047
  227.000   20.822    0.454    0.384  216.974   41.577
  227.250   20.652    0.463    0.394  214.990   44.319
  227.500   20.674    0.460    0.377  213.510   44.940
  227.750   21.085    0.452    0.371  212.533   44.057
  228.000   22.738    0.429    0.371  212.057   42.862
  228.250   24.515    0.416    0.327  212.092   39.859
  228.500   27.437    0.383    0.309  223.209   38.064
  228.750   30.707    0.346    0.259  222.232   36.269
  229.000   34.041    0.277    0.239  200.597   35.081
  229.250   39.175    0.245    0.182  197.101   34.188
  229.500   43.033    0.260    0.188  191.589   33.607
  229.750   44.716    0.268    0.182  191.117   33.623
  230.000   44.771    0.246    0.170  191.156   33.340
  230.250   44.820    0.249    0.184  191.179   33.056
  230.500   44.857    0.250    0.197  191.719   32.773
  230.750   46.193    0.248    0.176  195.277   33.096
  231.000   47.097    0.242    0.177  195.812   33.117
  231.250   47.595    0.237    0.168  195.848   32.829
  231.500   47.640    0.221    0.167  199.906   31.946
  231.750   45.960    0.215    0.170  200.945   31.660
  232.000   42.317    0.232    0.186  200.981   31.679
  232.250   37.553    0.244    0.204  204.535   31.395
  232.500   35.552    0.267    0.258  208.094   32.623
  232.750   34.941    0.292    0.281  213.172   33.854
  233.000   35.640    0.297    0.254  217.234   33.875
  233.250   42.952    0.281    0.209  209.204   33.287
  233.500   54.237    0.265    0.171  209.235   32.096
  233.750   60.703    0.252    0.149  196.161   31.510
  234.000   61.328    0.240    0.156  183.595   31.227
  234.250   50.054    0.237    0.168  185.138   31.855
  234.500   39.731    0.243    0.188  188.197   32.776
  234.750   29.280    0.262    0.219  188.228   35.216
  235.000   19.301    0.271    0.220  193.295   38.861
  235.250   12.261    0.260    0.240  199.884   45.533
  235.500    9.913    0.308    0.258  195.385   53.110
  235.750    9.044    0.385    0.269  191.377   62.501
  236.000    8.176    0.435    0.263  188.897   67.967
  236.250    7.460    0.439    0.245  188.416   67.983
  236.500    7.130    0.423    0.252  187.952   66.797
  236.750    7.137    0.417    0.252  186.471   65.907
  237.000    7.212    0.405    0.250  184.987   66.228
  237.250    7.021    0.401    0.244  184.511   67.456
  237.500    6.648    0.412    0.235  186.058   67.472
  237.750    6.295    0.427    0.234  188.105   67.494
  238.000    6.073    0.443    0.242  188.644   67.210
  238.250    5.858    0.459    0.250  191.195   67.834
  238.500    5.704    0.449    0.253  191.730   71.481
  238.750    5.302    0.439    0.255  190.246   76.944
  239.000    4.882    0.450    0.255  187.757   80.588
  239.250    4.371    0.459    0.247  186.781   85.447
  239.500    4.101    0.465    0.238  187.836   89.096
  239.750    3.883    0.473    0.233  188.363   91.833
  240.000    3.745    0.482    0.234  188.895   93.366
  240.250    3.613    0.492    0.236  189.434   92.478
  240.500    3.617    0.500    0.243  189.965   90.983
  240.750    3.656    0.498    0.247  190.500   89.797
  241.000    3.799    0.497    0.242  191.036   88.302
  241.250    4.057    0.497    0.237  191.575   86.809
  241.500    4.334    0.489    0.235  190.598   82.595
  241.750    4.896    0.477    0.229  189.122   75.358
  242.000    5.530    0.462    0.238  184.614   64.793
  242.250    6.132    0.448    0.238  184.150   65.418
  242.500    6.552    0.444    0.253  185.685   67.556
  242.750    6.681    0.460    0.269  185.720   68.479
  243.000    6.688    0.448    0.270  185.751   69.712
  243.250    6.635    0.424    0.293  183.263   70.936
  243.500    6.283    0.432    0.282  182.795   72.768
  243.750    5.522    0.431    0.273  184.838   76.720
  244.000    4.465    0.445    0.288  185.881   84.599
  244.250    3.712    0.483    0.282  184.904   93.084
  244.500    3.058    0.508    0.293  183.928   94.919
  244.750    2.591    0.519    0.294  182.451   95.844
  245.000    2.342    0.549    0.298  182.479   97.682
  245.250    2.280    0.581    0.291  182.510   96.489
  245.500    2.304    0.563    0.283  182.538   95.903
  245.750    2.328    0.564    0.284  183.081   95.924
  246.000    2.441    0.587    0.284  184.120   96.241
  246.250    2.584    0.582    0.282  183.140   96.867
  246.500    2.635    0.582    0.271  182.163   96.885
  246.750    2.663    0.556    0.249  182.706   94.788
  247.000    2.666    0.538    0.254  184.241   93.900
  247.250    2.719    0.536    0.260  184.777   92.105
  247.500    2.773    0.562    0.255  183.808   91.216
  247.750    2.854    0.591    0.246  183.839   93.956
  248.000    2.911    0.592    0.246  183.867   97.603
  248.250    2.969    0.573    0.246  183.898   99.136
  248.500    3.028    0.571    0.245  183.929   96.736
  248.750    3.176    0.543    0.255  185.473   97.057
  249.000    3.299    0.537    0.248  188.031   98.285
  249.250    3.365    0.539    0.231  189.062   99.516
  249.500    3.306    0.563    0.230  190.617   99.532
  249.750    3.280    0.555    0.232  189.133   99.251
  250.000    3.283    0.542    0.229  187.145   98.063
  250.250    3.287    0.549    0.237  189.700   97.172
  250.500    3.291    0.550    0.242  189.223   97.496
  250.750    3.264    0.540    0.237  187.747   98.419
  251.000    3.267    0.521    0.239  186.770   98.440
  251.250    3.272    0.525    0.242  186.294   99.061
  251.500    3.275    0.524    0.237  188.341   98.476
  251.750    3.159    0.530    0.230  186.872   94.869
  252.000    3.048    0.542    0.241  186.400   94.885
  252.250    3.050    0.547    0.249  186.427   94.602
  252.500    3.320    0.547    0.258  185.951   91.600
  252.750    3.821    0.536    0.267  183.974   84.965
  253.000    5.809    0.515    0.285  181.990   75.007
  253.250    8.750    0.494    0.318  179.494   53.560
  253.500   12.816    0.508    0.360  173.987   29.390
  253.750   18.602    0.528    0.310  173.510   24.876
  254.000   26.749    0.375    0.248  174.049   25.497
  254.250   29.934    0.314    0.233  174.089   27.032
  254.500   30.821    0.306    0.215  174.120   27.658
  254.750   30.855    0.304    0.212  174.143   27.974
  255.000   30.599    0.301    0.209  174.179   28.298
  255.250   30.069    0.295    0.201  174.206   28.314
  255.500   29.556    0.292    0.207  174.237   29.547
  255.750   29.307    0.295    0.229  174.277   31.678
  256.000   29.339    0.312    0.233  174.804   35.029
  256.250   29.380    0.336    0.217  175.847   36.857
  256.500   30.242    0.364    0.255  177.894   36.876
  256.750   31.709    0.365    0.268  177.929   36.295
  257.000   33.880    0.329    0.249  179.972   34.797
  257.250   35.533    0.298    0.191  182.023   31.793
  257.500   36.581    0.281    0.176  183.058   28.791
  257.750   37.651    0.269    0.182  185.105   27.295
  258.000   39.117    0.275    0.191  186.148   27.014
  258.250   39.155    0.280    0.211  184.676   27.031
  258.500   39.209    0.282    0.221  184.699   26.752
  258.750   39.617    0.288    0.221  184.231   26.773
  259.000   40.404    0.296    0.236  184.762   26.787
  259.250   41.984    0.291    0.221  187.821   28.620
  259.500   44.443    0.273    0.204  190.871   30.151
  259.750   46.169    0.262    0.190  192.930   30.169
  260.000   47.974    0.253    0.164  192.953   29.888
  260.250   48.920    0.248    0.152  192.985   29.909
  260.500   48.974    0.252    0.168  192.516   30.228
  260.750   48.574    0.253    0.177  192.040   31.456
  261.000   47.733    0.265    0.193  190.559   32.382
  261.250   47.350    0.276    0.201  189.079   31.799
