~VERSION INFORMATION
 VERS.                 2.0:   CWLS LOG ASCII STANDARD -VERSION 2.0
 WRAP.                  NO:   ONE LINE PER DEPTH STEP
~WELL INFORMATION BLOCK
#MNEM.UNIT           DATA                    DESCRIPTION OF MNEMONIC
#---------    -------------------            -------------------------------
# Generated from Intellog Unique Number	CS_69_70/WELL/811
WELL.         WINTERSHALL OIL OF CANADA      : Well_name    - WELL
LOC .         00/07-02-069-14W4/0            : Location     - LOCATION
UWI .         00/07-02-069-14W4/0            : Uwi          - UNIQUE WELL ID
ENTR.         SP                             : Entered      - ENTERED BY
SRVC.         SCHLUMBERGER                   : Scn          - SERVICE COMPANY
STRT.M        283.464                        : top_depth    - START DEPTH
STOP.M        475.214                        : bot_depth    - STOP DEPTH
STEP.M        0.25                           : increment    - STEP LENGTH
 NULL. -999.2500:NULL Value
~CURVE INFORMATION BLOCK
#MNEM UNIT       ERCB CURVE CODE    CURVE DESCRIPTION
#-----------   ------------------   ----------------------------------
DEPT.M        00 001 00 00         : DEPTH        - DEPTH
GR  .API      00 310 00 00         : GR           - GAMMA RAY
DPHI.V/V      00 890 00 00         : PHID         - DENSITY POROSITY (SANDSTONE)
NPHI.V/V      00 330 00 00         : PHIN         - NEUTRON POROSITY (SANDSTONE)
ILD .OHMM     00 120 00 00         : RESD         - DEEP RESISTIVITY (DIL)
~PARAMETER INFORMATION
#MNEM.UNIT           DATA             DESCRIPTION OF MNEMONIC
#---------         -----------     ------------------------------
GL  .M        577.901              : gl           - GROUND LEVEL ELEVATION
EREF.M        580.949              : kb           - ELEVATION OF DEPTH REFERENCE
DATM.M        577.901              : datum        - DATUM ELEVATION
TDD .M        475.488              : tdd          - TOTAL DEPTH DRILLER
RUN .         ONE                  : Run          - RUN NUMBER
ENG .         BILL                 : Engineer     - RECORDING ENGINEER
WIT .         JIM                  : Witness      - WITNESSED BY
MUD .         GEL                  : Mud_type     - MUD TYPE
MATR.         SANDSTONE            : Logunit      - NEUTRON MATRIX
TMAX.C        21.1111              : BHT          - MAXIMUM RECORDED TEMPERATURE
BHTD.M        475.488              : BHTDEP       - MAXIMUM RECORDED TEMPERATURE
MATR.         1                    : LOGUNIT      - NEUTRON MATRIX
RMT .C        25                   : MDTP         - TEMPERATURE OF MUD
NEUT.         1                    : NEUTRON      - NEUTRON TYPE
RESI.         0                    : RESIST       - RESISTIVITY TYPE
RMC .OHMM     0.25                 : RMC          - RESISTIVITY OF MUD CAKE
RMF .OHMM     0.25                 : RMF          - RESISTIVITY OF MUD FILTRATE
SUFT.C        15                   : SUFT         - SURFACE TEMPERATURE
~A  DEPTH       GR     PHID     PHIN     RESD
  283.464  100.447    0.220    0.550    2.480
  283.714   97.039    0.226    0.536    2.517
  283.964   94.672    0.201    0.525    2.495
  284.214   97.311    0.205    0.516    2.487
  284.464  101.328    0.214    0.511    2.467
  284.714  101.331    0.224    0.544    2.501
  284.964   94.935    0.216    0.565    2.540
  285.214   91.673    0.215    0.575    2.541
  285.464   96.484    0.230    0.567    2.541
  285.714   96.121    0.224    0.551    2.556
  285.964   93.938    0.225    0.548    2.534
  286.214   97.817    0.229    0.533    2.549
  286.464   99.991    0.209    0.532    2.573
  286.714   97.540    0.200    0.552    2.623
  286.964   95.044    0.191    0.571    2.704
  287.214   92.983    0.200    0.554    2.810
  287.464   95.053    0.207    0.540    2.944
  287.714   96.172    0.196    0.529    3.075
  287.964   95.355    0.184    0.523    3.217
  288.214   95.270    0.187    0.520    3.244
  288.464   94.882    0.170    0.508    3.212
  288.714   93.719    0.171    0.500    3.115
  288.964   95.095    0.182    0.501    3.034
  289.214   96.230    0.196    0.529    2.957
  289.464   95.302    0.209    0.547    2.880
  289.714   93.960    0.216    0.559    2.837
  289.964   93.469    0.207    0.556    2.851
  290.214   93.791    0.199    0.540    2.901
  290.464   94.053    0.190    0.538    2.915
  290.714   94.381    0.198    0.531    2.926
  290.964   93.796    0.192    0.541    2.875
  291.214   93.173    0.188    0.544    2.774
  291.464   91.281    0.196    0.524    2.673
  291.714   90.090    0.215    0.509    2.575
  291.964   89.755    0.209    0.508    2.549
  292.214   91.606    0.220    0.530    2.614
  292.464   95.112    0.201    0.541    2.896
  292.714   96.618    0.215    0.537    3.158
  292.964   94.239    0.232    0.504    3.475
  293.214   91.252    0.245    0.453    3.829
  293.464   88.648    0.211    0.435    4.153
  293.714   93.415    0.182    0.441    4.170
  293.964   98.361    0.161    0.457    4.113
  294.214  101.647    0.179    0.464    4.553
  294.464  101.665    0.167    0.467    5.445
  294.714   94.310    0.209    0.457    6.683
  294.964   80.948    0.279    0.407   10.707
  295.214   65.058    0.307    0.357   16.205
  295.464   36.006    0.331    0.132   23.724
  295.714   24.275    0.354    0.116   28.268
  295.964   20.362    0.348    0.107   30.236
  296.214   18.108    0.335    0.105   32.650
  296.464   17.210    0.345    0.109   33.932
  296.714   17.649    0.357    0.117   33.261
  296.964   18.149    0.368    0.126   32.157
  297.214   18.880    0.372    0.138   29.930
  297.464   20.118    0.357    0.148   26.662
  297.714   21.459    0.348    0.193    6.683
  297.964   25.005    0.325    0.273    5.566
  298.214   28.155    0.307    0.312    3.882
  298.464   32.347    0.294    0.343    2.891
  298.714   39.670    0.283    0.355    2.365
  298.964   45.732    0.285    0.369    2.070
  299.214   51.274    0.303    0.377    1.850
  299.464   54.347    0.313    0.389    1.768
  299.714   55.200    0.298    0.407    1.673
  299.964   49.822    0.298    0.400    1.682
  300.214   45.447    0.294    0.395    1.791
  300.464   43.663    0.298    0.396    1.859
  300.714   45.283    0.310    0.380    1.889
  300.964   46.099    0.321    0.404    1.950
  301.214   45.945    0.330    0.432    1.970
  301.464   44.732    0.323    0.435    1.988
  301.714   42.365    0.313    0.420    2.003
  301.964   39.779    0.305    0.411    1.991
  302.214   38.177    0.299    0.407    2.026
  302.464   37.214    0.315    0.420    2.110
  302.714   38.122    0.320    0.424    2.325
  302.964   50.801    0.255    0.411    2.475
  303.214   64.181    0.223    0.400    2.758
  303.464   73.723    0.196    0.389    3.022
  303.714   82.279    0.174    0.429    3.439
  303.964   85.478    0.215    0.451    3.913
  304.214   85.719    0.216    0.432    4.039
  304.464   83.717    0.204    0.419    4.092
  304.714   81.267    0.221    0.424    4.092
  304.964   78.501    0.236    0.434    4.097
  305.214   78.176    0.224    0.441    4.088
  305.464   83.931    0.218    0.448    4.021
  305.714   89.632    0.211    0.446    3.929
  305.964   94.802    0.205    0.441    3.767
  306.214   98.094    0.197    0.434    3.501
  306.464  101.350    0.186    0.498    3.160
  306.714  103.933    0.174    0.532    2.838
  306.964  105.757    0.181    0.581    2.588
  307.214  106.420    0.208    0.612    2.314
  307.464  105.963    0.197    0.625    2.079
  307.714  103.763    0.189    0.620    1.949
  307.964   98.864    0.281    0.555    1.929
  308.214   88.801    0.308    0.516    1.987
  308.464   80.931    0.328    0.487    2.269
  308.714   76.912    0.308    0.461    2.487
  308.964   74.305    0.294    0.444    2.790
  309.214   75.172    0.296    0.465    3.029
  309.464   78.616    0.315    0.498    3.155
  309.714   85.040    0.295    0.511    3.308
  309.964   89.772    0.268    0.505    3.425
  310.214   92.377    0.249    0.514    3.465
  310.464   93.256    0.231    0.515    3.409
  310.714   86.689    0.227    0.500    3.318
  310.964   79.933    0.235    0.492    3.322
  311.214   78.014    0.212    0.485    3.367
  311.464   83.270    0.206    0.498    3.432
  311.714   87.069    0.234    0.507    3.508
  311.964   87.270    0.221    0.492    3.538
  312.214   85.185    0.206    0.492    3.556
  312.464   82.430    0.199    0.497    3.569
  312.714   81.787    0.220    0.482    3.570
  312.964   86.709    0.216    0.473    3.552
  313.214   91.445    0.181    0.471    3.542
  313.464   95.715    0.158    0.490    3.531
  313.714   99.102    0.140    0.497    3.471
  313.964  101.988    0.168    0.515    3.417
  314.214  105.169    0.177    0.524    3.333
  314.464  108.678    0.163    0.528    3.303
  314.714  110.766    0.164    0.541    3.271
  314.964  112.017    0.182    0.543    3.274
  315.214  112.839    0.207    0.516    3.301
  315.464  112.878    0.219    0.482    3.318
  315.714  110.030    0.200    0.457    3.396
  315.964  102.570    0.198    0.473    3.457
  316.214   98.907    0.224    0.480    3.440
  316.464   91.534    0.243    0.467    3.367
  316.714   86.581    0.258    0.463    3.221
  316.964   82.330    0.272    0.459    3.033
  317.214   79.633    0.283    0.455    2.844
  317.464   82.730    0.289    0.473    2.713
  317.714   87.813    0.284    0.494    2.633
  317.964   80.554    0.287    0.486    2.593
  318.214   74.305    0.293    0.461    2.584
  318.464   74.200    0.262    0.449    2.634
  318.714   84.559    0.235    0.449    2.733
  318.964   93.029    0.239    0.464    2.794
  319.214   96.944    0.259    0.475    2.826
  319.464   92.128    0.262    0.478    2.833
  319.714   83.592    0.269    0.501    2.802
  319.964   77.246    0.279    0.524    2.702
  320.214   72.581    0.299    0.523    2.547
  320.464   69.493    0.316    0.496    2.335
  320.714   73.224    0.327    0.473    2.152
  320.964   75.888    0.305    0.469    2.111
  321.214   79.322    0.291    0.480    2.139
  321.464   84.872    0.279    0.483    2.179
  321.714   89.495    0.287    0.459    2.306
  321.964   93.177    0.216    0.446    2.486
  322.214   95.735    0.198    0.456    2.621
  322.464   97.921    0.188    0.471    2.892
  322.714  100.014    0.219    0.480    3.084
  322.964  101.962    0.211    0.475    3.183
  323.214  102.751    0.200    0.472    3.281
  323.464   98.880    0.218    0.478    3.331
  323.714  101.844    0.234    0.493    3.303
  323.964  104.550    0.226    0.505    3.250
  324.214   99.355    0.254    0.517    3.173
  324.464   99.278    0.283    0.523    3.075
  324.714  100.327    0.268    0.520    3.021
  324.964  102.312    0.258    0.513    3.016
  325.214  103.593    0.262    0.506    3.068
  325.464  103.778    0.278    0.515    3.282
  325.714  103.017    0.287    0.520    3.617
  325.964  100.873    0.267    0.510    3.923
  326.214   98.269    0.255    0.491    4.341
  326.464   95.445    0.264    0.482    4.755
  326.714   92.941    0.280    0.490    4.831
