~VERSION INFORMATION
 VERS.                 2.0:   CWLS LOG ASCII STANDARD -VERSION 2.0
 WRAP.                  NO:   ONE LINE PER DEPTH STEP
~WELL INFORMATION BLOCK
#MNEM.UNIT           DATA                    DESCRIPTION OF MNEMONIC
#---------    -------------------            -------------------------------
# Generated from Intellog Unique Number	CC_80_83/WELL/1182
NULL.         -999.25                        : NULL_VALUE
WELL.         GULF RESDELN                   : Well_name    - WELL              
LOC .         07-12-081-07W4                 : Location     - LOCATION          
UWI .         00/07-12-081-07W4/0            : Uwi          - UNIQUE WELL ID    
ENTR.         DW                             : Entered      - ENTERED BY        
SRVC.         SCHLUMBERGER                   : Scn          - SERVICE COMPANY   
DATE.         19 FEB 79                      : Date         - LOG DATE
STRT.M        130                            : top_depth    - START DEPTH       
STOP.M        349.897                        : bot_depth    - STOP DEPTH        
STEP.M        0.3                            : increment    - STEP LENGTH       
~CURVE INFORMATION BLOCK
#MNEM UNIT       ERCB CURVE CODE    CURVE DESCRIPTION
#-----------   ------------------   ----------------------------------
DEPT.M        00 001 00 00         : DEPTH        - DEPTH                       
NPHI.V/V      00 330 00 00         : PHIN         - NEUTRON POROSITY (LIMESTONE)
GR  .API      00 310 00 00         : GR           - GAMMA RAY                   
DPHI.V/V      00 890 00 00         : PHID         - DENSITY POROSITY (LIMESTONE)
ILD .OHMM     00 120 00 00         : RESD         - DEEP RESISTIVITY (DIL)      
~PARAMETER INFORMATION       
#MNEM.UNIT           DATA             DESCRIPTION OF MNEMONIC
#---------         -----------     ------------------------------
GL  .M        548                  : gl           - GROUND LEVEL ELEVATION      
EREF.M        551.5                : kb           - ELEVATION OF DEPTH REFERENCE
DATM.M        551.5                : datum        - DATUM ELEVATION             
TDD .M        365                  : tdd          - TOTAL DEPTH DRILLER         
RUN .         ONE                  : Run          - RUN NUMBER                  
ENG .         BILL                 : Engineer     - RECORDING ENGINEER          
WIT .         JIM                  : Witness      - WITNESSED BY                
MUD .         GEL                  : Mud_type     - MUD TYPE                    
MATR.         LIMESTONE            : Logunit      - NEUTRON MATRIX              
TMAX.C        20                   : BHT          - MAXIMUM RECORDED TEMPERATURE
BHTD.M        365                  : BHTDEP       - MAXIMUM RECORDED TEMPERATURE
MATR.         1                    : LOGUNIT      - NEUTRON MATRIX              
RMT .C        25                   : MDTP         - TEMPERATURE OF MUD          
NEUT.         1                    : NEUTRON      - NEUTRON TYPE                
RESI.         0                    : RESIST       - RESISTIVITY TYPE            
RMC .OHMM     0.25                 : RMC          - RESISTIVITY OF MUD CAKE     
RMF .OHMM     0.25                 : RMF          - RESISTIVITY OF MUD FILTRATE 
SUFT.C        4                    : SUFT         - SURFACE TEMPERATURE         
~A  DEPTH     PHIN       GR     PHID     RESD
# ...
  234.401    0.531  103.933    0.314    7.092
  234.701    0.477  103.298    0.297    7.808
  235.001    0.467  107.017    0.258    7.969
  235.301    0.458  108.868    0.240    6.987
  235.601    0.466  106.984    0.233    6.607
  235.901    0.508  106.345    0.224    5.907
  236.201    0.516  110.063    0.222    5.586
  236.501    0.509  115.026    0.217    5.185
  236.801    0.487  113.764    0.231    5.290
  237.101    0.470  110.015    0.247    5.501
  237.401    0.455  105.643    0.226    5.507
  237.701    0.480   96.913    0.228    4.829
  238.001    0.512  102.498    0.276    3.849
  238.301    0.547  107.463    0.286    2.845
  238.601    0.571  112.422    0.288    2.402
  238.901    0.590  112.402    0.288    2.230
  239.201    0.557  113.013    0.265    2.231
  239.501    0.538  111.754    0.268    2.278
  239.801    0.536  109.871    0.274    2.369
  240.101    0.550  108.611    0.273    2.607
  240.401    0.564   98.011    0.264    3.096
  240.701    0.554  101.109    0.256    3.750
  241.001    0.528  107.315    0.273    4.286
  241.301    0.501  102.320    0.274    5.189
  241.601    0.476  105.416    0.280    6.047
  241.901    0.469  108.513    0.282    6.786
  242.201    0.474  104.137    0.262    7.193
  242.501    0.464  102.254    0.251    7.067
  242.801    0.460  102.859    0.266    6.814
  243.101    0.453   97.868    0.255    7.084
  243.401    0.460   81.047    0.175    8.740
  243.701    0.345   66.715    0.020   10.579
  244.001    0.294   79.768    0.089   11.647
  244.301    0.350   89.712    0.177   11.230
  244.601    0.414  101.522    0.279   10.622
  244.901    0.454  110.218    0.254    8.795
  245.201    0.446  100.867    0.244    8.008
  245.501    0.441  103.341    0.234    8.332
  245.801    0.420  109.546    0.223    9.173
  246.101    0.441  113.890    0.217    9.909
  246.401    0.440  115.739    0.207   10.502
  246.701    0.418  104.520    0.229   10.919
  247.001    0.421  105.122    0.229   10.134
  247.301    0.442  106.353    0.240    7.928
  247.601    0.471  105.090    0.254    7.084
  247.901    0.466  105.702    0.231    5.979
  248.201    0.452  110.041    0.247    5.765
  248.501    0.453  109.401    0.239    5.882
  248.801    0.478  107.516    0.231    6.117
  249.101    0.494  109.991    0.234    6.362
  249.401    0.482  111.222    0.222    6.371
  249.701    0.461  109.960    0.239    6.626
  250.001    0.428   97.497    0.248    7.156
  250.301    0.449  100.593    0.264    7.730
  250.601    0.440   94.975    0.281    8.193
  250.901    0.455   91.225    0.276    7.751
  251.201    0.450   97.431    0.280    7.056
  251.501    0.437  106.127    0.279    7.201
  251.801    0.451  103.625    0.270    7.075
  252.101    0.462  101.114    0.248    6.692
  252.401    0.464  101.098    0.254    5.980
  252.701    0.482  101.083    0.284    5.343
  253.001    0.498  100.448    0.284    4.959
  253.301    0.467  101.673    0.295    4.964
  253.601    0.459  106.638    0.252    5.264
  253.901    0.481  108.488    0.232    5.369
  254.201    0.514  107.851    0.248    4.890
  254.501    0.529   94.766    0.269    4.626
  254.801    0.490   84.165    0.292    4.810
  255.101    0.443   81.660    0.277    5.398
  255.401    0.448   81.022    0.264    6.659
  255.701    0.452   81.630    0.276    8.061
  256.001    0.437   84.104    0.292    8.875
  256.301    0.422   90.311    0.253    8.554
  256.601    0.457  100.253    0.273    5.535
  256.901    0.515  104.594    0.262    4.497
  257.201    0.544  102.711    0.281    3.725
  257.501    0.515   94.601    0.275    3.875
  257.801    0.449   88.985    0.286    4.348
  258.101    0.448   86.481    0.303    5.066
  258.401    0.458   85.839    0.309    6.616
  258.701    0.437   82.708    0.302    7.710
  259.001    0.443   80.830    0.271    7.720
  259.301    0.426   74.587    0.234    7.584
  259.601    0.394   69.595    0.000    8.350
  259.901    0.184   70.823    0.006   10.303
  260.201    0.216   73.298    0.054   14.793
  260.501    0.280   74.525    0.096   17.576
  260.801    0.349   79.489    0.175   16.621
  261.101    0.400   83.201    0.265   12.053
  261.401    0.429   83.187    0.280    8.414
  261.701    0.440   82.552    0.270    7.811
  262.001    0.449   83.780    0.233    7.820
  262.301    0.428   86.877    0.124    7.685
  262.601    0.426   94.952    0.216    7.266
  262.901    0.456  104.273    0.226    6.744
  263.201    0.445  106.747    0.237    6.258
  263.501    0.456   99.259    0.225    5.812
  263.801    0.440   98.622    0.223    5.708
  264.101    0.448  100.473    0.195    5.607
  264.401    0.457  100.454    0.233    5.510
  264.701    0.457   99.195    0.219    5.621
  265.001    0.437   97.935    0.253    6.073
  265.301    0.419   96.674    0.220    6.434
  265.601    0.430  100.391    0.261    7.085
  265.901    0.437  106.602    0.274    7.368
  266.201    0.417  109.070    0.233    6.969
  266.501    0.438  107.811    0.245    6.470
  266.801    0.453  102.819    0.240    5.891
  267.101    0.475   92.221    0.258    5.067
  267.401    0.496   94.070    0.293    4.277
  267.701    0.521   88.454    0.326    3.749
  268.001    0.550   89.680    0.264    2.718
  268.301    0.572   91.535    0.273    2.048
  268.601    0.546   85.915    0.306    2.012
  268.901    0.544   83.410    0.284    2.016
  269.201    0.559   89.616    0.294    2.056
  269.501    0.579   91.468    0.278    2.220
  269.801    0.543   88.963    0.255    2.492
  270.101    0.499   88.321    0.255    3.016
  270.401    0.459   88.926    0.260    3.583
  270.701    0.441   90.158    0.262    3.869
  271.001    0.425   93.255    0.227    4.341
  271.301    0.429   96.352    0.235    5.255
  271.601    0.442   98.826    0.256    6.010
  271.901    0.453   88.229    0.282    5.794
  272.201    0.477   91.948    0.296    5.479
  272.501    0.475   97.532    0.243    4.538
  272.801    0.472  105.609    0.230    3.979
  273.101    0.479  104.347    0.234    3.625
  273.401    0.498   99.973    0.243    3.493
  273.701    0.501   97.469    0.253    3.432
  274.001    0.510   96.824    0.259    3.437
  274.301    0.510   96.813    0.248    3.440
  274.601    0.504   93.677    0.244    3.578
  274.901    0.509   93.669    0.249    3.652
  275.201    0.468   96.143    0.201    3.797
  275.500    0.455   99.859    0.239    3.801
  275.800    0.484  101.089    0.263    3.529
  276.100    0.497   99.829    0.245    3.533
  276.400    0.468   95.456    0.243    3.537
  276.700    0.480   93.571    0.241    3.749
  277.000    0.476   94.177    0.233    3.973
  277.300    0.451   93.539    0.253    4.631
  277.600    0.459   94.768    0.233    5.296
  277.900    0.464   95.996    0.235    5.507
  278.200    0.425   89.135    0.219    5.412
  278.500    0.458   70.447    0.190    5.217
  278.800    0.486   68.558    0.086    5.324
  279.100    0.460   69.168    0.168    5.750
  279.400    0.326   69.775    0.213    6.576
  279.700    0.358   74.738    0.259    7.521
  280.000    0.403   74.723    0.268    8.279
  280.300    0.407   76.570    0.252    9.116
  280.600    0.396   79.045    0.237    9.478
  280.900    0.392   80.274    0.227   10.047
  281.200    0.402   81.504    0.250    9.687
  281.500    0.426   86.469    0.277    8.490
  281.800    0.463   89.563    0.284    3.978
  282.100    0.500   85.191    0.281    2.674
  282.400    0.495   85.176    0.262    2.389
  282.700    0.457   90.137    0.236    2.581
  283.000    0.460  100.080    0.246    2.788
  283.300    0.494   98.816    0.266    2.399
  283.600    0.490   98.803    0.236    2.640
  283.900    0.393  103.766    0.212    3.791
  284.200    0.380  109.351    0.159    4.678
  284.500    0.385  105.601    0.208    6.227
  284.800    0.417  105.584    0.197    6.477
  285.100    0.437  109.304    0.196    6.484
  285.400    0.454  108.662    0.209    6.020
  285.700    0.472  108.649    0.216    5.479
  286.000    0.504  114.858    0.202    4.805
  286.300    0.508  116.709    0.203    4.632
