~VERSION INFORMATION
 VERS.                 2.0:   CWLS LOG ASCII STANDARD -VERSION 2.0
 WRAP.                  NO:   ONE LINE PER DEPTH STEP
~WELL INFORMATION BLOCK
#MNEM.UNIT           DATA                    DESCRIPTION OF MNEMONIC
#---------    -------------------            -------------------------------
# Generated from Intellog Unique Number	CC_80_83/WELL/1172
NULL.         -999.25                        : NULL_VALUE
WELL.         HPCI PCEJ CHARD                : Well_name
LOC .         07-06-080-06W4                 : Location     - LOCATION          
UWI .         00/07-06-080-06W400            : Uwi          - UNIQUE WELL ID    
ENTR.         DW                             : Entered      - ENTERED BY        
SRVC.         SCHLUMBERGER                   : Scn          - SERVICE COMPANY   
DATE.         17 JAN 85                      : Date         - LOG DATE
STRT.M        120                            : top_depth    - START DEPTH       
STOP.M        359.997                        : bot_depth    - STOP DEPTH        
STEP.M        0.3                            : increment    - STEP LENGTH       
~CURVE INFORMATION BLOCK
#MNEM UNIT       ERCB CURVE CODE    CURVE DESCRIPTION
#-----------   ------------------   ----------------------------------
DEPT.M        00 001 00 00         : DEPTH        - DEPTH                       
DPHI.V/V      00 890 00 00         : PHID         - DENSITY POROSITY (LIMESTONE)
NPHI.V/V      00 330 00 00         : PHIN         - NEUTRON POROSITY (LIMESTONE)
GR  .API      00 310 00 00         : GR           - GAMMA RAY                   
ILD .OHMM     00 120 00 00         : RESD         - DEEP RESISTIVITY (DIL)      
~PARAMETER INFORMATION       
#MNEM.UNIT           DATA             DESCRIPTION OF MNEMONIC
#---------         -----------     ------------------------------
GL  .M        552                  : gl           - GROUND LEVEL ELEVATION      
EREF.M        555.25               : kb           - ELEVATION OF DEPTH REFERENCE
DATM.M        555.25               : datum        - DATUM ELEVATION             
TDD .M        380                  : tdd          - TOTAL DEPTH DRILLER         
RUN .         ONE                  : Run          - RUN NUMBER                  
ENG .         BILL                 : Engineer     - RECORDING ENGINEER          
WIT .         JIM                  : Witness      - WITNESSED BY                
MUD .         GEL                  : Mud_type     - MUD TYPE                    
MATR.         LIMESTONE            : Logunit      - NEUTRON MATRIX              
TMAX.C        20                   : BHT          - MAXIMUM RECORDED TEMPERATURE
BHTD.M        380                  : BHTDEP       - MAXIMUM RECORDED TEMPERATURE
MATR.         1                    : LOGUNIT      - NEUTRON MATRIX              
RMT .C        25                   : MDTP         - TEMPERATURE OF MUD          
NEUT.         1                    : NEUTRON      - NEUTRON TYPE                
RESI.         0                    : RESIST       - RESISTIVITY TYPE            
RMC .OHMM     0.25                 : RMC          - RESISTIVITY OF MUD CAKE     
RMF .OHMM     0.25                 : RMF          - RESISTIVITY OF MUD FILTRATE 
SUFT.C        15                   : SUFT         - SURFACE TEMPERATURE         
~A  DEPTH     PHID     PHIN       GR     RESD
# ...
  328.798    0.278    0.431   65.161   18.871
  329.098    0.294    0.434   62.684   21.573
  329.398    0.319    0.423   61.445   25.140
  329.698    0.327    0.421   58.968   26.627
  329.998    0.325    0.459   57.110   27.683
  330.298    0.312    0.454   57.110   26.670
  330.598    0.280    0.423   62.064   23.361
  330.898    0.236    0.410   82.500   17.577
  331.198    0.250    0.440   84.977   13.229
  331.498    0.259    0.430   78.784   12.745
  331.798    0.270    0.434   70.734   12.756
  332.098    0.298    0.410   72.592   13.006
  332.398    0.283    0.399   75.069   13.779
  332.698    0.288    0.436   67.638   15.454
  332.998    0.307    0.466   59.587   17.669
  333.298    0.326    0.475   52.156   19.815
  333.598    0.338    0.446   58.349   23.089
  333.898    0.330    0.433   62.064   24.454
  334.198    0.340    0.435   56.491   25.907
  334.498    0.345    0.426   60.206   24.964
  334.798    0.317    0.418   67.638   23.156
  335.098    0.296    0.440   68.257   22.731
  335.398    0.319    0.424   63.303   23.182
  335.698    0.324    0.419   63.922   27.526
  335.998    0.340    0.460   56.491   32.682
  336.298    0.351    0.431   52.156   35.968
  336.598    0.347    0.414   62.064   32.732
  336.898    0.309    0.399   75.069   22.828
  337.198    0.270    0.420   87.454   17.178
  337.498    0.248    0.430   89.312   13.684
  337.798    0.255    0.433   81.261   12.454
  338.098    0.289    0.455   57.110   15.071
  338.398    0.353    0.456   47.821   17.893
  338.698    0.366    0.454   47.202   22.927
  338.998    0.345    0.423   52.156   24.285
  339.298    0.338    0.410   55.872   22.957
  339.598    0.321    0.430   57.729   20.111
  339.898    0.325    0.448   52.775   13.251
  340.198    0.355    0.433   47.202   12.528
  340.498    0.366    0.405   45.963   12.776
  340.798    0.351    0.408   52.156   12.307
  341.098    0.343    0.398   54.633   11.632
  341.398    0.357    0.395   47.821   10.191
  341.698    0.340    0.395   45.963    8.119
  341.998    0.329    0.403   47.821    6.468
  342.298    0.325    0.387   55.252    5.455
  342.598    0.327    0.379   58.968    4.779
  342.898    0.327    0.384   58.968    4.433
  343.198    0.329    0.388   54.014    4.191
  343.498    0.341    0.390   45.963    3.888
  343.798    0.348    0.367   46.583    3.816
  344.098    0.341    0.383   45.963    3.748
  344.398    0.335    0.379   42.867    3.750
  344.698    0.330    0.364   39.151    3.826
  344.998    0.345    0.367   35.436    3.901
  345.298    0.341    0.386   32.959    3.978
  345.598    0.332    0.381   31.720    4.057
  345.898    0.331    0.382   32.959    4.059
  346.198    0.338    0.389   35.436    3.912
  346.498    0.337    0.379   37.294    3.841
  346.798    0.335    0.373   39.151    3.700
  347.098    0.350    0.373   40.390    3.565
  347.398    0.364    0.399   37.913    3.567
  347.698    0.367    0.388   36.674    3.570
  347.998    0.337    0.363   44.105    3.641
  348.298    0.325    0.409   55.872    3.858
  348.598    0.352    0.443   65.161    3.859
  348.898    0.363    0.430   65.161    4.013
  349.198    0.343    0.480   51.537    3.941
  349.498    0.368    0.469   37.294    3.796
  349.798    0.373    0.441   34.197    3.727
  350.098    0.356    0.397   41.628    3.659
  350.398    0.345    0.378   50.298    3.661
  350.698    0.331    0.367   59.587    3.663
  350.998    0.326    0.381   67.638    3.881
  351.298    0.312    0.394   68.876    4.353
  351.598    0.314    0.403   57.729    4.612
  351.897    0.321    0.395   50.298    4.705
  352.197    0.322    0.394   48.440    4.707
  352.497    0.330    0.379   45.963    4.450
  352.797    0.337    0.388   47.821    4.369
  353.097    0.340    0.400   47.821    4.291
  353.397    0.333    0.399   44.725    4.293
  353.697    0.324    0.393   47.821    4.297
  353.997    0.336    0.366   52.156    4.382
  354.297    0.329    0.373   47.821    4.303
  354.597    0.335    0.426   32.959    4.305
  354.897    0.350    0.454   22.431    4.227
  355.197    0.340    0.417   21.812    3.847
  355.497    0.242    0.384   26.766    3.568
  355.797    0.157    0.372   37.913    3.571
  356.097    0.060    0.351   58.968    3.782
  356.397    0.000    0.332   63.922    4.491
  356.697    0.026    0.300   65.780    9.429
  356.997    0.033    0.262   68.257   15.173
  357.297    0.009    0.248   67.638   23.508
  357.597    0.000    0.231   57.729   27.392
  357.897    0.000    0.207   54.014   30.141
  358.197    0.000    0.198   57.729   30.739
  358.497    0.000    0.201   63.922   30.765
  358.797    0.000    0.211   68.257   30.210
  359.097    0.000    0.210   71.353   29.654
  359.397    0.001    0.208   70.115   29.122
  359.697    0.001    0.213   62.684   29.697
  359.997    0.001    0.212   60.206   30.871
