~VERSION INFORMATION
 VERS.                 2.0:   CWLS LOG ASCII STANDARD -VERSION 2.0
 WRAP.                  NO:   ONE LINE PER DEPTH STEP
~WELL INFORMATION BLOCK
#MNEM.UNIT           DATA                    DESCRIPTION OF MNEMONIC
#---------    -------------------            -------------------------------
# Generated from Intellog Unique Number	CW_73_75/WELL/502
WELL.         MANNVILLE ET AL MARTENH 05-36  : Well_name    - WELL
LOC .         00/05-36-074-23W4/0            : Location     - LOCATION
UWI .         00/05-36-074-23W4/0            : Uwi          - UNIQUE WELL ID
ENTR.         JAYE                           : Entered      - ENTERED BY
SRVC.         SCHLUMBERGER                   : Scn          - SERVICE COMPANY
DATE.         29 MAR 81                      : Date         - LOG DATE
STRT.M        455                            : top_depth    - START DEPTH
STOP.M        660                            : bot_depth    - STOP DEPTH
STEP.M        0.25                           : increment    - STEP LENGTH
 NULL. -999.2500:NULL Value
~CURVE INFORMATION BLOCK
#MNEM UNIT       ERCB CURVE CODE    CURVE DESCRIPTION
#-----------   ------------------   ----------------------------------
DEPT.M        00 001 00 00         : DEPTH        - DEPTH
ILD .OHMM     00 120 00 00         : RESD         - DEEP RESISTIVITY (DIL)
NPHI.V/V      00 330 00 00         : PHIN         - NEUTRON POROSITY (SANDSTONE)
DPHI.V/V      00 890 00 00         : PHID         - DENSITY POROSITY (SANDSTONE)
CALI.MM       00 280 01 00         : CAL          - CALIPER
GR  .API      00 310 00 00         : GR           - GAMMA RAY
~PARAMETER INFORMATION
#MNEM.UNIT           DATA             DESCRIPTION OF MNEMONIC
#---------         -----------     ------------------------------
GL  .M        723.3                : gl           - GROUND LEVEL ELEVATION
EREF.M        726.2                : kb           - ELEVATION OF DEPTH REFERENCE
DATM.M        723.3                : datum        - DATUM ELEVATION
TDD .M        691                  : tdd          - TOTAL DEPTH DRILLER
RUN .         ONE                  : Run          - RUN NUMBER
ENG .         ASHTON               : Engineer     - RECORDING ENGINEER
WIT .         SANOIA               : Witness      - WITNESSED BY
BASE.         EDM                  : Branch       - HOME BASE OF LOGGING UNIT
MUD .         GEL CHEM             : Mud_type     - MUD TYPE
MATR.         SANDSTONE            : Logunit      - NEUTRON MATRIX
TMAX.C        27.2                 : BHT          - MAXIMUM RECORDED TEMPERATURE
BHTD.M        691                  : BHTDEP       - MAXIMUM RECORDED TEMPERATURE
RMT .C        27.2                 : MDTP         - TEMPERATURE OF MUD
MUDD.KG/M     1095                 : MWT          - MUD DENSITY
NEUT.         1                    : NEUTRON      - NEUTRON TYPE
RESI.         0                    : RESIST       - RESISTIVITY TYPE
RM  .OHMM     2.784                : RM           - RESISTIVITY OF MUD
RMC .OHMM     0                    : RMC          - RESISTIVITY OF MUD CAKE
RMF .OHMM     4.4                  : RMF          - RESISTIVITY OF MUD FILTRATE
SUFT.C        0                    : SUFT         - SURFACE TEMPERATURE
~A  DEPTH     RESD     PHIN     PHID      CAL       GR
# ...
  491.500    5.330    0.451    0.222  165.290  128.072
  491.750    5.736    0.468    0.243  161.275  117.118
  492.000    6.068    0.440    0.261  160.520  102.937
  492.250    6.054    0.419    0.262  160.197   98.754
  492.500    6.041    0.445    0.227  162.180  104.380
  492.750    5.836    0.475    0.213  168.074  111.460
  493.000    5.757    0.492    0.211  172.081  114.931
  493.250    5.626    0.494    0.238  171.851  113.533
  493.500    5.446    0.479    0.276  170.993  101.755
  493.750    5.153    0.445    0.307  168.344   81.182
  494.000    4.979    0.422    0.314  160.316   74.847
  494.250    4.865    0.417    0.292  157.247   85.913
  494.500    4.809    0.453    0.305  156.502   90.148
  494.750    4.843    0.448    0.307  156.070   93.113
  495.000    4.888    0.442    0.292  155.943   96.840
  495.250    4.979    0.450    0.281  156.147  102.273
  495.500    5.110    0.461    0.285  156.451  100.813
  495.750    5.206    0.470    0.306  156.338   93.210
  496.000    5.253    0.466    0.310  156.422   97.251
  496.250    5.281    0.448    0.294  156.947  112.177
  496.500    5.349    0.453    0.276  157.555  128.117
  496.750    5.388    0.456    0.251  159.239  132.475
  497.000    5.386    0.434    0.233  162.066  135.377
  497.250    5.323    0.425    0.222  165.427  140.244
  497.500    5.261    0.440    0.212  167.633  125.554
  497.750    5.219    0.456    0.226  166.670  117.324
  498.000    5.129    0.479    0.235  165.620  112.697
  498.250    4.965    0.501    0.238  166.646  108.829
  498.500    4.925    0.493    0.239  169.588  103.760
  498.750    4.933    0.491    0.244  171.686   99.323
  499.000    4.950    0.499    0.239  168.189   98.429
  499.250    5.004    0.491    0.231  163.433   97.791
  499.500    5.069    0.487    0.255  164.897   96.707
  499.750    5.183    0.484    0.268  163.622   95.623
  500.000    5.250    0.465    0.263  158.651   94.542
  500.250    5.248    0.464    0.254  160.956   91.559
  500.500    5.216    0.484    0.293  162.314   86.615
  500.750    5.205    0.478    0.315  156.713   77.499
  501.000    5.173    0.451    0.335  153.749   74.516
  501.250    5.103    0.427    0.340  152.688   73.938
  501.500    4.931    0.439    0.336  152.048   73.933
  501.750    4.836    0.454    0.338  151.722   70.381
  502.000    4.825    0.465    0.353  151.707   68.220
  502.250    4.833    0.458    0.373  152.007   69.984
  502.500    4.822    0.463    0.389  152.105   70.231
  502.750    4.783    0.496    0.393  152.297   68.137
  503.000    4.755    0.512    0.377  152.498   67.241
  503.250    4.726    0.484    0.359  152.488   67.934
  503.500    4.688    0.450    0.351  152.790   69.442
  503.750    4.660    0.465    0.348  153.295   71.902
  504.000    4.632    0.455    0.349  153.810   74.172
  504.250    4.656    0.466    0.353  154.438   74.109
  504.500    4.681    0.475    0.341  154.948   72.073
  504.750    4.679    0.448    0.329  155.472   69.216
  505.000    4.678    0.427    0.327  155.980   65.856
  505.250    4.693    0.420    0.338  156.500   69.264
  505.500    4.647    0.439    0.310  157.430   84.126
  505.750    4.431    0.443    0.239  160.477  134.297
  506.000    4.115    0.454    0.209  167.951  141.125
  506.250    3.814    0.479    0.202  175.006  143.078
  506.500    3.462    0.502    0.205  178.056  144.087
  506.750    3.172    0.527    0.217  179.201  144.458
  507.000    2.858    0.541    0.221  179.926  142.994
  507.250    2.782    0.559    0.216  180.861  140.965
  507.500    2.867    0.536    0.210  182.226  138.868
  507.750    3.044    0.509    0.200  183.369  134.681
  508.000    3.332    0.486    0.195  184.202  130.561
  508.250    3.606    0.481    0.196  184.296  133.086
  508.500    3.947    0.483    0.205  184.080  134.849
  508.750    4.478    0.495    0.204  183.951  127.945
  509.000    5.266    0.492    0.200  183.423  119.522
  509.250    5.185    0.468    0.198  183.512  124.641
  509.500    5.067    0.470    0.197  182.968  122.357
  509.750    4.998    0.489    0.214  181.265  114.880
  510.000    5.063    0.526    0.264  175.982  100.762
  510.250    5.090    0.486    0.300  167.006   84.872
  510.500    5.097    0.463    0.317  157.291   81.448
  510.750    5.124    0.457    0.316  155.065   79.985
  511.000    5.220    0.477    0.313  154.948   76.246
  511.250    5.328    0.478    0.315  154.835   71.873
  511.500    5.448    0.450    0.318  154.619   73.003
  511.750    5.549    0.451    0.313  154.605   78.880
  512.000    5.664    0.466    0.305  154.164   85.137
  512.250    5.737    0.462    0.298  154.250   86.463
  512.500    5.800    0.462    0.301  154.770   83.731
  512.750    5.820    0.461    0.312  155.175   79.166
  513.000    5.851    0.447    0.308  155.592   78.340
  513.250    5.793    0.443    0.284  156.313   87.379
  513.500    5.441    0.453    0.260  157.563   96.673
  513.750    4.774    0.492    0.244  161.144  104.828
  514.000    4.056    0.524    0.262  166.714  111.276
  514.250    3.579    0.575    0.288  181.366  113.989
  514.500    3.859    0.611    0.316  180.297  103.223
  514.750    4.512    0.607    0.331  169.421   89.739
  515.000    5.428    0.513    0.335  159.285   81.251
  515.250    6.925    0.487    0.339  156.752   75.676
  515.500    7.871    0.478    0.344  155.787   70.669
  515.750    7.337    0.462    0.350  155.557   67.944
  516.000    6.293    0.470    0.352  155.449   72.620
  516.250    5.438    0.492    0.345  155.430   77.421
  516.500    5.050    0.492    0.343  155.528   78.550
  516.750    4.907    0.497    0.351  155.734   74.684
  517.000    5.230    0.510    0.335  156.021   72.020
  517.250    5.946    0.500    0.289  156.232   76.063
  517.500    6.695    0.288    0.190  156.850   73.588
  517.750    6.884    0.199    0.061  157.890   77.567
  518.000    6.652    0.272    0.129  159.241   87.490
  518.250    6.271    0.402    0.224  160.177  107.290
  518.500    5.889    0.474    0.250  160.922  115.764
  518.750    5.521    0.508    0.241  161.528  117.717
  519.000    5.204    0.499    0.239  161.837  117.264
  519.250    5.028    0.489    0.240  161.926  113.149
  519.500    4.960    0.453    0.239  162.026  110.863
  519.750    4.911    0.450    0.235  162.529  106.803
  520.000    4.854    0.453    0.224  164.429  104.202
  520.250    4.834    0.461    0.207  165.354  106.857
  520.500    4.841    0.463    0.207  166.086  112.285
  520.750    4.758    0.454    0.216  166.599  114.366
  521.000    4.658    0.459    0.215  166.161  116.510
  521.250    4.586    0.482    0.218  164.251  116.377
  521.500    4.482    0.483    0.231  162.557  112.698
  521.750    4.405    0.481    0.251  160.854  106.808
  522.000    4.345    0.484    0.298  159.361   94.524
  522.250    4.302    0.483    0.327  157.878   88.631
  522.500    4.268    0.502    0.330  158.602  125.326
  522.750    4.251    0.500    0.302  159.335  142.151
  523.000    4.346    0.490    0.254  159.332  137.017
  523.250    4.538    0.479    0.229  159.090  116.570
  523.500    4.865    0.461    0.249  158.872  103.970
  523.750    5.519    0.474    0.246  158.757   95.612
  524.000    6.627    0.459    0.130  158.639   86.049
  524.250    7.131    0.260    0.103  158.723   83.004
  524.500    6.995    0.267    0.178  158.922   89.261
  524.750    6.720    0.416    0.233  159.444  100.201
  525.000    6.347    0.465    0.268  160.067  111.648
  525.250    6.098    0.475    0.257  159.942  110.122
  525.500    5.727    0.468    0.241  159.516  113.656
  525.750    5.358    0.488    0.239  159.286  113.652
  526.000    5.148    0.480    0.240  159.489  108.960
  526.250    5.040    0.468    0.242  159.580  108.070
  526.500    4.981    0.463    0.250  159.582  108.944
  526.750    4.942    0.444    0.248  159.455  110.014
  527.000    4.893    0.454    0.245  159.232  110.384
  527.250    4.901    0.472    0.248  159.333  108.544
  527.500    4.936    0.487    0.243  159.410  105.181
  527.750    4.971    0.471    0.250  159.510  104.922
