~VERSION INFORMATION
 VERS.                 2.0:   CWLS LOG ASCII STANDARD -VERSION 2.0
 WRAP.                  NO:   ONE LINE PER DEPTH STEP
~WELL INFORMATION BLOCK
#MNEM.UNIT           DATA                    DESCRIPTION OF MNEMONIC
#---------    -------------------            -------------------------------
# Generated from Intellog Unique Number	CW_82_90/WELL/693
WELL.         08-34-083-24W4                 : Well_name    - WELL
LOC .         00/08-34-083-24W4/0            : Location     - LOCATION
UWI .         00/08-34-083-24W4/0            : Uwi          - UNIQUE WELL ID
ENTR.         JAYE                           : Entered      - ENTERED BY
SRVC.         SCHLUMBERGER                   : Scn          - SERVICE COMPANY
DATE.         01 MAR 86                      : Date         - LOG DATE
STRT.M        180                            : top_depth    - START DEPTH
STOP.M        395                            : bot_depth    - STOP DEPTH
STEP.M        0.25                           : increment    - STEP LENGTH
 NULL. -999.2500:NULL Value
~CURVE INFORMATION BLOCK
#MNEM UNIT       ERCB CURVE CODE    CURVE DESCRIPTION
#-----------   ------------------   ----------------------------------
DEPT.M        00 001 00 00         : DEPTH        - DEPTH
CALI.MM       00 280 01 00         : CAL          - CALIPER
GR  .API      00 310 00 00         : GR           - GAMMA RAY
NPHI.V/V      00 330 00 00         : PHIN         - NEUTRON POROSITY (SANDSTONE)
DPHI.V/V      00 890 00 00         : PHID         - DENSITY POROSITY (SANDSTONE)
ILD .OHMM     00 120 00 00         : RESD         - DEEP RESISTIVITY (DIL)
~PARAMETER INFORMATION
#MNEM.UNIT           DATA             DESCRIPTION OF MNEMONIC
#---------         -----------     ------------------------------
GL  .M        564.16               : gl           - GROUND LEVEL ELEVATION
EREF.M        567.76               : kb           - ELEVATION OF DEPTH REFERENCE
DATM.M        564.16               : datum        - DATUM ELEVATION
TDD .M        398                  : tdd          - TOTAL DEPTH DRILLER
RUN .         ONE                  : Run          - RUN NUMBER
ENG .         MILROSS              : Engineer     - RECORDING ENGINEER
WIT .         DZIUBA               : Witness      - WITNESSED BY
BASE.         SL                   : Branch       - HOME BASE OF LOGGING UNIT
MUD .         GEL CHEM             : Mud_type     - MUD TYPE
MATR.         SANDSTONE            : Logunit      - NEUTRON MATRIX
TMAX.C        21                   : BHT          - MAXIMUM RECORDED TEMPERATURE
BHTD.M        398                  : BHTDEP       - MAXIMUM RECORDED TEMPERATURE
RMT .C        18                   : MDTP         - TEMPERATURE OF MUD
MUDD.KG/M     1130                 : MWT          - MUD DENSITY
NEUT.         1                    : NEUTRON      - NEUTRON TYPE
RESI.         0                    : RESIST       - RESISTIVITY TYPE
RM  .OHMM     4.99                 : RM           - RESISTIVITY OF MUD
RMC .OHMM     0                    : RMC          - RESISTIVITY OF MUD CAKE
RMF .OHMM     4.75                 : RMF          - RESISTIVITY OF MUD FILTRATE
SUFT.C        0                    : SUFT         - SURFACE TEMPERATURE
~A  DEPTH      CAL       GR     PHIN     PHID     RESD
# ...
  253.000  261.368   67.034    0.460    0.331   17.344
  253.250  261.149   65.572    0.460    0.326   17.260
  253.500  261.258   63.810    0.473    0.318   17.013
  253.750  261.651   63.104    0.477    0.309   16.338
  254.000  261.911   63.329    0.493    0.299   15.516
  254.250  262.522   66.043    0.500    0.298   15.152
  254.500  262.666   69.888    0.490    0.317   14.826
  254.750  262.666   72.178    0.476    0.329   14.453
  255.000  263.992   72.471    0.480    0.329   13.776
  255.250  264.223   72.252    0.494    0.323   12.984
  255.500  264.223   72.229    0.481    0.315   12.101
  255.750  264.471   73.086    0.484    0.308   11.685
  256.000  264.637   74.559    0.501    0.301   11.076
  256.250  265.370   76.650    0.518    0.293   10.518
  256.500  265.392   78.374    0.502    0.290   10.214
  256.750  265.392   78.918    0.483    0.281   10.145
  257.000  267.633   79.639    0.451    0.267   10.002
  257.250  268.182   81.425    0.441    0.256    9.605
  257.500  269.939   83.088    0.428    0.248    9.053
  257.750  270.498   84.002    0.462    0.242    8.312
  258.000  270.401   82.853    0.490    0.247    7.674
  258.250  270.007   81.153    0.508    0.257    7.006
  258.500  268.564   81.268    0.503    0.270    6.196
  258.750  268.377   81.541    0.495    0.269    5.678
  259.000  266.828   83.572    0.476    0.259    5.154
  259.250  266.653   87.050    0.460    0.244    4.750
  259.500  266.653   87.897    0.462    0.252    4.511
  259.750  268.692   86.875    0.474    0.259    4.430
  260.000  268.692   83.045    0.486    0.265    4.425
  260.250  270.694   79.663    0.498    0.268    4.572
  260.500  271.238   78.267    0.507    0.273    4.986
  260.750  271.528   75.872    0.512    0.280    5.470
  261.000  270.234   72.914    0.511    0.289    5.780
  261.250  268.433   67.093    0.493    0.299    6.520
  261.500  266.663   66.764    0.455    0.310    6.954
  261.750  266.071   67.234    0.459    0.307    7.585
  262.000  264.730   65.407    0.460    0.306    8.461
  262.250  264.544   61.329    0.448    0.311    9.855
  262.500  264.544   57.066    0.451    0.317   11.826
  262.750  262.539   55.923    0.455    0.329   13.877
  263.000  262.358   58.269    0.434    0.333   14.608
  263.250  262.283   61.923    0.407    0.330   14.980
  263.500  262.401   66.893    0.388    0.319   14.146
  263.750  262.766   70.983    0.442    0.303   12.841
  264.000  263.670   74.512    0.491    0.286   10.837
  264.250  264.271   74.741    0.535    0.280    9.371
  264.500  264.271   74.656    0.512    0.279    9.084
  264.750  262.941   76.630    0.480    0.275    8.938
  265.000  264.374   78.104    0.457    0.233    9.165
  265.250  264.312   76.394    0.376    0.166    9.432
  265.500  264.220   70.760    0.373    0.169    9.690
  265.750  264.663   72.869    0.441    0.213    9.751
  266.000  265.760   71.903    0.442    0.235    9.578
  266.250  267.908   69.079    0.445    0.239    9.078
  266.500  269.634   69.550    0.483    0.243    8.508
  266.750  271.788   79.692    0.506    0.242    7.739
  267.000  272.783   85.030    0.512    0.236    7.078
  267.250  272.692   85.070    0.490    0.227    6.402
  267.500  272.913   81.929    0.481    0.232    5.889
  267.750  272.676   83.720    0.476    0.237    5.581
  268.000  271.718   86.313    0.465    0.236    5.390
  268.250  271.042   85.857    0.475    0.232    5.264
  268.500  269.654   85.084    0.511    0.229    5.219
  268.750  267.125   84.445    0.507    0.230    5.223
  269.000  265.355   84.292    0.492    0.234    5.345
  269.250  265.498   83.526    0.470    0.236    5.440
  269.500  266.708   82.314    0.460    0.261    5.464
  269.750  266.770   79.487    0.479    0.261    5.603
  270.000  265.799   74.035    0.550    0.256    5.987
  270.250  265.799   64.843    0.542    0.251    7.185
  270.500  264.276   57.089    0.525    0.283    8.353
  270.750  265.277   59.184    0.510    0.327    9.931
  271.000  266.191   58.292    0.460    0.326   12.212
  271.250  266.191   56.896    0.444    0.324   13.598
  271.500  266.333   55.437    0.450    0.324   14.259
  271.750  265.359   53.480    0.441    0.329   15.038
  272.000  264.890   51.719    0.433    0.336   15.683
  272.250  264.752   51.564    0.431    0.338   16.111
  272.500  264.497   51.604    0.455    0.338   16.244
  272.750  263.630   52.516    0.457    0.338   16.015
  273.000  261.129   54.802    0.454    0.342   15.582
  273.250  258.000   54.973    0.453    0.348   15.218
  273.500  257.915   56.253    0.473    0.351   14.918
  273.750  257.373   58.792    0.463    0.344   14.461
  274.000  259.422   61.138    0.445    0.323   13.964
  274.250  261.441   63.797    0.445    0.307   13.486
  274.500  264.516   66.264    0.437    0.284   12.569
  274.750  265.885   66.059    0.425    0.285   10.971
  275.000  266.314   68.091    0.442    0.263    9.593
  275.250  268.561   73.617    0.462    0.252    7.783
  275.500  271.746   85.320    0.451    0.254    5.654
  275.750  274.927   95.336    0.486    0.258    4.511
  276.000  278.106   93.755    0.542    0.256    4.300
  276.250  278.106   89.741    0.537    0.249    4.247
  276.500  281.265   88.225    0.519    0.234    4.454
  276.750  282.152   85.458    0.452    0.224    5.487
  277.000  282.844   82.885    0.445    0.214    6.132
  277.250  283.227   82.605    0.440    0.209    6.701
  277.500  283.602   85.330    0.444    0.206    7.324
  277.750  283.560   84.557    0.428    0.208    7.261
  278.000  283.730   80.292    0.413    0.213    6.882
  278.250  283.902   79.582    0.444    0.216    6.259
  278.500  283.902   81.439    0.510    0.227    5.012
  278.750  282.698   81.348    0.517    0.233    4.733
  279.000  282.760   82.825    0.495    0.225    4.639
  279.250  282.513   86.600    0.474    0.218    4.838
  279.500  282.476   90.325    0.444    0.219    5.709
  279.750  282.747   91.543    0.436    0.218    6.637
  280.000  282.297   90.464    0.428    0.214    7.446
  280.250  279.871   85.019    0.448    0.215    8.121
  280.500  275.894   78.138    0.449    0.229    9.163
  280.750  273.470   68.006    0.379    0.203   11.632
  281.000  272.290   60.937    0.334    0.044   14.932
  281.250  272.042   63.472    0.211    0.034   16.627
  281.500  273.048   69.063    0.224    0.109   16.423
  281.750  274.049   76.148    0.295    0.149   14.495
  282.000  273.701   82.795    0.425    0.200    8.209
  282.250  270.447   78.533    0.457    0.204    8.002
  282.500  268.026   73.022    0.431    0.158    9.011
  282.750  266.848   67.388    0.366    0.089   11.142
  283.000  266.302   62.816    0.345    0.134   12.784
  283.250  266.503   64.910    0.373    0.183   12.841
  283.500  266.836   69.574    0.424    0.239   11.991
  283.750  269.541   73.167    0.427    0.277    9.838
  284.000  270.397   76.819    0.421    0.273    8.604
  284.250  274.468   79.667    0.408    0.259    8.064
  284.500  274.995   82.634    0.415    0.244    7.587
  284.750  276.638   85.103    0.410    0.227    7.340
  285.000  276.685   86.518    0.406    0.210    7.101
  285.250  275.972   87.304    0.401    0.207    6.655
  285.500  275.575   89.096    0.414    0.211    5.997
  285.750  272.453   92.872    0.429    0.209    5.631
  286.000  270.827   98.710    0.443    0.208    5.387
  286.250  267.796   97.877    0.475    0.215    5.422
  286.500  267.796   84.759    0.461    0.223    6.856
  286.750  264.188   70.268    0.419    0.219    8.705
  287.000  264.188   67.875    0.401    0.225   10.119
  287.250  262.255   69.040    0.398    0.277   11.720
  287.500  261.791   67.831    0.423    0.278   12.735
  287.750  261.446   66.061    0.429    0.258   13.481
  288.000  261.615   67.099    0.425    0.246   13.979
  288.250  261.615   68.821    0.418    0.260   14.334
  288.500  262.580   67.925    0.432    0.270   14.080
  288.750  264.451   67.537    0.432    0.249   13.983
  289.000  264.786   68.695    0.432    0.247   13.942
  289.250  266.524   70.480    0.435    0.260   13.900
