~VERSION INFORMATION
 VERS.                 2.0:   CWLS LOG ASCII STANDARD -VERSION 2.0
 WRAP.                  NO:   ONE LINE PER DEPTH STEP
~WELL INFORMATION BLOCK
#MNEM.UNIT           DATA                    DESCRIPTION OF MNEMONIC
#---------    -------------------            -------------------------------
# Generated from Intellog Unique Number	CN_91_93/WELL/3046
WELL.         PARAMOUNT RESOURCES LTD.       : Well_name    - WELL
LOC .         00/05-36-092-20W4/0            : Location     - LOCATION
UWI .         00/05-36-092-20W4/0            : Uwi          - UNIQUE WELL ID
ENTR.         JOETTE                         : Entered      - ENTERED BY
SRVC.         COMPUTALOG                     : Scn          - SERVICE COMPANY
DATE.         04/09/92                       : Date         - LOG DATE
STRT.M        105                            : top_depth    - START DEPTH
STOP.M        255                            : bot_depth    - STOP DEPTH
STEP.M        0.25                           : increment    - STEP LENGTH
 NULL. -999.2500:NULL Value
~CURVE INFORMATION BLOCK
#MNEM UNIT       ERCB CURVE CODE    CURVE DESCRIPTION
#-----------   ------------------   ----------------------------------
DEPT.M        00 001 00 00         : DEPTH        - DEPTH
CALI.MM       00 280 01 00         : CAL          - CALIPER
GR  .API      00 310 00 00         : GR           - GAMMA RAY
NPHI.V/V      00 330 00 00         : PHIN         - NEUTRON POROSITY (SANDSTONE)
DPHI.V/V      00 890 00 00         : PHID         - DENSITY POROSITY (SANDSTONE)
ILD .OHMM     00 120 00 00         : RESD         - DEEP RESISTIVITY (DIL)
~PARAMETER INFORMATION
#MNEM.UNIT           DATA             DESCRIPTION OF MNEMONIC
#---------         -----------     ------------------------------
GL  .M        527.9                : gl           - GROUND LEVEL ELEVATION
EREF.M        531.3                : kb           - ELEVATION OF DEPTH REFERENCE
DATM.M        531.3                : datum        - DATUM ELEVATION
TDD .M        259                  : tdd          - TOTAL DEPTH DRILLER
RUN .         ONE                  : Run          - RUN NUMBER
ENG .         BILL                 : Engineer     - RECORDING ENGINEER
WIT .         JIM                  : Witness      - WITNESSED BY
MUD .         GEL                  : Mud_type     - MUD TYPE
MATR.         SANDSTONE            : Logunit      - NEUTRON MATRIX
TMAX.C        17                   : BHT          - MAXIMUM RECORDED TEMPERATURE
BHTD.M        259                  : BHTDEP       - MAXIMUM RECORDED TEMPERATURE
RMT .C        15.6                 : MDTP         - TEMPERATURE OF MUD
MUDD.KG/M     1190                 : MWT          - MUD DENSITY
NEUT.         1                    : NEUTRON      - NEUTRON TYPE
RESI.         0                    : RESIST       - RESISTIVITY TYPE
RM  .OHMM     1.9                  : RM           - RESISTIVITY OF MUD
RMC .OHMM     1.9                  : RMC          - RESISTIVITY OF MUD CAKE
RMF .OHMM     1.6                  : RMF          - RESISTIVITY OF MUD FILTRATE
SUFT.C        -20                  : SUFT         - SURFACE TEMPERATURE
~A  DEPTH      CAL       GR     PHIN     PHID     RESD
# ...
  178.000  176.594   70.976    0.280    0.106   17.982
  178.250  176.603   72.806    0.276    0.050   19.779
  178.500  179.666   80.094    0.290    0.116   20.552
  178.750  181.701   86.775    0.319    0.153   18.693
  179.000  183.736   94.669    0.329    0.160   17.000
  179.250  185.771   98.318    0.356    0.155   15.169
  179.500  188.834   98.935    0.373    0.154   13.281
  179.750  190.869  100.156    0.381    0.164   11.629
  180.000  191.889  103.199    0.391    0.182   10.780
  180.250  192.926  101.997    0.401    0.201   10.379
  180.500  193.950   98.369    0.393    0.215    9.994
  180.750  193.964  100.806    0.383    0.219    9.996
  181.000  193.977  100.210    0.372    0.202    9.998
  181.250  193.995   98.402    0.378    0.199   10.194
  181.500  194.018   97.200    0.392    0.201   10.391
  181.750  194.040  100.846    0.405    0.198   10.593
  182.000  193.038  106.924    0.413    0.187   10.397
  182.250  193.061  110.570    0.416    0.179   10.202
  182.500  192.073  114.219    0.416    0.184    9.279
  182.750  191.071  113.624    0.402    0.194    8.439
  183.000  190.078  109.390    0.388    0.198    8.125
  183.250  189.086  105.156    0.363    0.195    7.974
  183.500  188.088  101.528    0.350    0.152    8.606
  183.750  186.085  101.539    0.350    0.145    9.649
  184.000  185.092  105.185    0.352    0.169   11.027
  184.250  183.089  113.079    0.356    0.177   12.130
  184.500  182.096  118.548    0.357    0.189   12.846
  184.750  182.110  114.314    0.358    0.194   13.095
  185.000  182.128  110.686    0.356    0.197   13.096
  185.250  184.167  106.452    0.354    0.198   13.100
  185.500  185.196  101.005    0.347    0.161   13.104
  185.750  184.203   96.769    0.307    0.121   13.357
  186.000  180.178   91.322    0.289    0.059   14.146
  186.250  174.132   91.335    0.284    0.031   14.150
  186.500  174.150   96.195    0.289    0.090   13.885
  186.750  179.221  104.089    0.314    0.131   12.628
  187.000  181.261  108.951    0.353    0.174   11.269
  187.250  177.241  108.355    0.360    0.198   10.249
  187.500  174.222  106.549    0.362    0.194    9.868
  187.750  176.266  106.560    0.367    0.164    9.685
  188.000  178.296  107.174    0.376    0.169    9.874
  188.250  184.383  109.608    0.389    0.178   10.065
  188.500  185.411  110.834    0.387    0.174   10.864
  188.750  185.425  108.420    0.397    0.180   11.503
  189.000  182.415  105.396    0.394    0.186   13.399
  189.250  180.407   99.949    0.379    0.210   14.187
  189.500  178.399   95.108    0.332    0.224   15.311
  189.750  175.390   90.271    0.296    0.234   16.214
  190.000  173.382   89.670    0.286    0.238   16.848
  190.250  170.372   91.500    0.282    0.081   17.176
  190.500  168.369   96.362    0.285    0.110   16.857
  190.750  166.370  102.436    0.297    0.156   16.230
  191.000  166.375  105.482    0.313    0.171   15.627
  191.250  168.414  105.493    0.340    0.191   14.213
  191.500  176.517  107.323    0.356    0.205   13.175
  191.750  182.599  110.363    0.355    0.205   12.930
  192.000  185.649  114.015    0.349    0.201   12.217
  192.250  188.699  113.419    0.353    0.187   11.987
  192.500  190.739  112.818    0.364    0.169   11.990
  192.750  186.714  109.797    0.370    0.175   11.993
  193.000  185.721  106.776    0.366    0.162   12.227
  193.250  182.707  106.180    0.356    0.141   12.704
  193.500  180.708  107.404    0.355    0.149   12.951
  193.750  180.717  110.446    0.357    0.162   12.953
  194.000  183.767  112.883    0.365    0.162   12.473
  194.250  189.854  112.896    0.366    0.156   12.010
  194.500  189.872  109.872    0.387    0.154   11.563
  194.750  186.853  105.029    0.414    0.106   11.567
  195.000  180.807  100.189    0.373    0.030   12.724
  195.250  173.750  103.231    0.325    0.093   13.221
  195.500  174.775  108.093    0.318    0.138   13.477
  195.750  178.835  107.498    0.336    0.158   13.226
  196.000  180.883  106.296    0.344    0.191   12.496
  196.250  180.892  107.522    0.351    0.156   11.805
  196.500  180.924  109.349    0.361    0.184   11.152
  196.750  180.933  111.177    0.387    0.193    9.764
  197.000  180.946  114.219    0.419    0.202    8.075
  197.250  180.969  114.230    0.436    0.194    7.344
  197.500  179.972  109.390    0.400    0.165    7.487
  197.750  179.985  101.517    0.358    0.139    8.235
  198.000  176.980   94.858    0.324    0.106    9.963
  198.250  175.978   88.198    0.299    0.056   11.604
  198.500  173.979   89.422    0.294    0.066   13.514
  198.750  171.976   92.462    0.308    0.052   15.443
  199.000  170.979   93.688    0.326    0.079   16.044
  199.250  171.001   96.124    0.344    0.113   15.157
  199.500  173.041  100.380    0.367    0.136   12.536
  199.750  174.060  104.633    0.383    0.156   11.185
  200.000  177.124  110.101    0.395    0.175   10.568
  200.250  179.159  110.719    0.395    0.179   10.371
  200.500  180.183  108.910    0.391    0.170   10.573
  200.750  180.201  104.679    0.385    0.143   11.854
  201.000  179.212  102.261    0.353    0.099   13.805
  201.250  178.211  100.453    0.337    0.101   15.774
  201.500  174.186  102.283    0.304    0.079   18.724
  201.750  172.178  105.323    0.291    0.062   19.455
  202.000  173.211  109.581    0.304    0.117   18.380
  202.250  175.246  110.196    0.318    0.149   17.365
  202.500  179.311  107.781    0.334    0.174   16.406
  202.750  182.357  102.943    0.345    0.178   16.099
  203.000  186.422  100.523    0.352    0.182   15.801
  203.250  188.457   95.682    0.365    0.423   15.506
  203.500  190.501   94.480    0.371    0.484   15.510
  203.750  189.508   98.130    0.365    0.534   15.811
  204.000  185.483  104.204    0.351    0.381   15.814
  204.250  181.449  109.673    0.344    0.308   16.123
  204.500  173.387  109.686    0.346    0.212   16.126
  204.750  170.377  107.271    0.353    0.158   16.129
  205.000  170.390  105.460    0.355    0.153   16.444
  205.250  169.393  104.261    0.350    0.137   16.446
  205.500  169.411  104.269    0.325    0.090   16.451
  205.750  169.429  103.671    0.313    0.114   16.770
  206.000  168.432  103.075    0.315    0.146   17.096
  206.250  167.439  100.660    0.320    0.178   18.105
  206.500  164.434   95.213    0.322    0.206   19.915
  206.750  162.426   87.341    0.315    0.171   22.327
  207.000  161.429   81.891    0.278    0.139   27.012
  207.250  160.436   72.806    0.257    0.048   30.866
  207.500  160.454   70.391    0.243    0.093   33.954
  207.750  161.483   66.157    0.243    0.107   36.647
  208.000  162.521   66.775    0.252    0.106   36.654
  208.250  163.545   72.243    0.261    0.073   33.976
  208.500  164.569   84.988    0.262    0.072   29.187
  208.750  164.591   88.640    0.268    0.112   24.135
  209.000  164.605   88.042    0.283    0.130   20.344
  209.250  164.627   89.869    0.318    0.124   18.503
  209.500  164.636   94.731    0.336    0.121   17.152
  209.750  165.665  100.806    0.367    0.129   16.204
  210.000  165.687   99.606    0.381    0.137   15.602
  210.250  166.707   96.585    0.392    0.119   14.739
  210.500  168.746   97.806    0.389    0.028   13.154
  210.750  171.796  103.275    0.385    0.123   12.665
  211.000  174.846  108.137    0.384    0.153   12.194
  211.250  175.880  109.967    0.390    0.164   11.303
  211.500  176.913  109.371    0.396    0.169   10.884
  211.750  176.922  108.775    0.401    0.173   11.096
  212.000  176.940  109.393    0.407    0.175   11.751
  212.250  173.935  108.797    0.407    0.180   12.209
  212.500  173.944  105.167    0.398    0.179   12.930
  212.750  171.940  101.539    0.393    0.163   13.181
  213.000  170.943  107.616    0.393    0.133   13.436
  213.250  168.944  110.050    0.393    0.141   13.440
  213.500  167.947  108.848    0.393    0.145   13.443
  213.750  166.963  107.040    0.395    0.095   13.445
  214.000  166.981  108.263    0.400    0.126   13.450
  214.250  166.990  113.729    0.402    0.138   13.198
