~VERSION INFORMATION
 VERS.                 2.0:   CWLS LOG ASCII STANDARD -VERSION 2.0
 WRAP.                  NO:   ONE LINE PER DEPTH STEP
~WELL INFORMATION BLOCK
#MNEM.UNIT           DATA                    DESCRIPTION OF MNEMONIC
#---------    -------------------            -------------------------------
# Generated from Intellog Unique Number	CW_76_78/WELL/773
WELL.         GULF ET AL MANNY 08-26         : Well_name    - WELL
LOC .         00/08-26-076-21W4/0            : Location     - LOCATION
UWI .         00/08-26-076-21W4/0            : Uwi          - UNIQUE WELL ID
ENTR.         JAYE                           : Entered      - ENTERED BY
SRVC.         SCHLUMBERGER                   : Scn          - SERVICE COMPANY
DATE.         5 MAR 81                       : Date         - LOG DATE
STRT.M        395                            : top_depth    - START DEPTH
STOP.M        587                            : bot_depth    - STOP DEPTH
STEP.M        0.25                           : increment    - STEP LENGTH
 NULL. -999.2500:NULL Value
~CURVE INFORMATION BLOCK
#MNEM UNIT       ERCB CURVE CODE    CURVE DESCRIPTION
#-----------   ------------------   ----------------------------------
DEPT.M        00 001 00 00         : DEPTH        - DEPTH
ILD .OHMM     00 120 00 00         : RESD         - DEEP RESISTIVITY (DIL)
NPHI.V/V      00 330 00 00         : PHIN         - NEUTRON POROSITY (SANDSTONE)
DPHI.V/V      00 890 00 00         : PHID         - DENSITY POROSITY (SANDSTONE)
GR  .API      00 310 00 00         : GR           - GAMMA RAY
CALI.MM       00 280 01 00         : CAL          - CALIPER
~PARAMETER INFORMATION
#MNEM.UNIT           DATA             DESCRIPTION OF MNEMONIC
#---------         -----------     ------------------------------
GL  .M        723.85               : gl           - GROUND LEVEL ELEVATION
EREF.M        728.35               : kb           - ELEVATION OF DEPTH REFERENCE
DATM.M        723.85               : datum        - DATUM ELEVATION
TDD .M        612                  : tdd          - TOTAL DEPTH DRILLER
RUN .         ONE                  : Run          - RUN NUMBER
ENG .         MCEWAN               : Engineer     - RECORDING ENGINEER
WIT .         WOOD                 : Witness      - WITNESSED BY
BASE.         EDM                  : Branch       - HOME BASE OF LOGGING UNIT
MUD .         GEL                  : Mud_type     - MUD TYPE
MATR.         SANDSTONE            : Logunit      - NEUTRON MATRIX
TMAX.C        22.2                 : BHT          - MAXIMUM RECORDED TEMPERATURE
BHTD.M        609                  : BHTDEP       - MAXIMUM RECORDED TEMPERATURE
RMT .C        14.4                 : MDTP         - TEMPERATURE OF MUD
MUDD.KG/M     9.5                  : MWT          - MUD DENSITY
NEUT.         1                    : NEUTRON      - NEUTRON TYPE
RESI.         0                    : RESIST       - RESISTIVITY TYPE
RM  .OHMM     6.35                 : RM           - RESISTIVITY OF MUD
RMC .OHMM     0                    : RMC          - RESISTIVITY OF MUD CAKE
RMF .OHMM     8.17                 : RMF          - RESISTIVITY OF MUD FILTRATE
SUFT.C        0                    : SUFT         - SURFACE TEMPERATURE
~A  DEPTH     RESD     PHIN     PHID       GR      CAL
# ...
  431.500    3.465    0.491    0.218  118.891  173.282
  431.750    3.892    0.449    0.251  117.918  170.423
  432.000    4.362    0.419    0.256  115.393  168.589
  432.250    4.853    0.429    0.223  112.684  167.484
  432.500    5.036    0.440    0.203  108.732  167.726
  432.750    5.081    0.440    0.200   97.890  167.862
  433.000    5.313    0.427    0.183   73.895  167.585
  433.250    5.767    0.448    0.186   72.797  166.375
  433.500    6.477    0.497    0.279   68.535  163.719
  433.750    7.329    0.484    0.312   68.120  160.859
  434.000    7.883    0.441    0.320   73.104  159.546
  434.250    7.893    0.437    0.315   66.981  158.234
  434.500    7.757    0.454    0.322   73.392  156.922
  434.750    7.708    0.454    0.315   73.040  154.682
  435.000    7.590    0.452    0.304   75.853  154.093
  435.250    7.361    0.447    0.307   79.658  159.193
  435.500    7.126    0.442    0.307   76.451  160.263
  435.750    6.821    0.437    0.303   78.148  160.397
  436.000    6.566    0.427    0.299   83.069  160.225
  436.250    6.392    0.416    0.289   89.356  160.054
  436.500    6.317    0.403    0.261   71.876  160.087
  436.750    6.409    0.408    0.255   67.924  160.121
  437.000    6.515    0.435    0.274   67.448  160.149
  437.250    6.824    0.445    0.289   69.950  160.183
  437.500    7.328    0.455    0.302   69.163  160.423
  437.750    7.619    0.457    0.245   60.992  160.458
  438.000    7.686    0.379    0.187   75.657  160.178
  438.250    7.594    0.394    0.167   86.289  160.111
  438.500    7.366    0.417    0.247   95.431  159.935
  438.750    7.171    0.430    0.290  102.526  159.864
  439.000    6.903    0.431    0.299  101.925  160.313
  439.250    6.509    0.414    0.289  109.888  161.068
  439.500    6.218    0.402    0.282  108.855  162.138
  439.750    5.952    0.403    0.272   99.379  163.001
  440.000    5.872    0.416    0.259   88.227  163.443
  440.250    5.992    0.428    0.249   75.403  163.272
  440.500    6.206    0.429    0.241   70.084  160.511
  440.750    6.451    0.422    0.247   59.864  160.544
  441.000    6.583    0.396    0.264   58.270  162.749
  441.250    6.592    0.410    0.307   67.413  162.368
  441.500    6.600    0.425    0.314   59.800  161.780
  441.750    6.660    0.433    0.299   59.571  161.710
  442.000    6.720    0.425    0.302   61.391  161.752
  442.250    6.781    0.424    0.306   55.331  161.781
  442.500    6.776    0.452    0.310   51.191  161.712
  442.750    6.797    0.426    0.324   52.825  161.640
  443.000    6.706    0.404    0.336   59.176  161.571
  443.250    6.701    0.417    0.322   53.672  161.500
  443.500    6.648    0.436    0.310   66.040  161.427
  443.750    6.582    0.438    0.308   55.200  161.354
  444.000    6.517    0.428    0.300   57.702  161.186
  444.250    6.380    0.401    0.305   65.296  160.804
  444.500    6.212    0.403    0.304   69.720  160.319
  444.750    6.047    0.411    0.287   79.235  159.523
  445.000    5.942    0.397    0.263   88.937  158.830
  445.250    5.677    0.371    0.231   91.438  162.071
  445.500    5.293    0.367    0.182   96.051  166.862
  445.750    4.752    0.369    0.185  101.220  168.653
  446.000    3.966    0.388    0.209   86.843  168.275
  446.250    3.861    0.428    0.216   65.826  169.651
  446.500    4.115    0.472    0.227   61.191  170.201
  446.750    4.366    0.463    0.239   65.431  165.993
  447.000    4.626    0.451    0.250   61.727  159.614
  447.250    4.947    0.461    0.278   57.155  155.819
  447.500    5.403    0.427    0.307   60.649  159.888
  447.750    5.745    0.443    0.325   58.436  161.163
  448.000    5.972    0.370    0.181   56.904  161.197
  448.250    6.141    0.281    0.115   58.973  161.127
  448.500    6.242    0.255    0.109   62.343  160.433
  448.750    6.191    0.292    0.134   66.398  159.846
  449.000    6.072    0.423    0.307   65.982  159.051
  449.250    5.968    0.442    0.335   66.312  158.776
  449.500    5.988    0.437    0.346   73.407  159.013
  449.750    6.064    0.417    0.343   70.634  158.945
  450.000    6.152    0.430    0.335   66.869  158.875
  450.250    6.161    0.448    0.322   83.396  158.494
  450.500    6.110    0.456    0.307   83.105  158.114
  450.750    5.827    0.440    0.293   92.372  158.042
  451.000    5.443    0.458    0.306   81.904  158.695
  451.250    5.123    0.438    0.277   65.664  160.902
  451.500    5.121    0.459    0.247   58.671  166.415
  451.750    5.334    0.494    0.277   64.960  162.831
  452.000    5.640    0.447    0.284   67.401  157.486
  452.250    5.952    0.433    0.293   64.565  155.036
  452.500    6.247    0.461    0.321   67.998  155.480
  452.750    6.362    0.459    0.342   73.540  158.721
  453.000    6.195    0.438    0.336   75.733  157.305
  453.250    5.985    0.437    0.329   73.767  157.134
  453.500    5.783    0.454    0.323   74.596  158.822
  453.750    5.599    0.451    0.310   82.805  157.611
  454.000    5.461    0.465    0.322   88.907  158.266
  454.250    5.356    0.481    0.314   89.361  153.956
  454.500    5.264    0.462    0.301   92.856  151.816
  454.750    5.191    0.466    0.294   85.305  152.574
  455.000    5.121    0.457    0.269   94.200  158.708
  455.250    5.071    0.447    0.231   99.618  166.501
  455.500    5.002    0.438    0.221   95.357  167.773
  455.750    4.924    0.429    0.216   94.755  169.048
  456.000    4.830    0.442    0.225   91.486  170.632
  456.250    4.702    0.441    0.237   85.984  172.113
  456.500    4.552    0.443    0.221   68.999  169.562
  456.750    4.406    0.484    0.210   63.185  168.046
  457.000    4.437    0.508    0.242   54.764  166.112
  457.250    4.537    0.503    0.280   56.336  162.527
  457.500    4.628    0.446    0.301   62.066  160.595
  457.750    4.776    0.416    0.323   53.273  159.487
  458.000    4.994    0.421    0.301   52.921  158.902
  458.250    5.321    0.443    0.279   56.664  158.522
  458.500    5.658    0.445    0.285   51.161  158.244
  458.750    5.995    0.440    0.298   53.728  157.759
  459.000    6.186    0.425    0.305   55.668  157.484
  459.250    6.419    0.420    0.299   55.626  158.241
  459.500    6.650    0.432    0.281   53.412  156.927
  459.750    6.849    0.427    0.271   55.666  153.753
  460.000    7.002    0.423    0.281   60.031  156.477
  460.250    7.038    0.422    0.279   67.249  160.342
  460.500    6.956    0.436    0.267   63.175  161.506
  460.750    6.796    0.438    0.278   66.111  162.056
  461.000    6.265    0.439    0.276   72.708  160.436
  461.250    5.786    0.433    0.275   80.485  159.952
  461.500    5.206    0.418    0.280   73.989  160.915
  461.750    4.719    0.417    0.264   67.927  163.950
  462.000    4.382    0.456    0.270   68.754  166.361
  462.250    4.063    0.512    0.295   70.636  165.359
  462.500    3.795    0.507    0.288   64.573  164.257
  462.750    3.632    0.559    0.277   66.644  165.838
  463.000    3.550    0.534    0.260   69.953  168.355
  463.250    3.582    0.529    0.273   75.185  172.421
  463.500    3.648    0.505    0.298   81.408  169.868
  463.750    3.771    0.451    0.290   91.793  160.490
  464.000    3.951    0.497    0.282   85.792  164.143
  464.250    4.177    0.545    0.305   83.703  174.828
  464.500    4.518    0.514    0.293   88.376  174.034
  464.750    5.017    0.495    0.271   85.047  170.040
  465.000    5.719    0.520    0.261   73.336  166.862
  465.250    6.140    0.492    0.255   66.716  163.485
  465.500    6.206    0.441    0.241   71.948  161.243
  465.750    6.076    0.434    0.258   78.298  160.547
  466.000    5.938    0.432    0.250   73.231  163.167
  466.250    5.869    0.431    0.271   79.393  165.684
  466.500    5.843    0.418    0.269   83.945  166.748
  466.750    5.851    0.424    0.264   88.124  167.612
  467.000    5.859    0.449    0.252   86.713  166.402
  467.250    5.823    0.472    0.240   77.611  165.400
  467.500    5.787    0.463    0.240   79.865  166.576
  467.750    5.795    0.439    0.255   67.907  167.431
