~VERSION INFORMATION
 VERS.                 2.0:   CWLS LOG ASCII STANDARD -VERSION 2.0
 WRAP.                  NO:   ONE LINE PER DEPTH STEP
~WELL INFORMATION BLOCK
#MNEM.UNIT           DATA                    DESCRIPTION OF MNEMONIC
#---------    -------------------            -------------------------------
# Generated from Intellog Unique Number	CS_77_79/WELL/2969
WELL.         MESA PET                       : Well_name    - WELL
LOC .         00/06-31-078-10W4/0            : Location     - LOCATION
UWI .         00/06-31-078-10W4/0            : Uwi          - UNIQUE WELL ID
ENTR.         TIM                            : Entered      - ENTERED BY
SRVC.         SCHLUMBERGER                   : Scn          - SERVICE COMPANY
STRT.F        840                            : top_depth    - START DEPTH
STOP.F        1569.99                        : bot_depth    - STOP DEPTH
STEP.F        0.82                           : increment    - STEP LENGTH
 NULL. -999.2500:NULL Value
~CURVE INFORMATION BLOCK
#MNEM UNIT       ERCB CURVE CODE    CURVE DESCRIPTION
#-----------   ------------------   ----------------------------------
DEPT.F        00 001 00 00         : DEPTH        - DEPTH
GR  .API      00 310 00 00         : GR           - GAMMA RAY
NPHI.V/V      00 330 00 00         : PHIN         - NEUTRON POROSITY (SANDSTONE)
DPHI.V/V      00 890 00 00         : PHID         - DENSITY POROSITY (SANDSTONE)
ILD .OHMM     00 120 00 00         : RESD         - DEEP RESISTIVITY (DIL)
~PARAMETER INFORMATION
#MNEM.UNIT           DATA             DESCRIPTION OF MNEMONIC
#---------         -----------     ------------------------------
GL  .F        2128                 : gl           - GROUND LEVEL ELEVATION
EREF.F        2143                 : kb           - ELEVATION OF DEPTH REFERENCE
DATM.F        2143                 : datum        - DATUM ELEVATION
TDD .F        1610                 : tdd          - TOTAL DEPTH DRILLER
RUN .         ONE                  : Run          - RUN NUMBER
ENG .         BILL                 : Engineer     - RECORDING ENGINEER
WIT .         JIM                  : Witness      - WITNESSED BY
MUD .         GEL                  : Mud_type     - MUD TYPE
MATR.         SANDSTONE            : Logunit      - NEUTRON MATRIX
TMAX.F        71                   : BHT          - MAXIMUM RECORDED TEMPERATURE
BHTD.F        1610                 : BHTDEP       - MAXIMUM RECORDED TEMPERATURE
MATR.         1                    : LOGUNIT      - NEUTRON MATRIX
RMT .F        57                   : MDTP         - TEMPERATURE OF MUD
NEUT.         1                    : NEUTRON      - NEUTRON TYPE
RESI.         4.9                  : RESIST       - RESISTIVITY TYPE
RMC .OHMM     4.27                 : RMC          - RESISTIVITY OF MUD CAKE
RMF .OHMM     4.27                 : RMF          - RESISTIVITY OF MUD FILTRATE
SUFT.F        59                   : SUFT         - SURFACE TEMPERATURE
~A  DEPTH       GR     PHIN     PHID     RESD
# ...
 1268.150   77.185    0.475    0.281    5.640
 1268.970   72.460    0.474    0.301    5.631
 1269.790   68.909    0.483    0.297    5.622
 1270.610   70.056    0.485    0.292    5.613
 1271.430   71.776    0.467    0.302    5.604
 1272.250   71.748    0.462    0.311    5.595
 1273.070   69.966    0.472    0.311    5.690
 1273.890   67.590    0.484    0.308    5.681
 1274.710   66.381    0.474    0.311    5.778
 1275.530   65.773    0.474    0.315    5.871
 1276.350   65.731    0.480    0.316    5.860
 1277.170   65.711    0.488    0.301    5.855
 1277.990   65.082    0.490    0.277    5.843
 1278.810   64.474    0.462    0.276    5.836
 1279.630   64.454    0.450    0.276    5.822
 1280.450   64.999    0.452    0.276    5.815
 1281.270   65.559    0.461    0.287    5.806
 1282.090   65.531    0.471    0.305    5.796
 1282.910   64.909    0.480    0.319    5.893
 1283.730   64.896    0.477    0.322    6.218
 1284.550   64.861    0.466    0.324    6.444
 1285.370   65.421    0.455    0.328    6.922
 1286.190   64.799    0.449    0.318    6.916
 1287.010   62.423    0.446    0.303    6.528
 1287.830   60.633    0.427    0.264    6.283
 1288.650   62.962    0.370    0.228    5.822
 1289.480   68.219    0.333    0.200    5.606
 1290.300   71.113    0.386    0.178    5.194
 1291.120   70.492    0.448    0.257    5.184
 1291.940   69.891    0.477    0.280    5.276
 1292.760   71.031    0.477    0.301    5.566
 1293.580   72.177    0.481    0.295    5.660
 1294.400   73.331    0.482    0.290    5.759
 1295.220   75.645    0.476    0.300    5.857
 1296.040   76.799    0.465    0.311    5.952
 1296.860   72.647    0.463    0.308    5.942
 1297.680   69.103    0.461    0.298    5.933
 1298.500   66.140    0.453    0.291    5.926
 1299.320   65.518    0.444    0.293    5.808
 1300.140   67.245    0.437    0.303    5.798
 1300.960   69.566    0.436    0.306    5.679
 1301.780   70.713    0.442    0.307    5.669
 1302.600   71.279    0.458    0.305    5.663
 1303.420   71.832    0.458    0.301    5.548
 1304.240   72.399    0.446    0.292    5.541
 1305.060   73.546    0.439    0.287    5.427
 1305.880   74.692    0.443    0.278    5.319
 1306.700   78.768    0.446    0.272    5.215
 1307.520   81.677    0.452    0.268    5.111
 1308.340   84.585    0.451    0.265    5.008
 1309.160   86.312    0.448    0.260    4.998
 1309.980   82.754    0.450    0.256    4.992
 1310.800   80.972    0.462    0.245    5.169
 1311.620   78.589    0.485    0.257    5.257
 1312.440   76.806    0.461    0.274    5.545
 1313.260   74.423    0.447    0.284    5.642
 1314.080   72.040    0.446    0.278    5.740
 1314.900   70.838    0.471    0.272    5.944
 1315.720   69.042    0.477    0.274    6.048
 1316.540   68.441    0.483    0.277    6.038
 1317.360   67.826    0.472    0.278    6.024
 1318.180   67.791    0.461    0.282    6.016
 1319.000   68.358    0.451    0.288    6.119
 1319.820   68.910    0.450    0.284    6.106
 1320.640   69.463    0.471    0.281    6.210
 1321.460   71.190    0.475    0.278    6.203
 1322.280   72.351    0.478    0.276    6.190
 1323.100   75.252    0.478    0.274    6.180
 1323.920   77.581    0.481    0.270    6.285
 1324.740   81.656    0.482    0.268    6.273
 1325.560   84.565    0.483    0.266    6.265
 1326.380   86.299    0.455    0.263    6.250
 1327.200   83.922    0.457    0.259    6.245
 1328.020   82.713    0.467    0.253    6.230
 1328.850   83.867    0.466    0.242    6.109
 1329.670   85.601    0.468    0.227    5.765
 1330.490   86.741    0.474    0.209    5.550
 1331.310   87.307    0.488    0.220    5.543
 1332.130   88.447    0.488    0.222    5.428
 1332.950   89.580    0.478    0.220    5.422
 1333.770   90.154    0.476    0.217    5.413
 1334.590   91.300    0.475    0.219    5.404
 1335.410   93.034    0.474    0.227    5.394
 1336.230   95.936    0.475    0.218    5.588
 1337.050   97.670    0.469    0.204    5.788
 1337.870   98.817    0.455    0.201    5.997
 1338.690   98.775    0.443    0.210    6.096
 1339.510   98.761    0.431    0.215    6.086
 1340.330   99.314    0.428    0.210    5.965
 1341.150  100.461    0.419    0.208    5.742
 1341.970   99.846    0.423    0.215    5.521
 1342.790   97.463    0.430    0.215    5.314
 1343.610   95.674    0.437    0.215    5.019
 1344.430   94.472    0.458    0.217    4.566
 1345.250   94.451    0.461    0.226    4.397
 1346.070   92.655    0.465    0.229    3.783
 1346.890   89.691    0.476    0.235    3.446
 1347.710   88.489    0.483    0.241    2.912
 1348.530   88.455    0.494    0.246    2.462
 1349.350   87.840    0.508    0.250    2.200
 1350.170   86.631    0.525    0.260    1.966
 1350.990   85.443    0.545    0.276    1.823
 1351.810   84.234    0.576    0.320    1.854
 1352.630   84.206    0.599    0.312    1.954
 1353.450   83.591    0.567    0.311    2.063
 1354.270   84.725    0.568    0.316    2.177
 1355.090   86.472    0.566    0.313    2.385
 1355.910   88.793    0.556    0.304    2.710
 1356.730   89.346    0.541    0.291    3.079
 1357.550   89.319    0.496    0.285    3.498
 1358.370   89.284    0.489    0.271    3.902
 1359.190   89.249    0.483    0.242    4.432
 1360.010   89.236    0.476    0.213    4.943
 1360.830   86.265    0.469    0.203    5.314
 1361.650   85.063    0.452    0.195    5.818
 1362.470   87.371    0.434    0.184    6.030
 1363.290   89.112    0.411    0.170    5.691
 1364.110   92.600    0.398    0.157    5.478
 1364.930   94.341    0.390    0.147    4.806
 1365.750   96.655    0.417    0.198    4.372
 1366.570   97.809    0.427    0.207    4.208
 1367.400   99.550    0.468    0.224    3.899
 1368.220   97.754    0.463    0.233    3.751
 1369.040   95.951    0.455    0.225    3.678
 1369.860   95.350    0.460    0.201    3.672
 1370.680   94.735    0.471    0.191    3.601
 1371.500   93.533    0.479    0.188    3.659
 1372.320   91.737    0.413    0.178    3.723
 1373.140   92.877    0.396    0.153    3.786
 1373.960   95.785    0.432    0.169    3.848
 1374.780   99.281    0.454    0.197    3.844
 1375.600  101.609    0.463    0.205    3.837
 1376.420  102.162    0.445    0.202    3.975
 1377.240  102.141    0.438    0.204    4.191
 1378.060  102.099    0.446    0.207    4.424
 1378.880  101.485    0.449    0.210    4.584
 1379.700  100.870    0.449    0.216    4.835
 1380.520  100.262    0.438    0.219    5.013
 1381.340   98.459    0.438    0.211    5.288
 1382.160   97.858    0.434    0.200    5.480
 1382.980   97.229    0.427    0.180    5.573
 1383.800   97.202    0.418    0.167    5.986
 1384.620   97.174    0.409    0.158    6.204
 1385.440   95.972    0.402    0.153    6.791
 1386.260   93.015    0.418    0.151    7.038
 1387.080   81.237    0.413    0.179    7.847
 1387.900   75.924    0.398    0.176    8.132
 1388.720   70.025    0.385    0.165    9.067
 1389.540   60.595    0.378    0.156    9.750
 1390.360   54.696    0.369    0.177   11.280
 1391.180   50.558    0.356    0.208   12.357
 1392.000   47.587    0.356    0.239   16.275
 1392.820   48.734    0.369    0.276   16.860
 1393.640   52.222    0.370    0.289   19.156
 1394.460   56.305    0.381    0.291   23.005
 1395.280   58.627    0.386    0.288   28.143
 1396.100   60.367    0.397    0.281   31.390
 1396.920   63.856    0.409    0.273   30.766
 1397.740   67.359    0.405    0.277   27.483
 1398.560   75.552    0.397    0.276   25.960
 1399.380   85.507    0.390    0.269   25.444
 1400.200   92.525    0.394    0.254   26.840
 1401.020   84.270    0.395    0.244   28.323
 1401.840   80.132    0.391    0.239   30.446
 1402.660   74.820    0.389    0.253   33.325
 1403.480   70.088    0.387    0.261   34.551
 1404.300   68.291    0.382    0.256   36.461
 1405.120   68.264    0.378    0.249   35.722
 1405.940   70.585    0.377    0.246   33.124
 1406.770   76.436    0.377    0.243   27.995
 1407.590   85.217    0.375    0.234   25.028
 1408.410   93.410    0.373    0.212   17.264
 1409.230  100.429    0.370    0.203   16.611
 1410.050  106.273    0.376    0.193   14.567
