~VERSION INFORMATION
 VERS.                 2.0:   CWLS LOG ASCII STANDARD -VERSION 2.0
 WRAP.                  NO:   ONE LINE PER DEPTH STEP
~WELL INFORMATION BLOCK
#MNEM.UNIT           DATA                    DESCRIPTION OF MNEMONIC
#---------    -------------------            -------------------------------
# Generated from Intellog Unique Number	CW_73_75/WELL/3515
WELL.         ULSTER PETROLEUMS LTD.         : Well_name    - WELL
LOC .         00/01-24-075-24W4/0            : Location     - LOCATION
UWI .         00/01-24-075-24W4/0            : Uwi          - UNIQUE WELL ID
ENTR.         JOETTE                         : Entered      - ENTERED BY
SRVC.         SCHLUMBERGER                   : Scn          - SERVICE COMPANY
DATE.         05/22/92                       : Date         - LOG DATE
STRT.M        375                            : top_depth    - START DEPTH
STOP.M        610                            : bot_depth    - STOP DEPTH
STEP.M        0.25                           : increment    - STEP LENGTH
 NULL. -999.2500:NULL Value
~CURVE INFORMATION BLOCK
#MNEM UNIT       ERCB CURVE CODE    CURVE DESCRIPTION
#-----------   ------------------   ----------------------------------
DEPT.M        00 001 00 00         : DEPTH        - DEPTH
ILD .OHMM     00 120 00 00         : RESD         - DEEP RESISTIVITY (DIL)
DPHI.V/V      00 890 00 00         : PHID         - DENSITY POROSITY (SANDSTONE)
NPHI.V/V      00 330 00 00         : PHIN         - NEUTRON POROSITY (SANDSTONE)
GR  .API      00 310 00 00         : GR           - GAMMA RAY
~PARAMETER INFORMATION
#MNEM.UNIT           DATA             DESCRIPTION OF MNEMONIC
#---------         -----------     ------------------------------
GL  .M        699.8                : gl           - GROUND LEVEL ELEVATION
EREF.M        703.6                : kb           - ELEVATION OF DEPTH REFERENCE
DATM.M        703.6                : datum        - DATUM ELEVATION
TDD .M        615                  : tdd          - TOTAL DEPTH DRILLER
RUN .         ONE                  : Run          - RUN NUMBER
ENG .         BILL                 : Engineer     - RECORDING ENGINEER
WIT .         JIM                  : Witness      - WITNESSED BY
MUD .         GEL                  : Mud_type     - MUD TYPE
MATR.         SANDSTONE            : Logunit      - NEUTRON MATRIX
TMAX.C        28                   : BHT          - MAXIMUM RECORDED TEMPERATURE
BHTD.M        615                  : BHTDEP       - MAXIMUM RECORDED TEMPERATURE
RMT .C        20                   : MDTP         - TEMPERATURE OF MUD
MUDD.KG/M     1130                 : MWT          - MUD DENSITY
NEUT.         1                    : NEUTRON      - NEUTRON TYPE
RESI.         0                    : RESIST       - RESISTIVITY TYPE
RM  .OHMM     3.1                  : RM           - RESISTIVITY OF MUD
RMC .OHMM     1.57                 : RMC          - RESISTIVITY OF MUD CAKE
RMF .OHMM     2.7                  : RMF          - RESISTIVITY OF MUD FILTRATE
SUFT.C        4                    : SUFT         - SURFACE TEMPERATURE
~A  DEPTH     RESD     PHID     PHIN       GR
# ...
  418.500   14.193    0.244    0.364   55.965
  418.750   14.763    0.358    0.385   58.372
  419.000   15.642    0.362    0.415   56.687
  419.250   12.089    0.342    0.457   55.002
  419.500   10.639    0.284    0.471   53.902
  419.750    9.027    0.281    0.453   58.628
  420.000    7.802    0.317    0.418   69.818
  420.250    6.872    0.321    0.424   66.380
  420.500    6.278    0.317    0.430   60.587
  420.750    5.741    0.316    0.440   55.413
  421.000    5.538    0.311    0.446   56.066
  421.250    5.447    0.300    0.436   56.718
  421.500    5.660    0.288    0.422   56.203
  421.750    6.109    0.279    0.407   56.271
  422.000    6.470    0.272    0.393   56.907
  422.250    6.986    0.283    0.395   48.209
  422.500    7.127    0.315    0.397   47.727
  422.750    7.270    0.323    0.392   48.931
  423.000    7.427    0.294    0.409   55.462
  423.250    7.299    0.288    0.408   59.604
  423.500    6.671    0.277    0.404   65.534
  423.750    6.091    0.285    0.405   70.260
  424.000    5.265    0.293    0.410   79.112
  424.250    4.635    0.285    0.412   97.916
  424.500    4.155    0.269    0.443  106.149
  424.750    3.461    0.260    0.466  111.528
  425.000    2.936    0.272    0.444  108.658
  425.250    4.849    0.254    0.410  105.787
  425.500    5.326    0.251    0.387  101.764
  425.750    6.076    0.267    0.389   92.465
  426.000    6.432    0.261    0.407   85.538
  426.250    6.571    0.247    0.410   84.420
  426.500    7.088    0.228    0.407   75.121
  426.750    7.935    0.245    0.406   50.060
  427.000    8.399    0.169    0.402   48.358
  427.250    8.110    0.195    0.395   61.301
  427.500    7.412    0.247    0.381   68.984
  427.750    7.030    0.277    0.373   64.360
  428.000    6.661    0.314    0.388   58.000
  428.250    7.189    0.324    0.392   52.809
  428.500    7.333    0.330    0.399   50.522
  428.750    7.620    0.321    0.400   54.699
  429.000    7.639    0.310    0.398   56.537
  429.250    7.654    0.307    0.402   56.589
  429.500    7.398    0.315    0.410   55.488
  429.750    7.273    0.317    0.421   54.388
  430.000    7.150    0.307    0.422   59.716
  430.250    6.778    0.292    0.394   69.737
  430.500    6.545    0.283    0.395   70.991
  430.750    6.204    0.273    0.405   73.380
  431.000    6.219    0.264    0.424   78.124
  431.250    6.586    0.277    0.442   77.608
  431.500    6.975    0.278    0.405   73.001
  431.750    7.390    0.281    0.399   68.411
  432.000    7.539    0.296    0.404   65.541
  432.250    7.557    0.319    0.399   62.103
  432.500    7.426    0.309    0.398   58.097
  432.750    7.039    0.295    0.401   55.794
  433.000    6.557    0.276    0.394   73.996
  433.250    6.447    0.264    0.395   85.186
  433.500    6.344    0.251    0.402   92.851
  433.750    6.353    0.234    0.398   97.612
  434.000    6.605    0.223    0.382   94.759
  434.250    7.129    0.224    0.369   90.152
  434.500    7.411    0.217    0.352   84.376
  434.750    7.702    0.211    0.342   80.921
  435.000    8.164    0.205    0.334   75.747
  435.250    8.324    0.217    0.338   72.876
  435.500    8.345    0.241    0.377   68.854
  435.750    8.361    0.271    0.381   63.646
  436.000    8.073    0.322    0.373   56.701
  436.250    7.653    0.312    0.352   49.757
  436.500    7.390    0.314    0.337   41.626
  436.750    7.268    0.315    0.345   34.699
  437.000    7.153    0.319    0.347   37.088
  437.250    7.160    0.320    0.341   44.771
  437.500    6.917    0.311    0.352   48.346
  437.750    6.807    0.304    0.364   44.908
  438.000    6.692    0.318    0.363   39.734
  438.250    6.465    0.328    0.358   38.616
  438.500    6.128    0.289    0.361   48.035
  438.750    6.028    0.266    0.403   69.159
  439.000    6.036    0.291    0.415   76.258
  439.250    6.161    0.296    0.378   78.664
  439.500    6.288    0.268    0.359   66.460
  439.750    6.418    0.252    0.358   80.571
  440.000    6.436    0.247    0.367   82.960
  440.250    6.446    0.251    0.377   83.613
  440.500    6.455    0.258    0.387   77.838
  440.750    6.352    0.272    0.396   77.906
  441.000    5.908    0.276    0.407   97.862
  441.250    4.921    0.245    0.498  108.466
  441.500    3.951    0.205    0.513  109.721
  441.750    3.352    0.200    0.512  107.435
  442.000    3.006    0.208    0.504  111.594
  442.250    2.798    0.218    0.510  115.169
  442.500    2.803    0.209    0.544  113.484
  442.750    2.808    0.178    0.527  112.968
  443.000    2.815    0.181    0.491  113.638
  443.250    2.769    0.187    0.485  114.274
  443.500    2.673    0.185    0.494  120.221
  443.750    2.678    0.238    0.512  117.951
  444.000    2.889    0.248    0.536  114.496
  444.250    3.234    0.244    0.472  111.058
  444.500    3.826    0.239    0.438  106.452
  444.750    5.059    0.241    0.399  103.581
  445.000    5.989    0.246    0.407  100.143
  445.250    6.581    0.237    0.420  100.211
  445.500    6.476    0.226    0.433  115.509
  445.750    6.136    0.225    0.428  119.668
  446.000    5.707    0.235    0.429  120.304
  446.250    4.843    0.235    0.447  117.450
  446.500    4.186    0.221    0.453  111.090
  446.750    3.970    0.239    0.445   96.548
  447.000    4.280    0.255    0.443   92.509
  447.250    6.939    0.286    0.444   82.058
  447.500    7.211    0.299    0.415   75.096
  447.750    7.786    0.284    0.405   73.996
  448.000    7.651    0.274    0.412   79.943
  448.250    7.120    0.279    0.455   79.427
  448.500    6.504    0.265    0.453   81.833
  448.750    5.833    0.257    0.438   85.391
  449.000    5.138    0.303    0.455   87.797
  449.250    4.962    0.311    0.468   83.774
  449.500    4.880    0.307    0.462   79.168
  449.750    4.890    0.323    0.468   76.898
  450.000    4.988    0.330    0.428   77.551
  450.250    5.188    0.317    0.400   72.360
  450.500    5.497    0.274    0.407   71.260
  450.750    5.608    0.258    0.412   84.770
  451.000    5.836    0.257    0.398  101.803
  451.250    5.842    0.248    0.385  101.287
  451.500    5.962    0.242    0.398   97.282
  451.750    5.979    0.270    0.434   94.996
  452.000    5.562    0.329    0.463   83.376
  452.250    5.470    0.353    0.463   75.830
  452.500    6.351    0.356    0.454   60.704
  452.750    9.211    0.350    0.461   53.158
  453.000   10.508    0.350    0.454   51.473
  453.250   10.529    0.350    0.444   52.710
  453.500   11.353    0.345    0.444   51.627
  453.750   11.587    0.333    0.450   52.280
  454.000    8.968    0.329    0.458   52.916
  454.250    8.039    0.325    0.457   54.754
  454.500    7.078    0.312    0.451   58.329
  454.750    6.586    0.313    0.442   60.151
  455.000    6.129    0.310    0.444   59.051
  455.250    5.816    0.307    0.448   56.798
  455.500    5.718    0.309    0.436   56.265
  455.750    5.624    0.306    0.442   55.749
  456.000    5.532    0.324    0.451   59.342
  456.250    5.646    0.339    0.420   60.562
  456.500    5.765    0.351    0.422   58.310
  456.750    5.878    0.358    0.428   55.456
  457.000    5.892    0.369    0.416   54.339
  457.250    5.185    0.367    0.401   53.238
  457.500    4.011    0.339    0.409   56.813
  457.750    3.532    0.271    0.463   86.136
  458.000    2.834    0.257    0.532   90.880
  458.250    2.541    0.279    0.525   85.104
  458.500    3.008    0.319    0.468   78.160
  458.750    3.561    0.353    0.453   72.952
  459.000    3.769    0.325    0.439   63.085
  459.250    4.298    0.321    0.440   62.586
  459.500    4.728    0.330    0.480   64.992
  459.750    4.823    0.342    0.488   64.493
  460.000    4.922    0.361    0.510   63.376
  460.250    4.932    0.375    0.469   61.708
  460.500    4.941    0.379    0.457   60.591
  460.750    4.953    0.376    0.445   59.491
  461.000    4.965    0.372    0.452   61.897
  461.250    4.972    0.364    0.458   64.870
  461.500    4.980    0.356    0.457   66.159
  461.750    4.992    0.345    0.446   66.193
