~VERSION INFORMATION
 VERS.                 2.0:   CWLS LOG ASCII STANDARD -VERSION 2.0
 WRAP.                  NO:   ONE LINE PER DEPTH STEP
~WELL INFORMATION BLOCK
#MNEM.UNIT           DATA                    DESCRIPTION OF MNEMONIC
#---------    -------------------            -------------------------------
# Generated from Intellog Unique Number	CC_80_83/WELL/1166
NULL.         -999.25                        : NULL_VALUE
WELL.         SIEBENS WATCHUSK               : Well_name    - WELL
LOC .         06-34-082-03W4                 : Location     - LOCATION          
UWI .         00/06-34-082-03W400            : Uwi          - UNIQUE WELL ID    
ENTR.         DW                             : Entered      - ENTERED BY        
SRVC.         SCHLUMBERGER                   : Scn          - SERVICE COMPANY   
DATE.         12 FEB 77                      : Date         - LOG DATE
STRT.M        94.488                         : top_depth    - START DEPTH       
STOP.M        310.896                        : bot_depth    - STOP DEPTH        
STEP.M        0.3048                         : increment    - STEP LENGTH       
~CURVE INFORMATION BLOCK
#MNEM UNIT       ERCB CURVE CODE    CURVE DESCRIPTION
#-----------   ------------------   ----------------------------------
DEPT.M        00 001 00 00         : DEPTH        - DEPTH                       
DPHI.V/V      00 890 00 00         : PHID         - DENSITY POROSITY (LIMESTONE)
NPHI.V/V      00 330 00 00         : PHIN         - NEUTRON POROSITY (LIMESTONE)
GR  .API      00 310 00 00         : GR           - GAMMA RAY                   
ILD .OHMM     00 120 00 00         : RESD         - DEEP RESISTIVITY (DIL)      
~PARAMETER INFORMATION       
#MNEM.UNIT           DATA             DESCRIPTION OF MNEMONIC
#---------         -----------     ------------------------------
GL  .M        470.611              : gl           - GROUND LEVEL ELEVATION      
EREF.M        474.116              : kb           - ELEVATION OF DEPTH REFERENCE
DATM.M        474.116              : datum        - DATUM ELEVATION             
TDD .M        319.126              : tdd          - TOTAL DEPTH DRILLER         
RUN .         ONE                  : Run          - RUN NUMBER                  
ENG .         BILL                 : Engineer     - RECORDING ENGINEER          
WIT .         JIM                  : Witness      - WITNESSED BY                
MUD .         GEL                  : Mud_type     - MUD TYPE                    
MATR.         LIMESTONE            : Logunit      - NEUTRON MATRIX              
TMAX.C        19.4444              : BHT          - MAXIMUM RECORDED TEMPERATURE
BHTD.M        319.126              : BHTDEP       - MAXIMUM RECORDED TEMPERATURE
MATR.         1                    : LOGUNIT      - NEUTRON MATRIX              
RMT .C        25                   : MDTP         - TEMPERATURE OF MUD          
NEUT.         1                    : NEUTRON      - NEUTRON TYPE                
RESI.         0                    : RESIST       - RESISTIVITY TYPE            
RMC .OHMM     0.25                 : RMC          - RESISTIVITY OF MUD CAKE     
RMF .OHMM     0.25                 : RMF          - RESISTIVITY OF MUD FILTRATE 
SUFT.C        15                   : SUFT         - SURFACE TEMPERATURE         
~A  DEPTH     PHID     PHIN       GR     RESD
# ...
  253.591    0.360    0.418   53.690    2.005
  253.896    0.364    0.433   53.685    2.005
  254.201    0.367    0.436   53.073    2.042
  254.506    0.368    0.427   51.855    2.004
  254.811    0.354    0.406   50.636    1.930
  255.115    0.356    0.406   50.630    1.894
  255.420    0.375    0.419   51.230    1.859
  255.725    0.372    0.434   50.617    1.859
  256.030    0.379    0.453   50.007    1.858
  256.335    0.390    0.509   49.999    1.928
  256.639    0.401    0.481   54.226    2.001
  256.944    0.390    0.438   58.454    2.116
  257.249    0.376    0.427   63.287    2.322
  257.554    0.344    0.444   67.514    2.410
  257.859    0.326    0.433   69.927    2.409
  258.163    0.312    0.434   68.710    2.278
  258.468    0.329    0.424   59.629    2.154
  258.773    0.336    0.415   53.572    2.074
  259.078    0.342    0.414   51.146    1.998
  259.383    0.343    0.431   49.324    1.997
  259.688    0.337    0.417   48.107    1.997
  259.992    0.326    0.416   43.865    1.924
  260.297    0.341    0.415   45.068    1.888
  260.602    0.348    0.409   49.901    1.887
  260.907    0.368    0.418   47.473    1.887
  261.212    0.369    0.444   46.258    1.887
  261.516    0.365    0.482   50.484    1.886
  261.821    0.391    0.478   54.713    1.886
  262.126    0.383    0.466   51.075    1.851
  262.431    0.368    0.419   47.438    1.816
  262.736    0.374    0.404   45.617    1.816
  263.040    0.374    0.416   46.215    1.850
  263.345    0.357    0.420   49.837    1.920
  263.650    0.344    0.420   56.486    2.106
  263.955    0.328    0.445   68.577    2.146
  264.260    0.314    0.453   69.781    2.145
  264.564    0.313    0.443   58.884    2.066
  264.869    0.350    0.420   46.174    1.953
  265.174    0.362    0.399   40.116    1.917
  265.479    0.363    0.405   39.505    1.881
  265.784    0.371    0.438   38.893    1.916
  266.089    0.391    0.470   37.677    1.916
  266.393    0.386    0.482   35.249    1.988
  266.698    0.363    0.386   32.215    2.025
  267.003    0.328    0.376   30.998    2.102
  267.308    0.315    0.376   30.993    2.141
  267.613    0.307    0.376   32.197    2.140
  267.917    0.305    0.349   32.189    2.140
  268.222    0.307    0.335   32.182    2.061
  268.527    0.321    0.351   33.385    2.023
  268.832    0.321    0.376   35.797    1.985
  269.137    0.309    0.395   36.397    1.985
  269.441    0.304    0.385   33.970    2.022
  269.746    0.309    0.383   29.121    2.059
  270.051    0.310    0.383   27.906    2.021
  270.356    0.293    0.381   27.899    2.020
  270.661    0.283    0.373   29.706    2.020
  270.965    0.295    0.350   32.120    2.020
  271.270    0.291    0.340   37.557    2.258
  271.575    0.268    0.334   46.625    2.772
  271.880    0.223    0.335   55.087    3.402
  272.185    0.179    0.366   85.326    4.253
  272.490    0.143    0.391   85.320    5.625
  272.794    0.179    0.380   78.052    6.289
  273.099    0.194    0.407   73.207    6.406
  273.404    0.205    0.425   73.803    6.286
  273.709    0.203    0.440   77.428    5.620
  274.014    0.205    0.458   89.519    4.017
  274.318    0.198    0.501   91.865    3.821
  274.623    0.235    0.459   80.371    4.518
  274.928    0.241    0.379   77.350    5.343
  275.233    0.233    0.350   86.434    5.864
  275.538    0.218    0.339   87.650    6.086
  275.842    0.173    0.330   89.470    6.201
  276.147    0.162    0.406  101.580    5.974
  276.452    0.151    0.456  104.612    5.244
  276.757    0.174    0.434   96.144    4.603
  277.062    0.190    0.382   73.755    3.821
  277.366    0.211    0.374   56.815    3.114
  277.671    0.229    0.395   58.635    2.944
  277.976    0.259    0.385   53.194    2.944
  278.281    0.294    0.363   48.962    2.944
  278.586    0.274    0.387   45.942    2.837
  278.891    0.265    0.383   41.105    2.490
  279.195    0.270    0.374   35.663    2.186
  279.500    0.287    0.379   31.432    2.106
  279.805    0.299    0.397   35.068    2.399
  280.110    0.340    0.386   51.414    3.232
  280.415    0.310    0.436   78.050    3.893
  280.719    0.299    0.546   78.056    3.966
  281.024    0.321    0.509   70.192    3.482
  281.329    0.308    0.470   45.989    2.784
  281.634    0.302    0.425   33.284    2.311
  281.939    0.323    0.391   19.369    2.227
  282.243    0.311    0.367   16.349    2.106
  282.548    0.298    0.354   18.775    2.106
  282.853    0.295    0.340   20.596    2.186
  283.158    0.300    0.329   22.417    2.399
  283.463    0.305    0.318   27.264    2.490
  283.767    0.300    0.331   33.926    2.490
  284.072    0.283    0.367   37.563    2.399
  284.377    0.282    0.411   29.701    2.146
  284.682    0.312    0.432   21.837    1.955
  284.987    0.358    0.417   17.607    1.815
  285.292    0.350    0.366   18.216    1.748
  285.596    0.340    0.361   19.432    1.684
  285.901    0.337    0.373   18.227    1.684
  286.206    0.350    0.381   17.022    1.684
  286.511    0.338    0.387   16.424    1.684
  286.816    0.361    0.391   17.034    1.684
  287.120    0.358    0.395   17.643    1.684
  287.425    0.364    0.383   18.860    1.684
  287.730    0.351    0.370   19.471    1.684
  288.035    0.347    0.372   20.080    1.748
  288.340    0.330    0.396   20.691    1.781
  288.644    0.338    0.420   20.092    1.815
  288.949    0.357    0.418   19.490    1.815
  289.254    0.349    0.404   18.894    1.919
  289.559    0.341    0.389   19.501    2.106
  289.864    0.326    0.386   22.533    2.355
  290.168    0.316    0.368   27.985    2.444
  290.473    0.304    0.345   31.016    2.490
  290.778    0.277    0.328   29.812    2.537
  291.083    0.281    0.334   28.605    2.490
  291.388    0.294    0.358   29.823    2.355
  291.693    0.327    0.406   27.406    2.106
  291.997    0.317    0.404   21.964    1.883
  292.302    0.342    0.382   18.339    1.684
  292.607    0.348    0.364   17.136    1.563
  292.912    0.339    0.353   17.744    1.535
  293.217    0.323    0.361   18.962    1.506
  293.521    0.329    0.395   19.570    1.535
  293.826    0.351    0.416   20.182    1.563
  294.131    0.369    0.427   20.186    1.593
  294.436    0.408    0.477   19.587    1.563
  294.741    0.426    0.488   18.381    1.535
  295.045    0.415    0.456   17.176    1.478
  295.350    0.362    0.415   15.969    1.451
  295.655    0.342    0.397   15.371    1.451
  295.960    0.335    0.390   16.585    1.478
  296.265    0.352    0.390   19.012    1.478
  296.569    0.334    0.393   20.834    1.563
  296.874    0.317    0.377   20.840    1.653
  297.179    0.306    0.362   20.844    1.781
  297.484    0.329    0.353   19.638    1.992
  297.789    0.307    0.341   20.854    2.186
  298.094    0.324    0.319   23.886    2.399
  298.398    0.296    0.330   24.498    2.490
  298.703    0.276    0.339   24.501    2.399
  299.008    0.274    0.326   24.508    2.311
  299.313    0.280    0.323   24.512    2.146
  299.618    0.290    0.356   24.519    1.992
  299.922    0.307    0.386   23.919    1.883
  300.227    0.317    0.381   23.922    1.781
  300.532    0.300    0.379   24.535    1.781
  300.837    0.314    0.366   24.538    1.815
  301.142    0.311    0.377   25.756    1.955
  301.446    0.307    0.366   27.576    2.186
  301.751    0.303    0.366   28.790    2.399
  302.056    0.283    0.405   34.243    2.585
  302.361    0.318    0.455   37.880    2.585
  302.666    0.326    0.452   37.279    2.311
  302.970    0.295    0.393   34.863    2.106
  303.275    0.312    0.374   39.711    1.992
  303.580    0.303    0.388   36.085    1.955
  303.885    0.351    0.446   28.223    1.955
  304.190    0.386    0.450   29.439    2.029
  304.495    0.374    0.417   33.075    2.106
  304.799    0.352    0.400   36.107    2.067
  305.104    0.273    0.400   36.716    2.029
  305.409    0.271    0.405   39.143    2.146
  305.714    0.235    0.435   43.384    2.311
  306.019    0.190    0.463   47.023    2.633
  306.323    0.216    0.473   48.238    3.232
