~VERSION INFORMATION
 VERS.                 2.0:   CWLS LOG ASCII STANDARD -VERSION 2.0
 WRAP.                  NO:   ONE LINE PER DEPTH STEP
~WELL INFORMATION BLOCK
#MNEM.UNIT           DATA                    DESCRIPTION OF MNEMONIC
#---------    -------------------            -------------------------------
# Generated from Intellog Unique Number	CC_80_83/WELL/1049
WELL.         GULF PONY                      : Well_name    - WELL
LOC .         00/04-15-081-09W4/0            : Location     - LOCATION
UWI .         00/04-15-081-09W400            : Uwi          - UNIQUE WELL ID
ENTR.         DW                             : Entered      - ENTERED BY
SRVC.         SCHLUMBERGER                   : Scn          - SERVICE COMPANY
STRT.M        243.84                         : top_depth    - START DEPTH
STOP.M        487.34                         : bot_depth    - STOP DEPTH
STEP.M        0.25                           : increment    - STEP LENGTH
 NULL. -999.2500:NULL Value
~CURVE INFORMATION BLOCK
#MNEM UNIT       ERCB CURVE CODE    CURVE DESCRIPTION
#-----------   ------------------   ----------------------------------
DEPT.M        00 001 00 00         : DEPTH        - DEPTH
GR  .API      00 310 00 00         : GR           - GAMMA RAY
DPHI.V/V      00 890 00 00         : PHID         - DENSITY POROSITY (SANDSTONE)
NPHI.V/V      00 330 00 00         : PHIN         - NEUTRON POROSITY (SANDSTONE)
ILD .OHMM     00 120 00 00         : RESD         - DEEP RESISTIVITY (DIL)
~PARAMETER INFORMATION
#MNEM.UNIT           DATA             DESCRIPTION OF MNEMONIC
#---------         -----------     ------------------------------
GL  .M        701.528              : gl           - GROUND LEVEL ELEVATION
EREF.M        705.338              : kb           - ELEVATION OF DEPTH REFERENCE
DATM.M        705.338              : datum        - DATUM ELEVATION
TDD .M        489.204              : tdd          - TOTAL DEPTH DRILLER
RUN .         ONE                  : Run          - RUN NUMBER
ENG .         BILL                 : Engineer     - RECORDING ENGINEER
WIT .         JIM                  : Witness      - WITNESSED BY
MUD .         GEL                  : Mud_type     - MUD TYPE
MATR.         SANDSTONE            : Logunit      - NEUTRON MATRIX
TMAX.C        23.8889              : BHT          - MAXIMUM RECORDED TEMPERATURE
BHTD.M        487.68               : BHTDEP       - MAXIMUM RECORDED TEMPERATURE
MATR.         1                    : LOGUNIT      - NEUTRON MATRIX
RMT .C        25                   : MDTP         - TEMPERATURE OF MUD
NEUT.         1                    : NEUTRON      - NEUTRON TYPE
RESI.         0                    : RESIST       - RESISTIVITY TYPE
RMC .OHMM     0.25                 : RMC          - RESISTIVITY OF MUD CAKE
RMF .OHMM     0.25                 : RMF          - RESISTIVITY OF MUD FILTRATE
SUFT.C        4                    : SUFT         - SURFACE TEMPERATURE
~A  DEPTH       GR     PHID     PHIN     RESD
# ...
  287.340  130.242    0.236    0.530    5.825
  287.590  131.255    0.192    0.567    5.461
  287.840  127.753    0.146    0.581    4.841
  288.090  131.157    0.141    0.587    4.319
  288.340  129.574    0.201    0.569    4.085
  288.590  126.752    0.230    0.569    4.001
  288.840  127.299    0.232    0.585    4.123
  289.090  129.627    0.222    0.589    4.422
  289.340  132.463    0.239    0.584    4.799
  289.590  134.442    0.280    0.572    6.561
  289.840  133.257    0.291    0.534   11.380
  290.090  131.268    0.307    0.517   16.640
  290.340  109.946    0.324    0.503   22.246
  290.590   91.385    0.337    0.493   25.015
  290.840   91.719    0.347    0.483   24.092
  291.090   94.266    0.347    0.464   22.604
  291.340   97.663    0.334    0.460   21.105
  291.590  102.425    0.320    0.456   21.544
  291.840  110.021    0.307    0.476   23.226
  292.090  118.219    0.323    0.494   24.010
  292.340  117.352    0.355    0.484   23.397
  292.590  103.631    0.342    0.476   22.004
  292.840   98.528    0.328    0.454   18.249
  293.090  102.399    0.310    0.444   14.872
  293.340  107.126    0.245    0.449   12.537
  293.590  109.291    0.190    0.452   10.997
  293.840  113.522    0.215    0.449   10.217
  294.090  124.732    0.238    0.445    8.689
  294.340  132.269    0.239    0.459    6.651
  294.590  135.660    0.229    0.509    5.676
  294.840  135.834    0.219    0.556    5.850
  295.090  130.716    0.215    0.557    6.241
  295.340  123.640    0.217    0.539    6.977
  295.590  124.238    0.241    0.520    8.856
  295.840  120.204    0.270    0.488   10.320
  296.090  114.515    0.291    0.463   12.255
  296.340  114.138    0.295    0.453   15.359
  296.590  118.525    0.291    0.449   18.220
  296.840  123.258    0.301    0.457   19.438
  297.090  114.526    0.314    0.463   19.156
  297.340  107.898    0.330    0.464   19.247
  297.590  109.161    0.330    0.461   16.572
  297.840  111.860    0.319    0.457   12.100
  298.090  114.331    0.312    0.461   11.706
  298.340  115.377    0.263    0.488   11.558
  298.590  110.780    0.240    0.510   13.024
  298.840   95.642    0.262    0.516   14.437
  299.090   79.092    0.283    0.510   16.612
  299.340   73.384    0.287    0.495   23.051
  299.590   74.966    0.308    0.472   31.189
  299.840   79.159    0.317    0.443   32.087
  300.090   87.626    0.312    0.434   31.625
  300.340   94.973    0.299    0.428   24.776
  300.590  103.089    0.278    0.405   13.399
  300.840  116.255    0.254    0.396   10.254
  301.090  118.064    0.231    0.433    9.400
  301.340  114.616    0.227    0.470    9.493
  301.590  109.326    0.225    0.478    9.954
  301.840  104.571    0.215    0.472   10.905
  302.090  102.670    0.213    0.470   12.927
  302.340  102.672    0.227    0.465   15.111
  302.590  105.451    0.220    0.459   15.277
  302.840  108.436    0.220    0.469   13.912
  303.090  112.118    0.237    0.483   12.511
  303.340  115.609    0.254    0.486   11.002
  303.590  116.897    0.257    0.485    9.120
  303.840  118.915    0.242    0.485    8.652
  304.090  120.551    0.239    0.491    8.675
  304.340  121.977    0.240    0.482    8.602
  304.590  122.050    0.240    0.488    8.811
  304.840  121.098    0.243    0.514    9.426
  305.090  119.640    0.249    0.503   10.017
  305.340  111.207    0.255    0.486   10.926
  305.590  105.839    0.263    0.472   12.277
  305.840  101.270    0.271    0.456   13.939
  306.090   97.870    0.272    0.444   15.162
  306.340  101.979    0.267    0.439   15.194
  306.590  108.441    0.269    0.437   13.970
  306.840  115.702    0.249    0.441   11.063
  307.090  123.671    0.242    0.453    9.181
  307.340  128.244    0.234    0.466    8.588
  307.590  126.614    0.224    0.472    8.132
  307.840  121.933    0.252    0.477    8.171
  308.090  117.076    0.264    0.484    8.435
  308.340  111.019    0.283    0.486    8.590
  308.590  106.308    0.292    0.483    8.771
  308.840  104.204    0.280    0.493    9.085
  309.090  104.228    0.251    0.515    9.342
  309.340  108.167    0.210    0.522    9.349
  309.590  114.418    0.239    0.523    9.226
  309.840  115.031    0.282    0.514    9.897
  310.090  108.915    0.293    0.507   11.223
  310.340  102.508    0.292    0.499   12.315
  310.590   99.853    0.296    0.475   12.608
  310.840   97.692    0.295    0.472   11.938
  311.090   97.092    0.294    0.499   10.807
  311.340   95.599    0.311    0.525   10.342
  311.590   91.550    0.318    0.526   11.363
  311.840   83.276    0.294    0.510   13.614
  312.090   70.404    0.290    0.491   16.133
  312.340   65.607    0.304    0.466   18.607
  312.590   66.733    0.316    0.437   21.103
  312.840   67.657    0.316    0.418   22.686
  313.090   66.553    0.311    0.411   23.055
  313.340   65.080    0.299    0.414   23.012
  313.590   64.947    0.276    0.438   22.657
  313.840   65.974    0.288    0.445   22.351
  314.090   66.313    0.305    0.439   21.768
  314.340   65.167    0.309    0.437   21.217
  314.590   63.749    0.304    0.440   21.424
  314.840   63.302    0.291    0.445   22.123
  315.090   63.373    0.302    0.454   22.413
  315.340   66.308    0.316    0.462   23.347
  315.590   69.103    0.321    0.465   24.128
  315.840   69.284    0.321    0.463   24.509
  316.090   68.076    0.321    0.457   25.308
  316.340   65.572    0.327    0.448   25.702
  316.590   63.325    0.332    0.443   26.093
  316.840   62.110    0.334    0.445   26.444
  317.090   63.878    0.334    0.448   27.054
  317.340   67.353    0.334    0.451   27.874
  317.590   68.161    0.333    0.453   28.276
  317.840   68.301    0.330    0.451   28.750
  318.090   67.254    0.326    0.449   28.861
  318.340   65.402    0.323    0.445   28.857
  318.590   64.440    0.323    0.437   28.749
  318.840   65.223    0.326    0.433   28.260
  319.090   65.926    0.330    0.442   27.824
  319.340   63.377    0.334    0.450   27.417
  319.590   63.273    0.338    0.457   26.934
  319.840   65.051    0.341    0.458   26.713
  320.090   66.037    0.342    0.453   26.715
  320.340   68.701    0.340    0.448   26.260
  320.590   72.406    0.339    0.443   25.405
  320.840   73.876    0.340    0.437   25.208
  321.090   73.139    0.345    0.438   25.262
  321.340   72.325    0.351    0.450   25.331
  321.590   72.510    0.352    0.461   25.804
  321.840   73.023    0.345    0.468   26.243
  322.090   73.683    0.339    0.472   25.817
  322.340   76.129    0.343    0.461   26.031
  322.590   75.669    0.344    0.451   26.048
  322.840   70.786    0.340    0.456   25.029
  323.090   67.600    0.339    0.463   23.875
  323.340   68.625    0.337    0.457   22.145
  323.590   73.216    0.338    0.459   20.266
  323.840   75.582    0.344    0.452   18.269
  324.090   72.973    0.341    0.458   17.184
  324.340   69.116    0.331    0.493   17.344
  324.590   68.233    0.335    0.498   17.313
  324.840   68.394    0.343    0.480   17.973
  325.090   70.730    0.349    0.466   19.228
  325.340   73.761    0.352    0.466   19.977
  325.590   76.161    0.348    0.470   19.581
  325.840   78.656    0.343    0.475   18.667
  326.090   79.924    0.349    0.482   18.332
  326.340   78.001    0.358    0.479   18.527
  326.590   75.326    0.364    0.466   18.957
  326.840   74.038    0.362    0.459   19.779
  327.090   74.550    0.355    0.465   21.149
  327.340   76.631    0.348    0.465   22.492
  327.590   78.290    0.340    0.461   22.946
  327.840   78.861    0.336    0.447   23.047
  328.090   76.004    0.336    0.436   22.748
  328.340   71.535    0.343    0.436   21.838
  328.590   69.371    0.351    0.442   20.880
  328.840   67.836    0.347    0.452   20.564
  329.090   67.043    0.349    0.461   20.239
  329.340   67.333    0.346    0.469   20.117
  329.590   67.679    0.344    0.475   20.122
  329.840   67.691    0.355    0.472   20.183
  330.090   67.135    0.360    0.466   20.515
  330.340   63.495    0.347    0.471   20.514
  330.590   62.616    0.336    0.468   20.712
