~VERSION INFORMATION
 VERS.                 2.0:   CWLS LOG ASCII STANDARD -VERSION 2.0
 WRAP.                  NO:   ONE LINE PER DEPTH STEP
~WELL INFORMATION BLOCK
#MNEM.UNIT           DATA                    DESCRIPTION OF MNEMONIC
#---------    -------------------            -------------------------------
# Generated from Intellog Unique Number	CS_71_72/WELL/3324
WELL.         AEC FOSTER CREEK 7-12          : Well_name    - WELL
LOC .         07-12-071-03W4                 : Location     - LOCATION
UWI .         00/07-12-071-03W4/0            : Uwi          - UNIQUE WELL ID
ENTR.         ANDERSEN                       : Entered      - ENTERED BY
SRVC.         COMPUTALOG                     : Scn          - SERVICE COMPANY
STRT.M        345                            : top_depth    - START DEPTH
STOP.M        571.75                         : bot_depth    - STOP DEPTH
STEP.M        0.25                           : increment    - STEP LENGTH
 NULL. -999.2500:NULL Value
~CURVE INFORMATION BLOCK
#MNEM UNIT       ERCB CURVE CODE    CURVE DESCRIPTION
#-----------   ------------------   ----------------------------------
DEPT.M        00 001 00 00         : DEPTH        - DEPTH
ILD .OHMM     00 120 00 00         : RESD         - DEEP RESISTIVITY (DIL)
CALI.MM       00 280 01 00         : CAL          - CALIPER
DPHI.V/V      00 890 00 00         : PHID         - DENSITY POROSITY (SANDSTONE)
NPHI.V/V      00 330 00 00         : PHIN         - NEUTRON POROSITY (SANDSTONE)
GR  .API      00 310 00 00         : GR           - GAMMA RAY
~PARAMETER INFORMATION
#MNEM.UNIT           DATA             DESCRIPTION OF MNEMONIC
#---------         -----------     ------------------------------
GL  .M        697.61               : gl           - GROUND LEVEL ELEVATION
EREF.M        701.01               : kb           - ELEVATION OF DEPTH REFERENCE
DATM.M        701.01               : datum        - DATUM ELEVATION
TDD .M        585.5                : tdd          - TOTAL DEPTH DRILLER
RUN .         ONE                  : Run          - RUN NUMBER
ENG .         BILL                 : Engineer     - RECORDING ENGINEER
WIT .         JIM                  : Witness      - WITNESSED BY
MUD .         GEL                  : Mud_type     - MUD TYPE
MATR.         SANDSTONE            : Logunit      - NEUTRON MATRIX
TMAX.C        31                   : BHT          - MAXIMUM RECORDED TEMPERATURE
BHTD.M        585.5                : BHTDEP       - MAXIMUM RECORDED TEMPERATURE
RMT .C        15                   : MDTP         - TEMPERATURE OF MUD
MUDD.KG/M     1100                 : MWT          - MUD DENSITY
NEUT.         1                    : NEUTRON      - NEUTRON TYPE
RESI.         0                    : RESIST       - RESISTIVITY TYPE
RM  .OHMM     2.7                  : RM           - RESISTIVITY OF MUD
RMC .OHMM     2.1                  : RMC          - RESISTIVITY OF MUD CAKE
RMF .OHMM     3.5                  : RMF          - RESISTIVITY OF MUD FILTRATE
SUFT.C        15                   : SUFT         - SURFACE TEMPERATURE
~A  DEPTH     RESD      CAL     PHID     PHIN       GR
# ...
  491.000    3.811  167.688    0.280    0.574   85.337
  491.250    3.544  167.651    0.279    0.586   85.930
  491.500    3.121  167.637    0.281    0.603   87.104
  491.750    2.850  167.601    0.288    0.639   87.694
  492.000    2.700  167.579    0.284    0.637   88.286
  492.250    2.604  167.542    0.275    0.630   87.133
  492.500    2.605  167.513    0.268    0.636   84.815
  492.750    2.703  167.484    0.269    0.634   82.503
  493.000    2.754  167.455    0.263    0.623   84.839
  493.250    2.857  167.426    0.255    0.625   88.923
  493.500    3.131  167.397    0.254    0.616   90.098
  493.750    3.368  167.368    0.259    0.598   86.034
  494.000    3.691  167.332    0.266    0.569   82.553
  494.250    4.350  167.303    0.268    0.546   74.998
  494.500    5.221  167.281    0.267    0.520   73.265
  494.750    5.721  168.220    0.260    0.501   76.764
  495.000    5.724  168.191    0.255    0.488   81.431
  495.250    5.228  169.130    0.248    0.488   83.187
  495.500    4.862  169.116    0.241    0.500   84.362
  495.750    4.864  169.079    0.237    0.497   82.629
  496.000    4.954  169.050    0.239    0.466   81.475
  496.250    5.047  170.004    0.235    0.454   80.901
  496.500    5.143  169.967    0.227    0.464   82.075
  496.750    4.960  169.931    0.215    0.473   85.580
  497.000    4.613  169.917    0.217    0.486   85.591
  497.250    4.291  169.888    0.225    0.501   85.019
  497.500    4.064  169.858    0.225    0.512   85.030
  497.750    3.645  169.829    0.222    0.530   88.532
  498.000    3.516  169.786    0.227    0.546   92.616
  498.250    3.453  169.764    0.231    0.555   94.373
  498.500    3.455  169.728    0.232    0.558   91.476
  498.750    3.520  170.681    0.232    0.539   90.904
  499.000    3.787  170.652    0.232    0.524   91.497
  499.250    3.929  171.584    0.228    0.496   88.597
  499.500    3.930  171.562    0.224    0.460   88.026
  499.750    3.931  171.533    0.205    0.435   89.198
  500.000    4.005  171.512    0.205    0.425   93.864
  500.250    4.232  171.482    0.215    0.435   88.636
  500.500    4.722  171.453    0.215    0.448   77.007
  500.750    5.565  170.434    0.200    0.458   70.034
  501.000    6.099  170.420    0.169    0.413   63.646
  501.250    6.101  170.391    0.137    0.410   64.236
  501.500    5.675  170.354    0.137    0.419   71.812
  501.750    5.375  170.333    0.193    0.434   80.552
  502.000    5.280  169.321    0.219    0.457   82.890
  502.250    5.477  169.284    0.236    0.470   71.261
  502.500    6.112  169.263    0.237    0.447   64.288
  502.750    6.947  169.226    0.236    0.452   60.227
  503.000    7.340  169.212    0.213    0.461   60.822
  503.250    7.615  169.168    0.157    0.447   56.756
  503.500    7.758  169.132    0.181    0.435   56.769
  503.750    7.761  169.103    0.165    0.448   60.853
  504.000    7.763  169.088    0.223    0.457   64.353
  504.250    7.767  169.052    0.250    0.439   67.855
  504.500    7.768  169.015    0.257    0.407   68.448
  504.750    7.772  168.994    0.252    0.413   68.458
  505.000    7.775  168.972    0.246    0.422   67.887
  505.250    7.777  168.928    0.243    0.427   67.315
  505.500    7.780  168.906    0.233    0.424   68.490
  505.750    7.926  168.885    0.233    0.431   67.918
  506.000    7.929  168.841    0.233    0.424   69.095
  506.250    7.932  168.826    0.228    0.416   70.851
  506.500    7.791  168.783    0.220    0.408   70.859
  506.750    6.861  168.768    0.215    0.415   69.706
  507.000    6.381  168.739    0.274    0.424   66.224
  507.250    5.828  168.696    0.291    0.423   58.669
  507.500    5.622  168.674    0.304    0.417   48.207
  507.750    5.422  168.645    0.313    0.410   46.469
  508.000    5.326  168.616    0.320    0.408   47.064
  508.250    5.232  168.587    0.322    0.418   49.405
  508.500    5.234  168.558    0.326    0.430   50.577
  508.750    5.236  168.528    0.333    0.423   50.587
  509.000    5.238  168.492    0.330    0.427   50.597
  509.250    5.336  168.470    0.328    0.428   51.190
  509.500    5.338  168.434    0.328    0.424   52.949
  509.750    5.438  168.405    0.327    0.422   55.287
  510.000    5.540  168.376    0.320    0.429   58.787
  510.250    5.748  168.340    0.314    0.436   62.292
  510.500    5.855  168.325    0.307    0.442   65.212
  510.750    5.966  168.289    0.300    0.448   67.548
  511.000    6.077  168.267    0.295    0.441   71.053
  511.250    6.305  168.216    0.288    0.435   72.809
  511.500    6.307  168.194    0.282    0.434   73.983
  511.750    6.426  168.180    0.272    0.436   73.994
  512.000    6.546  168.151    0.258    0.432   75.168
  512.250    6.670  168.121    0.246    0.424   79.834
  512.500    6.672  168.085    0.239    0.414   80.427
  512.750    6.675  168.063    0.220    0.405   85.675
  513.000    6.677  168.027    0.202    0.406   92.669
  513.250    6.679  168.005    0.221    0.404   79.294
  513.500    6.442  167.976    0.259    0.414   64.755
  513.750    6.102  167.947    0.277    0.411   63.020
  514.000    5.994  167.911    0.273    0.402   68.268
  514.250    5.677  167.867    0.264    0.385   70.606
  514.500    5.476  167.845    0.255    0.398   56.068
  514.750    5.187  167.823    0.262    0.386   51.422
  515.000    5.095  167.787    0.278    0.353   47.944
  515.250    4.915  167.765    0.291    0.351   50.282
  515.500    4.828  167.729    0.285    0.365   47.383
  515.750    4.830  167.700    0.282    0.369   50.882
  516.000    4.831  167.671    0.288    0.359   54.969
  516.250    4.746  167.635    0.292    0.347   52.649
  516.500    4.747  167.620    0.287    0.341   53.241
  516.750    4.749  168.552    0.278    0.344   54.998
  517.000    4.751  168.530    0.281    0.347   50.934
  517.250    4.752  168.508    0.290    0.345   45.125
  517.500    4.754  168.472    0.286    0.343   45.718
  517.750    4.757  168.443    0.288    0.341   49.222
  518.000    4.758  168.421    0.292    0.344   50.397
  518.250    4.760  168.385    0.288    0.348   50.989
  518.500    4.761  168.363    0.285    0.353   50.418
  518.750    4.763  168.327    0.284    0.357   46.936
  519.000    4.679  168.305    0.285    0.360   44.619
  519.250    4.681  167.286    0.289    0.363   48.706
  519.500    4.682  167.264    0.291    0.362   47.552
  519.750    4.684  167.235    0.293    0.360   46.396
  520.000    4.773  167.206    0.291    0.355   48.153
  520.250    4.773  167.177    0.288    0.359   51.655
  520.500    4.776  167.148    0.284    0.362   52.250
  520.750    4.777  167.104    0.280    0.361   56.332
  521.000    4.779  167.082    0.282    0.359   57.506
  521.250    4.694  167.053    0.285    0.361   52.279
  521.500    4.611  167.031    0.283    0.366   47.633
  521.750    4.529  166.988    0.285    0.359   41.827
  522.000    4.449  166.973    0.288    0.357   40.091
  522.250    4.451  166.944    0.289    0.350   42.427
  522.500    4.452  166.908    0.295    0.347   45.932
  522.750    4.455  166.886    0.294    0.354   49.434
  523.000    4.457  165.881    0.290    0.361   51.193
  523.250    4.378  165.845    0.291    0.369   48.873
  523.500    4.300  165.816    0.287    0.371   41.318
  523.750    4.301  165.787    0.294    0.366   37.839
  524.000    4.226  165.758    0.300    0.366   40.757
  524.250    4.227  165.729    0.296    0.367   47.169
  524.500    4.229  165.700    0.292    0.363   46.597
  524.750    4.230  165.663    0.298    0.359   43.701
  525.000    4.231  165.627    0.299    0.364   45.454
  525.250    4.233  165.612    0.295    0.377   48.957
  525.500    4.159  165.583    0.294    0.396   46.639
  525.750    4.160  165.540    0.303    0.397   41.412
  526.000    4.013  165.525    0.302    0.389   38.515
  526.250    4.014  165.496    0.307    0.393   36.780
  526.500    3.943  165.453    0.312    0.389   32.132
  526.750    3.944  165.431    0.320    0.390   28.071
  527.000    3.945  165.409    0.323    0.386   29.245
  527.250    3.947  165.380    0.319    0.385   31.584
