~VERSION INFORMATION
 VERS.                 2.0:   CWLS LOG ASCII STANDARD -VERSION 2.0
 WRAP.                  NO:   ONE LINE PER DEPTH STEP
~WELL INFORMATION BLOCK
#MNEM.UNIT           DATA                    DESCRIPTION OF MNEMONIC
#---------    -------------------            -------------------------------
# Generated from Intellog Unique Number	CS_67_68/WELL/2173
WELL.         06-34-067-02W4                 : Well_name    - WELL
LOC .         00/06-34-067-02W4/0            : Location     - LOCATION
UWI .         00/06-34-067-02W4/0            : Uwi          - UNIQUE WELL ID
ENTR.         SP                             : Entered      - ENTERED BY
SRVC.         SCHLUMBERGER                   : Scn          - SERVICE COMPANY
STRT.M        360                            : top_depth    - START DEPTH
STOP.M        615                            : bot_depth    - STOP DEPTH
STEP.M        0.25                           : increment    - STEP LENGTH
 NULL. -999.2500:NULL Value
~CURVE INFORMATION BLOCK
#MNEM UNIT       ERCB CURVE CODE    CURVE DESCRIPTION
#-----------   ------------------   ----------------------------------
DEPT.M        00 001 00 00         : DEPTH        - DEPTH
ILD .OHMM     00 120 00 00         : RESD         - DEEP RESISTIVITY (DIL)
DPHI.V/V      00 890 00 00         : PHID         - DENSITY POROSITY (LIMESTONE)
NPHI.V/V      00 330 00 00         : PHIN         - NEUTRON POROSITY (LIMESTONE)
GR  .API      00 310 00 00         : GR           - GAMMA RAY
CALI.MM       00 280 01 00         : CAL          - CALIPER
~PARAMETER INFORMATION
#MNEM.UNIT           DATA             DESCRIPTION OF MNEMONIC
#---------         -----------     ------------------------------
GL  .M        686.22               : gl           - GROUND LEVEL ELEVATION
EREF.M        689.57               : kb           - ELEVATION OF DEPTH REFERENCE
DATM.M        689.57               : datum        - DATUM ELEVATION
TDD .M        628                  : tdd          - TOTAL DEPTH DRILLER
RUN .         ONE                  : Run          - RUN NUMBER
ENG .         BILL                 : Engineer     - RECORDING ENGINEER
WIT .         JIM                  : Witness      - WITNESSED BY
MUD .         GEL                  : Mud_type     - MUD TYPE
MATR.         LIMESTONE            : Logunit      - NEUTRON MATRIX
TMAX.C        25                   : BHT          - MAXIMUM RECORDED TEMPERATURE
BHTD.M        627.2                : BHTDEP       - MAXIMUM RECORDED TEMPERATURE
MATR.         1                    : LOGUNIT      - NEUTRON MATRIX
RMT .C        25                   : MDTP         - TEMPERATURE OF MUD
NEUT.         1                    : NEUTRON      - NEUTRON TYPE
RESI.         0                    : RESIST       - RESISTIVITY TYPE
RMC .OHMM     0.25                 : RMC          - RESISTIVITY OF MUD CAKE
RMF .OHMM     0.25                 : RMF          - RESISTIVITY OF MUD FILTRATE
SUFT.C        15                   : SUFT         - SURFACE TEMPERATURE
~A  DEPTH     RESD     PHID     PHIN       GR      CAL
# ...
  579.000    5.331    0.352    0.340   30.244  157.862
  579.250    5.253    0.353    0.335   28.720  157.145
  579.500    5.176    0.354    0.340   27.195  156.426
  579.750    5.148    0.357    0.352   26.463  156.217
  580.000    5.111    0.358    0.362   27.195  156.009
  580.250    5.092    0.354    0.362   28.415  155.800
  580.500    5.084    0.353    0.351   29.512  155.895
  580.750    5.094    0.358    0.344   29.878  156.297
  581.000    5.095    0.354    0.346   29.329  157.003
  581.250    5.124    0.351    0.352   28.232  158.319
  581.500    5.135    0.354    0.348   27.439  159.331
  581.750    5.165    0.357    0.345   27.012  159.834
  582.000    5.253    0.343    0.341   27.683  159.116
  582.250    5.394    0.330    0.332   30.244  157.789
  582.500    5.559    0.330    0.330   32.927  156.460
  582.750    5.936    0.325    0.327   34.207  155.946
  583.000    6.244    0.301    0.319   51.158  156.042
  583.250    6.743    0.261    0.326   65.549  156.647
  583.500    7.310    0.227    0.346   78.171  157.760
  583.750    7.923    0.205    0.356   88.110  159.279
  584.000    8.461    0.187    0.363   96.159  159.986
  584.250    8.785    0.173    0.358  102.073  159.981
  584.500    8.886    0.174    0.353  104.207  158.551
  584.750    8.888    0.183    0.365  101.280  157.020
  585.000    8.676    0.184    0.375  100.244  156.200
  585.250    8.532    0.186    0.384  104.512  158.025
  585.500    8.376    0.194    0.393  103.780  157.409
  585.750    8.160    0.202    0.392  101.951  156.386
  586.000    8.147    0.211    0.377  104.085  155.872
  586.250    8.102    0.220    0.375   99.085  155.154
  586.500    8.165    0.223    0.377   94.634  154.436
  586.750    8.212    0.226    0.363   90.671  153.923
  587.000    8.152    0.214    0.352   87.988  154.120
  587.250    8.154    0.205    0.352   86.219  154.521
  587.500    8.201    0.199    0.370   90.793  155.431
  587.750    8.311    0.196    0.381   95.305  156.747
  588.000    8.422    0.197    0.382   97.683  157.759
  588.250    8.534    0.198    0.365   97.195  156.635
  588.500    8.504    0.198    0.354   95.000  154.900
  588.750    8.347    0.199    0.358   92.439  156.216
  589.000    8.194    0.212    0.363   89.695  157.329
  589.250    8.014    0.224    0.366   86.951  157.426
  589.500    7.793    0.235    0.363   83.171  156.606
  589.750    7.665    0.240    0.365   80.366  155.787
  590.000    7.609    0.236    0.374   78.537  155.069
  590.250    7.653    0.222    0.377   79.329  155.164
  590.500    7.799    0.214    0.368   83.293  155.770
  590.750    8.083    0.208    0.373   85.122  157.289
  591.000    8.377    0.205    0.377   89.817  159.013
  591.250    8.632    0.194    0.365  100.244  158.804
  591.500    8.913    0.178    0.354  115.244  157.781
  591.750    8.881    0.171    0.346  125.183  159.098
  592.000    8.817    0.186    0.355  115.610  160.516
  592.250    8.655    0.196    0.362  106.159  161.629
  592.500    8.512    0.204    0.365  101.951  163.861
  592.750    8.340    0.203    0.367  101.220  161.007
  593.000    8.156    0.189    0.381  104.268  157.442
  593.250    7.991    0.205    0.391  106.707  158.046
  593.500    7.830    0.219    0.384  106.585  158.651
  593.750    7.715    0.226    0.374   99.878  157.730
  594.000    7.616    0.226    0.371   94.085  156.707
  594.250    7.546    0.225    0.369   91.463  156.396
  594.500    7.505    0.226    0.360   94.146  156.085
  594.750    7.492    0.230    0.357   95.366  155.571
  595.000    7.466    0.222    0.372   95.366  155.056
  595.250    7.411    0.211    0.381   98.232  154.746
  595.500    7.289    0.224    0.386  101.098  154.435
  595.750    7.062    0.235    0.390  101.220  154.836
  596.000    6.907    0.243    0.404   95.305  156.458
  596.250    6.716    0.261    0.416   91.098  158.588
  596.500    6.495    0.281    0.418   84.451  160.311
  596.750    6.400    0.290    0.358   69.817  160.611
  597.000    6.341    0.278    0.338   61.646  157.452
  597.250    6.547    0.255    0.329   70.793  154.497
  597.500    6.849    0.231    0.357   87.134  153.474
  597.750    7.125    0.212    0.382   92.988  154.078
  598.000    7.343    0.202    0.398   96.829  158.548
  598.250    7.525    0.211    0.399   99.268  162.916
  598.500    7.654    0.217    0.402   99.756  166.267
  598.750    7.727    0.208    0.405   94.756  165.956
  599.000    7.714    0.204    0.401   92.988  165.442
  599.250    7.629    0.214    0.393   94.939  167.572
  599.500    7.461    0.218    0.389   96.037  167.668
  599.750    7.229    0.222    0.384   97.378  168.679
  600.000    6.965    0.231    0.378   97.378  169.894
  600.250    6.660    0.244    0.377   92.134  166.430
  600.500    6.453    0.256    0.377   84.573  162.051
  600.750    6.334    0.253    0.374   77.073  158.180
  601.000    6.300    0.225    0.386   69.451  156.751
  601.250    6.456    0.209    0.394   83.598  155.830
  601.500    6.592    0.206    0.403   94.268  158.162
  601.750    6.569    0.239    0.411   96.646  161.921
  602.000    6.533    0.269    0.399   85.671  163.848
  602.250    6.341    0.291    0.387   77.683  158.858
  602.500    5.863    0.303    0.372   72.073  153.665
  602.750    5.712    0.311    0.362   67.256  151.524
  603.000    6.021    0.319    0.353   60.793  150.195
  603.250    6.417    0.287    0.343   85.793  149.580
  603.500    6.904    0.216    0.332   97.805  150.083
  603.750    7.372    0.198    0.359  104.390  153.129
  604.000    7.626    0.191    0.379  106.098  157.496
  604.250    7.845    0.190    0.397  105.061  161.457
  604.500    8.039    0.188    0.429  107.744  164.197
  604.750    8.086    0.184    0.422  117.073  165.717
  605.000    7.747    0.178    0.399  122.561  164.186
  605.250    7.149    0.172    0.385  123.902  163.468
  605.500    6.622    0.168    0.390  116.341  163.870
  605.750    6.123    0.261    0.379  102.622  163.457
  606.000    5.844    0.295    0.365   78.781  161.722
  606.250    5.673    0.301    0.378   70.061  160.089
  606.500    5.569    0.320    0.393   66.768  159.372
  606.750    5.782    0.351    0.383   61.219  159.263
  607.000    6.037    0.366    0.367   54.878  159.258
  607.250    6.351    0.309    0.343   48.293  159.456
  607.500    6.681    0.268    0.328   58.049  156.501
  607.750    6.976    0.249    0.340   67.317  152.529
  608.000    7.109    0.237    0.356   75.488  149.573
  608.250    6.735    0.239    0.372   79.756  148.754
  608.500    6.216    0.286    0.385   69.207  148.850
  608.750    5.855    0.319    0.374   48.415  148.946
  609.000    5.599    0.341    0.358   33.781  149.856
  609.250    5.354    0.351    0.346   27.134  154.325
  609.500    5.178    0.356    0.341   23.659  158.693
  609.750    5.121    0.356    0.347   21.402  161.840
  610.000    5.160    0.357    0.350   20.122  161.936
  610.250    5.298    0.358    0.355   19.573  161.930
  610.500    5.481    0.359    0.360   19.390  159.789
  610.750    5.701    0.357    0.345   20.000  155.715
  611.000    5.931    0.346    0.326   22.500  153.777
  611.250    6.010    0.332    0.315   27.561  150.618
  611.500    6.011    0.323    0.322   32.805  150.002
  611.750    5.923    0.332    0.328   37.073  152.234
  612.000    5.924    0.333    0.331   30.549  153.551
  612.250    6.082    0.317    0.332   28.659  153.036
  612.500    7.362    0.308    0.337   26.707  152.725
  612.750    9.183    0.312    0.343   22.378  154.957
  613.000   11.368    0.317    0.350   19.695  156.986
  613.250   14.312    0.321    0.307   19.024  158.404
  613.500   17.259    0.156    0.256   20.366  157.280
  613.750   20.352    0.101    0.220   21.463  154.731
  614.000   22.604    0.079    0.201   18.720  152.894
  614.250   24.411    0.078    0.187   15.854  151.566
  614.500   25.970    0.079    0.170   14.878  150.544
  614.750   27.784    0.056    0.150   14.573  148.809
  615.000   30.230    0.036    0.133   14.756  147.684
