~VERSION INFORMATION
 VERS.                 2.0:   CWLS LOG ASCII STANDARD -VERSION 2.0
 WRAP.                  NO:   ONE LINE PER DEPTH STEP
~WELL INFORMATION BLOCK
#MNEM.UNIT           DATA                    DESCRIPTION OF MNEMONIC
#---------    -------------------            -------------------------------
# Generated from Intellog Unique Number	CS_77_79/WELL/905
WELL.         MESA HB THORNBURY              : Well_name    - WELL
LOC .         00/07-22-078-12W4/0            : Location     - LOCATION
UWI .         00/07-22-078-12W4/0            : Uwi          - UNIQUE WELL ID
ENTR.         JHS                            : Entered      - ENTERED BY
SRVC.         SCHLUMBERGER                   : Scn          - SERVICE COMPANY
STRT.M        256.032                        : top_depth    - START DEPTH
STOP.M        475.282                        : bot_depth    - STOP DEPTH
STEP.M        0.25                           : increment    - STEP LENGTH
 NULL. -999.2500:NULL Value
~CURVE INFORMATION BLOCK
#MNEM UNIT       ERCB CURVE CODE    CURVE DESCRIPTION
#-----------   ------------------   ----------------------------------
DEPT.M        00 001 00 00         : DEPTH        - DEPTH
RHOB.KG/M3    00 350 00 00         : DENS         - BULK DENSITY
GR  .API      00 310 00 00         : GR           - GAMMA RAY
DPHI.V/V      00 890 00 00         : PHID         - DENSITY POROSITY (SANDSTONE)
NPHI.V/V      00 330 00 00         : PHIN         - NEUTRON POROSITY (SANDSTONE)
ILD .OHMM     00 120 00 00         : RESD         - DEEP RESISTIVITY (DIL)
~PARAMETER INFORMATION
#MNEM.UNIT           DATA             DESCRIPTION OF MNEMONIC
#---------         -----------     ------------------------------
GL  .M        675.315              : gl           - GROUND LEVEL ELEVATION
EREF.M        679.094              : kb           - ELEVATION OF DEPTH REFERENCE
DATM.M        679.094              : datum        - DATUM ELEVATION
TDD .M        490.728              : tdd          - TOTAL DEPTH DRILLER
RUN .         ONE                  : Run          - RUN NUMBER
ENG .         BILL                 : Engineer     - RECORDING ENGINEER
WIT .         JIM                  : Witness      - WITNESSED BY
MUD .         GEL                  : Mud_type     - MUD TYPE
MATR.         SANDSTONE            : Logunit      - NEUTRON MATRIX
TMAX.C        19.4444              : BHT          - MAXIMUM RECORDED TEMPERATURE
BHTD.M        490.728              : BHTDEP       - MAXIMUM RECORDED TEMPERATURE
MATR.         1                    : LOGUNIT      - NEUTRON MATRIX
RMT .C        25                   : MDTP         - TEMPERATURE OF MUD
NEUT.         1                    : NEUTRON      - NEUTRON TYPE
RESI.         0                    : RESIST       - RESISTIVITY TYPE
RMC .OHMM     0.25                 : RMC          - RESISTIVITY OF MUD CAKE
RMF .OHMM     0.25                 : RMF          - RESISTIVITY OF MUD FILTRATE
SUFT.C        15                   : SUFT         - SURFACE TEMPERATURE
~A  DEPTH     DENS       GR     PHID     PHIN     RESD
# ...
  402.032   -0.000   68.759    0.317    0.468    6.142
  402.282   -0.000   67.654    0.300    0.478    6.152
  402.532   -0.000   68.212    0.313    0.480    6.190
  402.782    0.000   69.240    0.334    0.462    6.176
  403.032    0.000   72.013    0.326    0.447    6.173
  403.282    0.000   74.049    0.315    0.435    6.163
  403.532   -0.000   74.527    0.326    0.436    6.069
  403.782   -0.000   74.194    0.311    0.455    6.086
  404.032   -0.000   73.867    0.297    0.456    5.961
  404.282    0.000   73.820    0.283    0.462    5.779
  404.532    0.000   74.591    0.286    0.481    5.772
  404.782    0.000   74.558    0.303    0.485    5.775
  405.032   -0.000   74.718    0.316    0.446    5.897
  405.282   -0.000   73.258    0.326    0.437    5.897
  405.532    0.000   73.423    0.320    0.429    5.902
  405.782    0.000   73.467    0.310    0.454    5.893
  406.032    0.000   73.610    0.320    0.456    6.011
  406.282   -0.000   73.622    0.328    0.455    6.017
  406.532   -0.000   72.625    0.334    0.468    5.969
  406.782   -0.000   71.645    0.322    0.448    6.056
  407.032    0.000   73.143    0.317    0.450    6.053
  407.282    0.000   76.356    0.325    0.464    6.060
  407.532    0.000   76.590    0.302    0.456    6.065
  407.782   -0.000   74.527    0.291    0.440    6.159
  408.032   -0.000   72.147    0.312    0.455    6.192
  408.282    0.000   71.283    0.295    0.448    6.202
  408.532    0.000   73.076    0.294    0.453    6.217
  408.782    0.000   76.543    0.310    0.451    6.041
  409.032   -0.000   80.962    0.295    0.427    5.790
  409.282   -0.000   85.272    0.293    0.422    5.217
  409.532   -0.002   89.722    0.281    0.427    4.387
  409.782    0.017   92.829    0.279    0.442    4.217
  410.032    0.286   90.593    0.272    0.463    4.281
  410.282    0.856   85.737    0.257    0.487    4.561
  410.532  -15.000   78.865    0.263    0.486    5.052
  410.782 -179.072   76.052    0.306    0.483    5.748
  411.032 2203.930   76.509    0.316    0.494    6.051
  411.282 2147.840   78.900    0.305    0.479    6.259
  411.532 2207.380   79.724    0.291    0.448    6.292
  411.782 2216.220   79.728    0.289    0.441    6.302
  412.032 2231.960   77.582    0.280    0.447    6.309
  412.282 2261.140   74.550    0.262    0.468    6.316
  412.532 2309.650   72.561    0.234    0.468    6.326
  412.782 2366.380   72.501    0.201    0.452    6.391
  413.032 2360.590   85.208    0.204    0.436    6.452
  413.282 2347.060   89.544    0.212    0.446    6.474
  413.532 2377.030   85.740    0.195    0.443    6.337
  413.782 2419.920   72.727    0.170    0.367    6.351
  414.032 2478.590   71.032    0.135    0.312    6.254
  414.282 2492.340   82.537    0.127    0.360    6.144
  414.532 2342.700   92.800    0.215    0.419    5.923
  414.782 2330.520   95.805    0.222    0.467    5.857
  415.032 2352.200   98.827    0.209    0.480    5.803
  415.282 2320.710   99.647    0.228    0.462    5.716
  415.532 2295.520   99.271    0.242    0.449    5.854
  415.782 2319.700   95.023    0.228    0.444    5.877
  416.032 2317.930   93.562    0.229    0.435    6.167
  416.282 2299.600   96.631    0.240    0.445    6.567
  416.532 2304.500   99.816    0.237    0.452    6.847
  416.782 2354.880   98.691    0.208    0.436    7.229
  417.032 2375.670   99.108    0.196    0.415    7.216
  417.282 2382.850  103.662    0.191    0.403    7.221
  417.532 2371.430  106.423    0.198    0.401    7.114
  417.782 2316.920  109.188    0.230    0.397    6.790
  418.032 2354.390  110.948    0.208    0.424    6.609
  418.282 2340.180  111.640    0.216    0.429    6.429
  418.532 2305.360  111.534    0.237    0.434    6.111
  418.782 2334.980  110.583    0.219    0.424    5.838
  419.032 2368.150  108.072    0.200    0.434    5.659
  419.282 2356.130  104.799    0.207    0.434    5.486
  419.532 2317.880  102.996    0.229    0.439    5.080
  419.782 2358.460  100.048    0.206    0.452    4.594
  420.032 2364.520   96.401    0.202    0.434    4.235
  420.282 2346.770   95.012    0.212    0.432    3.626
  420.532 2324.010   93.507    0.226    0.461    3.142
  420.782 2296.620   91.079    0.242    0.541    2.678
  421.032 2283.040   85.927    0.250    0.556    2.390
  421.282 2231.170   83.862    0.280    0.586    2.160
  421.532 2210.690   84.976    0.292    0.586    2.072
  421.782 2220.450   87.119    0.286    0.576    2.031
  422.032 2217.970   87.630    0.288    0.607    2.041
  422.282 2195.000   88.620    0.301    0.599    2.106
  422.532 2247.560   91.183    0.270    0.570    2.214
  422.782 2222.070   95.335    0.285    0.548    2.383
  423.032 2256.650   96.639    0.265    0.530    2.615
  423.282 2280.120   91.936    0.251    0.519    2.829
  423.532 2261.140   90.782    0.262    0.484    3.281
  423.782 2319.160   92.167    0.229    0.442    3.701
  424.032 2371.360   97.362    0.198    0.432    4.278
  424.282 2344.220   98.819    0.214    0.447    4.933
  424.532 2370.460   96.980    0.199    0.425    5.559
  424.782 2339.590   93.659    0.217    0.401    5.843
  425.032 2253.060   93.333    0.267    0.386    5.662
  425.282 2322.850   95.108    0.226    0.434    5.378
  425.532 2360.530  100.141    0.204    0.464    4.518
  425.782 2415.090  103.142    0.172    0.479    3.992
  426.032 2388.210  103.083    0.188    0.486    3.864
  426.282 2344.110  101.300    0.214    0.464    3.916
  426.532 2318.230   98.253    0.229    0.456    4.105
  426.782 2316.510   94.905    0.230    0.467    5.077
  427.032 2328.070   92.393    0.223    0.434    5.926
  427.282 2324.240   93.165    0.226    0.408    6.481
  427.532 2373.550   95.041    0.197    0.380    6.810
  427.782 2390.330   97.822    0.187    0.400    6.668
  428.032 2357.760   99.783    0.206    0.421    5.957
  428.282 2367.110   97.113    0.201    0.437    5.313
  428.532 2378.210   95.702    0.194    0.454    4.624
  428.782 2340.060   96.375    0.216    0.473    4.107
  429.032 2333.140  104.164    0.220    0.493    3.638
  429.282 2312.020  106.059    0.233    0.495    3.305
  429.532 2289.240  104.795    0.246    0.478    3.292
  429.782 2314.020  103.132    0.232    0.485    3.362
  430.032 2343.980  103.053    0.214    0.494    3.453
  430.282 2361.510  104.762    0.204    0.482    3.590
  430.532 2371.410  104.464    0.198    0.471    3.633
  430.782 2346.860  103.872    0.212    0.471    3.822
  431.032 2328.880  103.068    0.223    0.483    4.045
  431.282 2361.300  102.707    0.204    0.469    4.229
  431.532 2395.290  103.389    0.184    0.460    4.363
  431.782 2325.480  103.968    0.225    0.450    4.500
  432.032 2338.900  103.461    0.217    0.441    4.723
  432.282 2364.150  102.926    0.202    0.445    4.887
  432.532 2394.180  101.567    0.185    0.439    5.047
  432.782 2417.520  100.133    0.171    0.449    5.211
  433.032 2436.170   99.428    0.160    0.460    5.414
  433.282 2366.210   99.217    0.201    0.446    5.654
  433.532 2387.850   97.458    0.188    0.436    6.357
  433.782 2409.560   92.146    0.176    0.400    6.724
  434.032 2397.280   80.791    0.183    0.370    6.662
  434.282 2335.470   79.236    0.219    0.351    9.042
  434.532 2302.580   83.040    0.238    0.361    9.518
  434.782 2284.010   83.525    0.249    0.378   10.127
  435.032 2258.220   82.071    0.264    0.359   10.742
  435.282 2294.140   78.998    0.243    0.353   11.697
  435.532 2297.280   76.397    0.241    0.352   12.681
  435.782 2247.580   76.419    0.270    0.344   13.326
  436.032 2228.980   78.899    0.281    0.347   13.762
  436.282 2267.110   82.500    0.259    0.380   13.809
  436.532 2298.120   86.423    0.241    0.396   13.463
  436.782 2275.910   89.835    0.254    0.404   12.825
  437.032 2306.740   92.641    0.237    0.395   12.077
  437.282 2365.080   97.427    0.209    0.398   11.344
  437.532 2344.350  106.640    0.190    0.409   10.147
  437.782  816.222  113.865    0.172    0.426    8.914
  438.032 2691.130  117.984    0.163    0.448    7.675
  438.282 2355.490  119.486    0.190    0.423    7.125
