~VERSION INFORMATION
 VERS.                 2.0:   CWLS LOG ASCII STANDARD -VERSION 2.0
 WRAP.                  NO:   ONE LINE PER DEPTH STEP
~WELL INFORMATION BLOCK
#MNEM.UNIT           DATA                    DESCRIPTION OF MNEMONIC
#---------    -------------------            -------------------------------
# Generated from Intellog Unique Number	CS_77_79/WELL/892
WELL.         BOW VALLEY INDUSTRIES LTD      : Well_name    - WELL
LOC .         00/07-07-077-14W4/0            : Location     - LOCATION
UWI .         00/07-07-077-14W4/0            : Uwi          - UNIQUE WELL ID
ENTR.         SP                             : Entered      - ENTERED BY
SRVC.         SCHLUMBERGER                   : Scn          - SERVICE COMPANY
STRT.M        260                            : top_depth    - START DEPTH
STOP.M        510                            : bot_depth    - STOP DEPTH
STEP.M        0.25                           : increment    - STEP LENGTH
 NULL. -999.2500:NULL Value
~CURVE INFORMATION BLOCK
#MNEM UNIT       ERCB CURVE CODE    CURVE DESCRIPTION
#-----------   ------------------   ----------------------------------
DEPT.M        00 001 00 00         : DEPTH        - DEPTH
ILD .OHMM     00 120 00 00         : RESD         - DEEP RESISTIVITY (DIL)
DPHI.V/V      00 890 00 00         : PHID         - DENSITY POROSITY (LIMESTONE)
NPHI.V/V      00 330 00 00         : PHIN         - NEUTRON POROSITY (LIMESTONE)
GR  .API      00 310 00 00         : GR           - GAMMA RAY
~PARAMETER INFORMATION
#MNEM.UNIT           DATA             DESCRIPTION OF MNEMONIC
#---------         -----------     ------------------------------
GL  .M        657                  : gl           - GROUND LEVEL ELEVATION
EREF.M        660.5                : kb           - ELEVATION OF DEPTH REFERENCE
DATM.M        657                  : datum        - DATUM ELEVATION
TDD .M        535                  : tdd          - TOTAL DEPTH DRILLER
RUN .         ONE                  : Run          - RUN NUMBER
ENG .         BILL                 : Engineer     - RECORDING ENGINEER
WIT .         JIM                  : Witness      - WITNESSED BY
MUD .         GEL                  : Mud_type     - MUD TYPE
MATR.         LIMESTONE            : Logunit      - NEUTRON MATRIX
TMAX.C        25                   : BHT          - MAXIMUM RECORDED TEMPERATURE
BHTD.M        535                  : BHTDEP       - MAXIMUM RECORDED TEMPERATURE
MATR.         1                    : LOGUNIT      - NEUTRON MATRIX
RMT .C        25                   : MDTP         - TEMPERATURE OF MUD
NEUT.         1                    : NEUTRON      - NEUTRON TYPE
RESI.         0                    : RESIST       - RESISTIVITY TYPE
RMC .OHMM     0.25                 : RMC          - RESISTIVITY OF MUD CAKE
RMF .OHMM     0.25                 : RMF          - RESISTIVITY OF MUD FILTRATE
SUFT.C        15                   : SUFT         - SURFACE TEMPERATURE
~A  DEPTH     RESD     PHID     PHIN       GR
# ...
  477.500   11.790    0.255    0.413   68.194
  477.750   11.362    0.260    0.406   65.186
  478.000   10.948    0.253    0.411   64.585
  478.250   10.550    0.255    0.419   65.213
  478.500   10.165    0.246    0.425   67.058
  478.750    9.614    0.251    0.430   67.676
  479.000    9.092    0.272    0.417   65.868
  479.250    8.131    0.283    0.417   57.993
  479.500    7.408    0.289    0.418   55.582
  479.750    6.624    0.298    0.416   52.563
  480.000    5.707    0.300    0.413   48.330
  480.250    5.200    0.305    0.412   46.521
  480.500    4.827    0.322    0.407   44.114
  480.750    4.481    0.315    0.409   42.908
  481.000    4.318    0.302    0.411   39.889
  481.250    4.161    0.308    0.413   36.266
  481.500    4.161    0.313    0.410   37.498
  481.750    4.086    0.306    0.408   38.727
  482.000    4.086    0.306    0.402   43.006
  482.250    4.012    0.323    0.413   45.448
  482.500    4.013    0.326    0.405   49.107
  482.750    4.014    0.311    0.404   51.555
  483.000    3.941    0.309    0.416   52.176
  483.250    3.942    0.312    0.422   49.760
  483.500    3.870    0.318    0.426   42.494
  483.750    3.871    0.330    0.418   41.294
  484.000    3.800    0.335    0.414   41.319
  484.250    3.801    0.336    0.414   41.945
  484.500    3.733    0.340    0.415   42.566
  484.750    3.734    0.334    0.416   43.187
  485.000    3.734    0.332    0.417   44.416
  485.250    3.735    0.326    0.413   45.039
  485.500    3.806    0.310    0.410   45.063
  485.750    3.808    0.312    0.413   45.075
  486.000    3.809    0.314    0.419   45.102
  486.250    3.809    0.319    0.422   45.118
  486.500    3.740    0.308    0.425   45.133
  486.750    3.672    0.307    0.430   45.148
  487.000    3.605    0.320    0.431   46.376
  487.250    3.606    0.322    0.431   44.572
  487.500    3.540    0.328    0.428   40.338
  487.750    3.411    0.336    0.423   37.320
  488.000    3.412    0.343    0.425   39.159
  488.250    3.288    0.340    0.436   39.781
  488.500    3.228    0.337    0.441   34.939
  488.750    3.169    0.340    0.447   31.919
  489.000    3.112    0.345    0.443   31.939
  489.250    3.112    0.346    0.423   31.951
  489.500    3.056    0.348    0.419   32.588
  489.750    3.056    0.348    0.417   32.598
  490.000    3.001    0.348    0.406   32.611
  490.250    3.001    0.344    0.403   34.459
  490.500    2.946    0.343    0.411   36.298
  490.750    2.947    0.343    0.417   36.916
  491.000    2.948    0.341    0.419   37.538
  491.250    2.948    0.343    0.404   35.734
  491.500    2.949    0.345    0.404   35.752
  491.750    2.896    0.345    0.410   35.165
  492.000    2.896    0.347    0.412   35.183
  492.250    2.897    0.350    0.414   35.194
  492.500    2.898    0.353    0.415   36.438
  492.750    2.899    0.358    0.418   36.450
  493.000    2.899    0.358    0.419   36.465
  493.250    2.900    0.353    0.421   36.483
  493.500    2.901    0.351    0.424   36.498
  493.750    2.957    0.351    0.421   37.119
  494.000    2.957    0.350    0.411   38.362
  494.250    2.958    0.348    0.408   39.593
  494.500    2.958    0.347    0.409   40.819
  494.750    3.015    0.351    0.408   42.048
  495.000    3.016    0.349    0.406   44.498
  495.250    3.131    0.348    0.404   46.941
  495.500    3.252    0.345    0.399   50.601
  495.750    3.440    0.335    0.388   59.126
  496.000    3.777    0.321    0.383   65.819
  496.250    4.226    0.307    0.391   73.730
  496.500    5.095    0.112    0.398   97.435
  496.750    5.700    0.079    0.407  105.955
  497.000    6.745    0.089    0.411  104.152
  497.250    7.407    0.107    0.405  108.419
  497.500    7.548    0.133    0.409  112.686
  497.750    7.839    0.167    0.409  113.319
  498.000    7.988    0.162    0.404  112.113
  498.250    8.450    0.169    0.399  108.487
  498.500    9.280    0.178    0.395  104.255
  498.750    9.635    0.189    0.389  103.054
  499.000   10.005    0.188    0.390  101.859
  499.250   10.007    0.191    0.397   98.237
  499.500   10.009    0.210    0.393   96.431
  499.750   10.201    0.212    0.385   97.662
  500.000   10.205    0.194    0.371   98.889
  500.250   10.399    0.167    0.367  102.555
  500.500   10.402    0.148    0.363  103.785
  500.750   10.404    0.145    0.361  105.014
  501.000   10.026    0.150    0.401  108.677
  501.250    9.842    0.157    0.425  112.347
  501.500    9.136    0.162    0.441  112.964
  501.750    8.642    0.166    0.457  113.584
  502.000    8.484    0.168    0.454  111.175
  502.250    8.646    0.171    0.444  106.334
  502.500    8.811    0.172    0.402  100.277
  502.750    9.149    0.170    0.381   96.653
  503.000    9.499    0.164    0.378   91.811
  503.250   10.432    0.136    0.368   86.364
  503.500   11.244    0.109    0.356   82.123
  503.750   11.673    0.047    0.332   76.674
  504.000   12.350    0.008    0.309   72.442
  504.250   12.586    0.007    0.311   75.499
  504.500   11.904    0.022    0.306   78.554
  504.750   11.050    0.043    0.301   81.603
  505.000   10.647    0.047    0.313   87.097
  505.250    9.885    0.055    0.319   88.323
  505.500    9.525    0.047    0.329   88.339
  505.750    9.350    0.047    0.337   86.537
  506.000    9.352    0.053    0.343   85.332
  506.250    9.895    0.048    0.337   82.312
  506.500   10.084    0.043    0.318   76.865
  506.750   10.667    0.036    0.314   73.847
  507.000   11.934    0.052    0.305   66.571
  507.250   14.659    0.049    0.280   62.949
  507.500   16.710    0.028    0.262   58.104
  507.750   20.912    0.000    0.217   52.658
  508.000   23.837    0.009    0.168   49.028
  508.250   27.684    0.010    0.157   46.012
  508.500   30.975    0.004    0.142   44.811
  508.750   32.163    0.003    0.143   45.440
  509.000   29.303    0.004    0.155   47.275
  509.250   25.719    0.017    0.222   52.154
  509.500   19.809    0.038    0.262   58.241
  509.750   16.749    0.028    0.285   74.048
  510.000   14.701    0.030    0.304   79.532
