~VERSION INFORMATION
 VERS.                 2.0:   CWLS LOG ASCII STANDARD -VERSION 2.0
 WRAP.                  NO:   ONE LINE PER DEPTH STEP
~WELL INFORMATION BLOCK
#MNEM.UNIT           DATA                    DESCRIPTION OF MNEMONIC
#---------    -------------------            -------------------------------
# Generated from Intellog Unique Number	CS_69_70/WELL/2885
NULL.         -999.25                        : NULL_VALUE
WELL.         AEC KIRBY                      : Well_name    - WELL              
LOC .         00/08-33-070-04W4/0            : Location     - LOCATION          
UWI .         00/08-33-070-04W4/0            : Uwi          - UNIQUE WELL ID    
ENTR.         TIM                            : Entered      - ENTERED BY        
SRVC.         SCHLUMBERGER                   : Scn          - SERVICE COMPANY   
DATE.         01/30/92                       : Date         - LOG DATE          
STRT.M        285                            : top_depth    - START DEPTH       
STOP.M        485                            : bot_depth    - STOP DEPTH        
STEP.M        0.25                           : increment    - STEP LENGTH       
~CURVE INFORMATION BLOCK
#MNEM UNIT       ERCB CURVE CODE    CURVE DESCRIPTION
#-----------   ------------------   ----------------------------------
DEPT.M        00 001 00 00         : DEPTH        - DEPTH                       
GR  .API      00 310 00 00         : GR           - GAMMA RAY                   
ILD .OHMM     00 120 00 00         : RESD         - DEEP RESISTIVITY (DIL)      
DPHI.V/V      00 890 00 00         : PHID         - DENSITY POROSITY (SANDSTONE)
NPHI.V/V      00 330 00 00         : PHIN         - NEUTRON POROSITY (SANDSTONE)
~PARAMETER INFORMATION       
#MNEM.UNIT           DATA             DESCRIPTION OF MNEMONIC
#---------         -----------     ------------------------------
GL  .M        660.7                : gl           - GROUND LEVEL ELEVATION      
EREF.M        664.3                : kb           - ELEVATION OF DEPTH REFERENCE
DATM.M        664.3                : datum        - DATUM ELEVATION             
TDD .M        497                  : tdd          - TOTAL DEPTH DRILLER         
RUN .         ONE                  : Run          - RUN NUMBER                  
ENG .         JO                   : Engineer     - RECORDING ENGINEER          
WIT .         TIM                  : Witness      - WITNESSED BY                
MUD .         GEL                  : Mud_type     - MUD TYPE                    
MATR.         SANDSTONE            : Logunit      - NEUTRON MATRIX              
TMAX.C        23                   : BHT          - MAXIMUM RECORDED TEMPERATURE
BHTD.M        497                  : BHTDEP       - MAXIMUM RECORDED TEMPERATURE
RMT .C        17                   : MDTP         - TEMPERATURE OF MUD          
MUDD.KG/M     1090                 : MWT          - MUD DENSITY                 
NEUT.         1                    : NEUTRON      - NEUTRON TYPE                
RESI.         0                    : RESIST       - RESISTIVITY TYPE            
RM  .OHMM     6.4                  : RM           - RESISTIVITY OF MUD          
RMC .OHMM     5.6                  : RMC          - RESISTIVITY OF MUD CAKE     
RMF .OHMM     4.9                  : RMF          - RESISTIVITY OF MUD FILTRATE 
SUFT.C        4                    : SUFT         - SURFACE TEMPERATURE         
~A  DEPTH       GR     RESD     PHID     PHIN
# ...
  459.000   22.900  170.054    0.351    0.422
  459.250   24.760  163.805    0.346    0.421
  459.500   26.006  149.095    0.342    0.419
  459.750   27.247  133.157    0.345    0.418
  460.000   28.492  112.382    0.346    0.418
  460.250   29.124   98.499    0.348    0.419
  460.500   29.755   87.984    0.349    0.420
  460.750   30.394   86.366    0.349    0.420
  461.000   30.407   83.193    0.348    0.414
  461.250   31.042   81.663    0.343    0.413
  461.500   31.669   78.662    0.341    0.418
  461.750   32.919   75.772    0.341    0.421
  462.000   33.550   72.988    0.343    0.426
  462.250   33.562   71.652    0.343    0.434
  462.500   32.350   71.669    0.342    0.437
  462.750   31.753   73.060    0.341    0.437
  463.000   32.384   77.344    0.343    0.440
  463.250   34.244   86.644    0.348    0.436
  463.500   34.269  102.737    0.345    0.416
  463.750   31.820  115.091    0.336    0.409
  464.000   26.922  139.070    0.338    0.414
  464.250   23.252  155.793    0.346    0.422
  464.500   18.358  184.714    0.351    0.414
  464.750   15.299  206.943    0.355    0.393
  465.000   13.473  231.847    0.354    0.382
  465.250   13.489  240.850    0.348    0.392
  465.500   14.739  240.929    0.348    0.401
  465.750   16.603  232.095    0.347    0.409
  466.000   17.230  232.171    0.349    0.410
  466.250   18.476  227.941    0.351    0.409
  466.500   20.958  227.978    0.355    0.406
  466.750   20.971  228.072    0.355    0.405
  467.000   20.988  219.691    0.355    0.411
  467.250   21.000  207.660    0.355    0.417
  467.500   21.017  185.476    0.355    0.421
  467.750   21.652  168.807    0.356    0.423
  468.000   22.898  145.197    0.356    0.424
  468.250   24.143  134.678    0.352    0.411
  468.500   25.389  127.302    0.346    0.388
  468.750   24.177  127.355    0.337    0.375
  469.000   21.122  124.993    0.327    0.391
  469.250   21.134  120.400    0.326    0.402
  469.500   23.617  113.806    0.332    0.409
  469.750   26.705  105.561    0.335    0.408
  470.000   27.337   97.921    0.340    0.411
  470.250   27.353   90.820    0.341    0.412
  470.500   27.985   76.650    0.337    0.408
  470.750   31.683   64.691    0.320    0.399
  471.000   40.916   48.749    0.303    0.377
  471.250   44.618   40.374    0.288    0.380
  471.500   41.563   32.198    0.309    0.382
  471.750   45.266   27.174    0.315    0.355
  472.000   55.113   23.817    0.267    0.363
  472.250   68.036   21.680    0.232    0.381
  472.500   65.595   21.688    0.277    0.399
  472.750   55.168   22.530    0.304    0.410
  473.000   47.197   23.849    0.316    0.415
  473.250   40.456   25.729    0.332    0.431
  473.500   35.558   26.232    0.332    0.420
  473.750   37.418   25.264    0.309    0.395
  474.000   44.193   22.569    0.279    0.405
  474.250   62.641   21.329    0.264    0.419
  474.500   60.204   20.161    0.275    0.405
  474.750   57.149   18.701    0.286    0.384
  475.000   55.318   17.678    0.258    0.387
  475.250   60.864   17.351    0.259    0.403
  475.500   60.275   18.025    0.263    0.402
  475.750   59.673   20.196    0.278    0.390
  476.000   58.462   22.201    0.297    0.395
  476.250   57.860   24.873    0.305    0.394
  476.500   59.724   25.355    0.273    0.390
  476.750   64.660   25.370    0.264    0.397
  477.000   65.295   25.376    0.263    0.408
  477.250   65.303   24.906    0.269    0.427
  477.500   65.934   24.916    0.271    0.436
  477.750   66.566   24.924    0.275    0.434
  478.000   66.582   25.408    0.279    0.420
  478.250   62.303   25.898    0.286    0.427
  478.500   59.248   26.403    0.294    0.429
  478.750   60.497   26.920    0.285    0.407
  479.000   62.963   26.926    0.260    0.423
  479.250   66.052   26.931    0.259    0.429
  479.500   70.373   25.945    0.256    0.434
  479.750   67.314   24.990    0.266    0.441
  480.000   61.801   24.529    0.282    0.434
  480.250   45.849   24.537    0.304    0.418
  480.500   40.951   25.489    0.314    0.385
  480.750   44.654   27.501    0.311    0.385
  481.000   50.810   29.666    0.309    0.413
  481.250   50.217   32.004    0.304    0.424
  481.500   42.861   32.014    0.295    0.436
  481.750   38.577   32.028    0.262    0.350
  482.000   34.907   32.038    0.213    0.223
  482.250   33.696   32.046    0.077    0.178
  482.500   34.335   33.291    0.008    0.180
  482.750   35.572   35.920    0.005    0.181
  483.000   36.822   38.748    0.003    0.187
  483.250   38.067   45.086    0.000    0.192
  483.500   38.699   47.725   -0.002    0.197
  483.750   39.334   52.477   -0.002    0.197
  484.000   39.342   53.486   -0.001    0.196
  484.250   38.749   53.517    0.000    0.195
  484.500   38.761   53.526    0.000    0.195
  484.750   38.778   53.539    0.000    0.195
  485.000   38.795   53.561   -0.001    0.194
