~VERSION INFORMATION
 VERS.                 2.0:   CWLS LOG ASCII STANDARD -VERSION 2.0
 WRAP.                  NO:   ONE LINE PER DEPTH STEP
~WELL INFORMATION BLOCK
#MNEM.UNIT           DATA                    DESCRIPTION OF MNEMONIC
#---------    -------------------            -------------------------------
# Generated from Intellog Unique Number	CW_76_78/WELL/502
LOC .         00/06-07-076-25W4/0            : Location     - LOCATION
UWI .         00/06-07-076-25W4/0            : Uwi          - UNIQUE WELL ID
ENTR.         JAYE                           : Entered      - ENTERED BY
SRVC.         SCHLUMBERGER                   : Scn          - SERVICE COMPANY
DATE.         17 JAN 75                      : Date         - LOG DATE
STRT.M        472.44                         : top_depth    - START DEPTH
STOP.M        658.44                         : bot_depth    - STOP DEPTH
STEP.M        0.25                           : increment    - STEP LENGTH
 NULL. -999.2500:NULL Value
~CURVE INFORMATION BLOCK
#MNEM UNIT       ERCB CURVE CODE    CURVE DESCRIPTION
#-----------   ------------------   ----------------------------------
DEPT.M        00 001 00 00         : DEPTH        - DEPTH
ILD .OHMM     00 120 00 00         : RESD         - DEEP RESISTIVITY (DIL)
NPHI.V/V      00 330 00 00         : PHIN         - NEUTRON POROSITY (SANDSTONE)
DPHI.V/V      00 890 00 00         : PHID         - DENSITY POROSITY (SANDSTONE)
GR  .API      00 310 00 00         : GR           - GAMMA RAY
CALI.MM       00 280 01 00         : CAL          - CALIPER
~PARAMETER INFORMATION
#MNEM.UNIT           DATA             DESCRIPTION OF MNEMONIC
#---------         -----------     ------------------------------
GL  .M        767.182              : gl           - GROUND LEVEL ELEVATION
EREF.M        771.235              : kb           - ELEVATION OF DEPTH REFERENCE
DATM.M        767.182              : datum        - DATUM ELEVATION
TDD .M        663.55               : tdd          - TOTAL DEPTH DRILLER
RUN .         ONE                  : Run          - RUN NUMBER
ENG .         LLOYD                : Engineer     - RECORDING ENGINEER
WIT .         MUCULAK              : Witness      - WITNESSED BY
BASE.         EDM                  : Branch       - HOME BASE OF LOGGING UNIT
MUD .         GEL                  : Mud_type     - MUD TYPE
MATR.         SANDSTONE            : Logunit      - NEUTRON MATRIX
TMAX.C        30                   : BHT          - MAXIMUM RECORDED TEMPERATURE
BHTD.M        663.55               : BHTDEP       - MAXIMUM RECORDED TEMPERATURE
RMT .C        12.2222              : MDTP         - TEMPERATURE OF MUD
MUDD.KG/M     1140                 : MWT          - MUD DENSITY
NEUT.         1                    : NEUTRON      - NEUTRON TYPE
RESI.         0                    : RESIST       - RESISTIVITY TYPE
RM  .OHMM     2.73                 : RM           - RESISTIVITY OF MUD
RMC .OHMM     0                    : RMC          - RESISTIVITY OF MUD CAKE
RMF .OHMM     0                    : RMF          - RESISTIVITY OF MUD FILTRATE
SUFT.C        -17.7778             : SUFT         - SURFACE TEMPERATURE
~A  DEPTH     RESD     PHIN     PHID       GR      CAL
# ...
  545.440    5.754    0.407    0.231   59.355  229.362
  545.690    5.598    0.384    0.242   57.884  227.179
  545.940    5.548    0.384    0.236   61.584  225.616
  546.190    5.661    0.399    0.240   64.494  224.154
  546.440    5.927    0.406    0.242   66.978  223.002
  546.690    6.308    0.396    0.235   64.290  222.056
  546.940    6.714    0.384    0.247   57.402  221.625
  547.190    6.914    0.373    0.244   55.201  221.299
  547.440    6.978    0.361    0.234   55.556  221.073
  547.690    6.715    0.370    0.215   56.700  221.158
  547.940    6.618    0.387    0.208   58.392  221.346
  548.190    6.582    0.387    0.215   60.330  221.736
  548.440    6.643    0.406    0.234   63.057  222.234
  548.690    6.916    0.420    0.234   67.854  222.939
  548.940    7.307    0.389    0.211   63.096  224.568
  549.190    7.936    0.358    0.179   57.061  227.229
  549.440    9.428    0.305    0.159   49.931  229.478
  549.690   10.486    0.274    0.107   46.147  230.899
  549.940   10.277    0.247    0.115   51.064  230.882
  550.190    9.140    0.303    0.162   61.702  230.452
  550.440    7.808    0.339    0.188   67.046  229.815
  550.690    6.756    0.382    0.212   70.077  229.884
  550.940    5.878    0.415    0.234   72.804  230.293
  551.190    5.345    0.441    0.247   75.046  231.305
  551.440    5.068    0.459    0.252   76.679  232.318
  551.690    4.904    0.453    0.232   77.884  233.432
  551.940    4.737    0.430    0.213   80.428  234.134
  552.190    4.720    0.427    0.205   83.826  234.011
  552.440    4.720    0.439    0.197   86.614  233.683
  552.690    4.686    0.454    0.192   88.246  233.871
  552.940    4.635    0.464    0.202   92.616  234.367
  553.190    4.559    0.470    0.202   97.291  234.455
  553.440    4.526    0.444    0.195   97.220  234.538
  553.690    4.526    0.441    0.192   93.679  234.830
  553.940    4.502    0.447    0.195   89.165  235.018
  554.190    4.486    0.460    0.208   87.145  235.410
  554.440    4.461    0.457    0.223   88.169  235.700
  554.690    4.462    0.452    0.203   85.724  235.786
  554.940    4.470    0.453    0.205   83.401  235.354
  555.190    4.487    0.444    0.193   84.728  234.819
  555.440    4.512    0.447    0.208   86.543  234.390
  555.690    4.512    0.457    0.168   87.627  234.270
  555.940    4.537    0.466    0.196   89.808  237.855
  556.190    4.554    0.468    0.215   96.064  242.578
  556.440    4.521    0.458    0.197  100.374  240.395
  556.690    4.571    0.443    0.177   99.205  237.699
  556.940    4.812    0.427    0.141   94.388  235.205
  557.190    4.937    0.445    0.144   90.605  235.908
  557.440    5.010    0.451    0.190   91.507  236.613
  557.690    5.011    0.439    0.185   93.077  234.018
  557.940    4.984    0.439    0.169   90.207  235.440
  558.190    4.993    0.426    0.182   89.039  237.585
  558.440    4.975    0.416    0.167   89.881  237.981
  558.690    4.912    0.421    0.176   91.025  237.653
  558.940    4.841    0.430    0.182   90.833  236.398
  559.190    4.753    0.444    0.204   91.186  243.077
  559.440    4.727    0.451    0.228   92.027  246.252
  559.690    4.754    0.448    0.219   92.684  239.639
  559.940    4.745    0.456    0.197   93.038  235.292
  560.190    4.719    0.445    0.207   93.150  237.746
  560.440    4.728    0.432    0.194   92.835  239.172
  560.690    4.790    0.450    0.209   92.276  238.740
  560.940    4.923    0.477    0.189   90.501  235.631
  561.190    5.279    0.472    0.189   84.892  231.696
  561.440    5.796    0.456    0.158   86.280  228.484
  561.690    6.506    0.435    0.203   88.460  224.550
  561.940    7.014    0.404    0.219   85.407  221.439
  562.190    7.196    0.384    0.175   72.981  220.288
  562.440    7.002    0.373    0.177   69.320  221.197
  562.690    6.342    0.354    0.177   69.796  224.785
  562.940    5.830    0.385    0.179   73.496  227.755
  563.190    5.498    0.426    0.149   77.745  227.736
  563.440    5.389    0.439    0.211   83.150  226.583
  563.690    5.429    0.442    0.205   86.608  225.637
  563.940    5.509    0.455    0.205   86.596  224.898
  564.190    5.757    0.470    0.251   83.361  223.950
  564.440    6.150    0.461    0.274   78.359  223.418
  564.690    6.594    0.459    0.306   77.740  222.781
  564.940    7.057    0.457    0.295   83.084  222.039
  565.190    7.443    0.441    0.273   82.891  221.300
  565.440    7.965    0.434    0.281   78.803  220.251
  565.690    8.416    0.429    0.290   73.924  219.203
  565.940    8.892    0.420    0.280   69.288  218.052
  566.190    9.657    0.410    0.262   66.296  216.899
  566.440   10.073    0.390    0.258   64.763  216.263
  566.690   10.037    0.366    0.236   63.960  217.377
  566.940    9.535    0.386    0.174   63.646  219.936
  567.190    9.009    0.413    0.161   64.426  218.474
  567.440    8.497    0.450    0.191   67.701  211.962
  567.690    8.057    0.462    0.248   72.376  209.781
  567.940    7.725    0.457    0.259   67.922  208.215
  568.190    7.448    0.431    0.247   65.051  210.980
  568.440    7.273    0.434    0.294   65.891  216.629
  568.690    7.247    0.430    0.304   67.098  222.278
  568.940    7.327    0.424    0.299   68.426  224.629
  569.190    7.436    0.437    0.284   69.510  225.124
  569.440    7.629    0.421    0.229   69.865  225.621
  569.690    7.828    0.401    0.177   70.158  225.706
  569.940    7.886    0.347    0.102   73.250  225.791
  570.190    7.758    0.398    0.116   79.812  225.774
  570.440    7.493    0.437    0.203   85.764  225.653
  570.690    7.250    0.390    0.236   80.885  227.487
  570.940    6.977    0.362    0.206   72.171  226.439
  571.190    6.520    0.379    0.176   73.257  222.401
  571.440    5.971    0.420    0.234   78.844  219.395
  571.690    5.509    0.431    0.225   80.962  214.328
  571.940    5.301    0.416    0.190   81.682  211.835
  572.190    5.130    0.406    0.131   82.340  213.362
  572.440    5.331    0.409    0.130   83.424  216.951
  572.690    5.633    0.420    0.155   84.935  221.153
  572.940    6.084    0.402    0.174   86.628  223.919
  573.190    6.717    0.372    0.160   80.531  225.756
  573.440    7.215    0.357    0.141   71.150  226.871
  573.690    7.735    0.345    0.113   66.575  227.678
  573.940    7.908    0.343    0.114   64.738  227.039
  574.190    7.694    0.354    0.137   71.847  225.682
  574.440    7.269    0.376    0.167   82.242  222.469
  574.690    6.756    0.390    0.179   84.787  222.142
  574.940    6.279    0.396    0.170   81.794  225.833
  575.190    6.009    0.416    0.161   81.783  228.287
  575.440    5.804    0.435    0.182   83.597  223.220
  575.690    5.626    0.442    0.192   85.899  218.461
  575.940    5.535    0.426    0.201   87.897  220.297
  576.190    5.484    0.413    0.211   91.537  222.856
  576.440    5.505    0.406    0.214   90.430  223.867
  576.690    5.556    0.403    0.198   88.228  223.539
  576.940    5.546    0.398    0.190   89.131  222.696
  577.190    5.546    0.409    0.183   90.761  222.264
  577.440    5.547    0.413    0.189   92.090  224.100
  577.690    5.547    0.417    0.185   95.426  228.411
  577.940    5.527    0.425    0.184   94.684  231.484
  578.190    5.447    0.441    0.186   92.909  232.496
  578.440    5.388    0.434    0.189   92.047  231.859
  578.690    5.309    0.417    0.184   91.427  229.469
  578.940    5.252    0.416    0.171   92.450  224.609
  579.190    5.138    0.451    0.183   95.238  221.807
  579.440    5.036    0.465    0.196   97.844  220.656
  579.690    4.793    0.461    0.200   97.164  219.502
  579.940    4.595    0.454    0.209   94.291  218.144
  580.190    4.545    0.447    0.220   91.787  216.994
  580.440    4.829    0.433    0.198   89.403  214.707
  580.690    5.254    0.449    0.203   86.654  212.525
  580.940    5.602    0.443    0.206   83.479  212.405
  581.190    5.941    0.410    0.196   79.025  214.858
  581.440    6.174    0.419    0.150   81.752  218.859
  581.690    6.118    0.440    0.147   87.827  221.932
