~VERSION INFORMATION
 VERS.                 2.0:   CWLS LOG ASCII STANDARD -VERSION 2.0
 WRAP.                  NO:   ONE LINE PER DEPTH STEP
~WELL INFORMATION BLOCK
#MNEM.UNIT           DATA                    DESCRIPTION OF MNEMONIC
#---------    -------------------            -------------------------------
# Generated from Intellog Unique Number	CS_77_79/WELL/3272
WELL.         ALLIED ROXANA MINERALS LTD.    : Well_name    - WELL
LOC .         00/06-03-078-16W4/0            : Location     - LOCATION
UWI .         00/06-03-078-16W4/0            : Uwi          - UNIQUE WELL ID
ENTR.         JOETTE                         : Entered      - ENTERED BY
SRVC.         SCHLUMBERGER                   : Scn          - SERVICE COMPANY
DATE.         08-24-92                       : Date         - LOG DATE
STRT.M        243.84                         : top_depth    - START DEPTH
STOP.M        467.84                         : bot_depth    - STOP DEPTH
STEP.M        0.25                           : increment    - STEP LENGTH
 NULL. -999.2500:NULL Value
~CURVE INFORMATION BLOCK
#MNEM UNIT       ERCB CURVE CODE    CURVE DESCRIPTION
#-----------   ------------------   ----------------------------------
DEPT.M        00 001 00 00         : DEPTH        - DEPTH
ILD .OHMM     00 120 00 00         : RESD         - DEEP RESISTIVITY (DIL)
NPHI.V/V      00 330 00 00         : PHIN         - NEUTRON POROSITY (SANDSTONE)
GR  .API      00 310 00 00         : GR           - GAMMA RAY
~PARAMETER INFORMATION
#MNEM.UNIT           DATA             DESCRIPTION OF MNEMONIC
#---------         -----------     ------------------------------
GL  .M        631.85               : gl           - GROUND LEVEL ELEVATION
EREF.M        634.898              : kb           - ELEVATION OF DEPTH REFERENCE
DATM.M        634.898              : datum        - DATUM ELEVATION
TDD .M        472.135              : tdd          - TOTAL DEPTH DRILLER
RUN .         ONE                  : Run          - RUN NUMBER
ENG .         BILL                 : Engineer     - RECORDING ENGINEER
WIT .         JIM                  : Witness      - WITNESSED BY
MUD .         GEL                  : Mud_type     - MUD TYPE
MATR.         SANDSTONE            : Logunit      - NEUTRON MATRIX
TMAX.C        17.7778              : BHT          - MAXIMUM RECORDED TEMPERATURE
BHTD.M        472.135              : BHTDEP       - MAXIMUM RECORDED TEMPERATURE
MATR.         1                    : LOGUNIT      - NEUTRON MATRIX
RMT .C        17.7778              : MDTP         - TEMPERATURE OF MUD
NEUT.         1                    : NEUTRON      - NEUTRON TYPE
RESI.         0                    : RESIST       - RESISTIVITY TYPE
RMC .OHMM     1.93                 : RMC          - RESISTIVITY OF MUD CAKE
RMF .OHMM     1.93                 : RMF          - RESISTIVITY OF MUD FILTRATE
SUFT.C        15                   : SUFT         - SURFACE TEMPERATURE
~A  DEPTH     RESD     PHIN       GR
# ...
  406.590    9.345    0.485   86.748
  406.840    9.335    0.480   86.716
  407.090    9.525    0.490   84.240
  407.340    9.923    0.486   87.263
  407.590   10.112    0.477   89.676
  407.840   10.311    0.482   89.644
  408.090   10.503    0.476   89.612
  408.340   10.488    0.470   92.008
  408.590   10.683    0.480   89.540
  408.840   10.664    0.475   87.064
  409.090   10.655    0.464   86.421
  409.340   10.639    0.443   88.214
  409.590   10.424    0.419   89.404
  409.840   10.411    0.449   91.205
  410.090    9.985    0.495   93.006
  410.340    9.556    0.544   95.418
  410.590    9.139    0.535   96.609
  410.840    8.510    0.528   97.180
  411.090    7.879    0.528   97.148
  411.340    7.664    0.522   95.894
  411.590    7.443    0.499   94.028
  411.840    7.427    0.480   93.385
  412.090    7.421    0.530   93.353
  412.340    7.200    0.503   92.703
  412.590    7.187    0.500   92.662
  412.840    6.963    0.498   91.416
  413.090    6.751    0.486   89.551
  413.340    6.328    0.550   87.686
  413.590    5.905    0.584   88.265
  413.840    5.479    0.621   87.630
  414.090    4.645    0.669   80.876
  414.340    3.401    0.713   75.940
  414.590    2.773    0.738   72.853
  414.840    2.551    0.754   75.265
  415.090    2.539    0.762   77.677
  415.340    2.529    0.719   77.645
  415.590    2.921    0.680   78.835
  415.840    3.120    0.631   82.470
  416.090    3.716    0.577   81.827
  416.340    4.117    0.537   82.414
  416.590    5.124    0.543   85.429
  416.840    5.528    0.531   86.611
  417.090    6.131    0.477   85.357
  417.340    6.734    0.461   84.714
  417.590    7.129    0.449   87.126
  417.840    7.119    0.456   88.317
  418.090    7.312    0.483   87.062
  418.340    7.293    0.486   85.197
  418.590    7.081    0.448   83.332
  418.840    6.450    0.424   82.070
  419.090    6.027    0.406   82.038
  419.340    5.398    0.437   84.450
  419.590    5.177    0.494   86.252
  419.840    4.959    0.523   86.228
  420.090    4.741    0.516   86.196
  420.340    4.937    0.510   84.942
  420.590    4.921    0.585   83.687
  420.840    5.114    0.580   79.973
  421.090    5.098    0.569   78.108
  421.340    5.294    0.574   79.909
  421.590    5.275    0.569   81.710
  421.840    5.265    0.557   84.123
  422.090    5.252    0.531   86.535
  422.340    5.038    0.506   90.169
  422.590    5.019    0.491   93.796
  422.840    4.804    0.548   94.391
  423.090    4.788    0.588   94.970
  423.340    4.779    0.575   94.327
  423.590    4.766    0.580   97.334
  423.840    4.753    0.575   96.072
  424.090    4.939    0.570   94.215
  424.340    5.340    0.620   94.183
  424.590    5.741    0.649   93.540
  424.840    6.133    0.621   90.461
  425.090    6.123    0.532   84.318
  425.340    5.905    0.479   72.668
  425.590    5.479    0.411   70.795
  425.840    5.466    0.390   73.826
  426.090    5.659    0.619   77.460
  426.340    6.467    0.600   79.262
  426.590    6.868    0.452   79.833
  426.840    7.881    0.455   82.245
  427.090    8.478    0.440   85.887
  427.340    8.055    0.414   90.744
  427.590    8.658    0.385   97.433
  427.840    9.675    0.407  104.734
  428.090   11.919    0.460  101.647
  428.340   13.135    0.454   94.274
  428.590   12.920    0.454   91.798
  428.840   12.289    0.438   91.758
  429.090   12.074    0.413   92.345
  429.340   11.853    0.388   94.146
  429.590   11.837    0.397   96.559
  429.840   11.827    0.418   92.249
  430.090   12.017    0.412   89.757
  430.340   12.209    0.408   92.161
  430.590   12.405    0.425   93.367
  430.840   12.392    0.415   91.502
  431.090   12.380    0.384   88.415
  431.340   12.569    0.366   87.772
  431.590   12.765    0.360   87.740
  431.840   13.364    0.374   84.645
  432.090   13.557    0.381   80.938
  432.340   14.154    0.374   78.462
  432.590   14.555    0.368   77.208
  432.840   15.565    0.364   78.398
  433.090   16.174    0.348   79.588
  433.340   18.009    0.351   77.120
  433.590   20.459    0.380   75.247
  433.840   24.143    0.395   78.270
  434.090   22.075    0.365   81.905
  434.340   17.342    0.360   84.928
  434.590   15.277    0.364   87.340
  434.840   12.792    0.373   87.308
  435.090   12.578    0.387   87.268
  435.340   12.565    0.384   87.855
  435.590   13.168    0.381   90.260
  435.840   13.976    0.374   91.458
  436.090   14.787    0.365   88.371
  436.340   19.902    0.401   81.609
  436.590   21.329    0.464   70.578
  436.840   25.627    0.455   60.769
  437.090   29.103    0.380   61.951
  437.340   27.654    0.353   68.038
  437.590   26.409    0.344   75.338
  437.840   24.550    0.338   80.806
  438.090   21.247    0.341   78.322
  438.340   23.495    0.355   74.623
  438.590   32.516    0.378   67.259
  438.840   32.294    0.395   66.616
  439.090   31.047    0.394   72.083
  439.340   30.422    0.391   75.106
  439.590   29.383    0.387   76.289
  439.840   28.550    0.410   76.265
  440.090   26.892    0.422   76.828
  440.340   23.801    0.393   78.010
  440.590   17.218    0.389   79.827
  440.840   16.387    0.380   84.684
  441.090   10.625    0.376   93.818
  441.340    9.791    0.382  104.174
  441.590    9.984    0.388  104.142
  441.840   10.584    0.391  101.054
  442.090   10.779    0.391   96.729
  442.340   10.760    0.387   95.491
  442.590   10.751    0.370   93.626
  442.840   10.943    0.374   94.816
  443.090   11.546    0.377   98.450
  443.340   13.175    0.451   94.133
  443.590   19.730    0.459   86.768
  443.840   20.952    0.461   81.848
  444.090   22.581    0.458   77.538
  444.340   25.236    0.449   70.166
  444.590   26.866    0.443   67.689
  444.840   25.407    0.488   73.157
  445.090   24.785    0.433   78.013
  445.340   23.130    0.417   83.481
  445.590   21.476    0.416   87.115
  445.840   17.355    0.422   88.909
  446.090   15.495    0.427   88.877
  446.340   14.252    0.426   89.456
  446.590   13.418    0.394   91.257
  446.840   11.757    0.385   93.677
  447.090   11.129    0.365  100.359
  447.340   10.914    0.353  102.779
  447.590   10.693    0.351   99.684
  447.840   10.267    0.370   94.152
  448.090   10.052    0.363   92.890
  448.340    9.837    0.356   95.310
  448.590    9.408    0.367   98.945
  448.840    9.190    0.398   97.080
  449.090    8.975    0.391   92.159
  449.340    8.959    0.378   87.834
  449.590    9.155    0.374   85.977
  449.840    9.546    0.368   81.056
  450.090    9.950    0.358   77.350
  450.340   10.348    0.346   79.159
  450.590   11.156    0.336   83.404
  450.840   11.548    0.342   83.373
  451.090   12.564    0.341   79.055
  451.340   15.014    0.342   73.524
  451.590   19.930    0.334   49.049
  451.840   22.175    0.300   33.114
  452.090   35.300    0.231   31.860
  452.340   43.497    0.202   28.780
  452.590   46.357    0.177   25.074
  452.840   49.013    0.155   25.653
  453.090   48.791    0.151   26.835
  453.340   43.856    0.160   25.581
  453.590   36.449    0.167   23.708
  453.840   37.466    0.173   23.073
  454.090   39.092    0.174   23.049
  454.340   40.310    0.179   23.620
  454.590   41.324    0.185   24.207
  454.840   40.901    0.190   23.548
  455.090   40.481    0.193   21.683
  455.340   39.849    0.193   21.659
  455.590   40.247    0.210   21.627
  455.840   40.850    0.223   21.595
  456.090   41.658    0.229   22.785
  456.340   42.463    0.234   22.753
  456.590   42.040    0.238   22.110
  456.840   39.568    0.241   21.459
  457.090   33.600    0.237   20.816
  457.340   31.738    0.230   20.784
  457.590   30.086    0.223   21.974
  457.840   28.220    0.210   23.767
  458.090   27.178    0.199   24.957
  458.340   26.556    0.208   24.926
  458.590   25.517    0.216   25.497
  458.840   23.863    0.222   27.314
  459.090   21.589    0.225   27.282
  459.340   19.730    0.217   26.012
  459.590   17.049    0.208   27.194
  459.840   14.981    0.195   28.400
  460.090   13.528    0.195   33.241
  460.340   13.105    0.215   35.058
  460.590   13.092    0.285   38.081
