~VERSION INFORMATION
 VERS.                 2.0:   CWLS LOG ASCII STANDARD -VERSION 2.0
 WRAP.                  NO:   ONE LINE PER DEPTH STEP
~WELL INFORMATION BLOCK
#MNEM.UNIT           DATA                    DESCRIPTION OF MNEMONIC
#---------    -------------------            -------------------------------
# Generated from Intellog Unique Number	CS_67_68/WELL/2168
WELL.         06-13-067-08W4                 : Well_name    - WELL
LOC .         00/06-13-067-08W4/0            : Location     - LOCATION
UWI .         00/06-13-067-08W4/0            : Uwi          - UNIQUE WELL ID
ENTR.         SP                             : Entered      - ENTERED BY
SRVC.         SCHLUMBERGER                   : Scn          - SERVICE COMPANY
STRT.M        335                            : top_depth    - START DEPTH
STOP.M        566                            : bot_depth    - STOP DEPTH
STEP.M        0.25                           : increment    - STEP LENGTH
 NULL. -999.2500:NULL Value
~CURVE INFORMATION BLOCK
#MNEM UNIT       ERCB CURVE CODE    CURVE DESCRIPTION
#-----------   ------------------   ----------------------------------
DEPT.M        00 001 00 00         : DEPTH        - DEPTH
ILD .OHMM     00 120 00 00         : RESD         - DEEP RESISTIVITY (DIL)
DPHI.V/V      00 890 00 00         : PHID         - DENSITY POROSITY (LIMESTONE)
NPHI.V/V      00 330 00 00         : PHIN         - NEUTRON POROSITY (LIMESTONE)
GR  .API      00 310 00 00         : GR           - GAMMA RAY
CALI.MM       00 280 01 00         : CAL          - CALIPER
~PARAMETER INFORMATION
#MNEM.UNIT           DATA             DESCRIPTION OF MNEMONIC
#---------         -----------     ------------------------------
GL  .M        646.93               : gl           - GROUND LEVEL ELEVATION
EREF.M        650.73               : kb           - ELEVATION OF DEPTH REFERENCE
DATM.M        650.73               : datum        - DATUM ELEVATION
TDD .M        570                  : tdd          - TOTAL DEPTH DRILLER
RUN .         ONE                  : Run          - RUN NUMBER
ENG .         BILL                 : Engineer     - RECORDING ENGINEER
WIT .         JIM                  : Witness      - WITNESSED BY
MUD .         GEL                  : Mud_type     - MUD TYPE
MATR.         LIMESTONE            : Logunit      - NEUTRON MATRIX
TMAX.C        21                   : BHT          - MAXIMUM RECORDED TEMPERATURE
BHTD.M        570.5                : BHTDEP       - MAXIMUM RECORDED TEMPERATURE
MATR.         1                    : LOGUNIT      - NEUTRON MATRIX
RMT .C        25                   : MDTP         - TEMPERATURE OF MUD
NEUT.         1                    : NEUTRON      - NEUTRON TYPE
RESI.         0                    : RESIST       - RESISTIVITY TYPE
RMC .OHMM     0.25                 : RMC          - RESISTIVITY OF MUD CAKE
RMF .OHMM     0.25                 : RMF          - RESISTIVITY OF MUD FILTRATE
SUFT.C        15                   : SUFT         - SURFACE TEMPERATURE
~A  DEPTH     RESD     PHID     PHIN       GR      CAL
# ...
  517.500    6.948    0.201    0.334   82.269  153.124
  517.750    7.670    0.105    0.315   89.783  153.332
  518.000    8.122    0.043    0.289   94.588  153.438
  518.250    8.346    0.099    0.286   98.284  153.646
  518.500    8.088    0.153    0.312  101.981  153.855
  518.750    7.764    0.176    0.332  104.630  153.960
  519.000    7.828    0.182    0.341  106.479  154.271
  519.250    7.924    0.174    0.339  107.343  154.378
  519.500    7.988    0.169    0.339  107.591  154.482
  519.750    8.055    0.164    0.342  106.670  154.383
  520.000    8.106    0.161    0.344  106.733  154.592
  520.250    8.158    0.168    0.347  107.843  154.697
  520.500    8.116    0.176    0.347  106.244  154.803
  520.750    8.076    0.184    0.345  101.813  155.011
  521.000    8.021    0.191    0.356   97.812  155.117
  521.250    7.967    0.196    0.365  100.216  155.120
  521.500    7.927    0.201    0.355  107.545  155.123
  521.750    7.873    0.193    0.348  113.335  154.921
  522.000    7.908    0.184    0.360  119.987  154.821
  522.250    8.140    0.185    0.366  110.937  154.722
  522.500    8.622    0.202    0.370   99.609  154.725
  522.750    9.010    0.215    0.373   88.527  154.831
  523.000    9.223    0.232    0.364   85.204  155.450
  523.250    9.142    0.200    0.358   90.870  158.018
  523.500    9.011    0.172    0.364   98.446  162.845
  523.750    8.766    0.151    0.350  104.483  166.953
  524.000    8.575    0.134    0.342  106.763  167.162
  524.250    8.452    0.121    0.337  101.654  163.162
  524.500    8.379    0.151    0.332   97.715  159.471
  524.750    8.384    0.170    0.347   94.576  155.472
  525.000    8.534    0.153    0.361   91.746  152.806
  525.250    8.736    0.140    0.349   86.945  150.244
  525.500    8.841    0.129    0.345   80.296  148.707
  525.750    8.714    0.140    0.357   73.709  147.787
  526.000    8.010    0.188    0.350   69.770  147.687
  526.250    6.295    0.236    0.346   63.183  147.896
  526.500    5.721    0.263    0.362   48.099  148.104
  526.750    5.288    0.290    0.352   38.002  148.313
  527.000    4.843    0.306    0.343   22.733  148.623
  527.250    4.596    0.302    0.339   19.656  148.934
  527.500    4.420    0.301    0.334   19.042  149.143
  527.750    4.349    0.292    0.328   19.229  149.351
  528.000    4.303    0.276    0.322   24.588  149.354
  528.250    4.257    0.285    0.316   30.994  149.152
  528.500    4.229    0.291    0.311   37.892  149.052
  528.750    4.279    0.284    0.329   41.342  149.055
  529.000    4.339    0.281    0.349   39.004  149.366
  529.250    4.310    0.287    0.370   32.602  149.575
  529.500    4.200    0.296    0.358   28.047  149.681
  529.750    3.994    0.302    0.345   27.803  149.684
  530.000    3.863    0.297    0.359   28.051  149.584
  530.250    3.765    0.292    0.359   27.252  149.382
  530.500    3.718    0.304    0.356   28.855  148.769
  530.750    3.692    0.317    0.352   30.643  148.464
  531.000    3.723    0.321    0.345   31.999  148.468
  531.250    3.768    0.315    0.345   30.400  148.368
  531.500    3.807    0.311    0.352   28.493  148.782
  531.750    3.817    0.316    0.346   26.217  149.093
  532.000    3.798    0.321    0.340   25.664  149.403
  532.250    3.750    0.323    0.340   26.344  149.714
  532.500    3.655    0.319    0.339   26.530  149.923
  532.750    3.515    0.312    0.339   25.239  150.542
  533.000    3.452    0.317    0.338   24.009  151.366
  533.250    3.428    0.324    0.337   25.058  152.088
  533.500    3.418    0.316    0.337   26.846  152.604
  533.750    3.413    0.325    0.341   28.941  152.915
  534.000    3.410    0.346    0.368   31.098  153.123
  534.250    3.399    0.355    0.397   31.715  153.229
  534.500    3.369    0.345    0.430   26.976  153.232
  534.750    3.334    0.336    0.404   24.884  152.927
  535.000    3.311    0.331    0.389   24.086  152.314
  535.250    3.288    0.330    0.377   24.334  152.523
  535.500    3.265    0.330    0.367   24.520  153.039
  535.750    3.261    0.332    0.362   23.968  153.350
  536.000    3.245    0.334    0.370   23.354  153.661
  536.250    3.254    0.336    0.372   23.479  153.766
  536.500    3.250    0.333    0.372   26.314  153.975
  536.750    3.246    0.327    0.355   30.503  153.978
  537.000    3.260    0.319    0.341   35.923  153.981
  537.250    3.275    0.312    0.350   40.420  154.189
  537.500    3.302    0.316    0.357   44.117  154.090
  537.750    3.348    0.323    0.362   47.444  153.990
  538.000    3.414    0.323    0.369   47.199  153.891
  538.250    3.476    0.321    0.368   42.706  154.099
  538.500    3.531    0.322    0.365   40.676  154.410
  538.750    3.573    0.309    0.361   41.294  154.311
  539.000    3.556    0.301    0.359   38.463  154.314
  539.250    3.511    0.293    0.355   33.539  154.214
  539.500    3.468    0.303    0.349   29.846  153.909
  539.750    3.374    0.317    0.352   27.939  153.810
  540.000    3.331    0.316    0.359   26.709  153.403
  540.250    3.327    0.317    0.366   26.218  153.098
  540.500    3.361    0.341    0.369   26.590  153.101
  540.750    3.402    0.357    0.375   27.269  153.207
  541.000    3.417    0.359    0.391   27.948  153.517
  541.250    3.419    0.326    0.402   27.519  153.726
  541.500    3.377    0.311    0.388   27.151  154.037
  541.750    3.341    0.324    0.376   27.707  154.451
  542.000    3.331    0.330    0.367   27.340  154.967
  542.250    3.302    0.336    0.358   26.110  155.688
  542.500    3.267    0.330    0.351   27.528  155.999
  542.750    3.220    0.335    0.365   28.146  156.105
  543.000    3.198    0.342    0.377   25.377  156.313
  543.250    3.200    0.342    0.371   23.100  156.419
  543.500    3.190    0.339    0.359   23.903  156.627
  543.750    3.150    0.336    0.353   25.505  156.528
  544.000    3.088    0.331    0.352   27.970  156.634
  544.250    3.027    0.326    0.352   30.989  156.842
  544.500    2.989    0.322    0.363   32.715  157.050
  544.750    2.991    0.325    0.362   32.594  157.156
  545.000    2.993    0.327    0.357   29.271  157.262
  545.250    3.000    0.326    0.354   27.241  157.367
  545.500    3.020    0.325    0.348   28.166  157.473
  545.750    3.022    0.323    0.340   28.599  157.271
  546.000    3.018    0.324    0.334   27.246  157.274
  546.250    2.998    0.323    0.342   27.618  157.277
  546.500    2.983    0.321    0.343   27.681  157.281
  546.750    2.962    0.323    0.344   27.006  157.592
  547.000    2.947    0.325    0.363   25.222  157.800
  547.250    2.911    0.328    0.373   23.807  157.905
  547.500    2.885    0.334    0.374   23.317  158.011
  547.750    2.860    0.337    0.369   23.749  158.014
  548.000    2.851    0.340    0.366   25.537  158.017
  548.250    2.881    0.336    0.363   28.187  158.020
  548.500    2.926    0.321    0.365   29.666  158.024
  548.750    2.995    0.309    0.362   27.821  157.719
  549.000    3.113    0.314    0.360   29.978  157.516
  549.250    3.303    0.304    0.353   35.830  157.417
  549.500    3.558    0.280    0.339   48.147  157.317
  549.750    3.980    0.254    0.335   63.974  157.321
  550.000    5.840    0.198    0.320  118.177  158.149
  550.250    6.382    0.196    0.317  120.307  151.070
  550.500    6.691    0.199    0.314  118.937  151.347
  550.750    6.806    0.201    0.312  112.775  151.006
  551.000    6.716    0.200    0.316  105.755  150.670
  551.250    6.480    0.198    0.320   98.059  150.436
  551.500    6.216    0.195    0.324   94.416  150.199
  551.750    6.053    0.191    0.316   95.194  149.655
  552.000    6.134    0.186    0.311   95.667  149.008
  552.250    6.275    0.180    0.332   96.202  148.672
  552.500    6.287    0.177    0.336   91.823  148.230
  552.750    5.807    0.180    0.325   81.853  148.604
  553.000    5.324    0.232    0.330   64.575  149.494
  553.250    4.917    0.268    0.345   58.782  150.287
  553.500    4.500    0.289    0.359   54.648  151.178
  553.750    4.180    0.302    0.347   57.946  151.249
