~VERSION INFORMATION
 VERS.                 2.0:   CWLS LOG ASCII STANDARD -VERSION 2.0
 WRAP.                  NO:   ONE LINE PER DEPTH STEP
~WELL INFORMATION BLOCK
#MNEM.UNIT           DATA                    DESCRIPTION OF MNEMONIC
#---------    -------------------            -------------------------------
# Generated from Intellog Unique Number	CW_79_81/WELL/199
WELL.         CHEVRON ET AL HORIZON          : Well_name    - WELL
LOC .         00/04-02-079-19W4/0            : Location     - LOCATION
UWI .         00/04-02-079-19W4/0            : Uwi          - UNIQUE WELL ID
ENTR.         MAX                            : Entered      - ENTERED BY
SRVC.         SCHLUMBERGER                   : Scn          - SERVICE COMPANY
STRT.M        179.832                        : top_depth    - START DEPTH
STOP.M        382.332                        : bot_depth    - STOP DEPTH
STEP.M        0.25                           : increment    - STEP LENGTH
 NULL. -999.2500:NULL Value
~CURVE INFORMATION BLOCK
#MNEM UNIT       ERCB CURVE CODE    CURVE DESCRIPTION
#-----------   ------------------   ----------------------------------
DEPT.M        00 001 00 00         : DEPTH        - DEPTH
ILD .OHMM     00 120 00 00         : RESD         - DEEP RESISTIVITY (DIL)
NPHI.V/V      00 330 00 00         : PHIN         - NEUTRON POROSITY (SANDSTONE)
DPHI.V/V      00 890 00 00         : PHID         - DENSITY POROSITY (SANDSTONE)
CALI.MM       00 280 01 00         : CAL          - CALIPER
GR  .API      00 310 00 00         : GR           - GAMMA RAY
~PARAMETER INFORMATION
#MNEM.UNIT           DATA             DESCRIPTION OF MNEMONIC
#---------         -----------     ------------------------------
GL  .M        555.346              : gl           - GROUND LEVEL ELEVATION
EREF.M        558.698              : kb           - ELEVATION OF DEPTH REFERENCE
DATM.M        555.346              : datum        - DATUM ELEVATION
TDD .M        382.524              : tdd          - TOTAL DEPTH DRILLER
RUN .         ONE                  : Run          - RUN NUMBER
ENG .         BILL                 : Engineer     - RECORDING ENGINEER
WIT .         JIM                  : Witness      - WITNESSED BY
MUD .         GEL                  : Mud_type     - MUD TYPE
MATR.         SANDSTONE            : Logunit      - NEUTRON MATRIX
TMAX.C        25                   : BHT          - MAXIMUM RECORDED TEMPERATURE
BHTD.M        382.524              : BHTDEP       - MAXIMUM RECORDED TEMPERATURE
RMT .C        13.3333              : MDTP         - TEMPERATURE OF MUD
MUDD.KG/M     10300                : MWT          - MUD DENSITY
NEUT.         1                    : NEUTRON      - NEUTRON TYPE
RESI.         0                    : RESIST       - RESISTIVITY TYPE
RM  .OHMM     5.98                 : RM           - RESISTIVITY OF MUD
RMC .OHMM     5.98                 : RMC          - RESISTIVITY OF MUD CAKE
RMF .OHMM     6.05                 : RMF          - RESISTIVITY OF MUD FILTRATE
SUFT.C        -15                  : SUFT         - SURFACE TEMPERATURE
~A  DEPTH     RESD     PHIN     PHID      CAL       GR
# ...
  216.332    3.661    0.603    0.166  195.959  104.855
  216.582    3.537    0.599    0.183  196.060  107.264
  216.832    3.479    0.599    0.179  195.184  109.666
  217.082    3.423    0.602    0.202  195.286  110.604
  217.332    3.337    0.601    0.228  194.879  108.030
  217.582    3.286    0.599    0.224  194.028  106.334
  217.832    3.290    0.599    0.219  193.634  107.873
  218.082    3.420    0.599    0.215  193.736  107.933
  218.332    3.753    0.598    0.219  193.825  108.871
  218.582    4.677    0.594    0.230  193.927  107.468
  218.832    5.776    0.586    0.236  194.537  105.194
  219.082    6.453    0.557    0.239  195.655  102.913
  219.332    7.278    0.510    0.221  196.227  100.632
  219.582    7.775    0.494    0.213  196.355  100.099
  219.832    7.790    0.486    0.197  196.431  100.167
  220.082    7.664    0.493    0.176  192.085  101.983
  220.332    7.472    0.521    0.170  190.700  103.806
  220.582    7.219    0.542    0.195  190.802  103.574
  220.832    7.168    0.560    0.193  193.877  102.756
  221.082    7.725    0.522    0.194  195.466  100.182
  221.332    8.397    0.501    0.205  195.606   97.023
  221.582    9.215    0.477    0.226  195.682   92.685
  221.832   10.297    0.452    0.239  195.301   83.380
  222.082   11.511    0.449    0.271  195.403   75.246
  222.332   12.515    0.483    0.284  195.505   76.476
  222.582   12.542    0.494    0.280  195.111   79.763
  222.832   12.343    0.494    0.282  193.243   83.921
  223.082   12.034    0.484    0.282  191.858   83.688
  223.332   11.730    0.501    0.289  191.973   80.236
  223.582   11.227    0.537    0.292  193.561   81.189
  223.832   10.850    0.555    0.274  194.654   82.720
  224.082   10.775    0.531    0.282  194.756   82.180
  224.332   10.796    0.498    0.291  194.362   83.148
  224.582   10.718    0.496    0.299  194.464   85.827
  224.832   10.644    0.489    0.293  194.070   89.707
  225.082   10.762    0.481    0.287  193.715   90.638
  225.332   10.978    0.471    0.273  193.804   90.991
  225.582   11.942    0.440    0.253  194.388   87.531
  225.832   12.747    0.422    0.278  194.986   81.445
  226.082   13.990    0.407    0.291  195.621   69.791
  226.332   14.941    0.422    0.309  194.732   63.713
  226.582   15.102    0.426    0.300  193.830   67.285
  226.832   14.335    0.433    0.287  192.928   69.987
  227.082   13.600    0.456    0.268  192.051   68.576
  227.332   12.903    0.471    0.275  191.670   65.417
  227.582   12.577    0.486    0.279  191.759   62.843
  227.832   12.956    0.499    0.255  191.886   63.496
  228.082   14.345    0.456    0.241  191.988   63.864
  228.332   15.456    0.396    0.206  192.077   61.867
  228.582   15.635    0.373    0.106  192.675   58.701
  228.832   15.515    0.489    0.168  192.294   53.500
  229.082   15.427    0.508    0.342  190.413   50.041
  229.332   15.159    0.524    0.329  190.528   49.531
  229.582   14.643    0.528    0.329  191.112   48.998
  229.832   14.019    0.496    0.330  191.735   48.180
  230.082   13.548    0.506    0.328  191.837   47.362
  230.332   12.860    0.504    0.327  191.926   48.008
  230.582   11.975    0.506    0.321  192.040   48.946
  230.832   10.859    0.508    0.312  192.142   49.306
  231.082    9.845    0.524    0.305  193.248   49.967
  231.332    9.005    0.550    0.300  194.354   50.597
  231.582    8.090    0.569    0.284  193.973   52.421
  231.832    7.469    0.565    0.268  192.079   55.700
  232.082    7.088    0.549    0.305  191.686   58.417
  232.332    6.912    0.553    0.303  193.782   57.591
  232.582    7.378    0.567    0.289  193.872   56.473
  232.832    8.472    0.564    0.283  193.478   55.363
  233.082    9.999    0.573    0.305  193.580   53.982
  233.332   11.377    0.530    0.313  193.211   53.442
  233.582   12.721    0.505    0.323  193.300   52.932
  233.832   12.397    0.493    0.331  193.402   52.399
  234.082   11.345    0.471    0.337  193.504   51.581
  234.332   10.283    0.547    0.342  193.631   51.356
  234.582    9.845    0.573    0.325  193.720   53.457
  234.832    9.961    0.557    0.323  193.339   56.166
  235.082   10.158    0.559    0.314  193.441   56.227
  235.332   10.270    0.558    0.317  193.555   54.230
  235.582   10.290    0.530    0.299  193.657   51.364
  235.832   10.411    0.517    0.292  194.242   49.968
  236.082   10.617    0.498    0.296  194.369   49.458
  236.332   10.934    0.486    0.311  194.484   50.381
  236.582   11.260    0.475    0.321  194.560   51.905
  236.832   11.279    0.472    0.307  193.175   55.192
  237.082   11.198    0.458    0.300  192.794   58.178
  237.332   10.724    0.450    0.303  192.400   61.188
  237.582   10.080    0.465    0.300  192.528   62.996
  237.832    9.056    0.490    0.292  193.125   64.812
  238.082    9.160    0.504    0.279  193.710   66.929
  238.332    9.176    0.522    0.283  194.332   68.167
  238.582    8.867    0.554    0.283  193.913   68.512
  238.832    8.411    0.587    0.293  194.028   69.466
  239.082    7.697    0.549    0.294  193.164   70.103
  239.332    6.976    0.572    0.276  193.240   70.464
  239.582    6.499    0.585    0.248  193.355   70.817
  239.832    6.633    0.573    0.267  193.482   70.284
  240.082    7.147    0.547    0.274  193.571   65.368
  240.332    8.283    0.530    0.285  193.673   58.697
  240.582    9.510    0.501    0.288  193.279   54.367
  240.832   11.022    0.536    0.333  193.381   51.216
  241.082   12.551    0.540    0.361  193.012   49.235
  241.332   13.037    0.515    0.361  193.089   47.231
  241.582   13.546    0.485    0.343  193.203   46.706
  241.832   13.950    0.542    0.344  192.810   48.237
  242.082   13.973    0.524    0.353  192.911   49.182
  242.332   14.000    0.534    0.360  192.530   49.535
  242.582   13.656    0.539    0.350  192.632   49.895
  242.832   13.314    0.580    0.343  193.229   49.078
  243.082   12.747    0.590    0.360  193.357   47.674
  243.332   12.204    0.591    0.379  193.446   46.556
  243.582   12.114    0.564    0.396  193.548   45.746
  243.832   12.254    0.541    0.374  193.662   45.236
  244.082   12.619    0.569    0.329  193.751   45.003
  244.332   12.869    0.590    0.338  191.401   45.641
  244.582   13.253    0.559    0.355  192.989   46.002
  244.832   13.646    0.475    0.341  193.091   46.062
  245.082   14.053    0.461    0.338  190.702   46.414
  245.332   14.338    0.478    0.338  185.861   46.467
  245.582   14.500    0.477    0.349  187.449   46.550
  245.832   14.528    0.479    0.338  191.516   46.595
  246.082   14.424    0.486    0.323  191.656   46.655
  246.332   14.451    0.505    0.330  190.754   46.730
  246.582   14.348    0.516    0.342  193.333   46.490
  246.832   14.348    0.516    0.331  193.918   47.143
  247.082   14.410    0.523    0.347  190.068   47.781
  247.332   14.303    0.511    0.364  188.187   49.312
  247.582   14.334    0.484    0.359  188.797   50.550
  247.832   14.361    0.490    0.344  189.878   50.325
  248.082   14.259    0.546    0.340  188.505   48.044
  248.332   14.157    0.563    0.344  186.638   46.933
  248.582   13.932    0.566    0.352  186.244   48.749
  248.832   13.835    0.545    0.352  190.793   49.395
  249.082   13.736    0.539    0.344  195.381   49.162
  249.332   13.632    0.539    0.333  195.470   48.937
  249.582   13.537    0.523    0.328  194.085   48.705
  249.832   13.447    0.509    0.319  194.199   48.765
  250.082   13.466    0.523    0.326  192.840   48.532
  250.332   13.389    0.528    0.344  191.925   48.893
  250.582   13.277    0.495    0.341  192.535   51.587
  250.832   13.303    0.484    0.338  194.619   53.418
  251.082   13.208    0.473    0.329  194.721   51.122
  251.332   13.360    0.474    0.333  195.814   50.604
  251.582   13.382    0.480    0.317  196.920   50.672
  251.832   13.782    0.494    0.310  197.034   50.724
  252.082   14.715    0.493    0.294  197.149   50.199
  252.332   16.146    0.426    0.240  197.263   48.796
  252.582   17.886    0.233    0.106  198.331   45.929
