~VERSION INFORMATION
 VERS.                 2.0:   CWLS LOG ASCII STANDARD -VERSION 2.0
 WRAP.                  NO:   ONE LINE PER DEPTH STEP
~WELL INFORMATION BLOCK
#MNEM.UNIT           DATA                    DESCRIPTION OF MNEMONIC
#---------    -------------------            -------------------------------
# Generated from Intellog Unique Number	CC_80_83/WELL/1173
NULL.         -999.25                        : NULL_VALUE
WELL.         NOVALTA NEWBY                  : Well_name    - WELL
LOC .         07-06-083-04W4                 : Location     - LOCATION          
UWI .         00/07-06-083-04W4/0            : Uwi          - UNIQUE WELL ID    
ENTR.         DW                             : Entered      - ENTERED BY        
SRVC.         COMPUTALOG                     : Scn          - SERVICE COMPANY   
DATE.         26 JAN 84                      : Date         - LOG DATE
STRT.M        65                             : top_depth    - START DEPTH       
STOP.M        323.899                        : bot_depth    - STOP DEPTH        
STEP.M        0.3                            : increment    - STEP LENGTH       
~CURVE INFORMATION BLOCK
#MNEM UNIT       ERCB CURVE CODE    CURVE DESCRIPTION
#-----------   ------------------   ----------------------------------
DEPT.M        00 001 00 00         : DEPTH        - DEPTH                       
DPHI.V/V      00 890 00 00         : PHID         - DENSITY POROSITY (LIMESTONE)
NPHI.V/V      00 330 00 00         : PHIN         - NEUTRON POROSITY (LIMESTONE)
GR  .API      00 310 00 00         : GR           - GAMMA RAY                   
ILD .OHMM     00 120 00 00         : RESD         - DEEP RESISTIVITY (DIL)      
~PARAMETER INFORMATION       
#MNEM.UNIT           DATA             DESCRIPTION OF MNEMONIC
#---------         -----------     ------------------------------
GL  .M        462.5                : gl           - GROUND LEVEL ELEVATION      
EREF.M        465.5                : kb           - ELEVATION OF DEPTH REFERENCE
DATM.M        465.5                : datum        - DATUM ELEVATION             
TDD .M        325                  : tdd          - TOTAL DEPTH DRILLER         
RUN .         ONE                  : Run          - RUN NUMBER                  
ENG .         BILL                 : Engineer     - RECORDING ENGINEER          
WIT .         JIM                  : Witness      - WITNESSED BY                
MUD .         GEL                  : Mud_type     - MUD TYPE                    
MATR.         LIMESTONE            : Logunit      - NEUTRON MATRIX              
TMAX.C        26                   : BHT          - MAXIMUM RECORDED TEMPERATURE
BHTD.M        325                  : BHTDEP       - MAXIMUM RECORDED TEMPERATURE
MATR.         1                    : LOGUNIT      - NEUTRON MATRIX              
RMT .C        25                   : MDTP         - TEMPERATURE OF MUD          
NEUT.         1                    : NEUTRON      - NEUTRON TYPE                
RESI.         0                    : RESIST       - RESISTIVITY TYPE            
RMC .OHMM     0.25                 : RMC          - RESISTIVITY OF MUD CAKE     
RMF .OHMM     0.25                 : RMF          - RESISTIVITY OF MUD FILTRATE 
SUFT.C        15                   : SUFT         - SURFACE TEMPERATURE         
~A  DEPTH     PHID     PHIN       GR     RESD
# ...
  117.201    0.469    0.415   47.247    9.689
  117.501    0.473    0.403   41.139    9.505
  117.801    0.439    0.360   39.907    9.870
  118.101    0.397    0.390   52.680   11.052
  118.401    0.382    0.414   64.241   11.917
  118.701    0.374    0.414   71.532   11.692
  119.001    0.376    0.400   72.734   11.689
  119.301    0.369    0.376   70.892   12.604
  119.601    0.365    0.386   62.350   13.850
  119.901    0.386    0.396   48.324   14.381
  120.201    0.411    0.391   48.920   14.652
  120.501    0.411    0.397   59.868   14.649
  120.801    0.390    0.411   65.330   14.104
  121.101    0.352    0.427   65.928   12.830
  121.401    0.384    0.407   60.428   10.822
  121.701    0.384    0.395   62.851    8.464
  122.001    0.237    0.400   79.892    6.374
  122.301    0.246    0.461  113.987    5.177
  122.601    0.271    0.506  123.105    4.450
  122.901    0.267    0.498  120.655    3.973
  123.201    0.262    0.517  123.074    3.614
  123.501    0.273    0.507  120.624    3.546
  123.801    0.284    0.517  123.043    3.413
  124.101    0.297    0.492  124.245    3.349
  124.401    0.303    0.464  118.142    3.286
  124.701    0.308    0.516  111.423    3.285
  125.001    0.288    0.510  115.062    3.284
  125.301    0.269    0.479  118.704    3.346
  125.601    0.262    0.462  120.517    3.409
  125.901    0.276    0.497  116.846    3.676
  126.201    0.275    0.500  113.780    3.964
  126.501    0.266    0.484  111.943    4.039
  126.801    0.252    0.469  104.007    4.038
  127.101    0.248    0.455  103.382    3.888
  127.401    0.258    0.455  108.239    3.743
  127.701    0.273    0.476  117.971    3.536
  128.001    0.291    0.498  119.174    3.404
  128.301    0.294    0.515  112.458    3.277
  128.601    0.284    0.526  107.569    3.155
  128.901    0.284    0.511  103.898    3.096
  129.201    0.294    0.504  100.228    3.154
  129.501    0.307    0.477   98.386    3.401
  129.801    0.324    0.454   96.544    3.808
  130.101    0.341    0.443   94.091    4.513
  130.401    0.363    0.430   77.628    5.769
  130.701    0.377    0.396   70.913    7.373
  131.001    0.376    0.374   64.804    8.904
  131.301    0.374    0.379   66.008    9.970
  131.601    0.362    0.419   69.035    9.969
  131.901    0.348    0.407   69.022    9.967
  132.201    0.356    0.396   67.177    9.778
  132.501    0.372    0.404   65.338    9.777
  132.801    0.375    0.411   64.102    9.961
  133.101    0.372    0.412   64.697    9.959
  133.401    0.375    0.393   65.901    9.957
  133.701    0.381    0.378   68.932    9.955
  134.001    0.379    0.409   68.306   10.142
  134.301    0.370    0.411   62.194   10.141
  134.601    0.372    0.407   61.569   10.139
  134.901    0.372    0.407   61.557   10.137
  135.201    0.371    0.410   70.681   10.135
  135.501    0.367    0.411   77.367   10.133
  135.801    0.365    0.432   66.385   10.132
  136.101    0.369    0.419   64.543   10.130
  136.401    0.377    0.424   65.133   10.128
  136.701    0.371    0.433   65.119    9.750
  137.001    0.368    0.427   62.665    9.566
  137.301    0.378    0.422   61.432    9.385
  137.601    0.389    0.435   63.856    9.208
  137.901    0.389    0.421   64.450    9.205
  138.201    0.376    0.409   61.383    9.204
  138.501    0.357    0.416   61.981    9.202
  138.801    0.353    0.387   63.794    9.376
  139.101    0.361    0.372   66.825    9.553
  139.401    0.370    0.385   66.807    9.551
  139.701    0.387    0.430   65.576    9.549
  140.001    0.388    0.426   66.164    9.729
  140.301    0.371    0.417   67.371   10.102
  140.601    0.326    0.408   64.915   10.293
  140.901    0.328    0.432   64.899   10.097
  141.201    0.371    0.441   66.715   10.096
  141.501    0.376    0.435   69.137    9.905
  141.801    0.371    0.454   73.383    9.718
  142.101    0.369    0.460   75.195    9.181
  142.401    0.368    0.419   75.787    9.007
  142.701    0.369    0.381   72.730    8.671
  143.001    0.370    0.376   71.495    8.835
  143.301    0.372    0.384   67.819    9.002
  143.601    0.374    0.421   68.414    8.831
  143.901    0.372    0.422   69.013    8.830
  144.201    0.368    0.396   69.607    8.663
  144.501    0.375    0.390   67.151    8.661
  144.801    0.384    0.421   67.749    8.825
  145.101    0.386    0.449   71.386    9.697
  145.401    0.382    0.292   69.544   11.066
  145.701    0.026    0.120   61.609   13.365
  146.001    0.000    0.110   55.502   21.837
  146.301    0.000    0.112   55.486   23.995
  146.601    0.016    0.130   56.690   19.861
  146.901    0.063    0.251   59.714   14.403
  147.201    0.360    0.345   60.920   11.264
  147.501    0.374    0.405   63.953    9.683
  147.801    0.378    0.395   69.418    8.643
  148.101    0.377    0.389   71.230    8.165
  148.401    0.375    0.383   71.823    8.011
  148.701    0.373    0.410   70.590    7.859
  149.001    0.376    0.420   69.359    7.857
  149.301    0.376    0.392   71.776    7.857
  149.601    0.378    0.387   72.982    8.004
  149.901    0.385    0.420   69.312    8.156
  150.201    0.382    0.398   67.468    8.468
  150.501    0.350    0.382   72.326    8.792
  150.801    0.327    0.393   76.574    8.959
  151.101    0.343    0.430   76.559    9.127
  151.401    0.340    0.407   80.801    9.126
  151.701    0.338    0.397   81.398    8.953
  152.001    0.345    0.393   78.948    8.784
  152.301    0.364    0.386   74.058    8.618
  152.601    0.363    0.380   73.435    8.617
  152.901    0.352    0.378   75.246    8.453
  153.201    0.344    0.376   78.278    8.293
  153.501    0.339    0.396   80.698    8.137
  153.801    0.343    0.410   82.510    8.135
  154.101    0.346    0.421   81.884    8.134
  154.401    0.352    0.427   83.083    8.287
  154.701    0.351    0.420   82.463    8.286
  155.001    0.348    0.405   79.402    8.442
  155.301    0.352    0.396   79.388    8.440
  155.601    0.361    0.380   75.715    8.280
  155.901    0.369    0.372   79.355    8.280
  156.201    0.369    0.379   79.945    8.122
  156.501    0.361    0.423   82.371    7.969
  156.801    0.350    0.427   87.227    7.672
  157.101    0.345    0.425   90.258    7.528
  157.401    0.340    0.403   79.888    7.525
  157.701    0.337    0.383   76.826    7.524
  158.001    0.335    0.381   82.895    7.961
  158.301    0.336    0.458   84.103    8.266
  158.601    0.338    0.462   80.433    8.264
  158.901    0.343    0.436   81.025    8.421
  159.201    0.341    0.410   82.839    8.261
  159.501    0.349    0.405   79.779    8.106
  159.801    0.345    0.414   78.540    7.657
  160.101    0.335    0.418   79.137    7.371
  160.401    0.335    0.408   78.514    7.511
  160.701    0.353    0.410   79.714    7.653
  161.001    0.358    0.423   82.746    7.798
  161.301    0.340    0.442   86.381    7.796
  161.601    0.335    0.417   86.371    7.648
  161.901    0.331    0.396   84.527    7.226
  162.201    0.336    0.428   85.120    6.699
  162.501    0.326    0.460   89.370    5.758
  162.801    0.313    0.448  101.536    5.338
  163.101    0.315    0.452   96.649    4.765
  163.401    0.316    0.457   97.242    3.589
  163.701    0.314    0.462  104.536    2.915
  164.001    0.314    0.485  113.045    2.553
  164.301    0.312    0.562  117.904    2.367
  164.601    0.310    0.561  117.889    2.236
  164.901    0.308    0.534  116.654    2.278
  165.201    0.305    0.525  112.986    2.321
  165.501    0.301    0.561  110.532    2.365
  165.801    0.276    0.543  112.952    2.456
  166.101    0.262    0.511  114.766    2.802
  166.401    0.261    0.480  114.142    3.259
  166.701    0.267    0.475  111.689    3.719
  167.001    0.276    0.495  101.317    4.010
  167.301    0.276    0.455  100.695    4.752
  167.601    0.267    0.453  106.770    5.526
  167.901    0.260    0.478  107.972    5.847
  168.201    0.259    0.483   98.211    6.071
  168.501    0.272    0.443   95.760    6.186
  168.801    0.283    0.432   95.745    6.423
  169.101    0.285    0.429   95.724    6.926
