~VERSION INFORMATION
 VERS.                 2.0:   CWLS LOG ASCII STANDARD -VERSION 2.0
 WRAP.                  NO:   ONE LINE PER DEPTH STEP
~WELL INFORMATION BLOCK
#MNEM.UNIT           DATA                    DESCRIPTION OF MNEMONIC
#---------    -------------------            -------------------------------
# Generated from Intellog Unique Number	CW_76_78/WELL/529
WELL.         CHIEFCO RR ET AL PELICAN 06-21 : Well_name    - WELL
LOC .         00/06-21-077-22W4/0            : Location     - LOCATION
UWI .         00/06-21-077-22W4/0            : Uwi          - UNIQUE WELL ID
ENTR.         jj                             : Entered      - ENTERED BY
SRVC.         SCHLUMBERGER                   : Scn          - SERVICE COMPANY
DATE.         24 FEB 1973                    : Date         - LOG DATE
STRT.M        377.952                        : top_depth    - START DEPTH
STOP.M        600.452                        : bot_depth    - STOP DEPTH
STEP.M        0.25                           : increment    - STEP LENGTH
 NULL. -999.2500:NULL Value
~CURVE INFORMATION BLOCK
#MNEM UNIT       ERCB CURVE CODE    CURVE DESCRIPTION
#-----------   ------------------   ----------------------------------
DEPT.M        00 001 00 00         : DEPTH        - DEPTH
ILD .OHMM     00 120 00 00         : RESD         - DEEP RESISTIVITY (DIL)
NPHI.V/V      00 330 00 00         : PHIN         - NEUTRON POROSITY (SANDSTONE)
DPHI.V/V      00 890 00 00         : PHID         - DENSITY POROSITY (SANDSTONE)
GR  .API      00 310 00 00         : GR           - GAMMA RAY
CALI.MM       00 280 01 00         : CAL          - CALIPER
~PARAMETER INFORMATION
#MNEM.UNIT           DATA             DESCRIPTION OF MNEMONIC
#---------         -----------     ------------------------------
GL  .M        701.954              : gl           - GROUND LEVEL ELEVATION
EREF.M        704.088              : kb           - ELEVATION OF DEPTH REFERENCE
DATM.M        701.954              : datum        - DATUM ELEVATION
TDD .M        601.066              : tdd          - TOTAL DEPTH DRILLER
RUN .         ONE                  : Run          - RUN NUMBER
ENG .         XXXXX                : Engineer     - RECORDING ENGINEER
WIT .         XXXXX                : Witness      - WITNESSED BY
BASE.         EDMONTON             : Branch       - HOME BASE OF LOGGING UNIT
MUD .         GEL CHEM             : Mud_type     - MUD TYPE
MATR.         SANDSTONE            : Logunit      - NEUTRON MATRIX
TMAX.C        20                   : BHT          - MAXIMUM RECORDED TEMPERATURE
BHTD.M        598.932              : BHTDEP       - MAXIMUM RECORDED TEMPERATURE
RMT .C        15.5556              : MDTP         - TEMPERATURE OF MUD
MUDD.KG/M     1080                 : MWT          - MUD DENSITY
NEUT.         1                    : NEUTRON      - NEUTRON TYPE
RESI.         0                    : RESIST       - RESISTIVITY TYPE
RM  .OHMM     3.57                 : RM           - RESISTIVITY OF MUD
RMC .OHMM     2.5                  : RMC          - RESISTIVITY OF MUD CAKE
RMF .OHMM     3.51                 : RMF          - RESISTIVITY OF MUD FILTRATE
SUFT.C        4.5                  : SUFT         - SURFACE TEMPERATURE
~A  DEPTH     RESD     PHIN     PHID       GR      CAL
# ...
  523.952    5.727    0.517    0.254   83.430  160.186
  524.202    5.448    0.506    0.257   80.381  160.741
  524.452    5.134    0.489    0.255   79.202  160.986
  524.702    5.068    0.493    0.276   80.259  160.738
  524.952    5.170    0.505    0.279   81.194  160.060
  525.202    5.314    0.513    0.288   81.882  159.195
  525.452    5.372    0.527    0.277   82.757  159.045
  525.702    5.656    0.527    0.247   83.147  158.580
  525.952    6.076    0.516    0.213   81.484  158.516
  526.202    6.637    0.451    0.196   78.918  159.709
  526.452    7.290    0.411    0.185   77.617  160.769
  526.702    8.172    0.409    0.146   74.514  161.836
  526.952    9.143    0.343    0.153   74.535  162.495
  527.202   10.931    0.303    0.143   73.659  163.044
  527.452   12.458    0.254    0.113   73.145  163.914
  527.702   14.894    0.220    0.117   70.881  164.467
  527.952   16.604    0.220    0.103   71.090  164.623
  528.202   17.544    0.236    0.075   75.701  164.269
  528.452   15.732    0.274    0.090   83.029  163.898
  528.702   13.177    0.393    0.111   90.180  162.824
  528.952   11.284    0.445    0.154   89.967  162.251
  529.202    9.556    0.447    0.182   91.320  161.488
  529.452    8.538    0.453    0.166   92.675  160.926
  529.702    7.544    0.471    0.175   95.120  160.456
  529.952    7.045    0.464    0.188   98.404  161.214
  530.202    6.966    0.461    0.177  101.093  161.783
  530.452    6.787    0.458    0.170  102.804  161.113
  530.702    6.637    0.468    0.174  101.809  160.746
  530.952    6.478    0.487    0.177   99.601  160.793
  531.202    6.477    0.460    0.192   95.951  160.845
  531.452    6.536    0.439    0.178   97.306  161.205
  531.702    6.510    0.449    0.170  100.230  161.458
  531.952    6.449    0.451    0.159  102.555  162.421
  532.202    6.389    0.455    0.154  102.215  163.284
  532.452    6.506    0.458    0.163  101.886  163.223
  532.702    6.505    0.459    0.176  100.403  163.274
  532.952    6.491    0.453    0.149   99.589  163.626
  533.202    6.550    0.450    0.128  101.183  164.083
  533.452    6.610    0.442    0.138  101.694  163.113
  533.702    6.694    0.434    0.144  101.905  163.364
  533.952    6.680    0.431    0.153  101.265  164.132
  534.202    6.716    0.435    0.165   98.279  163.672
  534.452    6.765    0.430    0.159   99.391  162.896
  534.702    6.813    0.419    0.164  102.136  162.424
  534.952    6.812    0.418    0.176  104.274  162.987
  535.202    6.760    0.411    0.173  101.347  162.735
  535.452    6.734    0.412    0.164  101.677  162.264
  535.702    6.646    0.413    0.182  106.052  162.418
  535.952    6.560    0.413    0.156  106.317  162.064
  536.202    6.450    0.424    0.157  105.018  161.390
  536.452    6.402    0.423    0.126  106.797  161.229
  536.702    6.376    0.427    0.141  110.868  161.894
  536.952    6.410    0.429    0.151  112.225  162.651
  537.202    6.421    0.433    0.141  112.431  163.212
  537.452    6.326    0.440    0.156  113.848  162.850
  537.702    6.301    0.456    0.172  109.955  163.198
  537.952    6.253    0.482    0.163  112.276  164.276
  538.202    6.241    0.496    0.164  113.390  164.725
  538.452    6.228    0.492    0.186  106.054  164.365
  538.702    6.273    0.474    0.178  104.936  163.081
  538.952    6.306    0.460    0.165  106.185  163.438
  539.202    6.167    0.450    0.150  106.743  164.816
  539.452    5.975    0.453    0.152  107.555  164.868
  539.702    5.843    0.458    0.164  106.074  163.482
  539.952    5.821    0.454    0.170  106.707  163.235
  540.202    5.939    0.450    0.147  106.378  162.970
  540.452    6.082    0.432    0.150  105.860  163.924
  540.702    6.343    0.394    0.133  106.856  163.770
  540.952    6.629    0.384    0.151  106.218  162.292
  541.202    6.877    0.386    0.152  103.831  162.029
  541.452    7.457    0.385    0.168   98.729  161.567
  541.702    8.026    0.390    0.176   93.569  162.033
  541.952    8.480    0.389    0.165   89.735  162.684
  542.202    8.541    0.369    0.138   89.344  163.859
  542.452    8.477    0.355    0.114   93.055  164.102
  542.702    8.290    0.378    0.123   99.473  163.032
  542.952    7.857    0.426    0.150  105.959  162.870
  543.202    7.391    0.444    0.157  108.220  161.897
  543.452    6.941    0.449    0.152  112.108  163.173
  543.702    5.988    0.431    0.150  112.256  165.060
  543.952    5.770    0.411    0.159  107.637  165.720
  544.202    7.317    0.423    0.166   96.202  164.747
  544.452    8.172    0.410    0.153   89.050  163.770
  544.702    9.592    0.358    0.132   88.114  162.896
  544.952   10.972    0.354    0.103   92.061  162.039
  545.202   11.941    0.370    0.130  102.830  162.174
  545.452   13.734    0.382    0.141  106.299  163.556
  545.702   12.873    0.373    0.146  109.643  164.412
  545.952   11.867    0.366    0.112  114.499  164.056
  546.202   10.760    0.366    0.113  116.943  164.005
  546.452    9.810    0.379    0.126  119.746  164.157
  546.702    9.060    0.391    0.130  120.617  163.585
  546.952    8.698    0.400    0.145  116.241  163.423
  547.202    8.990    0.392    0.166  113.372  163.373
  547.452    8.743    0.396    0.156  113.521  163.723
  547.702    8.725    0.398    0.167  111.678  163.976
  547.952    9.584    0.389    0.157  111.530  163.613
  548.202   10.802    0.378    0.154  107.692  162.749
  548.452   11.712    0.359    0.146   95.595  162.279
  548.702   12.559    0.303    0.121   88.199  163.040
  548.952   12.838    0.271    0.045   87.442  164.321
  549.202   12.812    0.316    0.071   93.323  164.272
  549.452   12.483    0.348    0.097  101.015  163.904
  549.702   11.787    0.375    0.140  104.785  165.797
  549.952   10.886    0.385    0.150  102.639  164.929
  550.202   10.626    0.367    0.135   95.125  164.041
  550.452   10.781    0.352    0.128   91.837  163.276
  550.702   10.661    0.364    0.140   96.025  164.040
  550.952   10.444    0.381    0.158  103.477  163.880
  551.202   10.101    0.397    0.178  106.945  163.323
  551.452    9.734    0.404    0.164  106.852  163.463
  551.702    9.106    0.411    0.150  102.113  163.512
  551.952    8.551    0.409    0.128   99.969  163.770
  552.202    7.598    0.422    0.128  103.556  163.613
  552.452    7.416    0.439    0.126  110.527  164.477
  552.702    6.964    0.441    0.121  112.723  164.721
  552.952    6.456    0.435    0.116  111.908  163.972
  553.202    6.348    0.433    0.123  107.352  164.007
  553.452    6.370    0.432    0.137  102.854  165.079
  553.702    6.428    0.432    0.126  103.853  165.527
  553.952    6.474    0.452    0.143  105.563  164.762
  554.202    6.521    0.465    0.138  106.678  164.496
  554.452    6.580    0.440    0.150  109.602  165.272
  554.702    6.518    0.442    0.141  110.112  165.611
  554.952    6.409    0.438    0.146  113.944  165.973
  555.202    6.097    0.419    0.164  118.976  166.330
  555.452    5.714    0.397    0.161  122.083  165.050
  555.702    5.386    0.395    0.141  117.404  163.864
  555.952    4.984    0.416    0.134  115.504  162.592
  556.202    4.395    0.447    0.151  119.092  163.038
  556.452    3.729    0.478    0.180  119.723  163.095
  556.702    2.934    0.606    0.215  114.558  162.528
  556.952    2.386    0.605    0.248   98.356  162.166
  557.202    2.489    0.501    0.247   70.087  162.306
  557.452    2.790    0.422    0.257   60.520  162.358
  557.702    3.880    0.333    0.274   55.058  162.724
  557.952    5.874    0.288    0.272   57.021  162.875
  558.202   11.322    0.286    0.264   60.486  162.914
  558.452   14.680    0.287    0.264   63.348  162.343
  558.702   16.095    0.295    0.266   64.947  161.883
  558.952   17.613    0.315    0.276   65.093  161.632
  559.202   19.926    0.352    0.277   63.492  161.472
  559.452   23.432    0.368    0.271   64.485  161.724
  559.702   25.548    0.388    0.274   63.250  161.862
  559.952   24.347    0.393    0.269   66.111  162.239
  560.202   21.793    0.386    0.259   71.029  161.977
