~VERSION INFORMATION
 VERS.                 2.0:   CWLS LOG ASCII STANDARD -VERSION 2.0
 WRAP.                  NO:   ONE LINE PER DEPTH STEP
~WELL INFORMATION BLOCK
#MNEM.UNIT           DATA                    DESCRIPTION OF MNEMONIC
#---------    -------------------            -------------------------------
# Generated from Intellog Unique Number	CW_73_75/WELL/2734
WELL.         CAVALIER FRANCIS 07-33         : Well_name    - WELL
LOC .         00/07-33-073-20W4/0            : Location     - LOCATION
UWI .         00/07-33-073-20W4/0            : Uwi          - UNIQUE WELL ID
ENTR.         JAYE                           : Entered      - ENTERED BY
SRVC.         SCHLUMBERGER                   : Scn          - SERVICE COMPANY
DATE.         24 MAR 74                      : Date         - LOG DATE
STRT.M        411.48                         : top_depth    - START DEPTH
STOP.M        627.98                         : bot_depth    - STOP DEPTH
STEP.M        0.25                           : increment    - STEP LENGTH
 NULL. -999.2500:NULL Value
~CURVE INFORMATION BLOCK
#MNEM UNIT       ERCB CURVE CODE    CURVE DESCRIPTION
#-----------   ------------------   ----------------------------------
DEPT.M        00 001 00 00         : DEPTH        - DEPTH
ILD .OHMM     00 120 00 00         : RESD         - DEEP RESISTIVITY (DIL)
NPHI.V/V      00 330 00 00         : PHIN         - NEUTRON POROSITY (SANDSTONE)
DPHI.V/V      00 890 00 00         : PHID         - DENSITY POROSITY (SANDSTONE)
GR  .API      00 310 00 00         : GR           - GAMMA RAY
CALI.MM       00 280 01 00         : CAL          - CALIPER
~PARAMETER INFORMATION
#MNEM.UNIT           DATA             DESCRIPTION OF MNEMONIC
#---------         -----------     ------------------------------
GL  .M        719.938              : gl           - GROUND LEVEL ELEVATION
EREF.M        722.986              : kb           - ELEVATION OF DEPTH REFERENCE
DATM.M        719.938              : datum        - DATUM ELEVATION
TDD .M        630.936              : tdd          - TOTAL DEPTH DRILLER
RUN .         ONE                  : Run          - RUN NUMBER
ENG .         CORLE                : Engineer     - RECORDING ENGINEER
WIT .         CONNELLY             : Witness      - WITNESSED BY
BASE.         EDM                  : Branch       - HOME BASE OF LOGGING UNIT
MUD .         GEL CHEM             : Mud_type     - MUD TYPE
MATR.         SANDSTONE            : Logunit      - NEUTRON MATRIX
TMAX.C        30                   : BHT          - MAXIMUM RECORDED TEMPERATURE
BHTD.M        632.155              : BHTDEP       - MAXIMUM RECORDED TEMPERATURE
RMT .C        26.6667              : MDTP         - TEMPERATURE OF MUD
MUDD.KG/M     1116                 : MWT          - MUD DENSITY
NEUT.         1                    : NEUTRON      - NEUTRON TYPE
RESI.         0                    : RESIST       - RESISTIVITY TYPE
RM  .OHMM     4.39                 : RM           - RESISTIVITY OF MUD
RMC .OHMM     0                    : RMC          - RESISTIVITY OF MUD CAKE
RMF .OHMM     4.01                 : RMF          - RESISTIVITY OF MUD FILTRATE
SUFT.C        -17.7778             : SUFT         - SURFACE TEMPERATURE
~A  DEPTH     RESD     PHIN     PHID       GR      CAL
# ...
  520.980    3.628    0.458    0.217   86.008  164.775
  521.230    3.241    0.448    0.199   86.328  164.492
  521.480    2.777    0.468    0.197   90.314  164.516
  521.730    2.662    0.496    0.208   92.468  166.301
  521.980    2.511    0.509    0.200   94.375  169.221
  522.230    2.712    0.536    0.220   97.507  172.558
  522.480    3.109    0.568    0.215   99.535  174.132
  522.730    3.547    0.586    0.201  104.070  174.468
  522.980    3.747    0.561    0.198  100.909  174.598
  523.230    3.870    0.544    0.205   99.336  174.003
  523.480    3.955    0.512    0.216   98.068  171.960
  523.730    3.998    0.482    0.239   93.686  169.297
  523.980    3.964    0.459    0.214   89.121  165.806
  524.230    3.814    0.485    0.208   90.419  166.764
  524.480    3.818    0.504    0.189   93.549  168.028
  524.730    3.784    0.480    0.171   95.945  170.537
  524.980    3.711    0.504    0.186   98.343  172.427
  525.230    3.480    0.484    0.191  101.412  173.796
  525.480    3.093    0.475    0.194  102.159  175.162
  525.730    2.863    0.479    0.194   98.449  176.328
  525.980    2.751    0.485    0.183   99.138  177.391
  526.230    2.992    0.491    0.200  100.067  178.242
  526.480    3.349    0.479    0.185  101.060  179.405
  526.730    3.982    0.488    0.183  101.747  180.361
  526.980    4.301    0.536    0.200  102.373  180.797
  527.230    4.581    0.547    0.194  102.754  180.516
  527.480    4.703    0.506    0.184  100.570  177.436
  527.730    4.748    0.435    0.178   96.555  170.017
  527.980    4.754    0.420    0.191   91.317  167.044
  528.230    4.759    0.427    0.202   89.683  166.559
  528.480    4.764    0.443    0.194   92.875  166.170
  528.730    4.808    0.455    0.194   95.271  166.093
  528.980    4.892    0.475    0.218   96.263  166.118
  529.230    4.937    0.465    0.201   95.729  165.936
  529.480    4.981    0.446    0.180   96.660  166.161
  529.730    5.025    0.430    0.170   97.591  166.607
  529.980    5.070    0.439    0.181   95.163  166.625
  530.230    5.113    0.454    0.199   94.445  166.968
  530.480    5.118    0.468    0.180   95.804  166.986
  530.730    5.085    0.434    0.162   94.475  167.122
  530.980    5.052    0.452    0.193   95.040  167.245
  531.230    5.056    0.443    0.185   97.866  167.478
  531.480    5.061    0.403    0.162  101.300  167.402
  531.730    5.067    0.413    0.165  101.376  167.533
  531.980    5.072    0.394    0.181   99.010  167.451
  532.230    5.037    0.409    0.171   95.543  167.063
  532.480    5.003    0.432    0.172   93.115  166.984
  532.730    4.892    0.460    0.187   91.422  167.218
  532.980    4.818    0.446    0.202   90.581  167.967
  533.230    4.783    0.422    0.202   90.168  168.305
  533.480    4.671    0.414    0.191   91.954  168.950
  533.730    4.597    0.411    0.180   94.657  170.738
  533.980    4.564    0.425    0.198   98.155  171.898
  534.230    4.569    0.438    0.200  101.284  173.164
  534.480    4.652    0.453    0.182   99.772  174.118
  534.730    4.855    0.461    0.181   97.771  175.385
  534.980    4.976    0.453    0.168   95.588  177.069
  535.230    5.217    0.472    0.172   93.526  176.780
  535.480    5.498    0.479    0.183   91.283  172.672
  535.730    5.737    0.444    0.193   88.915  169.489
  535.980    6.056    0.426    0.210   86.609  166.311
  536.230    6.532    0.456    0.237   82.471  164.989
  536.480    7.793    0.453    0.275   76.745  165.433
  536.730   10.309    0.268    0.168   70.225  166.075
  536.980   10.864    0.201    0.109   59.979  167.341
  537.230    7.259    0.181    0.080   55.781  169.540
  537.480    6.165    0.194    0.085   53.719  172.358
  537.730    5.072    0.219    0.111   50.680  172.485
  537.980    4.410    0.252    0.153   49.413  170.756
  538.230    3.867    0.294    0.245   50.162  169.227
  538.480    3.715    0.366    0.286   52.073  167.500
  538.730    3.603    0.411    0.265   54.102  166.900
  538.980    3.528    0.422    0.270   56.191  166.826
  539.230    3.533    0.393    0.292   58.223  166.848
  539.480    3.578    0.402    0.297   57.199  167.292
  539.730    3.623    0.426    0.291   56.358  167.626
  539.980    3.629    0.439    0.288   57.535  167.959
  540.230    3.633    0.434    0.283   59.139  168.399
  540.480    3.638    0.431    0.278   62.513  168.426
  540.730    3.644    0.420    0.288   64.481  168.458
  540.980    3.648    0.402    0.276   66.573  168.173
  541.230    3.693    0.411    0.283   64.878  168.087
  541.480    3.738    0.419    0.301   61.718  168.113
  541.730    3.742    0.423    0.322   63.443  168.348
  541.980    3.748    0.399    0.308   65.351  167.967
  542.230    3.753    0.419    0.299   63.534  168.089
  542.480    3.758    0.439    0.294   61.351  168.317
  542.730    3.803    0.463    0.313   60.267  168.345
  542.980    3.846    0.489    0.295   60.159  168.685
  543.230    3.892    0.457    0.299   60.847  169.017
  543.480    3.892    0.416    0.281   62.510  169.144
  543.730    3.902    0.403    0.274   65.517  169.071
  543.980    3.947    0.415    0.269   63.701  169.205
  544.230    3.955    0.407    0.268   60.967  169.224
  544.480    3.996    0.402    0.260   61.349  169.246
  544.730    4.040    0.414    0.264   62.220  169.380
  544.980    4.085    0.436    0.250   64.067  169.506
  545.230    4.128    0.442    0.255   66.035  169.533
  545.480    4.095    0.425    0.254   64.586  169.663
  545.730    4.060    0.402    0.247   65.149  169.588
  545.980    4.026    0.406    0.243   68.036  169.712
  546.230    4.110    0.419    0.222   69.699  169.743
  546.480    4.155    0.430    0.232   69.959  169.770
  546.730    4.237    0.404    0.216   69.486  169.893
  546.980    4.282    0.390    0.198   68.645  170.019
  547.230    4.091    0.414    0.199   69.760  170.872
  547.480    3.861    0.449    0.238   72.767  171.621
  547.730    3.748    0.470    0.246   75.775  172.065
  547.980    3.753    0.471    0.238   75.851  172.293
  548.230    3.837    0.448    0.250   73.850  172.319
  548.480    4.039    0.443    0.259   76.431  172.551
  548.730    4.200    0.454    0.266   78.034  172.580
  548.980    4.401    0.452    0.259   77.012  172.500
  549.230    4.721    0.427    0.230   74.278  172.112
  549.480    5.118    0.399    0.235   73.440  171.931
  549.730    5.438    0.365    0.211   72.293  171.852
  549.980    5.168    0.360    0.184   69.009  170.845
  550.230    4.741    0.365    0.184   68.291  169.731
  550.480    4.080    0.350    0.187   69.834  168.103
  550.730    3.810    0.369    0.182   74.674  167.199
  550.980    3.658    0.407    0.184   82.384  167.326
  551.230    3.506    0.415    0.194   89.422  169.005
  551.480    3.395    0.435    0.198   95.972  171.722
  551.730    3.322    0.457    0.188   94.034  173.714
  551.980    3.248    0.486    0.195   92.888  174.874
  552.230    3.174    0.475    0.191   92.721  176.250
  552.480    3.062    0.481    0.168   94.751  176.894
  552.730    2.989    0.515    0.187   98.430  177.432
  552.980    3.033    0.547    0.195  101.133  177.872
  553.230    3.037    0.572    0.210  102.857  178.414
  553.480    3.121    0.558    0.206  104.278  178.958
  553.730    3.284    0.532    0.190  105.759  179.499
  553.980    3.367    0.507    0.182  107.484  180.144
  554.230    3.530    0.486    0.196  108.842  180.588
  554.480    3.652    0.493    0.205  109.834  180.922
  554.730    3.854    0.545    0.218  107.468  180.429
  554.980    3.976    0.518    0.210  104.674  179.524
  555.230    4.177    0.474    0.191  104.751  179.135
  555.480    4.379    0.490    0.175  102.138  179.162
  555.730    4.580    0.454    0.167   97.940  179.192
  555.980    4.822    0.449    0.187   99.603  179.211
  556.230    4.905    0.468    0.212  101.756  179.240
  556.480    4.988    0.481    0.199   99.818  178.953
  556.730    5.032    0.461    0.207   98.060  178.359
  556.980    5.077    0.456    0.201   98.382  177.869
  557.230    5.082    0.434    0.190   99.740  177.378
