~VERSION INFORMATION
 VERS.                 2.0:   CWLS LOG ASCII STANDARD -VERSION 2.0
 WRAP.                  NO:   ONE LINE PER DEPTH STEP
~WELL INFORMATION BLOCK
#MNEM.UNIT           DATA                    DESCRIPTION OF MNEMONIC
#---------    -------------------            -------------------------------
# Generated from Intellog Unique Number	CW_82_90/WELL/468
WELL.         STAR GASCAN HOOLE 6-3          : Well_name    - WELL
LOC .         00/06-03-082-26W4/0            : Location     - LOCATION
UWI .         00/06-03-082-26W4/0            : Uwi          - UNIQUE WELL ID
ENTR.         os                             : Entered      - ENTERED BY
SRVC.         SCHLUMBERGER                   : Scn          - SERVICE COMPANY
DATE.         01 FEB 1982                    : Date         - LOG DATE
STRT.M        215                            : top_depth    - START DEPTH
STOP.M        432                            : bot_depth    - STOP DEPTH
STEP.M        0.25                           : increment    - STEP LENGTH
 NULL. -999.2500:NULL Value
~CURVE INFORMATION BLOCK
#MNEM UNIT       ERCB CURVE CODE    CURVE DESCRIPTION
#-----------   ------------------   ----------------------------------
DEPT.M        00 001 00 00         : DEPTH        - DEPTH
ILD .OHMM     00 120 00 00         : RESD         - DEEP RESISTIVITY (DIL)
GR  .API      00 310 00 00         : GR           - GAMMA RAY
CALI.MM       00 280 01 00         : CAL          - CALIPER
DPHI.V/V      00 890 00 00         : PHID         - DENSITY POROSITY (SANDSTONE)
NPHI.V/V      00 330 00 00         : PHIN         - NEUTRON POROSITY (SANDSTONE)
~PARAMETER INFORMATION
#MNEM.UNIT           DATA             DESCRIPTION OF MNEMONIC
#---------         -----------     ------------------------------
GL  .M        561.1                : gl           - GROUND LEVEL ELEVATION
EREF.M        564.6                : kb           - ELEVATION OF DEPTH REFERENCE
DATM.M        561.1                : datum        - DATUM ELEVATION
TDD .M        433                  : tdd          - TOTAL DEPTH DRILLER
RUN .         ONE                  : Run          - RUN NUMBER
ENG .         NIGHTINGALE & HEATH  : Engineer     - RECORDING ENGINEER
WIT .         WEBSTER              : Witness      - WITNESSED BY
BASE.         EDMONTON             : Branch       - HOME BASE OF LOGGING UNIT
MUD .         GEL CHEM             : Mud_type     - MUD TYPE
MATR.         SANDSTONE            : Logunit      - NEUTRON MATRIX
TMAX.C        29.4                 : BHT          - MAXIMUM RECORDED TEMPERATURE
BHTD.M        433                  : BHTDEP       - MAXIMUM RECORDED TEMPERATURE
RMT .C        29.4                 : MDTP         - TEMPERATURE OF MUD
MUDD.KG/M     1100                 : MWT          - MUD DENSITY
NEUT.         1                    : NEUTRON      - NEUTRON TYPE
RESI.         0                    : RESIST       - RESISTIVITY TYPE
RM  .OHMM     3.88                 : RM           - RESISTIVITY OF MUD
RMC .OHMM     3.9                  : RMC          - RESISTIVITY OF MUD CAKE
RMF .OHMM     6                    : RMF          - RESISTIVITY OF MUD FILTRATE
SUFT.C        4                    : SUFT         - SURFACE TEMPERATURE
~A  DEPTH     RESD       GR      CAL     PHID     PHIN
# ...
  397.500   27.645   79.354  247.276    0.206    0.408
  397.750   28.662   75.764  246.843    0.172    0.392
  398.000   27.979   70.667  246.720    0.084    0.336
  398.250   25.573   66.512  246.292    0.059    0.310
  398.500   21.274   70.961  245.859    0.028    0.266
  398.750   16.696   78.678  242.710    0.033    0.271
  399.000   14.287   87.587  242.383    0.160    0.341
  399.250   13.508   94.800  241.113    0.200    0.379
  399.500   14.707   85.998  240.682    0.171    0.392
  399.750   13.020   84.921  240.667    0.151    0.393
  400.000   12.194   88.679  241.489    0.155    0.391
  400.250   11.792   88.356  242.414    0.183    0.402
  400.500   11.490   90.356  243.025    0.175    0.407
  400.750   11.473   94.366  242.593    0.175    0.401
  401.000   11.478   96.868  243.624    0.175    0.393
  401.250   11.568   98.618  244.445    0.174    0.378
  401.500   11.748   98.295  245.265    0.185    0.384
  401.750   11.909   97.217  246.714    0.190    0.399
  402.000   11.669   98.149  247.743    0.177    0.395
  402.250   11.200   99.019  248.251    0.160    0.392
  402.500   11.100   98.067  248.550    0.139    0.382
  402.750   11.315  101.512  244.354    0.127    0.384
  403.000   11.361  103.386  246.116    0.132    0.394
  403.250   11.112   98.854  249.237    0.148    0.398
  403.500   10.929   97.651  248.804    0.150    0.410
  403.750   11.057   99.526  245.969    0.166    0.424
  404.000   11.379   99.077  244.909    0.167    0.428
  404.250   11.643   92.849  244.685    0.150    0.425
  404.500   11.713   89.698  244.462    0.124    0.397
  404.750   11.327   89.438  245.597    0.094    0.380
  405.000   10.892   93.385  246.626    0.087    0.378
  405.250   10.693   98.840  247.553    0.171    0.422
  405.500   10.439  103.791  248.269    0.171    0.428
  405.750   10.345  103.594  250.448    0.156    0.407
  406.000   10.566  103.395  251.268    0.141    0.387
  406.250   10.689  104.389  251.569    0.157    0.402
  406.500   10.815   98.854  250.509    0.167    0.402
  406.750   10.860   94.762  250.386    0.161    0.396
  407.000   10.905   92.428  249.746    0.141    0.402
  407.250   10.950   95.622  247.429    0.125    0.397
  407.500   10.995   99.192  247.103    0.126    0.389
  407.750   10.958  101.506  247.197    0.155    0.382
  408.000   10.839  103.633  247.913    0.157    0.376
  408.250   10.621  106.450  247.586    0.168    0.377
  408.500   10.625  104.807  245.899    0.168    0.399
  408.750   10.550   97.573  245.467    0.144    0.398
  409.000   10.337   91.283  241.796    0.129    0.374
  409.250    9.903   95.356  242.614    0.110    0.374
  409.500    9.469   97.858  243.020    0.137    0.387
  409.750    9.892   98.602  245.095    0.153    0.374
  410.000   10.198  105.314  247.480    0.157    0.385
  410.250   10.260  110.328  248.513    0.153    0.415
  410.500   10.129  101.086  250.587    0.124    0.411
  410.750    9.206   92.785  246.808    0.059    0.369
  411.000    8.509  102.699  247.003    0.057    0.316
  411.250    8.167  108.909  249.604    0.087    0.343
  411.500    8.420  114.803  251.782    0.161    0.383
  411.750    8.913  116.174  250.929    0.174    0.402
  412.000    9.832  117.359  248.724    0.158    0.411
  412.250   11.095  113.832  249.126    0.118    0.411
  412.500   12.637  106.912  247.334    0.074    0.385
  412.750   15.174   97.293  248.471    0.059    0.393
  413.000   18.321   89.997  250.752    0.179    0.369
  413.250   21.386   64.234  244.994    0.253    0.354
  413.500   25.151   49.464  242.575    0.300    0.368
  413.750   29.917   43.362  242.874    0.301    0.381
  414.000   33.127   43.163  243.591    0.297    0.382
  414.250   34.540   44.158  242.845    0.290    0.382
  414.500   33.216   46.096  243.040    0.285    0.384
  414.750   22.214   51.803  242.919    0.283    0.393
  415.000   19.517   55.624  242.906    0.280    0.394
  415.250   17.905   59.383  242.265    0.280    0.384
  415.500   16.898   73.255  241.514    0.247    0.361
  415.750   16.526   86.185  241.713    0.198    0.334
  416.000   17.102   90.823  244.205    0.168    0.334
  416.250   19.407   88.740  245.548    0.138    0.320
  416.500   23.170   71.897  246.054    0.137    0.290
  416.750   32.583   63.722  245.832    0.164    0.293
  417.000   38.902   59.441  242.054    0.233    0.307
  417.250   43.568   60.437  242.250    0.254    0.406
  417.500   44.330   58.919  238.685    0.245    0.403
  417.750   39.910   54.135  238.671    0.213    0.321
  418.000   28.670   51.865  239.701    0.172    0.192
  418.250   22.585   63.664  241.253    0.024    0.164
  418.500   13.216   70.061  243.013   -0.017    0.152
  418.750   10.689   80.855  243.522    0.117    0.292
  419.000    9.769   89.889  244.340    0.171    0.329
  419.250    9.700   95.219  244.851    0.184    0.388
  419.500    9.813   97.848  244.522    0.179    0.363
  419.750   10.846  105.375  241.479    0.176    0.397
  420.000   13.396  106.622  241.464    0.192    0.438
  420.250   16.576   82.430  239.360    0.208    0.376
  420.500   21.058   64.770  235.376    0.218    0.368
  420.750   24.167   67.084  234.314    0.232    0.389
  421.000   27.945   67.703  234.719    0.250    0.409
  421.250   32.743   68.383  235.749    0.254    0.404
  421.500   36.326   68.940  235.735    0.246    0.395
  421.750   38.090   63.151  235.613    0.253    0.392
  422.000   38.103   69.863  235.705    0.267    0.400
  422.250   37.905   74.689  237.466    0.269    0.410
  422.500   38.420   75.622  238.601    0.258    0.402
  422.750   40.363   77.558  238.377    0.243    0.397
  423.000   41.612   77.738  239.408    0.232    0.401
  423.250   38.975   73.143  240.438    0.224    0.400
  423.500   36.094   70.369  239.481    0.210    0.379
  423.750   31.891   75.887  237.168    0.186    0.360
  424.000   21.898   80.274  234.751    0.158    0.345
  424.250   15.819   85.541  234.738    0.153    0.325
  424.500    9.648   90.305  236.705    0.204    0.338
  424.750    6.853   93.122  237.945    0.218    0.355
  425.000    5.999   96.315  240.021    0.204    0.373
  425.250    5.790   94.484  240.006    0.204    0.439
  425.500    5.814   93.783  236.649    0.194    0.428
  425.750    6.085   90.885  236.426    0.174    0.435
  426.000    6.514   89.304  237.142    0.169    0.439
  426.250    7.146   90.614  238.485    0.176    0.431
  426.500    7.492   79.486  240.038    0.178    0.442
  426.750    8.096   74.012  241.068    0.140    0.491
  427.000    8.442   59.179  240.739    0.080    0.367
  427.250    8.573   58.163  240.203    0.070    0.328
  427.500    8.560   57.589  241.545    0.089    0.309
  427.750    8.372   60.281  242.053    0.173    0.310
  428.000    8.081   64.981  241.934    0.217    0.306
  428.250    7.640   67.736  240.876    0.241    0.301
  428.500    7.237   63.580  241.696    0.274    0.327
  428.750    6.986   62.753  240.009    0.301    0.332
  429.000    6.923   67.707  238.115    0.289    0.328
  429.250    6.952   73.224  234.549    0.277    0.362
  429.500    6.825   77.172  231.813    0.271    0.382
  429.750    6.725   80.491  228.879    0.254    0.389
  430.000    6.728   82.428  218.312    0.243    0.388
  430.250    6.730   82.670  223.416    0.252    0.385
  430.500    6.861   79.206  225.805    0.252    0.387
  430.750    6.916   76.307  219.418    0.203    0.392
  431.000    6.944   76.925  212.925    0.198    0.395
  431.250    6.933   78.989  212.807    0.205    0.395
  431.500    6.807   76.467  213.523    0.223    0.396
  431.750    6.657   71.997  207.240    0.285    0.398
  432.000    6.511   69.726  201.794    0.307    0.401
