~VERSION INFORMATION
 VERS.                 2.0:   CWLS LOG ASCII STANDARD -VERSION 2.0
 WRAP.                  NO:   ONE LINE PER DEPTH STEP
~WELL INFORMATION BLOCK
#MNEM.UNIT           DATA                    DESCRIPTION OF MNEMONIC
#---------    -------------------            -------------------------------
# Generated from Intellog Unique Number	CW_76_78/WELL/702
NULL.         -999.25                        : NULL_VALUE
WELL.         ERSKINE-MARTEN HILLS 08-09     : Well_name    - WELL              
LOC .         00/08-09-077-02W5/0            : Location     - LOCATION          
UWI .         00/08-09-077-02W5/0            : Uwi          - UNIQUE WELL ID    
ENTR.         JAYE                           : Entered      - ENTERED BY        
SRVC.         WESTERN ATLAS                  : Scn          - SERVICE COMPANY   
DATE.         24 NOV 77                      : Date         - LOG DATE          
STRT.M        450                            : top_depth    - START DEPTH       
STOP.M        650                            : bot_depth    - STOP DEPTH        
STEP.M        0.25                           : increment    - STEP LENGTH       
~CURVE INFORMATION BLOCK
#MNEM UNIT       ERCB CURVE CODE    CURVE DESCRIPTION
#-----------   ------------------   ----------------------------------
DEPT.M        00 001 00 00         : DEPTH        - DEPTH                       
DPHI.V/V      00 890 00 00         : PHID         - DENSITY POROSITY (SANDSTONE)
NPHI.V/V      00 330 00 00         : PHIN         - NEUTRON POROSITY (SANDSTONE)
GR  .API      00 310 00 00         : GR           - GAMMA RAY                   
CALI.IN       00 280 01 00         : CAL          - CALIPER                     
ILD .OHMM     00 120 00 00         : RESD         - DEEP RESISTIVITY (DIL)      
~PARAMETER INFORMATION       
#MNEM.UNIT           DATA             DESCRIPTION OF MNEMONIC
#---------         -----------     ------------------------------
GL  .M        742.1                : gl           - GROUND LEVEL ELEVATION      
EREF.M        745.1                : kb           - ELEVATION OF DEPTH REFERENCE
DATM.M        742.1                : datum        - DATUM ELEVATION             
TDD .M        656                  : tdd          - TOTAL DEPTH DRILLER         
RUN .         ONE                  : Run          - RUN NUMBER                  
ENG .         WHERLEY              : Engineer     - RECORDING ENGINEER          
WIT .         FITZSIMMONS          : Witness      - WITNESSED BY                
BASE.         LEDUC                : Branch       - HOME BASE OF LOGGING UNIT   
MUD .         GEL CHEM             : Mud_type     - MUD TYPE                    
MATR.         SANDSTONE            : Logunit      - NEUTRON MATRIX              
TMAX.C        28                   : BHT          - MAXIMUM RECORDED TEMPERATURE
BHTD.M        656.1                : BHTDEP       - MAXIMUM RECORDED TEMPERATURE
RMT .C        18                   : MDTP         - TEMPERATURE OF MUD          
MUDD.KG/M     1150                 : MWT          - MUD DENSITY                 
NEUT.         1                    : NEUTRON      - NEUTRON TYPE                
RESI.         0                    : RESIST       - RESISTIVITY TYPE            
RM  .OHMM     4.1                  : RM           - RESISTIVITY OF MUD          
RMC .OHMM     3.2                  : RMC          - RESISTIVITY OF MUD CAKE     
RMF .OHMM     4.9                  : RMF          - RESISTIVITY OF MUD FILTRATE 
SUFT.C        4.5                  : SUFT         - SURFACE TEMPERATURE         
~A  DEPTH     PHID     PHIN       GR      CAL     RESD
# ...
  486.500    0.272    0.345   57.832    7.056   11.978
  486.750    0.267    0.348   55.438    7.059   11.465
  487.000    0.255    0.339   52.436    7.057   11.199
  487.250    0.242    0.338   51.930    7.044   11.143
  487.500    0.247    0.340   57.559    7.042   11.212
  487.750    0.249    0.332   52.126    7.020   11.322
  488.000    0.245    0.331   62.135    6.966   11.389
  488.250    0.255    0.334   61.869    6.871   11.479
  488.500    0.262    0.349   51.086    6.764   11.465
  488.750    0.264    0.350   54.104    6.665   11.343
  489.000    0.276    0.359   52.622    6.669   11.247
  489.250    0.275    0.360   55.217    6.716   11.128
  489.500    0.270    0.358   57.506    6.759   11.010
  489.750    0.273    0.351   56.754    6.818   10.913
  490.000    0.296    0.347   64.083    6.901   10.900
  490.250    0.300    0.350   64.491    6.956   10.886
  490.500    0.295    0.362   59.726    6.991   10.870
  490.750    0.302    0.372   58.970    7.002   10.854
  491.000    0.315    0.376   56.516    7.013   10.822
  491.250    0.313    0.369   53.940    6.991   10.768
  491.500    0.308    0.372   54.527    6.981   10.753
  491.750    0.310    0.356   59.795    6.968   10.719
  492.000    0.320    0.373   62.568    6.950   10.528
  492.250    0.318    0.382   54.519    6.932   10.399
  492.500    0.319    0.365   52.013    6.907   10.271
  492.750    0.327    0.359   58.001    6.958   10.199
  493.000    0.336    0.366   56.400    7.041   10.128
  493.250    0.345    0.373   59.599    7.064   10.079
  493.500    0.349    0.391   59.757    7.051   10.159
  493.750    0.352    0.362   56.270    7.029   10.239
  494.000    0.350    0.349   52.300    7.007   10.245
  494.250    0.344    0.348   49.783    7.006   10.175
  494.500    0.338    0.370   56.206    6.996    9.972
  494.750    0.333    0.374   54.722    6.990    9.852
  495.000    0.336    0.374   53.059    7.001    9.748
  495.250    0.346    0.377   55.771    7.004    9.896
  495.500    0.345    0.433   59.458    7.010    9.939
  495.750    0.339    0.396   54.269    6.984    9.982
  496.000    0.332    0.380   48.893    6.942    9.987
  496.250    0.327    0.381   52.766    6.856    9.919
  496.500    0.340    0.391   60.158    6.802    9.795
  496.750    0.357    0.397   49.495    6.747    9.711
  497.000    0.376    0.400   53.486    6.718    9.644
  497.250    0.369    0.392   63.799    6.728    9.631
  497.500    0.352    0.381   51.617    6.767    9.619
  497.750    0.353    0.373   48.008    6.851    9.517
  498.000    0.356    0.384   54.373    6.938    9.347
  498.250    0.355    0.386   47.538    7.014    9.182
  498.500    0.346    0.381   45.085    7.053    8.952
  498.750    0.340    0.372   47.617    7.060    8.759
  499.000    0.335    0.368   51.544    7.038    8.525
  499.250    0.331    0.395   61.917    7.008    8.175
  499.500    0.330    0.376   64.144    6.978    8.133
  499.750    0.330    0.378   57.799    6.944    8.004
  500.000    0.334    0.382   53.581    6.886    7.890
  500.250    0.341    0.369   58.423    6.872    7.851
  500.500    0.347    0.358   58.462    6.903    7.870
  500.750    0.350    0.373   62.210    6.947    7.858
  501.000    0.356    0.368   58.782    6.949    7.819
  501.250    0.351    0.376   54.323    6.907    7.823
  501.500    0.345    0.381   57.827    6.820    7.870
  501.750    0.340    0.380   61.329    6.742    7.904
  502.000    0.339    0.376   48.843    6.769    7.950
  502.250    0.343    0.367   53.385    6.844    7.956
  502.500    0.341    0.373   62.842    6.891    7.945
  502.750    0.335    0.378   67.075    6.870    7.877
  503.000    0.333    0.375   52.765    6.816    7.581
  503.250    0.341    0.369   47.637    6.770    7.431
  503.500    0.351    0.357   48.956    6.736    7.421
  503.750    0.355    0.416   54.706    6.734    7.384
  504.000    0.366    0.395   56.446    6.737    7.321
  504.250    0.357    0.385   56.544    6.727    7.150
  504.500    0.345    0.383   54.152    6.709    6.983
  504.750    0.342    0.385   56.926    6.696    6.860
  505.000    0.341    0.379   61.951    6.686    6.787
  505.250    0.339    0.421   57.430    6.673    6.779
  505.500    0.336    0.426   57.953    6.659    6.807
  505.750    0.330    0.413   52.276    6.649    6.886
  506.000    0.335    0.384   52.496    6.656    7.006
  506.250    0.342    0.393   51.322    6.675    7.087
  506.500    0.340    0.398   51.541    6.689    7.183
  506.750    0.338    0.391   56.685    6.720    7.267
  507.000    0.339    0.374   63.411    6.767    7.364
  507.250    0.340    0.397   62.295    6.831    7.491
  507.500    0.341    0.402   66.954    6.898    7.580
  507.750    0.335    0.381   75.321    6.953    7.767
  508.000    0.313    0.382   87.641    7.005    7.960
  508.250    0.306    0.389   85.734    7.044    8.217
  508.500    0.297    0.372   65.344    7.071    8.563
  508.750    0.289    0.363   56.993    7.101    8.940
  509.000    0.282    0.387   57.886    7.132    9.246
  509.250    0.287    0.388   59.744    7.135    9.493
  509.500    0.294    0.374   60.027    7.109    9.764
  509.750    0.291    0.368   61.401    7.072   10.156
  510.000    0.289    0.365   63.386    7.061   10.720
  510.250    0.280    0.357   55.945    7.080   11.633
  510.500    0.244    0.319   56.290    7.172   13.003
  510.750    0.197    0.274   57.847    7.260   14.694
  511.000    0.155    0.229   44.084    7.250   15.512
  511.250    0.094    0.205   52.031    7.143   13.764
  511.500    0.084    0.187   47.325    7.020   12.102
  511.750    0.102    0.219   48.093    7.002   10.104
  512.000    0.129    0.347   53.908    7.045    8.608
  512.250    0.303    0.373   57.956    7.125    7.161
  512.500    0.271    0.394   65.959    7.282    6.191
  512.750    0.238    0.402   77.670    7.361    5.607
  513.000    0.194    0.399   82.754    7.303    5.097
  513.250    0.210    0.400   79.694    7.273    4.658
  513.500    0.224    0.407   87.575    7.259    4.234
  513.750    0.233    0.406   80.134    7.181    4.127
  514.000    0.233    0.399   81.266    7.054    4.161
  514.250    0.252    0.417   82.520    7.101    4.255
  514.500    0.243    0.421   82.745    7.169    4.337
  514.750    0.222    0.398   87.345    7.211    4.396
  515.000    0.230    0.385   82.090    7.242    4.464
  515.250    0.221    0.391   89.119    7.273    4.523
  515.500    0.222    0.377   82.653    7.284    4.551
  515.750    0.233    0.385   80.990    7.262    4.604
  516.000    0.226    0.404   80.600    7.204    4.641
  516.250    0.225    0.395   81.978    7.158    4.678
  516.500    0.243    0.394   85.906    7.136    4.732
  516.750    0.253    0.423   85.458    7.127    4.769
  517.000    0.249    0.396   91.820    7.141    4.771
  517.250    0.248    0.387   80.003    7.184    4.766
  517.500    0.249    0.392   77.857    7.224    4.742
  517.750    0.245    0.405   77.831    7.198    4.736
  518.000    0.244    0.418   85.468    7.135    4.703
  518.250    0.243    0.423   91.891    7.098    4.661
  518.500    0.236    0.402   77.945    7.092    4.613
  518.750    0.238    0.398   86.069    7.102    4.556
  519.000    0.249    0.386   79.359    7.129    4.458
  519.250    0.256    0.391   84.567    7.177    4.363
  519.500    0.250    0.408   89.287    7.211    4.278
  519.750    0.240    0.398   93.640    7.230    4.169
  520.000    0.232    0.399   92.950    7.237    4.096
  520.250    0.221    0.402   91.288    7.239    3.993
  520.500    0.212    0.403   85.853    7.242    3.915
  520.750    0.205    0.411   87.837    7.253    3.874
  521.000    0.219    0.438   87.388    7.263    3.905
  521.250    0.229    0.420   82.259    7.250    4.069
  521.500    0.251    0.421   80.780    7.204    4.240
  521.750    0.268    0.418   76.133    7.207    4.433
  522.000    0.253    0.378   72.647    7.225    4.569
  522.250    0.236    0.396   77.001    7.232    4.648
  522.500    0.235    0.415   88.529    7.226    4.659
  522.750    0.233    0.407   93.189    7.221    4.662
