~VERSION INFORMATION
 VERS.                 2.0:   CWLS LOG ASCII STANDARD -VERSION 2.0
 WRAP.                  NO:   ONE LINE PER DEPTH STEP
~WELL INFORMATION BLOCK
#MNEM.UNIT           DATA                    DESCRIPTION OF MNEMONIC
#---------    -------------------            -------------------------------
# Generated from Intellog Unique Number	CS_69_70/WELL/644
NULL.         -999.25                        : NULL_VALUE
WELL.         MAYNARD ENERGY                 : Well_name    - WELL              
LOC .         00/05-32-070-14W4/0            : Location     - LOCATION          
UWI .         00/05-32-070-14W4/0            : Uwi          - UNIQUE WELL ID    
ENTR.         SP                             : Entered      - ENTERED BY        
SRVC.         SCHLUMBERGER                   : Scn          - SERVICE COMPANY   
STRT.M        325                            : top_depth    - START DEPTH       
STOP.M        528                            : bot_depth    - STOP DEPTH        
STEP.M        0.25                           : increment    - STEP LENGTH       
~CURVE INFORMATION BLOCK
#MNEM UNIT       ERCB CURVE CODE    CURVE DESCRIPTION
#-----------   ------------------   ----------------------------------
DEPT.M        00 001 00 00         : DEPTH        - DEPTH                       
ILD .OHMM     00 120 00 00         : RESD         - DEEP RESISTIVITY (DIL)      
DPHI.V/V      00 890 00 00         : PHID         - DENSITY POROSITY (LIMESTONE)
NPHI.V/V      00 330 00 00         : PHIN         - NEUTRON POROSITY (LIMESTONE)
GR  .API      00 310 00 00         : GR           - GAMMA RAY                   
~PARAMETER INFORMATION       
#MNEM.UNIT           DATA             DESCRIPTION OF MNEMONIC
#---------         -----------     ------------------------------
GL  .M        631.3                : gl           - GROUND LEVEL ELEVATION      
EREF.M        634.74               : kb           - ELEVATION OF DEPTH REFERENCE
DATM.M        631.3                : datum        - DATUM ELEVATION             
TDD .M        536                  : tdd          - TOTAL DEPTH DRILLER         
RUN .         ONE                  : Run          - RUN NUMBER                  
ENG .         BILL                 : Engineer     - RECORDING ENGINEER          
WIT .         JIM                  : Witness      - WITNESSED BY                
MUD .         GEL                  : Mud_type     - MUD TYPE                    
MATR.         LIMESTONE            : Logunit      - NEUTRON MATRIX              
TMAX.C        25                   : BHT          - MAXIMUM RECORDED TEMPERATURE
BHTD.M        536                  : BHTDEP       - MAXIMUM RECORDED TEMPERATURE
MATR.         1                    : LOGUNIT      - NEUTRON MATRIX              
RMT .C        25                   : MDTP         - TEMPERATURE OF MUD          
NEUT.         1                    : NEUTRON      - NEUTRON TYPE                
RESI.         0                    : RESIST       - RESISTIVITY TYPE            
RMC .OHMM     0.25                 : RMC          - RESISTIVITY OF MUD CAKE     
RMF .OHMM     0.25                 : RMF          - RESISTIVITY OF MUD FILTRATE 
SUFT.C        15                   : SUFT         - SURFACE TEMPERATURE         
~A  DEPTH     RESD     PHID     PHIN       GR
# ...
  455.500    3.631    0.352    0.445   71.874
  455.750    3.704    0.330    0.421   75.010
  456.000    3.858    0.306    0.410   79.353
  456.250    3.956    0.273    0.435   83.213
  456.500    4.070    0.262    0.469   86.109
  456.750    4.119    0.274    0.466   87.981
  457.000    4.136    0.296    0.456   85.456
  457.250    4.097    0.284    0.460   81.183
  457.500    4.097    0.258    0.492   81.850
  457.750    4.130    0.245    0.496   85.290
  458.000    4.179    0.245    0.467   86.319
  458.250    4.350    0.245    0.410   86.022
  458.500    4.464    0.237    0.393   82.171
  458.750    4.618    0.232    0.392   77.778
  459.000    4.757    0.228    0.406   80.554
  459.250    4.911    0.231    0.385   82.366
  459.500    5.050    0.237    0.400   80.684
  459.750    5.123    0.230    0.427   77.195
  460.000    5.148    0.215    0.438   76.717
  460.250    4.857    0.202    0.417   78.168
  460.500    4.623    0.199    0.398   80.885
  460.750    4.332    0.205    0.473   82.575
  461.000    3.992    0.257    0.501   85.170
  461.250    3.790    0.268    0.524   88.488
  461.500    3.710    0.265    0.498   90.722
  461.750    3.775    0.259    0.477   91.871
  462.000    3.938    0.257    0.478   91.394
  462.250    4.011    0.267    0.522   92.062
  462.500    4.085    0.264    0.553   94.477
  462.750    4.061    0.257    0.504   97.737
  463.000    3.892    0.249    0.465   99.124
  463.250    3.682    0.240    0.440   99.852
  463.500    3.536    0.237    0.460   97.748
  463.750    3.286    0.235    0.460   97.210
  464.000    3.205    0.236    0.484  100.348
  464.250    3.036    0.241    0.512  103.606
  464.500    2.931    0.245    0.486  106.141
  464.750    2.819    0.264    0.465  108.555
  465.000    2.787    0.270    0.475  110.186
  465.250    2.795    0.262    0.499  107.058
  465.500    2.820    0.255    0.480  101.882
  465.750    2.951    0.257    0.431   97.369
  466.000    2.983    0.261    0.448   93.096
  466.250    3.308    0.261    0.417   88.161
  466.500    3.544    0.275    0.387   80.756
  466.750    3.876    0.290    0.393   75.279
  467.000    4.250    0.311    0.409   75.284
  467.250    4.534    0.303    0.426   76.554
  467.500    4.769    0.276    0.421   73.907
  467.750    4.883    0.244    0.412   75.599
  468.000    4.973    0.212    0.404   80.845
  468.250    5.014    0.198    0.398   83.440
  468.500    4.901    0.208    0.404   73.746
  468.750    4.740    0.235    0.400   69.654
  469.000    4.530    0.258    0.391   76.768
  469.250    4.401    0.278    0.387   80.869
  469.500    4.304    0.278    0.385   84.186
  469.750    4.240    0.261    0.395   87.384
  470.000    4.257    0.250    0.413   83.835
  470.250    4.322    0.238    0.435   81.249
  470.500    4.663    0.202    0.407   81.856
  470.750    4.963    0.125    0.378   83.246
  471.000    5.320    0.094    0.365   73.071
  471.250    5.710    0.116    0.351   63.196
  471.500    5.872    0.177    0.342   58.803
  471.750    5.784    0.212    0.351   70.313
  472.000    5.663    0.227    0.365   81.463
  472.250    5.461    0.216    0.376   84.661
  472.500    5.316    0.183    0.383   84.063
  472.750    5.292    0.174    0.396   80.092
  473.000    5.252    0.191    0.384   75.759
  473.250    5.221    0.202    0.379   81.487
  473.500    5.205    0.204    0.393   87.757
  473.750    5.222    0.199    0.408   91.255
  474.000    5.247    0.211    0.396   89.633
  474.250    5.247    0.220    0.387   90.844
  474.500    5.264    0.234    0.398   93.318
  474.750    5.265    0.233    0.387   94.166
  475.000    5.265    0.224    0.372   92.002
  475.250    5.250    0.219    0.389   90.079
  475.500    5.242    0.227    0.401   93.698
  475.750    5.203    0.231    0.406   97.679
  476.000    5.163    0.225    0.399   96.900
  476.250    5.082    0.222    0.413   98.111
  476.500    4.977    0.218    0.417   95.886
  476.750    4.735    0.239    0.407   88.481
  477.000    4.646    0.227    0.413   89.570
  477.250    4.566    0.217    0.408   89.816
  477.500    4.550    0.232    0.398   89.639
  477.750    4.559    0.264    0.394   83.380
  478.000    4.568    0.286    0.391   78.385
  478.250    4.577    0.189    0.389   76.099
  478.500    4.553    0.079    0.384   70.501
  478.750    4.505    0.255    0.379   73.579
  479.000    4.457    0.274    0.380   79.306
  479.250    4.247    0.253    0.397   85.636
  479.500    4.005    0.236    0.407   91.004
  479.750    3.714    0.227    0.393   92.875
  480.000    3.398    0.225    0.392   82.759
  480.250    3.083    0.248    0.408   85.716
  480.500    2.792    0.263    0.451   91.624
  480.750    2.590    0.258    0.499   91.870
  481.000    2.445    0.245    0.525   87.597
  481.250    2.348    0.237    0.452   92.241
  481.500    2.422    0.232    0.446   98.331
  481.750    3.087    0.252    0.443  100.685
  482.000    3.881    0.215    0.454  101.171
  482.250    4.513    0.199    0.471   99.910
  482.500    5.081    0.239    0.454   96.722
  482.750    5.365    0.170    0.422   81.908
  483.000    5.487    0.173    0.405   74.985
  483.250    5.545    0.194    0.393   76.918
  483.500    5.448    0.196    0.386   79.873
  483.750    5.084    0.269    0.395   81.384
  484.000    5.190    0.257    0.402   82.293
  484.250    5.814    0.268    0.420   84.346
  484.500    6.690    0.256    0.436   85.676
  484.750    7.987    0.241    0.409   86.223
  485.000    9.486    0.173    0.374   81.287
  485.250    9.956    0.096    0.354   64.424
  485.500    9.608    0.154    0.354   66.779
  485.750    8.888    0.158    0.360   72.085
  486.000    7.787    0.171    0.365   77.150
  486.250    6.759    0.205    0.370   82.275
  486.500    6.014    0.224    0.412   87.882
  486.750    5.343    0.194    0.407   95.237
  487.000    4.768    0.180    0.403   91.085
  487.250    4.501    0.217    0.389   91.452
  487.500    4.194    0.236    0.399   91.516
  487.750    3.968    0.244    0.415   90.918
  488.000    3.742    0.231    0.396   94.418
  488.250    3.532    0.221    0.389   96.952
  488.500    3.354    0.214    0.407   99.547
  488.750    3.193    0.218    0.416   98.046
  489.000    3.161    0.226    0.426   92.327
  489.250    3.105    0.230    0.432   92.151
  489.500    3.097    0.217    0.467   96.674
  489.750    3.163    0.204    0.463   93.908
  490.000    3.196    0.187    0.432   97.407
  490.250    3.261    0.171    0.433   99.339
  490.500    3.335    0.213    0.445   98.621
  490.750    3.368    0.202    0.450   98.144
  491.000    3.376    0.212    0.435  100.438
  491.250    3.410    0.221    0.420  100.924
  491.500    3.434    0.227    0.402   96.532
  491.750    3.451    0.229    0.424   98.465
  492.000    3.517    0.224    0.426   96.119
  492.250    3.549    0.210    0.392   95.823
  492.500    3.574    0.200    0.393   99.382
  492.750    3.518    0.192    0.401   95.410
  493.000    3.333    0.191    0.393  100.114
  493.250    3.196    0.160    0.411   99.155
  493.500    3.058    0.145    0.422   91.629
  493.750    2.994    0.181    0.435   98.321
  494.000    2.995    0.211    0.460   97.603
  494.250    3.012    0.224    0.483  100.138
  494.500    3.028    0.210    0.491  105.987
  494.750    3.037    0.195    0.442  102.135
  495.000    2.990    0.193    0.414   96.839
  495.250    2.974    0.217    0.401  102.687
  495.500    2.901    0.213    0.443  102.031
  495.750    3.080    0.216    0.474  101.313
  496.000    3.874    0.229    0.461  102.581
  496.250    4.888    0.234    0.467  105.477
  496.500    6.039    0.196    0.463   95.120
  496.750    7.100    0.202    0.381   83.559
  497.000    8.041    0.208    0.361   78.563
  497.250    8.892    0.085    0.351   79.833
  497.500    9.954    0.115    0.343   77.127
  497.750   10.400    0.142    0.335   82.493
  498.000   10.271    0.067    0.327   86.353
  498.250    9.777    0.095    0.324   74.129
  498.500    9.308    0.159    0.330   65.760
  498.750    8.652    0.185    0.340   62.090
