~VERSION INFORMATION
 VERS.                 2.0:   CWLS LOG ASCII STANDARD -VERSION 2.0
 WRAP.                  NO:   ONE LINE PER DEPTH STEP
~WELL INFORMATION BLOCK
#MNEM.UNIT           DATA                    DESCRIPTION OF MNEMONIC
#---------    -------------------            -------------------------------
# Generated from Intellog Unique Number	CS_71_72/WELL/784
WELL.         AMOCO AEC APIATIK              : Well_name    - WELL
LOC .         00/06-30-072-04W4/0            : Location     - LOCATION
UWI .         00/06-30-072-04W4/0            : Uwi          - UNIQUE WELL ID
ENTR.         SP                             : Entered      - ENTERED BY
SRVC.         SCHLUMBERGER                   : Scn          - SERVICE COMPANY
STRT.M        315                            : top_depth    - START DEPTH
STOP.M        530                            : bot_depth    - STOP DEPTH
STEP.M        0.25                           : increment    - STEP LENGTH
 NULL. -999.2500:NULL Value
~CURVE INFORMATION BLOCK
#MNEM UNIT       ERCB CURVE CODE    CURVE DESCRIPTION
#-----------   ------------------   ----------------------------------
DEPT.M        00 001 00 00         : DEPTH        - DEPTH
ILD .OHMM     00 120 00 00         : RESD         - DEEP RESISTIVITY (DIL)
DPHI.V/V      00 890 00 00         : PHID         - DENSITY POROSITY (LIMESTONE)
NPHI.V/V      00 330 00 00         : PHIN         - NEUTRON POROSITY (LIMESTONE)
GR  .API      00 310 00 00         : GR           - GAMMA RAY
~PARAMETER INFORMATION
#MNEM.UNIT           DATA             DESCRIPTION OF MNEMONIC
#---------         -----------     ------------------------------
GL  .M        698.8                : gl           - GROUND LEVEL ELEVATION
EREF.M        705                  : kb           - ELEVATION OF DEPTH REFERENCE
DATM.M        698.8                : datum        - DATUM ELEVATION
TDD .M        545                  : tdd          - TOTAL DEPTH DRILLER
RUN .         ONE                  : Run          - RUN NUMBER
ENG .         BILL                 : Engineer     - RECORDING ENGINEER
WIT .         JIM                  : Witness      - WITNESSED BY
MUD .         GEL                  : Mud_type     - MUD TYPE
MATR.         LIMESTONE            : Logunit      - NEUTRON MATRIX
TMAX.C        11                   : BHT          - MAXIMUM RECORDED TEMPERATURE
BHTD.M        545                  : BHTDEP       - MAXIMUM RECORDED TEMPERATURE
MATR.         1                    : LOGUNIT      - NEUTRON MATRIX
RMT .C        25                   : MDTP         - TEMPERATURE OF MUD
NEUT.         1                    : NEUTRON      - NEUTRON TYPE
RESI.         0                    : RESIST       - RESISTIVITY TYPE
RMC .OHMM     0.25                 : RMC          - RESISTIVITY OF MUD CAKE
RMF .OHMM     0.25                 : RMF          - RESISTIVITY OF MUD FILTRATE
SUFT.C        15                   : SUFT         - SURFACE TEMPERATURE
~A  DEPTH     RESD     PHID     PHIN       GR
# ...
  489.000    8.934    0.198    0.459   98.188
  489.250    9.111    0.199    0.457   99.424
  489.500    8.948    0.198    0.471  100.048
  489.750    8.953    0.206    0.467   99.466
  490.000    8.795    0.201    0.467   99.479
  490.250    8.327    0.201    0.492  102.548
  490.500    8.030    0.218    0.518  104.393
  490.750    7.742    0.217    0.531  106.850
  491.000    7.062    0.230    0.560  108.704
  491.250    6.564    0.236    0.549  109.324
  491.500    6.327    0.229    0.535  106.303
  491.750    5.879    0.225    0.528  107.536
  492.000    5.464    0.217    0.532  111.828
  492.250    5.268    0.214    0.544  114.279
  492.500    5.175    0.210    0.549  120.397
  492.750    4.990    0.202    0.555  124.069
  493.000    4.904    0.195    0.565  128.967
  493.250    4.999    0.188    0.552  130.812
  493.500    5.096    0.177    0.530  121.074
  493.750    5.294    0.168    0.503  111.340
  494.000    5.396    0.156    0.489  108.309
  494.250    5.401    0.148    0.497  105.887
  494.500    5.406    0.144    0.503  106.520
  494.750    5.310    0.180    0.508  107.753
  495.000    5.120    0.177    0.516  109.604
  495.250    4.939    0.185    0.513  110.234
  495.500    4.850    0.186    0.513  110.253
  495.750    4.765    0.181    0.514  109.045
  496.000    4.950    0.176    0.505  103.579
  496.250    5.141    0.181    0.486  101.158
  496.500    5.440    0.184    0.469   94.467
  496.750    5.650    0.210    0.453   89.608
  497.000    5.871    0.234    0.461   96.341
  497.250    5.874    0.234    0.467  100.017
  497.500    5.878    0.220    0.446  103.078
  497.750    5.777    0.203    0.439  108.592
  498.000    5.889    0.193    0.430  110.432
  498.250    6.002    0.193    0.424  112.278
  498.500    6.234    0.194    0.430  106.811
  498.750    6.475    0.183    0.434   96.464
  499.000    6.981    0.158    0.437   89.776
  499.250    7.251    0.174    0.435   86.138
  499.500    7.530    0.189    0.425   81.884
  499.750    7.678    0.194    0.420   81.296
  500.000    7.828    0.199    0.428   84.370
  500.250    7.836    0.222    0.431   86.217
  500.500    7.696    0.224    0.422   86.838
  500.750    7.705    0.223    0.423   86.244
  501.000    7.710    0.223    0.432   85.659
  501.250    7.860    0.224    0.436   86.890
  501.500    8.164    0.225    0.441   88.129
  501.750    8.479    0.227    0.447   82.056
  502.000    8.487    0.242    0.465   83.898
  502.250    8.335    0.208    0.474   89.416
  502.500    8.041    0.175    0.483   91.868
  502.750    7.898    0.167    0.467   93.712
  503.000    7.757    0.179    0.460   89.461
  503.250    7.763    0.189    0.455   80.336
  503.500    7.770    0.205    0.454   81.570
  503.750    8.224    0.223    0.460   85.860
  504.000    8.540    0.202    0.440   80.998
  504.250    9.557    0.247    0.427   74.307
  504.500   10.109    0.240    0.422   67.623
  504.750   11.523    0.232    0.423   62.154
  505.000   12.651    0.240    0.436   59.119
  505.250   14.693    0.248    0.438   64.020
  505.500   16.133    0.262    0.429   67.691
  505.750   18.738    0.281    0.435   70.758
  506.000   19.820    0.283    0.442   64.686
  506.250   21.770    0.283    0.457   67.137
  506.500   22.613    0.281    0.462   72.038
  506.750   23.047    0.283    0.455   69.612
  507.000   23.945    0.286    0.449   65.981
  507.250   23.959    0.289    0.445   65.992
  507.500   24.438    0.284    0.447   67.841
  507.750   24.448    0.281    0.444   72.738
  508.000   24.925    0.271    0.435   76.413
  508.250   27.385    0.278    0.423   74.606
  508.500   29.517    0.287    0.420   77.064
  508.750   31.222    0.293    0.425   79.515
  509.000   34.935    0.285    0.425   86.859
  509.250   38.362    0.280    0.427   89.923
  509.500   41.353    0.278    0.436   85.069
  509.750   45.428    0.286    0.445   82.036
  510.000   46.296    0.292    0.451   79.003
  510.250   49.011    0.301    0.456   74.751
  510.500   50.897    0.304    0.451   68.064
  510.750   50.925    0.296    0.449   62.593
  511.000   50.965    0.296    0.446   58.951
  511.250   50.062    0.309    0.446   50.432
  511.500   48.280    0.299    0.460   40.696
  511.750   45.700    0.297    0.444   38.280
  512.000   44.071    0.306    0.443   39.523
  512.250   41.712    0.305    0.439   40.142
  512.500   38.054    0.316    0.434   41.995
  512.750   36.013    0.317    0.446   41.401
  513.000   31.654    0.317    0.456   40.195
  513.250   28.339    0.317    0.451   43.883
  513.500   24.902    0.316    0.456   46.953
  513.750   20.319    0.310    0.450   48.797
  514.000   16.576    0.306    0.445   50.642
  514.250   13.033    0.307    0.456   51.876
  514.500   11.036    0.318    0.463   53.118
  514.750    9.344    0.322    0.466   53.135
  515.000    7.484    0.320    0.449   53.149
  515.250    5.884    0.314    0.441   51.949
  515.500    4.982    0.311    0.442   50.748
  515.750    4.378    0.308    0.441   53.210
  516.000    3.777    0.305    0.438   54.440
  516.250    3.258    0.301    0.449   55.689
  516.500    2.916    0.309    0.464   55.702
  516.750    2.660    0.314    0.459   54.498
  517.000    2.472    0.318    0.451   51.471
  517.250    2.255    0.324    0.444   52.097
  517.500    2.174    0.312    0.437   55.778
  517.750    2.136    0.307    0.434   58.238
  518.000    2.060    0.303    0.434   59.471
  518.250    2.024    0.301    0.432   58.877
  518.500    2.025    0.309    0.451   57.069
  518.750    1.989    0.304    0.456   54.651
  519.000    1.955    0.302    0.451   51.010
  519.250    1.921    0.308    0.439   48.583
  519.500    1.922    0.315    0.435   44.333
  519.750    1.888    0.314    0.432   41.302
  520.000    1.889    0.308    0.443   39.495
  520.250    1.856    0.303    0.446   38.300
  520.500    1.857    0.322    0.441   38.312
  520.750    1.859    0.332    0.451   38.944
  521.000    1.826    0.324    0.471   40.786
  521.250    1.828    0.322    0.471   42.640
  521.500    1.796    0.338    0.459   42.047
  521.750    1.797    0.345    0.456   41.452
  522.000    1.798    0.345    0.456   40.254
  522.250    1.833    0.337    0.454   39.657
  522.500    1.869    0.326    0.461   40.289
  522.750    1.906    0.323    0.453   41.527
  523.000    1.907    0.320    0.449   42.769
  523.250    2.056    0.308    0.441   44.001
  523.500    2.770    0.297    0.361   46.464
  523.750    3.594    0.279    0.329   48.308
  524.000    4.752    0.238    0.279   53.202
  524.250    8.303    0.083    0.255   56.878
  524.500   14.775    0.011    0.245   56.289
  524.750   19.536    0.031    0.243   53.866
  525.000   20.672    0.038    0.250   53.885
  525.250   18.861    0.028    0.253   55.129
  525.500   18.183    0.028    0.255   55.751
  525.750   17.530    0.036    0.260   53.940
  526.000   17.229    0.039    0.261   50.299
  526.250   17.888    0.038    0.255   43.616
  526.500   23.218    0.032    0.240   38.753
  526.750   31.273    0.019    0.219   33.285
  527.000   39.114    0.015    0.185   31.471
  527.250   44.588    0.020    0.164   30.884
  527.500   46.304    0.026    0.158   31.515
  527.750   46.344    0.021    0.163   33.359
  528.000   45.538    0.027    0.173   34.602
  528.250   44.726    0.039    0.181   34.004
  528.500   43.122    0.051    0.185   32.198
  528.750   41.598    0.059    0.188   31.601
  529.000   41.627    0.054    0.187   31.622
  529.250   42.447    0.040    0.184   32.250
  529.500   43.273    0.054    0.182   32.877
  529.750   43.308    0.048    0.181   32.903
  530.000   44.144    0.041    0.180   32.913
