~VERSION INFORMATION
 VERS.                 2.0:   CWLS LOG ASCII STANDARD -VERSION 2.0
 WRAP.                  NO:   ONE LINE PER DEPTH STEP
~WELL INFORMATION BLOCK
#MNEM.UNIT           DATA                    DESCRIPTION OF MNEMONIC
#---------    -------------------            -------------------------------
# Generated from Intellog Unique Number	CW_82_90/WELL/502
WELL.         GULF WABASCA 06-14             : Well_name    - WELL
LOC .         00/06-14-083-23W4/0            : Location     - LOCATION
UWI .         00/06-14-083-23W4/0            : Uwi          - UNIQUE WELL ID
ENTR.         JAYE                           : Entered      - ENTERED BY
SRVC.         SCHLUMBERGER                   : Scn          - SERVICE COMPANY
DATE.         9 JAN 74                       : Date         - LOG DATE
STRT.M        222.504                        : top_depth    - START DEPTH
STOP.M        426.754                        : bot_depth    - STOP DEPTH
STEP.M        0.25                           : increment    - STEP LENGTH
 NULL. -999.2500:NULL Value
~CURVE INFORMATION BLOCK
#MNEM UNIT       ERCB CURVE CODE    CURVE DESCRIPTION
#-----------   ------------------   ----------------------------------
DEPT.M        00 001 00 00         : DEPTH        - DEPTH
ILD .OHMM     00 120 00 00         : RESD         - DEEP RESISTIVITY (DIL)
CALI.MM       00 280 01 00         : CAL          - CALIPER
GR  .API      00 310 00 00         : GR           - GAMMA RAY
NPHI.V/V      00 330 00 00         : PHIN         - NEUTRON POROSITY (SANDSTONE)
DPHI.V/V      00 890 00 00         : PHID         - DENSITY POROSITY (SANDSTONE)
~PARAMETER INFORMATION
#MNEM.UNIT           DATA             DESCRIPTION OF MNEMONIC
#---------         -----------     ------------------------------
GL  .M        607.771              : gl           - GROUND LEVEL ELEVATION
EREF.M        609.295              : kb           - ELEVATION OF DEPTH REFERENCE
DATM.M        607.771              : datum        - DATUM ELEVATION
TDD .M        426.72               : tdd          - TOTAL DEPTH DRILLER
ENG .         CHAUDHARY            : Engineer     - RECORDING ENGINEER
WIT .         LONG & CAMPBELL      : Witness      - WITNESSED BY
BASE.         EDMONTON             : Branch       - HOME BASE OF LOGGING UNIT
MUD .         GEL                  : Mud_type     - MUD TYPE
MATR.         SANDSTONE            : Logunit      - NEUTRON MATRIX
TMAX.C        29.4444              : BHT          - MAXIMUM RECORDED TEMPERATURE
BHTD.M        426.72               : BHTDEP       - MAXIMUM RECORDED TEMPERATURE
RMT .C        11.6667              : MDTP         - TEMPERATURE OF MUD
MUDD.KG/M     0                    : MWT          - MUD DENSITY
NEUT.         1                    : NEUTRON      - NEUTRON TYPE
RESI.         0                    : RESIST       - RESISTIVITY TYPE
RM  .OHMM     4.77                 : RM           - RESISTIVITY OF MUD
RMC .OHMM     0                    : RMC          - RESISTIVITY OF MUD CAKE
RMF .OHMM     0                    : RMF          - RESISTIVITY OF MUD FILTRATE
SUFT.C        -17.7778             : SUFT         - SURFACE TEMPERATURE
~A  DEPTH     RESD      CAL       GR     PHIN     PHID
# ...
  259.004    9.070  161.763   62.290    0.489    0.322
  259.254   10.543  161.694   61.889    0.475    0.342
  259.504   13.922  161.547   60.878    0.456    0.380
  259.754   16.848  161.576   56.818    0.445    0.365
  260.004   19.054  161.823   59.050    0.459    0.376
  260.254   21.434  162.076   59.917    0.478    0.379
  260.504   23.760  162.115   59.334    0.484    0.377
  260.754   25.537  162.262   57.347    0.476    0.380
  261.004   26.035  160.763   57.432    0.469    0.379
  261.254   25.871  159.151   58.128    0.472    0.372
  261.504   25.386  158.987   59.620    0.484    0.368
  261.754   24.770  158.405   57.816    0.490    0.373
  262.004   24.569  158.556   53.572    0.485    0.378
  262.254   24.552  158.492   55.486    0.480    0.378
  262.504   24.800  158.846   57.828    0.473    0.372
  262.754   25.236  159.199   59.377    0.470    0.370
  263.004   25.724  159.656   56.172    0.473    0.358
  263.254   26.271  160.117   55.527    0.464    0.362
  263.504   26.536  160.261   55.553    0.464    0.365
  263.754   26.568  160.404   55.580    0.465    0.364
  264.004   26.689  160.341   56.273    0.471    0.372
  264.254   26.770  160.281   56.483    0.472    0.351
  264.504   26.937  160.022   56.509    0.473    0.341
  264.754   27.261  158.926   57.326    0.475    0.345
  265.004   27.590  158.250   58.939    0.472    0.350
  265.254   27.867  158.284   61.035    0.468    0.352
  265.504   27.749  158.739   62.645    0.476    0.342
  265.754   26.636  158.678   59.438    0.487    0.330
  266.004   25.565  159.147   59.039    0.504    0.334
  266.254   25.596  159.190   58.882    0.489    0.349
  266.504   25.898  159.225   56.712    0.478    0.359
  266.754   27.034  159.366   54.539    0.471    0.370
  267.004   28.530  160.030   53.102    0.454    0.374
  267.254   29.998  160.595   52.580    0.435    0.371
  267.504   30.469  160.738   53.221    0.486    0.370
  267.754   29.355  158.716   53.786    0.496    0.373
  268.004   27.573  158.039   54.242    0.485    0.361
  268.254   26.952  158.087   53.959    0.466    0.361
  268.504   26.489  158.434   52.827    0.481    0.360
  268.754   26.140  158.367   51.390    0.490    0.359
  269.004   26.164  158.515   51.111    0.481    0.356
  269.254   26.189  158.871   51.747    0.477    0.356
  269.504   26.311  158.805   51.768    0.470    0.354
  269.754   26.340  158.023   51.063    0.470    0.348
  270.004   26.457  157.141   51.948    0.478    0.352
  270.254   26.389  156.765   52.333    0.473    0.359
  270.504   26.464  156.396   51.020    0.482    0.361
  270.754   26.686  156.651   50.370    0.497    0.359
  271.004   26.760  157.829   51.250    0.507    0.362
  271.254   26.787  158.797   52.499    0.506    0.367
  271.504   26.962  159.463   52.398    0.495    0.371
  271.754   27.084  160.017   52.484    0.484    0.372
  272.004   27.111  160.370   53.670    0.489    0.371
  272.254   27.041  160.414   54.000    0.501    0.368
  272.504   26.875  160.358   51.951    0.496    0.366
  272.754   26.752  160.602   51.671    0.505    0.361
  273.004   26.445  160.750   52.855    0.508    0.371
  273.254   26.279  161.005   51.906    0.508    0.372
  273.504   26.014  161.151   53.514    0.504    0.376
  273.754   25.852  161.091   52.870    0.490    0.374
  274.004   25.694  161.130   50.947    0.484    0.388
  274.254   25.573  161.067   49.814    0.480    0.383
  274.504   25.695  160.905   50.751    0.477    0.375
  274.754   25.437  160.846   52.972    0.480    0.374
  275.004   24.468  160.682   53.426    0.485    0.380
  275.254   23.441  160.409   54.732    0.491    0.377
  275.504   22.540  160.147   54.268    0.542    0.382
  275.754   22.115  160.188   53.378    0.529    0.377
  276.004   22.299  160.232   53.524    0.511    0.369
  276.254   22.405  160.590   53.612    0.512    0.376
  276.504   22.264  160.427   53.576    0.520    0.374
  276.754   22.207  160.366   53.541    0.505    0.362
  277.004   22.107  160.508   53.508    0.495    0.363
  277.254   22.252  160.656   53.778    0.484    0.376
  277.504   22.517  160.795   53.798    0.468    0.371
  277.754   23.420  160.838   52.118    0.449    0.346
  278.004   25.635  160.265   49.279    0.413    0.123
  278.254   28.626  160.212   45.217    0.369    0.062
  278.504   35.464  160.453   43.050    0.152    0.012
  278.754   44.666  160.185   42.461    0.147    0.008
  279.004   70.523  160.330   42.793    0.151    0.007
  279.254  100.907  160.583   43.917    0.153    0.006
  279.504  107.286  160.417   44.063    0.155    0.004
  279.754  106.033  160.055   47.871    0.166    0.041
  280.004   99.387  159.781   52.162    0.276    0.069
  280.254   62.841  159.826   53.957    0.354    0.136
  280.504   31.640  159.039   55.018    0.375    0.273
  280.754   23.317  156.397   56.627    0.514    0.369
  281.004   15.832  155.717   55.618    0.498    0.377
  281.254   15.006  154.524   55.154    0.497    0.365
  281.504   15.777  154.876   55.608    0.507    0.363
  281.754   17.268  155.019   58.256    0.506    0.365
  282.004   18.933  155.580   59.072    0.508    0.368
  282.254   20.726  156.967   58.061    0.506    0.372
  282.504   21.398  158.349   58.087    0.498    0.370
  282.754   20.956  159.325   59.149    0.498    0.357
  283.004   20.599  158.960   59.419    0.496    0.349
  283.254   20.432  158.478   59.931    0.487    0.345
  283.504   20.273  157.698   63.431    0.486    0.361
  283.754   19.922  157.327   65.346    0.490    0.374
  284.004   19.296  156.852   63.788    0.482    0.372
  284.254   17.926  157.518   65.885    0.476    0.361
  284.504   16.530  158.285   66.519    0.484    0.354
  284.754   15.609  158.635   65.082    0.495    0.348
  285.004   14.634  158.988   63.520    0.508    0.338
  285.254   13.644  159.444   64.643    0.525    0.345
  285.504   12.582  159.181   67.048    0.536    0.329
  285.754   11.456  159.533   69.513    0.528    0.303
  286.004   10.038  159.790   73.256    0.511    0.284
  286.254    8.779  160.026   78.405    0.508    0.292
  286.504    6.959  159.974   84.220    0.580    0.294
  286.754    5.507  160.419   87.781    0.579    0.277
  287.004    4.294  160.359   86.895    0.574    0.262
  287.254    3.776  160.300   88.200    0.561    0.236
  287.504    3.521  159.937   86.946    0.545    0.232
  287.754    3.550  159.148   80.874    0.529    0.226
  288.004    3.851  158.465   80.652    0.508    0.240
  288.254    4.154  158.198   82.206    0.515    0.269
  288.504    4.759  157.521   81.740    0.524    0.297
  288.754    5.314  157.150   80.057    0.538    0.294
  289.004    5.784  156.267   82.096    0.522    0.269
  289.254    5.697  155.893   82.120    0.510    0.256
  289.504    5.538  156.252   78.975    0.513    0.273
  289.754    5.297  156.088   77.908    0.506    0.276
  290.004    5.206  155.922   77.075    0.509    0.269
  290.254    5.269  155.856   77.954    0.527    0.274
  290.504    5.461  156.003   76.397    0.514    0.281
  290.754    5.596  156.667   74.166    0.500    0.285
  291.004    5.800  157.229   73.767    0.508    0.286
  291.254    6.021  157.787   72.082    0.512    0.279
  291.504    6.378  158.453   72.531    0.518    0.293
  291.754    6.656  159.737   74.942    0.515    0.288
  292.004    7.128  160.398   76.548    0.528    0.280
  292.254    6.315  160.538   76.571    0.533    0.279
  292.504    6.196  160.689   72.084    0.518    0.285
  292.754    6.351  160.832   62.050    0.500    0.276
  293.004    6.813  160.879   60.489    0.489    0.290
  293.254    8.613  160.812   63.508    0.484    0.330
  293.504    9.849  161.062   68.100    0.478    0.319
  293.754   11.701  161.942   71.419    0.471    0.300
  294.004   13.066  161.974   71.694    0.476    0.267
  294.254   13.272  161.915   76.042    0.471    0.275
  294.504   12.283  161.554   80.700    0.481    0.264
  294.754   10.607  161.171   79.994    0.503    0.237
  295.004    9.466  161.011   80.874    0.511    0.230
  295.254    8.793  160.750   84.618    0.507    0.226
