~VERSION INFORMATION
 VERS.                 2.0:   CWLS LOG ASCII STANDARD -VERSION 2.0
 WRAP.                  NO:   ONE LINE PER DEPTH STEP
~WELL INFORMATION BLOCK
#MNEM.UNIT           DATA                    DESCRIPTION OF MNEMONIC
#---------    -------------------            -------------------------------
# Generated from Intellog Unique Number	CS_69_70/WELL/776
WELL.         MAYNARD EXPLORATION            : Well_name    - WELL
LOC .         00/06-25-070-16W4/0            : Location     - LOCATION
UWI .         00/06-25-070-16W4/0            : Uwi          - UNIQUE WELL ID
ENTR.         SP                             : Entered      - ENTERED BY
SRVC.         SCHLUMBERGER                   : Scn          - SERVICE COMPANY
STRT.M        280                            : top_depth    - START DEPTH
STOP.M        490                            : bot_depth    - STOP DEPTH
STEP.M        0.25                           : increment    - STEP LENGTH
 NULL. -999.2500:NULL Value
~CURVE INFORMATION BLOCK
#MNEM UNIT       ERCB CURVE CODE    CURVE DESCRIPTION
#-----------   ------------------   ----------------------------------
DEPT.M        00 001 00 00         : DEPTH        - DEPTH
ILD .OHMM     00 120 00 00         : RESD         - DEEP RESISTIVITY (DIL)
DPHI.V/V      00 890 00 00         : PHID         - DENSITY POROSITY (LIMESTONE)
NPHI.V/V      00 330 00 00         : PHIN         - NEUTRON POROSITY (LIMESTONE)
GR  .API      00 310 00 00         : GR           - GAMMA RAY
~PARAMETER INFORMATION
#MNEM.UNIT           DATA             DESCRIPTION OF MNEMONIC
#---------         -----------     ------------------------------
GL  .M        580.53               : gl           - GROUND LEVEL ELEVATION
EREF.M        583.73               : kb           - ELEVATION OF DEPTH REFERENCE
DATM.M        580.53               : datum        - DATUM ELEVATION
TDD .M        499                  : tdd          - TOTAL DEPTH DRILLER
RUN .         ONE                  : Run          - RUN NUMBER
ENG .         BILL                 : Engineer     - RECORDING ENGINEER
WIT .         JIM                  : Witness      - WITNESSED BY
MUD .         GEL                  : Mud_type     - MUD TYPE
MATR.         LIMESTONE            : Logunit      - NEUTRON MATRIX
TMAX.C        23                   : BHT          - MAXIMUM RECORDED TEMPERATURE
BHTD.M        499                  : BHTDEP       - MAXIMUM RECORDED TEMPERATURE
MATR.         1                    : LOGUNIT      - NEUTRON MATRIX
RMT .C        25                   : MDTP         - TEMPERATURE OF MUD
NEUT.         1                    : NEUTRON      - NEUTRON TYPE
RESI.         0                    : RESIST       - RESISTIVITY TYPE
RMC .OHMM     0.25                 : RMC          - RESISTIVITY OF MUD CAKE
RMF .OHMM     0.25                 : RMF          - RESISTIVITY OF MUD FILTRATE
SUFT.C        15                   : SUFT         - SURFACE TEMPERATURE
~A  DEPTH     RESD     PHID     PHIN       GR
  280.000    2.500    0.265    0.427  112.833
  280.250    2.533    0.263    0.419  112.887
  280.500    2.557    0.259    0.430  110.751
  280.750    2.557    0.252    0.443  109.162
  281.000    2.557    0.243    0.433  110.128
  281.250    2.582    0.238    0.423  110.303
  281.500    2.590    0.239    0.432  109.627
  281.750    2.689    0.239    0.438  111.931
  282.000    2.795    0.226    0.425  111.315
  282.250    2.910    0.213    0.408  109.483
  282.500    3.033    0.218    0.419  106.799
  282.750    3.164    0.228    0.432  104.420
  283.000    3.312    0.220    0.416  103.014
  283.250    3.484    0.199    0.400  102.824
  283.500    3.615    0.196    0.387  104.398
  283.750    3.631    0.208    0.383  106.519
  284.000    3.582    0.230    0.400  107.485
  284.250    3.541    0.244    0.414  107.843
  284.500    3.410    0.246    0.428  107.410
  284.750    3.271    0.248    0.422  105.882
  285.000    3.066    0.246    0.433  106.362
  285.250    2.951    0.247    0.444  106.598
  285.500    2.796    0.247    0.456  104.157
  285.750    2.705    0.238    0.452  102.993
  286.000    2.746    0.231    0.444  104.082
  286.250    2.796    0.213    0.448  107.481
  286.500    2.861    0.202    0.438  111.122
  286.750    2.935    0.206    0.442  113.610
  287.000    3.025    0.215    0.452  114.089
  287.250    3.115    0.222    0.451  106.660
  287.500    3.140    0.225    0.439  103.369
  287.750    3.140    0.217    0.428  104.822
  288.000    3.099    0.213    0.420  105.788
  288.250    3.033    0.213    0.414  104.988
  288.500    2.968    0.206    0.405  105.286
  288.750    2.894    0.193    0.398  108.077
  289.000    2.837    0.192    0.406  107.886
  289.250    2.820    0.198    0.421  102.709
  289.500    2.976    0.200    0.436   96.680
  289.750    3.255    0.179    0.406   90.529
  290.000    3.427    0.156    0.361   84.744
  290.250    3.755    0.232    0.321   79.809
  290.500    4.181    0.284    0.311   85.215
  290.750    4.673    0.271    0.307   88.675
  291.000    5.058    0.259    0.319   89.763
  291.250    5.263    0.256    0.333   90.668
  291.500    5.050    0.248    0.343   93.519
  291.750    4.755    0.239    0.350   96.432
  292.000    4.575    0.229    0.347  101.352
  292.250    4.517    0.214    0.342   99.885
  292.500    4.812    0.225    0.342   96.897
  292.750    5.337    0.256    0.327   85.758
  293.000    6.009    0.289    0.305   69.024
  293.250    6.886    0.312    0.239   54.540
  293.500    8.304    0.330    0.211   46.928
  293.750   14.599    0.336    0.197   45.218
  294.000    7.621    0.327    0.191   44.663
  294.250   25.511    0.319    0.201   43.560
  294.500   48.934    0.320    0.192   42.703
  294.750   72.993    0.327    0.174   41.783
  295.000   72.832    0.337    0.165   41.226
  295.250   58.338    0.341    0.159   41.646
  295.500   38.038    0.337    0.169   43.098
  295.750   26.447    0.334    0.193   45.584
  296.000    5.829    0.334    0.226   48.255
  296.250    5.018    0.320    0.259   51.469
  296.500    4.346    0.312    0.289   53.775
  296.750    3.952    0.314    0.314   56.566
  297.000    3.575    0.321    0.334   61.181
  297.250    3.296    0.330    0.344   65.067
  297.500    2.993    0.335    0.339   69.440
  297.750    2.755    0.330    0.338   75.576
  298.000    2.592    0.306    0.346   84.571
  298.250    2.501    0.297    0.354  107.678
  298.500    2.428    0.288    0.359  130.055
  298.750    2.362    0.288    0.363  147.809
  299.000    2.387    0.296    0.358  120.794
  299.250    2.461    0.287    0.351  106.492
  299.500    2.583    0.267    0.346  102.471
  299.750    2.797    0.256    0.349  102.159
  300.000    3.010    0.246    0.339   96.677
  300.250    3.387    0.241    0.324   89.979
  300.500    3.641    0.241    0.309   82.551
  300.750    3.813    0.250    0.302   75.184
  301.000    3.952    0.261    0.315   65.931
  301.250    3.928    0.268    0.318   65.924
  301.500    3.821    0.243    0.324   71.634
  301.750    3.674    0.229    0.339   76.127
  302.000    3.584    0.231    0.328   82.385
  302.250    3.584    0.239    0.321   80.249
  302.500    3.551    0.248    0.314   72.638
  302.750    3.494    0.244    0.331   66.851
  303.000    3.272    0.175    0.348   65.264
  303.250    3.199    0.163    0.347   67.203
  303.500    3.002    0.161    0.346   73.400
  303.750    2.936    0.177    0.361   79.658
  304.000    3.043    0.187    0.372   87.254
  304.250    3.084    0.183    0.373   98.561
  304.500    3.190    0.197    0.384  107.130
  304.750    3.371    0.209    0.398  111.746
  305.000    3.649    0.205    0.414  112.346
  305.250    3.805    0.216    0.401  112.947
  305.500    3.961    0.218    0.411  114.643
  305.750    4.051    0.222    0.425  116.947
  306.000    4.109    0.211    0.442  118.764
  306.250    4.109    0.214    0.431  118.454
  306.500    4.035    0.224    0.424  116.987
  306.750    3.945    0.230    0.419  118.196
  307.000    3.797    0.243    0.421  120.682
  307.250    3.600    0.253    0.434  122.865
  307.500    3.551    0.245    0.445  124.621
  307.750    3.322    0.260    0.458  125.160
  308.000    3.010    0.274    0.451  124.607
  308.250    2.781    0.295    0.453  123.200
  308.500    2.674    0.312    0.441  119.665
  308.750    2.633    0.325    0.428  115.218
  309.000    2.797    0.291    0.408  110.162
  309.250    3.133    0.220    0.393  105.775
  309.500    3.306    0.201    0.383  101.996
  309.750    3.879    0.192    0.370   99.555
  310.000    4.224    0.181    0.365   98.271
  310.250    4.666    0.171    0.362   98.811
  310.500    4.929    0.176    0.374  102.453
  310.750    5.011    0.189    0.387  106.521
  311.000    5.191    0.178    0.391  105.480
  311.250    5.248    0.175    0.382  104.196
  311.500    5.240    0.189    0.379  103.763
  311.750    5.166    0.222    0.394  108.925
  312.000    4.962    0.252    0.408  112.507
  312.250    4.683    0.261    0.423  115.723
  312.500    4.396    0.262    0.424  117.419
  312.750    4.085    0.242    0.419  118.385
  313.000    3.822    0.224    0.430  117.708
  313.250    3.675    0.205    0.436  114.843
  313.500    3.691    0.188    0.424  112.463
  313.750    3.839    0.227    0.410  117.808
  314.000    3.937    0.251    0.394  118.470
  314.250    4.068    0.257    0.382  115.726
  314.500    4.142    0.262    0.367  105.743
  314.750    4.142    0.264    0.358   98.376
  315.000    4.134    0.258    0.360   88.879
  315.250    4.101    0.253    0.361   92.581
  315.500    4.109    0.247    0.362   97.926
  315.750    4.216    0.240    0.359  101.813
  316.000    4.290    0.233    0.358  105.818
  316.250    4.478    0.226    0.359  106.848
  316.500    4.683    0.220    0.363  108.239
  316.750    4.880    0.208    0.374  108.049
  317.000    4.929    0.200    0.383  107.555
  317.250    5.003    0.196    0.392  104.446
  317.500    5.036    0.202    0.377  103.040
  317.750    5.052    0.200    0.377  108.324
  318.000    5.011    0.192    0.393  117.806
  318.250    4.937    0.193    0.408  123.394
  318.500    4.839    0.204    0.398  124.422
  318.750    4.782    0.218    0.389  121.191
  319.000    4.765    0.228    0.384  113.883
  319.250    4.782    0.238    0.386  106.576
  319.500    4.815    0.229    0.381  103.894
  319.750    4.839    0.220    0.377  105.650
  320.000    4.929    0.204    0.371  112.394
  320.250    5.110    0.192    0.378  116.462
  320.500    5.208    0.176    0.378  118.158
  320.750    5.249    0.160    0.372  118.820
  321.000    5.216    0.169    0.370  120.273
  321.250    5.143    0.184    0.375  123.185
  321.500    4.938    0.194    0.392  126.402
  321.750    4.700    0.186    0.405  128.888
  322.000    4.438    0.177    0.415  130.098
  322.250    4.233    0.193    0.411  123.643
  322.500    4.053    0.207    0.406  113.295
  322.750    3.913    0.224    0.403  102.096
  323.000    3.823    0.239    0.395   94.546
  323.250    3.774    0.224    0.389   88.882
