~VERSION INFORMATION
 VERS.                 2.0:   CWLS LOG ASCII STANDARD -VERSION 2.0
 WRAP.                  NO:   ONE LINE PER DEPTH STEP
~WELL INFORMATION BLOCK
#MNEM.UNIT           DATA                    DESCRIPTION OF MNEMONIC
#---------    -------------------            -------------------------------
# Generated from Intellog Unique Number	CS_77_79/WELL/850
WELL.         CANADIAN WORLDWIDE ENERGY      : Well_name    - WELL
LOC .         00/04-13-077-05W4/0            : Location     - LOCATION
UWI .         00/04-13-077-05W4/0            : Uwi          - UNIQUE WELL ID
ENTR.         SP                             : Entered      - ENTERED BY
SRVC.         SCHLUMBERGER                   : Scn          - SERVICE COMPANY
STRT.M        165                            : top_depth    - START DEPTH
STOP.M        410                            : bot_depth    - STOP DEPTH
STEP.M        0.25                           : increment    - STEP LENGTH
 NULL. -999.2500:NULL Value
~CURVE INFORMATION BLOCK
#MNEM UNIT       ERCB CURVE CODE    CURVE DESCRIPTION
#-----------   ------------------   ----------------------------------
DEPT.M        00 001 00 00         : DEPTH        - DEPTH
ILD .OHMM     00 120 00 00         : RESD         - DEEP RESISTIVITY (DIL)
DPHI.V/V      00 890 00 00         : PHID         - DENSITY POROSITY (LIMESTONE)
NPHI.V/V      00 330 00 00         : PHIN         - NEUTRON POROSITY (LIMESTONE)
GR  .API      00 310 00 00         : GR           - GAMMA RAY
~PARAMETER INFORMATION
#MNEM.UNIT           DATA             DESCRIPTION OF MNEMONIC
#---------         -----------     ------------------------------
GL  .M        570.3                : gl           - GROUND LEVEL ELEVATION
EREF.M        573.3                : kb           - ELEVATION OF DEPTH REFERENCE
DATM.M        570.3                : datum        - DATUM ELEVATION
TDD .M        411.6                : tdd          - TOTAL DEPTH DRILLER
RUN .         ONE                  : Run          - RUN NUMBER
ENG .         BILL                 : Engineer     - RECORDING ENGINEER
WIT .         JIM                  : Witness      - WITNESSED BY
MUD .         GEL                  : Mud_type     - MUD TYPE
MATR.         LIMESTONE            : Logunit      - NEUTRON MATRIX
TMAX.C        20                   : BHT          - MAXIMUM RECORDED TEMPERATURE
BHTD.M        415                  : BHTDEP       - MAXIMUM RECORDED TEMPERATURE
MATR.         1                    : LOGUNIT      - NEUTRON MATRIX
RMT .C        25                   : MDTP         - TEMPERATURE OF MUD
NEUT.         1                    : NEUTRON      - NEUTRON TYPE
RESI.         0                    : RESIST       - RESISTIVITY TYPE
RMC .OHMM     0.25                 : RMC          - RESISTIVITY OF MUD CAKE
RMF .OHMM     0.25                 : RMF          - RESISTIVITY OF MUD FILTRATE
SUFT.C        15                   : SUFT         - SURFACE TEMPERATURE
~A  DEPTH     RESD     PHID     PHIN       GR
# ...
  252.000   15.682    0.357    0.444   65.005
  252.250   14.835    0.358    0.441   67.447
  252.500   13.268    0.343    0.437   71.100
  252.750   10.609    0.293    0.436   81.435
  253.000    9.486    0.258    0.443   92.381
  253.250    7.164    0.251    0.494   98.467
  253.500    6.058    0.250    0.495   99.086
  253.750    5.520    0.252    0.487   96.064
  254.000    5.223    0.258    0.496   96.075
  254.250    4.942    0.252    0.518   99.124
  254.500    4.766    0.245    0.524  100.956
  254.750    4.681    0.241    0.516  101.575
  255.000    4.599    0.247    0.538  100.980
  255.250    4.603    0.256    0.533  100.996
  255.500    4.609    0.259    0.519   99.793
  255.750    4.612    0.261    0.521   95.554
  256.000    4.793    0.263    0.514   91.316
  256.250    5.270    0.269    0.506   86.468
  256.500    6.016    0.277    0.497   79.803
  256.750    7.131    0.286    0.487   75.566
  257.000    8.295    0.297    0.482   74.359
  257.250   10.016    0.306    0.486   76.799
  257.500   11.651    0.313    0.488   81.674
  257.750   11.886    0.300    0.480   85.936
  258.000   11.244    0.267    0.469   89.590
  258.250    9.329    0.258    0.474   92.030
  258.500    7.598    0.253    0.475   92.049
  258.750    6.795    0.250    0.465   92.663
  259.000    5.966    0.242    0.462   99.354
  259.250    5.644    0.244    0.475   96.334
  259.500    5.441    0.252    0.488   96.344
  259.750    5.150    0.249    0.488   99.392
  260.000    4.783    0.245    0.497  100.013
  260.250    4.696    0.248    0.526  103.060
  260.500    4.281    0.247    0.537  107.326
  260.750    4.204    0.243    0.532  104.302
  261.000    4.211    0.247    0.509   94.596
  261.250    4.293    0.263    0.470   78.212
  261.500    4.810    0.285    0.467   75.185
  261.750    5.809    0.311    0.473   72.768
  262.000    7.014    0.311    0.462   73.995
  262.250    8.962    0.308    0.444   74.012
  262.500   11.030    0.303    0.434   72.197
  262.750   12.125    0.301    0.439   70.997
  263.000   13.335    0.309    0.439   72.829
  263.250   13.599    0.315    0.440   75.270
  263.500   13.358    0.312    0.451   75.283
  263.750   11.294    0.298    0.463   77.118
  264.000    9.728    0.276    0.469   81.989
  264.250    8.380    0.246    0.467   86.862
  264.500    6.824    0.244    0.468   90.519
  264.750    5.662    0.244    0.478   92.958
  265.000    5.066    0.243    0.499   93.579
  265.250    4.793    0.241    0.541   91.769
  265.500    4.620    0.241    0.552   94.211
  265.750    4.373    0.241    0.533   97.870
  266.000    4.215    0.245    0.516   99.091
  266.250    4.140    0.246    0.491   96.676
  266.500    4.223    0.251    0.504   95.472
  266.750    4.307    0.263    0.510   94.879
  267.000    4.648    0.295    0.517   94.889
  267.250    5.111    0.320    0.515   82.147
  267.500    5.619    0.333    0.497   72.445
  267.750    6.178    0.345    0.471   66.991
  268.000    7.324    0.354    0.446   62.751
  268.250    8.519    0.356    0.433   59.726
  268.500    9.189    0.357    0.441   64.602
  268.750   10.492    0.362    0.452   65.216
  269.000   11.539    0.364    0.452   63.409
  269.250   12.219    0.364    0.457   60.382
  269.500   12.459    0.360    0.469   59.790
  269.750   12.471    0.354    0.475   61.018
  270.000   12.254    0.359    0.474   63.456
  270.250   12.263    0.363    0.466   61.650
  270.500   12.513    0.359    0.476   61.052
  270.750   12.764    0.355    0.476   62.887
  271.000   13.015    0.355    0.471   62.291
  271.250   13.030    0.358    0.459   59.273
  271.500   13.039    0.361    0.440   59.887
  271.750   13.051    0.355    0.428   61.719
  272.000   13.076    0.349    0.443   62.947
  272.250   13.090    0.352    0.451   63.567
  272.500   13.100    0.358    0.456   59.938
  272.750   13.109    0.364    0.466   58.125
  273.000   13.118    0.365    0.481   59.352
  273.250   13.134    0.364    0.481   61.799
  273.500   13.145    0.361    0.471   62.415
  273.750   12.682    0.354    0.473   63.035
  274.000   12.694    0.351    0.468   61.833
  274.250   12.473    0.355    0.461   61.849
  274.500   12.482    0.358    0.461   61.858
  274.750   12.491    0.364    0.461   63.086
  275.000   12.501    0.367    0.459   63.096
  275.250   12.752    0.372    0.457   63.107
  275.500   12.762    0.375    0.455   62.515
  275.750   12.779    0.372    0.451   61.919
  276.000   12.791    0.371    0.446   60.106
  276.250   13.044    0.367    0.442   58.910
  276.500   13.062    0.366    0.462   58.916
  276.750   13.320    0.361    0.472   61.357
  277.000   13.335    0.352    0.476   60.763
  277.250   13.596    0.335    0.473   60.176
  277.500   13.612    0.313    0.441   59.573
  277.750   14.153    0.277    0.399   55.335
  278.000   14.162    0.246    0.384   55.955
  278.250   14.723    0.250    0.372   59.611
  278.500   14.732    0.294    0.377   62.055
  278.750   14.749    0.336    0.432   62.670
  279.000   14.765    0.344    0.474   65.118
  279.250   14.775    0.355    0.489   63.911
  279.500   14.515    0.361    0.473   64.531
  279.750   14.261    0.350    0.462   66.366
  280.000   13.755    0.342    0.468   65.162
  280.250   13.768    0.339    0.468   64.567
  280.500   13.778    0.340    0.467   69.443
  280.750   14.060    0.341    0.465   71.271
  281.000   14.335    0.340    0.474   67.640
  281.250   14.627    0.340    0.488   63.404
  281.500   14.637    0.342    0.476   60.986
  281.750   14.926    0.342    0.460   59.781
  282.000   14.941    0.341    0.437   62.222
  282.250   14.966    0.341    0.430   67.702
  282.500   14.979    0.348    0.474   69.535
  282.750   14.992    0.354    0.482   65.906
  283.000   15.002    0.359    0.489   64.705
  283.250   15.026    0.360    0.492   63.499
  283.500   15.041    0.353    0.490   65.335
  283.750   15.057    0.348    0.479   67.167
  284.000   13.714    0.341    0.476   65.965
  284.250   13.989    0.332    0.490   67.191
  284.500   13.742    0.328    0.487   70.850
  284.750   13.754    0.328    0.476   67.218
  285.000   13.264    0.329    0.465   66.015
  285.250   13.028    0.329    0.454   66.635
  285.500   11.872    0.323    0.443   69.074
  285.750    9.487    0.302    0.462   76.379
  286.000    7.581    0.280    0.495   81.249
  286.250    6.059    0.253    0.514   86.116
  286.500    5.220    0.239    0.522   94.633
  286.750    4.846    0.233    0.519   95.862
  287.000    4.022    0.239    0.528   94.657
  287.250    3.465    0.250    0.546   98.316
  287.500    3.157    0.255    0.566  101.361
  287.750    2.878    0.254    0.572  105.628
  288.000    2.774    0.249    0.550  105.637
  288.250    2.674    0.244    0.531  103.828
  288.500    2.579    0.239    0.540  104.447
  288.750    2.581    0.231    0.556  106.283
  289.000    2.583    0.226    0.555  109.333
  289.250    2.737    0.219    0.543  110.559
  289.500    2.790    0.231    0.539  112.391
  289.750    2.847    0.240    0.536  111.188
  290.000    2.959    0.247    0.559   99.662
  290.250    3.018    0.251    0.575   96.637
  290.500    3.256    0.255    0.567   93.617
  290.750    3.648    0.249    0.561   91.807
  291.000    4.087    0.243    0.553   89.995
  291.250    4.493    0.233    0.536   87.577
  291.500    5.327    0.245    0.482   85.767
  291.750    5.857    0.249    0.474   84.569
  292.000    6.085    0.252    0.480   84.581
  292.250    6.208    0.252    0.472   85.196
  292.500    6.334    0.261    0.471   91.281
  292.750    6.460    0.270    0.488   84.007
  293.000    6.712    0.280    0.505   78.552
  293.250    7.106    0.292    0.512   75.528
  293.500    7.813    0.276    0.493   76.147
  293.750    8.432    0.268    0.477   75.556
  294.000    8.764    0.284    0.490   76.172
  294.250    8.937    0.299    0.489   77.401
  294.500    8.946    0.295    0.474   78.020
  294.750    8.959    0.286    0.472   79.247
  295.000    8.967    0.282    0.468   74.399
  295.250    9.317    0.284    0.476   76.235
