~VERSION INFORMATION
 VERS.                 2.0:   CWLS LOG ASCII STANDARD -VERSION 2.0
 WRAP.                  NO:   ONE LINE PER DEPTH STEP
~WELL INFORMATION BLOCK
#MNEM.UNIT           DATA                    DESCRIPTION OF MNEMONIC
#---------    -------------------            -------------------------------
# Generated from Intellog Unique Number	CS_67_68/WELL/699
WELL.         ESSO RESOURCES CANADA          : Well_name    - WELL
LOC .         00/06-26-068-07W4/0            : Location     - LOCATION
UWI .         00/06-26-068-07W4/0            : Uwi          - UNIQUE WELL ID
ENTR.         SP                             : Entered      - ENTERED BY
SRVC.         SCHLUMBERGER                   : Scn          - SERVICE COMPANY
STRT.M        290                            : top_depth    - START DEPTH
STOP.M        515                            : bot_depth    - STOP DEPTH
STEP.M        0.25                           : increment    - STEP LENGTH
 NULL. -999.2500:NULL Value
~CURVE INFORMATION BLOCK
#MNEM UNIT       ERCB CURVE CODE    CURVE DESCRIPTION
#-----------   ------------------   ----------------------------------
DEPT.M        00 001 00 00         : DEPTH        - DEPTH
ILD .OHMM     00 120 00 00         : RESD         - DEEP RESISTIVITY (DIL)
DPHI.V/V      00 890 00 00         : PHID         - DENSITY POROSITY (LIMESTONE)
NPHI.V/V      00 330 00 00         : PHIN         - NEUTRON POROSITY (LIMESTONE)
GR  .API      00 310 00 00         : GR           - GAMMA RAY
~PARAMETER INFORMATION
#MNEM.UNIT           DATA             DESCRIPTION OF MNEMONIC
#---------         -----------     ------------------------------
GL  .M        632.88               : gl           - GROUND LEVEL ELEVATION
EREF.M        636.48               : kb           - ELEVATION OF DEPTH REFERENCE
DATM.M        632.88               : datum        - DATUM ELEVATION
TDD .M        526                  : tdd          - TOTAL DEPTH DRILLER
RUN .         ONE                  : Run          - RUN NUMBER
ENG .         BILL                 : Engineer     - RECORDING ENGINEER
WIT .         JIM                  : Witness      - WITNESSED BY
MUD .         GEL                  : Mud_type     - MUD TYPE
MATR.         LIMESTONE            : Logunit      - NEUTRON MATRIX
TMAX.C        26                   : BHT          - MAXIMUM RECORDED TEMPERATURE
BHTD.M        526                  : BHTDEP       - MAXIMUM RECORDED TEMPERATURE
MATR.         1                    : LOGUNIT      - NEUTRON MATRIX
RMT .C        25                   : MDTP         - TEMPERATURE OF MUD
NEUT.         1                    : NEUTRON      - NEUTRON TYPE
RESI.         0                    : RESIST       - RESISTIVITY TYPE
RMC .OHMM     0.25                 : RMC          - RESISTIVITY OF MUD CAKE
RMF .OHMM     0.25                 : RMF          - RESISTIVITY OF MUD FILTRATE
SUFT.C        15                   : SUFT         - SURFACE TEMPERATURE
~A  DEPTH     RESD     PHID     PHIN       GR
# ...
  420.500    2.993    0.275    0.405   98.238
  420.750    2.956    0.272    0.401   97.373
  421.000    2.948    0.278    0.414   99.140
  421.250    2.968    0.281    0.414  100.234
  421.500    3.004    0.278    0.409  102.429
  421.750    3.024    0.275    0.406  100.218
  422.000    3.063    0.277    0.426   96.661
  422.250    3.089    0.284    0.439  103.507
  422.500    3.103    0.297    0.423  106.008
  422.750    3.123    0.311    0.410  102.267
  423.000    3.161    0.322    0.400   98.220
  423.250    3.218    0.313    0.401   95.091
  423.500    3.302    0.305    0.389   93.246
  423.750    3.386    0.302    0.372   92.137
  424.000    3.546    0.302    0.353   92.742
  424.250    4.118    0.304    0.352   99.404
  424.500    4.587    0.314    0.381  102.578
  424.750    5.101    0.299    0.398   97.307
  425.000    5.362    0.287    0.386   90.383
  425.250    5.573    0.298    0.368   85.296
  425.500    5.578    0.296    0.355   84.432
  425.750    5.448    0.286    0.356   79.589
  426.000    5.403    0.292    0.366   76.214
  426.250    5.420    0.310    0.368   75.228
  426.500    5.466    0.304    0.377   80.971
  426.750    5.575    0.295    0.393   84.146
  427.000    5.687    0.289    0.407   85.853
  427.250    5.733    0.287    0.419   84.192
  427.500    5.883    0.289    0.432   85.530
  427.750    6.024    0.293    0.438   87.543
  428.000    6.155    0.309    0.415   89.553
  428.250    6.288    0.314    0.387   91.076
  428.500    6.474    0.290    0.369   91.190
  428.750    6.614    0.266    0.387   89.959
  429.000    6.746    0.270    0.398   86.463
  429.250    6.817    0.300    0.405   84.496
  429.500    6.786    0.314    0.414   79.898
  429.750    6.728    0.275    0.470   75.606
  430.000    6.722    0.242    0.522   73.273
  430.250    6.934    0.210    0.501   79.262
  430.500    7.399    0.271    0.361   83.783
  430.750    7.969    0.284    0.367   87.080
  431.000    8.535    0.014    0.315   86.644
  431.250    8.904   -0.002    0.223   71.948
  431.500    8.730   -0.005    0.206   55.722
  431.750    8.275    0.071    0.317   56.081
  432.000    8.007    0.201    0.426   64.457
  432.250    7.910    0.227    0.468   69.406
  432.500    7.876    0.262    0.454   73.866
  432.750    7.928    0.291    0.415   75.572
  433.000    8.055    0.294    0.396   76.665
  433.250    8.260    0.290    0.411   77.943
  433.500    8.603    0.291    0.423   79.343
  433.750    8.790    0.296    0.405   79.945
  434.000    8.948    0.301    0.382   78.960
  434.250    9.406    0.307    0.417   72.097
  434.500   10.055    0.312    0.408   68.478
  434.750   10.708    0.068    0.373   67.246
  435.000   11.256    0.043    0.351   62.955
  435.250   11.502    0.215    0.330   50.279
  435.500   11.471    0.271    0.293   56.268
  435.750   10.852    0.292    0.454   65.929
  436.000    9.670    0.304    0.427   72.469
  436.250    9.095    0.296    0.381   75.094
  436.500    8.493    0.287    0.355   79.982
  436.750    7.975    0.280    0.384   85.237
  437.000    7.644    0.275    0.409   89.513
  437.250    7.180    0.274    0.390   91.892
  437.500    6.959    0.300    0.372   87.967
  437.750    6.622    0.302    0.353   92.549
  438.000    6.300    0.307    0.369   92.357
  438.250    6.074    0.285    0.353   88.983
  438.500    5.866    0.273    0.349   85.793
  438.750    5.539    0.251    0.348   81.624
  439.000    5.029    0.212    0.339   77.637
  439.250    4.506    0.227    0.382   75.243
  439.500    4.021    0.292    0.406   76.031
  439.750    3.470    0.314    0.426   77.369
  440.000    2.994    0.324    0.421   79.136
  440.250    2.754    0.323    0.416   83.228
  440.500    2.543    0.326    0.399   79.119
  440.750    2.442    0.335    0.384   78.255
  441.000    2.399    0.341    0.373   79.410
  441.250    2.401    0.344    0.380   80.259
  441.500    2.422    0.339    0.374   80.374
  441.750    2.452    0.330    0.395   82.691
  442.000    2.482    0.322    0.405   79.990
  442.250    2.531    0.318    0.383   83.408
  442.500    2.616    0.320    0.361   87.746
  442.750    2.709    0.321    0.400   90.309
  443.000    2.799    0.314    0.435   86.936
  443.250    2.899    0.316    0.445   82.276
  443.500    2.979    0.320    0.423   83.125
  443.750    3.056    0.298    0.404   85.993
  444.000    3.129    0.288    0.403   89.901
  444.250    3.192    0.284    0.388   92.159
  444.500    3.243    0.281    0.340   94.293
  444.750    3.276    0.282    0.344   96.916
  445.000    3.341    0.255    0.366   96.602
  445.250    3.408    0.219    0.384   92.311
  445.500    3.502    0.205    0.391   91.140
  445.750    3.592    0.243    0.398   88.011
  446.000    3.684    0.262    0.435   90.757
  446.250    3.801    0.268    0.413   90.626
  446.500    3.891    0.269    0.388   86.947
  446.750    4.067    0.267    0.368   89.386
  447.000    4.282    0.264    0.360   91.826
  447.250    4.691    0.261    0.390   91.268
  447.500    5.217    0.268    0.404   87.160
  447.750    5.556    0.276    0.414   88.681
  448.000    5.874    0.227    0.411   85.735
  448.250    6.058    0.120    0.388   83.341
  448.500    6.190    0.121    0.371   85.659
  448.750    6.279    0.166    0.358   90.608
  449.000    6.273    0.213    0.348   95.801
  449.250    6.222    0.241    0.342   98.793
  449.500    6.145    0.245    0.356  100.192
  449.750    6.014    0.240    0.350  100.858
  450.000    5.841    0.237    0.341  100.972
  450.250    5.559    0.234    0.347  100.352
  450.500    5.309    0.235    0.375  100.345
  450.750    5.070    0.242    0.397   97.888
  451.000    4.887    0.249    0.399   91.271
  451.250    4.782    0.250    0.384   93.099
  451.500    4.724    0.255    0.385   97.068
  451.750    4.747    0.260    0.393  101.039
  452.000    4.906    0.254    0.393  100.297
  452.250    5.344    0.249    0.371   88.660
  452.500    6.829    0.270    0.370   76.964
  452.750    8.777    0.028    0.355   67.103
  453.000   10.863    0.005    0.234   60.363
  453.250   12.450   -0.011    0.211   53.072
  453.500   13.767    0.021    0.251   55.451
  453.750   14.829    0.072    0.333   63.399
  454.000   14.734    0.159    0.397   63.881
  454.250   14.176    0.301    0.447   64.424
  454.500   13.537    0.314    0.392   68.149
  454.750   13.001    0.329    0.368   75.178
  455.000   12.373    0.312    0.380   81.290
  455.250   11.816    0.300    0.403   85.505
  455.500   11.262    0.295    0.399   83.172
  455.750   10.537    0.302    0.389   80.777
  456.000   10.024    0.305    0.374   83.277
  456.250    9.501    0.300    0.360   86.757
  456.500    9.006    0.292    0.370   90.666
  456.750    8.666    0.287    0.391   93.230
  457.000    8.434    0.291    0.375   95.180
  457.250    8.240    0.292    0.363   96.029
  457.500    8.184    0.282    0.358   95.654
  457.750    8.056    0.268    0.362   92.525
  458.000    8.048    0.258    0.353  100.229
  458.250    8.116    0.250    0.347  112.827
  458.500    8.262    0.247    0.347  111.595
  458.750    8.603    0.246    0.362  100.326
  459.000    8.960    0.249    0.377   93.403
  459.250    9.261    0.253    0.366   83.969
  459.500    9.680    0.256    0.355   79.556
  459.750   10.270    0.248    0.363   74.530
  460.000   10.996    0.267    0.369   65.832
  460.250   12.092    0.299    0.375   58.970
  460.500   13.096    0.308    0.380   55.473
  460.750   14.106    0.307    0.384   58.892
  461.000   15.280    0.311    0.370   62.801
  461.250   16.459    0.318    0.367   64.445
  461.500   16.818    0.322    0.354   65.600
  461.750   14.870    0.280    0.342   74.833
  462.000   11.768    0.264    0.325   82.597
  462.250    9.707    0.247    0.311   88.710
  462.500    9.012    0.221    0.304   97.208
  462.750    8.787    0.207    0.321  101.302
  463.000    9.151    0.231    0.351   92.175
  463.250    9.404    0.122    0.378   80.110
  463.500    9.412    0.109    0.368   70.311
  463.750    9.006    0.174    0.357   62.653
