~VERSION INFORMATION
 VERS.                 2.0:   CWLS LOG ASCII STANDARD -VERSION 2.0
 WRAP.                  NO:   ONE LINE PER DEPTH STEP
~WELL INFORMATION BLOCK
#MNEM.UNIT           DATA                    DESCRIPTION OF MNEMONIC
#---------    -------------------            -------------------------------
# Generated from Intellog Unique Number	CW_70_72/WELL/693
NULL.         -999.25                        : NULL_VALUE
WELL.         AMOCO MIAMI B-1 SPURFIELD 06-2 : Well_name    - WELL              
LOC .         06-22-071-02W5                 : Location     - LOCATION          
UWI .         00/06-22-071-02W5/0            : Uwi          - UNIQUE WELL ID    
ENTR.         JAYE                           : Entered      - ENTERED BY        
SRVC.         SCHLUMBERGER                   : Scn          - SERVICE COMPANY   
DATE.         12 MAR 75                      : Date         - LOG DATE          
STRT.M        365.76                         : top_depth    - START DEPTH       
STOP.M        615.76                         : bot_depth    - STOP DEPTH        
STEP.M        0.25                           : increment    - STEP LENGTH       
~CURVE INFORMATION BLOCK
#MNEM UNIT       ERCB CURVE CODE    CURVE DESCRIPTION
#-----------   ------------------   ----------------------------------
DEPT.M        00 001 00 00         : DEPTH        - DEPTH                       
DPHI.V/V      00 890 00 00         : PHID         - DENSITY POROSITY (SANDSTONE)
NPHI.V/V      00 330 00 00         : PHIN         - NEUTRON POROSITY (SANDSTONE)
GR  .API      00 310 00 00         : GR           - GAMMA RAY                   
CALI.MM       00 280 01 00         : CAL          - CALIPER                     
ILD .OHMM     00 120 00 00         : RESD         - DEEP RESISTIVITY (DIL)      
~PARAMETER INFORMATION       
#MNEM.UNIT           DATA             DESCRIPTION OF MNEMONIC
#---------         -----------     ------------------------------
GL  .M        584.911              : gl           - GROUND LEVEL ELEVATION      
EREF.M        589.026              : kb           - ELEVATION OF DEPTH REFERENCE
DATM.M        584.911              : datum        - DATUM ELEVATION             
TDD .M        614.172              : tdd          - TOTAL DEPTH DRILLER         
RUN .         ONE                  : Run          - RUN NUMBER                  
ENG .         JENSEN               : Engineer     - RECORDING ENGINEER          
WIT .         GIBSON               : Witness      - WITNESSED BY                
BASE.         R.D.                 : Branch       - HOME BASE OF LOGGING UNIT   
MATR.         SANDSTONE            : Logunit      - NEUTRON MATRIX              
TMAX.C        32.2222              : BHT          - MAXIMUM RECORDED TEMPERATURE
BHTD.M        613.867              : BHTDEP       - MAXIMUM RECORDED TEMPERATURE
RMT .C        23.3333              : MDTP         - TEMPERATURE OF MUD          
MUDD.KG/M     0                    : MWT          - MUD DENSITY                 
NEUT.         1                    : NEUTRON      - NEUTRON TYPE                
RESI.         0                    : RESIST       - RESISTIVITY TYPE            
RM  .OHMM     2                    : RM           - RESISTIVITY OF MUD          
RMC .OHMM     0                    : RMC          - RESISTIVITY OF MUD CAKE     
RMF .OHMM     1.95                 : RMF          - RESISTIVITY OF MUD FILTRATE 
SUFT.C        -17.7778             : SUFT         - SURFACE TEMPERATURE         
~A  DEPTH     PHID     PHIN       GR      CAL     RESD
# ...
  548.260    0.223    0.435   56.937  205.989    4.966
  548.510    0.239    0.442   57.738  211.191    4.356
  548.760    0.243    0.446   57.883  213.114    3.994
  549.010    0.244    0.442   58.975  213.512    3.460
  549.260    0.240    0.431   59.026  211.632    3.271
  549.510    0.246    0.428   58.466  209.132    3.161
  549.760    0.256    0.439   58.272  211.288    3.078
  550.010    0.253    0.455   59.119  205.165    3.058
  550.260    0.266    0.446   61.063  192.004    3.056
  550.510    0.277    0.452   62.705  203.890    3.053
  550.760    0.291    0.448   64.469  203.976    3.073
  551.010    0.294    0.427   68.064  185.433    3.128
  551.260    0.287    0.416   70.623  175.375    3.131
  551.510    0.301    0.419   68.596  167.804    3.105
  551.760    0.282    0.417   66.751  161.370    3.057
  552.010    0.261    0.420   65.517  168.598    2.976
  552.260    0.266    0.430   64.775  191.561    2.952
  552.510    0.289    0.431   64.033  207.689    2.977
  552.760    0.284    0.426   62.923  213.780    3.109
  553.010    0.276    0.437   59.796  214.280    3.290
  553.260    0.291    0.454   58.991  210.849    3.461
  553.510    0.266    0.453   62.160  209.072    3.936
  553.760    0.197    0.424   61.416  215.266    4.402
  554.010    0.177    0.394   58.962  220.217    4.914
  554.260    0.157    0.381   55.041  221.132    5.725
  554.510    0.148    0.363   51.852  221.013    6.546
  554.760    0.156    0.362   48.724  221.100    7.824
  555.010    0.161    0.361   48.042  221.186    8.913
  555.260    0.153    0.355   49.744  220.860    9.841
  555.510    0.158    0.354   51.263  220.635   10.316
  555.760    0.144    0.354   52.230  220.930   10.119
  556.010    0.153    0.353   52.526  220.602    9.304
  556.260    0.164    0.355   53.922  220.275    8.048
  556.510    0.172    0.362   56.053  221.294    7.318
  556.760    0.178    0.377   55.798  221.691    7.178
  557.010    0.161    0.332   53.953  221.468    7.185
  557.260    0.107    0.275   52.293  221.452    7.035
  557.510    0.035    0.262   52.162  222.364    6.626
  557.760    0.046    0.275   53.434  224.211    6.170
  558.010    0.092    0.348   55.809  225.748    5.437
  558.260    0.174    0.377   60.263  224.696    4.817
  558.510    0.244    0.394   65.264  223.438    4.268
  558.760    0.245    0.408   67.394  222.698    3.782
  559.010    0.242    0.434   68.302  222.161    3.555
  559.260    0.249    0.450   68.231  222.353    3.513
  559.510    0.240    0.444   66.754  222.438    3.523
  559.760    0.240    0.425   66.989  222.631    3.633
  560.010    0.236    0.411   68.995  222.819    3.724
  560.260    0.231    0.404   70.147  223.111    3.763
  560.510    0.217    0.407   68.670  223.404    3.774
  560.760    0.203    0.417   67.193  223.907    3.806
  561.010    0.224    0.405   65.472  224.510    3.874
  561.260    0.217    0.397   65.644  224.912    3.964
  561.510    0.208    0.403   63.864  224.894    4.042
  561.760    0.221    0.404   61.164  224.877    4.129
  562.010    0.223    0.395   60.114  223.723    4.187
  562.260    0.213    0.389   60.104  219.463    4.215
  562.510    0.216    0.390   61.073  223.895    4.204
  562.760    0.214    0.400   63.570  223.980    4.169
  563.010    0.225    0.426   65.882  223.759    4.089
  563.260    0.210    0.414   67.096  223.846    4.041
  563.510    0.201    0.418   67.269  224.141    4.045
  563.760    0.209    0.420   66.404  224.433    4.056
  564.010    0.219    0.408   65.966  224.520    4.084
  564.260    0.212    0.395   66.079  224.605    4.095
  564.510    0.195    0.383   66.252  224.282    4.122
  564.760    0.182    0.395   64.042  224.162    4.234
  565.010    0.176    0.382   64.092  223.625    4.414
  565.260    0.183    0.372   65.733  223.610    4.864
  565.510    0.185    0.374   65.112  224.419    5.242
  565.760    0.152    0.371   62.840  224.199    6.232
  566.010    0.127    0.341   61.302  222.524    8.231
  566.260    0.075    0.319   59.460  220.853    9.986
  566.510    0.082    0.287   54.315  221.559   10.943
  566.760    0.058    0.281   48.255  222.993   10.193
  567.010    0.037    0.283   49.038  224.321    8.784
  567.260    0.062    0.288   53.430  225.133    7.349
  567.510    0.081    0.299   58.554  225.739    6.440
  567.760    0.095    0.348   66.858  225.927    5.825
  568.010    0.151    0.380   69.110  226.325    5.395
  568.260    0.139    0.357   65.981  226.826    5.090
  568.510    0.130    0.355   64.444  227.741    5.076
  568.760    0.166    0.372   67.247  229.380    5.243
  569.010    0.180    0.382   69.254  230.090    5.486
  569.260    0.164    0.377   69.916  231.004    5.891
  569.510    0.121    0.351   71.251  231.299    6.492
  569.760    0.100    0.328   72.097  231.692    6.972
  570.010    0.114    0.310   72.942  231.678    7.188
  570.260    0.089    0.306   73.299  231.351    7.142
  570.510    0.098    0.314   75.980  230.507    6.981
  570.760    0.113    0.347   81.532  228.731    7.065
  571.010    0.113    0.366   85.863  225.714    7.434
  571.260    0.100    0.356   81.451  223.315    7.968
  571.510    0.050    0.327   70.746  222.470    8.277
  571.760    0.031    0.337   63.277  222.349    8.193
  572.010    0.056    0.354   69.136  223.055    7.561
  572.260    0.079    0.363   78.601  224.491    6.900
  572.510    0.114    0.375   82.870  226.649    6.274
  572.760    0.115    0.380   82.370  229.116    5.822
  573.010    0.118    0.384   76.309  230.446    5.515
  573.260    0.094    0.393   74.528  231.050    5.478
  573.510    0.098    0.400   78.490  230.721    5.463
  573.760    0.105    0.406   80.009  230.395    5.460
  574.010    0.110    0.411   78.594  229.756    5.496
  574.260    0.118    0.408   76.505  229.534    5.574
  574.510    0.118    0.401   75.639  229.514    5.726
  574.760    0.103    0.393   78.380  229.601    5.860
  575.010    0.104    0.385   81.243  229.273    5.975
  575.260    0.086    0.378   81.293  229.260    6.058
  575.510    0.090    0.369   82.752  229.037    6.143
  575.760    0.107    0.362   85.676  229.019    6.205
  576.010    0.112    0.355   86.582  228.793    6.259
  576.260    0.121    0.353   84.188  228.984    6.276
  576.510    0.111    0.363   82.039  228.969    6.340
  576.760    0.118    0.386   80.991  229.471    6.647
  577.010    0.090    0.396   80.248  229.766    7.059
  577.260    0.073    0.371   80.544  229.749    7.456
  577.510    0.063    0.355   80.840  229.418    7.688
  577.760    0.054    0.325   78.263  229.091    7.738
  578.010    0.044    0.309   76.358  228.865    7.689
  578.260    0.070    0.331   78.427  228.855    7.541
  578.510    0.093    0.345   81.473  228.631    7.343
  578.760    0.079    0.327   81.830  228.511    7.255
  579.010    0.094    0.327   82.674  228.491    7.276
  579.260    0.102    0.333   83.704  228.784    7.515
  579.510    0.108    0.308   84.796  228.978    7.968
  579.760    0.065    0.289   84.786  229.374    8.244
  580.010    0.057    0.282   87.709  229.358    8.422
  580.260    0.051    0.291   91.367  229.240    8.462
  580.510    0.041    0.296   95.758  228.908    8.410
  580.760    0.059    0.298   96.726  228.892    8.355
  581.010    0.071    0.320   89.809  229.084    8.271
  581.260    0.065    0.337   85.094  229.174    8.143
  581.510    0.042    0.326   82.027  229.257    7.928
  581.760    0.024    0.322   85.563  229.450    7.331
  582.010    0.046    0.332   91.544  229.638    6.916
  582.260    0.088    0.343   97.219  229.520    6.441
  582.510    0.116    0.359  101.365  228.883    5.469
  582.760    0.126    0.375  102.333  228.246    4.394
  583.010    0.125    0.391   98.594  227.709    3.466
  583.260    0.141    0.410   95.162  228.004    2.779
  583.510    0.134    0.505   97.841  230.059    2.291
  583.760    0.174    0.537   96.731  234.700    1.989
  584.010    0.217    0.526   94.644  239.029    2.032
  584.260    0.198    0.517   93.106  239.739    2.186
  584.510    0.183    0.501   90.529  237.134    2.432
