~VERSION INFORMATION
 VERS.                 2.0:   CWLS LOG ASCII STANDARD -VERSION 2.0
 WRAP.                  NO:   ONE LINE PER DEPTH STEP
~WELL INFORMATION BLOCK
#MNEM.UNIT           DATA                    DESCRIPTION OF MNEMONIC
#---------    -------------------            -------------------------------
# Generated from Intellog Unique Number	CW_70_72/WELL/3002
NULL.         -999.25                        : NULL_VALUE
WELL.         CDN-SUP MI5TSUE 04-03          : Well_name    - WELL              
LOC .         04-03-070-03W5                 : Location     - LOCATION          
UWI .         00/04-03-070-03W5/0            : Uwi          - UNIQUE WELL ID    
ENTR.         JAYE                           : Entered      - ENTERED BY        
SRVC.         SCHLUMBERGER                   : Scn          - SERVICE COMPANY   
DATE.         8 SEPT 80                      : Date         - LOG DATE          
STRT.M        495                            : top_depth    - START DEPTH       
STOP.M        705                            : bot_depth    - STOP DEPTH        
STEP.M        0.25                           : increment    - STEP LENGTH       
~CURVE INFORMATION BLOCK
#MNEM UNIT       ERCB CURVE CODE    CURVE DESCRIPTION
#-----------   ------------------   ----------------------------------
DEPT.M        00 001 00 00         : DEPTH        - DEPTH                       
ILD .OHMM     00 120 00 00         : RESD         - DEEP RESISTIVITY (DIL)      
CALI.MM       00 280 01 00         : CAL          - CALIPER                     
GR  .API      00 310 00 00         : GR           - GAMMA RAY                   
NPHI.V/V      00 330 00 00         : PHIN         - NEUTRON POROSITY (SANDSTONE)
DPHI.V/V      00 890 00 00         : PHID         - DENSITY POROSITY (SANDSTONE)
~PARAMETER INFORMATION       
#MNEM.UNIT           DATA             DESCRIPTION OF MNEMONIC
#---------         -----------     ------------------------------
GL  .M        614                  : gl           - GROUND LEVEL ELEVATION      
EREF.M        621                  : kb           - ELEVATION OF DEPTH REFERENCE
DATM.M        614                  : datum        - DATUM ELEVATION             
TDD .M        1710.5               : tdd          - TOTAL DEPTH DRILLER         
RUN .         ONE                  : Run          - RUN NUMBER                  
ENG .         IRELAND              : Engineer     - RECORDING ENGINEER          
WIT .         KELLY                : Witness      - WITNESSED BY                
BASE.         EDMONTON             : Branch       - HOME BASE OF LOGGING UNIT   
MUD .         GEL BENEX            : Mud_type     - MUD TYPE                    
MATR.         SANDSTONE            : Logunit      - NEUTRON MATRIX              
TMAX.C        44                   : BHT          - MAXIMUM RECORDED TEMPERATURE
BHTD.M        1708.5               : BHTDEP       - MAXIMUM RECORDED TEMPERATURE
RMT .C        17.8                 : MDTP         - TEMPERATURE OF MUD          
MUDD.KG/M     1110                 : MWT          - MUD DENSITY                 
NEUT.         1                    : NEUTRON      - NEUTRON TYPE                
RESI.         0                    : RESIST       - RESISTIVITY TYPE            
RM  .OHMM     1.9                  : RM           - RESISTIVITY OF MUD          
RMC .OHMM     0.25                 : RMC          - RESISTIVITY OF MUD CAKE     
RMF .OHMM     0.99                 : RMF          - RESISTIVITY OF MUD FILTRATE 
SUFT.C        0                    : SUFT         - SURFACE TEMPERATURE         
~A  DEPTH     RESD      CAL       GR     PHIN     PHID
# ...
  531.500    3.019  206.985   57.258    0.433    0.284
  531.750    3.200  207.391   57.193    0.424    0.276
  532.000    3.250  207.591   58.914    0.412    0.268
  532.250    3.205  208.715   62.606    0.410    0.246
  532.500    3.232  207.991   66.728    0.426    0.232
  532.750    3.264  205.010   63.954    0.449    0.264
  533.000    3.285  213.524   61.673    0.430    0.275
  533.250    3.287  219.984   64.749    0.406    0.239
  533.500    3.254  224.802   69.118    0.426    0.239
  533.750    3.143  232.289   70.408    0.479    0.251
  534.000    2.900  223.047   65.848    0.523    0.282
  534.250    2.735  216.269   56.424    0.471    0.250
  534.500    2.627  209.183   50.448    0.427    0.264
  534.750    2.625  206.509   47.982    0.396    0.288
  535.000    2.751  205.991   47.609    0.388    0.291
  535.250    2.900  205.678   48.407    0.401    0.281
  535.500    3.063  205.469   52.099    0.398    0.277
  535.750    3.122  206.284   54.805    0.384    0.278
  536.000    3.022  207.511   54.618    0.394    0.290
  536.250    2.851  208.840   54.367    0.382    0.292
  536.500    2.764  208.527   54.673    0.374    0.280
  536.750    2.676  208.316   55.655    0.392    0.286
  537.000    2.624  208.414   56.206    0.407    0.298
  537.250    2.549  209.026   55.896    0.416    0.297
  537.500    2.537  209.225   53.922    0.423    0.244
  537.750    2.620  209.118   47.577    0.384    0.121
  538.000    2.772  208.496   44.064    0.211    0.096
  538.250    3.004  208.082   42.891    0.199    0.100
  538.500    3.367  206.538   43.873    0.319    0.174
  538.750    3.635  203.145   45.964    0.366    0.250
  539.000    3.948  201.293   48.547    0.388    0.282
  539.250    4.130  200.157   50.083    0.362    0.263
  539.500    4.126  199.744   51.127    0.372    0.267
  539.750    3.856  199.431   53.956    0.392    0.284
  540.000    3.590  199.425   55.616    0.410    0.293
  540.250    3.386  199.728   54.443    0.420    0.302
  540.500    3.188  200.544   53.516    0.411    0.307
  540.750    3.108  201.566   53.760    0.405    0.298
  541.000    3.031  203.716   56.097    0.410    0.282
  541.250    2.972  205.661   59.727    0.429    0.278
  541.500    2.936  206.883   60.278    0.438    0.282
  541.750    2.917  206.778   57.750    0.434    0.285
  542.000    2.908  206.057   56.947    0.415    0.280
  542.250    2.906  206.769   58.606    0.406    0.276
  542.500    2.908  206.970   56.818    0.423    0.274
  542.750    2.926  207.068   52.751    0.438    0.284
  543.000    2.950  206.345   50.962    0.417    0.296
  543.250    2.991  206.750   51.082    0.382    0.295
  543.500    2.999  208.079   52.618    0.389    0.263
  543.750    3.035  209.613   57.480    0.402    0.242
  544.000    3.060  210.122   62.033    0.426    0.257
  544.250    3.080  210.219   59.999    0.429    0.275
  544.500    3.076  209.598   63.752    0.411    0.258
  544.750    3.005  209.182   65.965    0.417    0.248
  545.000    2.898  209.177   64.423    0.440    0.274
  545.250    2.816  208.864   64.358    0.441    0.286
  545.500    2.839  209.064   63.862    0.421    0.284
  545.750    2.889  209.366   62.382    0.407    0.278
  546.000    2.934  209.670   61.024    0.428    0.267
  546.250    2.980  210.179   62.930    0.440    0.264
  546.500    3.033  212.637   62.743    0.424    0.288
  546.750    3.075  214.890   62.000    0.443    0.345
  547.000    3.066  219.298   64.091    0.483    0.400
  547.250    3.029  232.427   66.182    0.527    0.365
  547.500    2.954  252.847   66.918    0.494    0.357
  547.750    2.864  306.515   67.530    0.529    0.413
  548.000    2.737  281.367   69.313    0.580    0.421
  548.250    2.624  231.794   71.896    0.583    0.353
  548.500    2.368  220.191   74.972    0.511    0.301
  548.750    2.561  224.292   79.095    0.451    0.226
  549.000    2.755  228.289   81.739    0.440    0.185
  549.250    3.003  228.284   81.428    0.461    0.193
  549.500    3.353  224.482   75.514    0.460    0.130
  549.750    3.701  220.577   62.334    0.361    0.082
  550.000    4.203  222.419   65.225    0.295    0.090
  550.250    4.614  226.724   69.963    0.359    0.131
  550.500    4.991  230.927   72.855    0.411    0.162
  550.750    4.949  235.027   71.681    0.410    0.176
  551.000    4.607  235.740   70.262    0.374    0.195
  551.250    4.065  233.991   69.335    0.401    0.210
  551.500    3.950  230.291   69.148    0.404    0.226
  551.750    3.960  225.771   68.283    0.409    0.249
  552.000    3.926  222.994   67.418    0.416    0.223
  552.250    3.786  221.861   67.907    0.427    0.208
  552.500    3.618  221.445   70.121    0.418    0.222
  552.750    3.542  222.158   72.889    0.393    0.236
  553.000    3.584  224.206   70.977    0.381    0.246
  553.250    3.681  227.383   72.821    0.363    0.230
  553.500    3.838  233.946   77.806    0.361    0.262
  553.750    3.934  265.345   72.815    0.485    0.375
  554.000    4.048  304.645   61.606    0.554    0.498
  554.250    4.051  292.633   62.218    0.603    0.578
  554.500    4.009  279.595   69.974    0.588    0.322
  554.750    3.895  292.931   75.697    0.480    0.294
  555.000    3.812  266.141   77.541    0.498    0.308
  555.250    3.844  236.784   77.969    0.372    0.158
  555.500    4.007  236.471   77.844    0.341    0.149
  555.750    4.287  237.903   78.333    0.330    0.153
  556.000    4.587  240.156   82.025    0.323    0.148
  556.250    4.719  241.074   86.024    0.321    0.131
  556.500    4.749  239.633   88.484    0.320    0.126
  556.750    4.735  236.856   89.281    0.320    0.132
  557.000    4.757  234.594   89.463    0.321    0.145
  557.250    4.823  231.817   89.645    0.324    0.150
  557.500    4.936  229.966   86.255    0.327    0.153
  557.750    4.985  228.318   85.144    0.331    0.150
  558.000    5.016  226.670   87.234    0.322    0.142
  558.250    5.087  226.256   90.372    0.316    0.140
  558.500    5.110  227.277   90.492    0.316    0.146
  558.750    5.160  229.735   91.474    0.322    0.142
  559.000    5.223  233.425   92.888    0.328    0.137
  559.250    5.236  235.679   94.116    0.338    0.148
  559.500    5.241  236.084   94.359    0.358    0.161
  559.750    5.352  234.641   94.171    0.370    0.164
  560.000    5.337  233.610   93.861    0.385    0.162
  560.250    5.352  233.400   92.257    0.404    0.161
  560.500    5.326  234.318   89.852    0.392    0.164
  560.750    5.261  235.956   85.108    0.381    0.172
  561.000    5.207  237.285   80.241    0.373    0.185
  561.250    5.144  238.306   76.728    0.392    0.204
  561.500    5.072  238.198   81.097    0.413    0.211
  561.750    4.983  238.091   83.926    0.424    0.186
  562.000    4.896  237.982   82.814    0.411    0.187
  562.250    4.909  237.979   79.979    0.396    0.204
  562.500    4.840  240.026   74.065    0.385    0.213
  562.750    4.702  240.329   73.877    0.378    0.214
  563.000    4.594  235.500   72.212    0.397    0.211
  563.250    4.496  228.209   68.760    0.388    0.211
  563.500    4.418  226.357   66.171    0.375    0.228
  563.750    4.380  227.480   64.136    0.396    0.244
  564.000    4.320  230.862   62.840    0.414    0.282
  564.250    4.274  233.628   65.054    0.424    0.295
  564.500    4.247  237.830   69.669    0.435    0.261
  564.750    4.203  239.570   73.976    0.444    0.216
  565.000    4.145  239.052   79.761    0.430    0.191
  565.250    4.071  240.177   81.975    0.409    0.195
  565.500    3.985  247.663   82.403    0.426    0.222
  565.750    3.871  252.481   83.262    0.455    0.246
  566.000    3.818  246.934   87.261    0.490    0.221
  566.250    3.807  240.054   88.551    0.507    0.205
  566.500    3.802  238.099   87.933    0.495    0.184
  566.750    3.820  240.658   86.760    0.451    0.217
  567.000    3.823  240.243   85.648    0.465    0.232
  567.250    3.825  238.084   87.000    0.478    0.201
  567.500    3.850  235.000   89.152    0.464    0.172
  567.750    3.860  233.865   91.243    0.469    0.175
