~VERSION INFORMATION
 VERS.                 2.0:   CWLS LOG ASCII STANDARD -VERSION 2.0
 WRAP.                  NO:   ONE LINE PER DEPTH STEP
~WELL INFORMATION BLOCK
#MNEM.UNIT           DATA                    DESCRIPTION OF MNEMONIC
#---------    -------------------            -------------------------------
# Generated from Intellog Unique Number	CS_73_76/WELL/771
WELL.         BOW VALLEY EXPLORATION         : Well_name    - WELL
LOC .         00/07-21-073-16W4/0            : Location     - LOCATION
UWI .         00/07-21-073-16W4/0            : Uwi          - UNIQUE WELL ID
ENTR.         SP                             : Entered      - ENTERED BY
SRVC.         SCHLUMBERGER                   : Scn          - SERVICE COMPANY
STRT.M        235                            : top_depth    - START DEPTH
STOP.M        439.5                          : bot_depth    - STOP DEPTH
STEP.M        0.25                           : increment    - STEP LENGTH
 NULL. -999.2500:NULL Value
~CURVE INFORMATION BLOCK
#MNEM UNIT       ERCB CURVE CODE    CURVE DESCRIPTION
#-----------   ------------------   ----------------------------------
DEPT.M        00 001 00 00         : DEPTH        - DEPTH
ILD .OHMM     00 120 00 00         : RESD         - DEEP RESISTIVITY (DIL)
DPHI.V/V      00 890 00 00         : PHID         - DENSITY POROSITY (LIMESTONE)
NPHI.V/V      00 330 00 00         : PHIN         - NEUTRON POROSITY (LIMESTONE)
GR  .API      00 310 00 00         : GR           - GAMMA RAY
~PARAMETER INFORMATION
#MNEM.UNIT           DATA             DESCRIPTION OF MNEMONIC
#---------         -----------     ------------------------------
GL  .M        570.65               : gl           - GROUND LEVEL ELEVATION
EREF.M        574.2                : kb           - ELEVATION OF DEPTH REFERENCE
DATM.M        570.65               : datum        - DATUM ELEVATION
TDD .M        448                  : tdd          - TOTAL DEPTH DRILLER
RUN .         ONE                  : Run          - RUN NUMBER
ENG .         BILL                 : Engineer     - RECORDING ENGINEER
WIT .         JIM                  : Witness      - WITNESSED BY
MUD .         GEL                  : Mud_type     - MUD TYPE
MATR.         LIMESTONE            : Logunit      - NEUTRON MATRIX
TMAX.C        21                   : BHT          - MAXIMUM RECORDED TEMPERATURE
BHTD.M        448                  : BHTDEP       - MAXIMUM RECORDED TEMPERATURE
MATR.         1                    : LOGUNIT      - NEUTRON MATRIX
RMT .C        25                   : MDTP         - TEMPERATURE OF MUD
NEUT.         1                    : NEUTRON      - NEUTRON TYPE
RESI.         0                    : RESIST       - RESISTIVITY TYPE
RMC .OHMM     0.25                 : RMC          - RESISTIVITY OF MUD CAKE
RMF .OHMM     0.25                 : RMF          - RESISTIVITY OF MUD FILTRATE
SUFT.C        15                   : SUFT         - SURFACE TEMPERATURE
~A  DEPTH     RESD     PHID     PHIN       GR
# ...
  278.500    6.734    0.216    0.425  101.279
  278.750    6.733    0.244    0.432   97.672
  279.000    6.989    0.261    0.440   97.076
  279.250    7.254    0.235    0.422   95.880
  279.500    7.390    0.249    0.418   92.876
  279.750    7.670    0.270    0.421   89.869
  280.000    7.814    0.279    0.410   83.856
  280.250    7.961    0.274    0.396   81.453
  280.500    7.813    0.265    0.389   80.254
  280.750    7.526    0.261    0.402   83.874
  281.000    7.249    0.257    0.415   91.113
  281.250    6.983    0.251    0.417   93.530
  281.500    6.853    0.273    0.413   94.740
  281.750    6.852    0.273    0.424   97.758
  282.000    6.981    0.269    0.438  103.791
  282.250    7.382    0.289    0.443   94.164
  282.500    7.954    0.297    0.449   90.553
  282.750    8.256    0.297    0.458   82.729
  283.000    8.731    0.297    0.441   76.711
  283.250    9.062    0.297    0.405   70.696
  283.500    9.232    0.302    0.397   67.691
  283.750    9.405    0.313    0.388   65.892
  284.000    9.404    0.318    0.378   64.694
  284.250    9.229    0.321    0.368   64.702
  284.500    9.058    0.324    0.380   65.916
  284.750    9.057    0.323    0.386   66.525
  285.000    8.889    0.320    0.388   67.135
  285.250    8.724    0.317    0.375   67.744
  285.500    8.723    0.313    0.378   66.543
  285.750    8.886    0.313    0.379   61.733
  286.000    8.886    0.317    0.368   63.547
  286.250    8.885    0.320    0.363   64.757
  286.500    8.884    0.317    0.369   67.783
  286.750    8.883    0.311    0.372   68.388
  287.000    8.882    0.309    0.373   67.190
  287.250    8.882    0.318    0.379   65.390
  287.500    9.048    0.322    0.394   63.591
  287.750    9.047    0.323    0.386   62.394
  288.000    9.047    0.328    0.380   63.606
  288.250    9.045    0.328    0.375   64.817
  288.500    9.045    0.328    0.374   67.239
  288.750    9.044    0.325    0.381   67.847
  289.000    9.043    0.319    0.384   65.445
  289.250    9.042    0.315    0.386   63.040
  289.500    9.041    0.320    0.382   60.036
  289.750    9.040    0.325    0.371   60.044
  290.000    9.040    0.323    0.368   60.049
  290.250    9.039    0.315    0.375   60.057
  290.500    9.038    0.312    0.386   60.065
  290.750    8.870    0.323    0.380   60.072
  291.000    8.869    0.335    0.365   59.476
  291.250    8.869    0.340    0.363   59.487
  291.500    8.867    0.346    0.369   60.093
  291.750    8.867    0.346    0.374   61.309
  292.000    8.866    0.342    0.384   63.725
  292.250    8.865    0.338    0.386   64.332
  292.500    8.701    0.337    0.401   64.942
  292.750    8.700    0.335    0.404   62.540
  293.000    8.699    0.344    0.405   60.741
  293.250    8.537    0.344    0.398   60.145
  293.500    8.537    0.330    0.383   60.153
  293.750    8.536    0.322    0.379   60.762
  294.000    8.535    0.315    0.370   62.576
  294.250    8.534    0.313    0.364   64.993
  294.500    8.533    0.318    0.375   66.205
  294.750    8.533    0.325    0.379   66.213
  295.000    8.532    0.332    0.382   66.828
  295.250    8.531    0.337    0.385   67.437
  295.500    8.530    0.337    0.388   68.046
  295.750    8.690    0.332    0.385   68.657
  296.000    8.689    0.330    0.380   69.266
  296.250    8.689    0.326    0.376   69.873
  296.500    8.688    0.325    0.374   70.481
  296.750    8.851    0.330    0.372   68.080
  297.000    8.850    0.332    0.376   70.496
  297.250    8.850    0.327    0.377   72.915
  297.500    8.849    0.325    0.369   70.513
  297.750    9.014    0.319    0.360   69.915
  298.000    9.183    0.317    0.367   72.937
  298.250    9.532    0.323    0.376   76.556
  298.500    9.711    0.327    0.375   81.989
  298.750   10.079    0.336    0.383   83.800
  299.000   10.268    0.333    0.393   87.422
  299.250   10.461    0.326    0.400   87.428
  299.500   10.858    0.336    0.394   80.211
  299.750   11.270    0.342    0.403   77.808
  300.000   11.698    0.345    0.407   76.006
  300.250   12.141    0.355    0.415   75.410
  300.500   12.370    0.371    0.399   75.417
  300.750   12.838    0.387    0.401   77.835
  301.000   12.838    0.396    0.414   80.254
  301.250   12.836    0.405    0.422   78.452
  301.500   12.835    0.388    0.431   73.039
  301.750   12.834    0.351    0.411   70.634
  302.000   14.088    0.292    0.384   62.814
  302.250   16.979    0.232    0.366   59.806
  302.500   23.758    0.009    0.321   54.993
  302.750   30.282    0.000    0.150   50.183
  303.000   66.326    0.000    0.066   50.794
  303.250   48.283    0.004    0.051   52.607
  303.500   33.235    0.046    0.060   55.024
  303.750   19.339    0.160    0.080   59.252
  304.000   13.065    0.290    0.104   62.270
  304.250   11.900    0.351    0.196   65.289
  304.500   10.838    0.369    0.311   66.499
  304.750    9.333    0.355    0.412   66.507
  305.000    9.160    0.349    0.410   65.310
  305.250    8.824    0.339    0.407   66.520
  305.500    8.659    0.335    0.399   67.735
  305.750    8.498    0.332    0.396   67.740
  306.000    8.498    0.329    0.391   67.146
  306.250    8.340    0.332    0.401   65.347
  306.500    8.339    0.334    0.410   64.753
  306.750    8.184    0.333    0.418   64.758
  307.000    8.032    0.329    0.422   66.575
  307.250    8.031    0.327    0.428   67.785
  307.500    8.031    0.324    0.418   68.396
  307.750    7.881    0.324    0.419   68.403
  308.000    7.881    0.325    0.424   69.012
  308.250    7.880    0.329    0.413   70.225
  308.500    7.879    0.333    0.406   70.832
  308.750    7.878    0.331    0.406   69.637
  309.000    8.026    0.327    0.408   69.043
  309.250    8.026    0.324    0.401   69.048
  309.500    8.176    0.329    0.403   70.264
  309.750    8.175    0.337    0.417   70.271
  310.000    8.328    0.353    0.422   69.672
  310.250    8.328    0.358    0.413   68.476
  310.500    8.327    0.361    0.422   69.085
  310.750    8.483    0.353    0.419   71.504
  311.000    8.483    0.343    0.414   72.713
  311.250    8.804    0.319    0.406   73.325
  311.500    8.804    0.309    0.400   72.125
  311.750    9.138    0.300    0.393   68.519
  312.000    9.484    0.291    0.385   66.117
  312.250    9.662    0.281    0.365   70.948
  312.500    9.662    0.256    0.340   72.760
  312.750    9.482    0.298    0.347   74.574
  313.000    9.134    0.324    0.370   75.183
  313.250    8.165    0.328    0.384   78.807
  313.500    7.719    0.321    0.390   81.221
  313.750    7.298    0.318    0.399   88.459
  314.000    6.524    0.303    0.404   95.093
  314.250    6.169    0.293    0.409   96.303
  314.500    5.832    0.266    0.399   89.687
  314.750    5.618    0.279    0.392   86.680
  315.000    5.617    0.290    0.386   81.868
  315.250    5.723    0.308    0.381   78.862
  315.500    5.830    0.297    0.402   84.895
  315.750    5.939    0.257    0.412   90.323
  316.000    5.938    0.238    0.421   96.962
  316.250    5.938    0.221    0.426   98.168
  316.500    5.720    0.221    0.426   96.971
  316.750    5.308    0.225    0.427   99.388
  317.000    5.018    0.219    0.430  104.221
  317.250    4.834    0.207    0.430  106.639
  317.500    4.570    0.199    0.436  107.246
  317.750    4.402    0.196    0.442  107.851
  318.000    4.085    0.203    0.438  106.656
  318.250    3.935    0.207    0.428  105.459
  318.500    3.791    0.209    0.426  104.260
  318.750    3.517    0.213    0.437  103.666
  319.000    3.452    0.220    0.443  103.069
  319.250    3.517    0.226    0.445  100.065
  319.500    3.789    0.228    0.448   94.650
  319.750    4.082    0.244    0.448   86.827
  320.000    4.399    0.269    0.437   81.412
  320.250    5.012    0.304    0.416   75.397
  320.500    5.301    0.330    0.393   74.199
  320.750    5.928    0.341    0.387   73.602
  321.000    6.387    0.342    0.386   73.009
  321.250    6.630    0.342    0.384   73.620
  321.500    6.754    0.340    0.383   74.830
  321.750    6.753    0.337    0.383   76.647
