~VERSION INFORMATION
 VERS.                 2.0:   CWLS LOG ASCII STANDARD -VERSION 2.0
 WRAP.                  NO:   ONE LINE PER DEPTH STEP
~WELL INFORMATION BLOCK
#MNEM.UNIT           DATA                    DESCRIPTION OF MNEMONIC
#---------    -------------------            -------------------------------
# Generated from Intellog Unique Number	CS_77_79/WELL/865
WELL.         CWWE THORNBURY                 : Well_name    - WELL
LOC .         00/05-31-079-13W4/0            : Location     - LOCATION
UWI .         00/05-31-079-13W4/0            : Uwi          - UNIQUE WELL ID
ENTR.         JHS                            : Entered      - ENTERED BY
SRVC.         SCHLUMBERGER                   : Scn          - SERVICE COMPANY
STRT.M        245                            : top_depth    - START DEPTH
STOP.M        510                            : bot_depth    - STOP DEPTH
STEP.M        0.25                           : increment    - STEP LENGTH
 NULL. -999.2500:NULL Value
~CURVE INFORMATION BLOCK
#MNEM UNIT       ERCB CURVE CODE    CURVE DESCRIPTION
#-----------   ------------------   ----------------------------------
DEPT.M        00 001 00 00         : DEPTH        - DEPTH
DPHI.V/V      00 890 00 00         : PHID         - DENSITY POROSITY (LIMESTONE)
NPHI.V/V      00 330 00 00         : PHIN         - NEUTRON POROSITY (LIMESTONE)
GR  .API      00 310 00 00         : GR           - GAMMA RAY
ILD .OHMM     00 120 00 00         : RESD         - DEEP RESISTIVITY (DIL)
RHOB.KG/M3    00 350 00 00         : DENS         - BULK DENSITY
~PARAMETER INFORMATION
#MNEM.UNIT           DATA             DESCRIPTION OF MNEMONIC
#---------         -----------     ------------------------------
GL  .M        694.2                : gl           - GROUND LEVEL ELEVATION
EREF.M        698                  : kb           - ELEVATION OF DEPTH REFERENCE
DATM.M        698                  : datum        - DATUM ELEVATION
TDD .M        510                  : tdd          - TOTAL DEPTH DRILLER
RUN .         ONE                  : Run          - RUN NUMBER
ENG .         BILL                 : Engineer     - RECORDING ENGINEER
WIT .         JIM                  : Witness      - WITNESSED BY
MUD .         GEL                  : Mud_type     - MUD TYPE
MATR.         LIMESTONE            : Logunit      - NEUTRON MATRIX
TMAX.C        22                   : BHT          - MAXIMUM RECORDED TEMPERATURE
BHTD.M        510                  : BHTDEP       - MAXIMUM RECORDED TEMPERATURE
MATR.         1                    : LOGUNIT      - NEUTRON MATRIX
RMT .C        25                   : MDTP         - TEMPERATURE OF MUD
NEUT.         1                    : NEUTRON      - NEUTRON TYPE
RESI.         0                    : RESIST       - RESISTIVITY TYPE
RMC .OHMM     0.25                 : RMC          - RESISTIVITY OF MUD CAKE
RMF .OHMM     0.25                 : RMF          - RESISTIVITY OF MUD FILTRATE
SUFT.C        15                   : SUFT         - SURFACE TEMPERATURE
~A  DEPTH     PHID     PHIN       GR     RESD     DENS
# ...
  427.500    0.264    0.454   66.123    6.211    0.000
  427.750    0.259    0.443   76.513    6.209    0.000
  428.000    0.264    0.445   84.451    6.091    0.000
  428.250    0.270    0.448   86.881    5.976    0.000
  428.500    0.264    0.438   92.379    5.752    0.000
  428.750    0.264    0.438  102.155    5.331    0.000
  429.000    0.262    0.449  107.036    4.942    0.000
  429.250    0.253    0.451  108.247    4.667    0.000
  429.500    0.239    0.453  113.738    4.755    0.000
  429.750    0.213    0.454  111.272    5.128    0.000
  430.000    0.216    0.440  105.136    5.853 2340.710
  430.250    0.243    0.438   97.772    6.312 2294.500
  430.500    0.277    0.427   91.019    6.679 2235.710
  430.750    0.238    0.412   90.392    6.934 2302.790
  431.000    0.178    0.425   92.210    7.065 2405.540
  431.250    0.184    0.444   94.031    6.931 2395.000
  431.500    0.208    0.431   94.011    6.929 2355.080
  431.750    0.219    0.426   95.224    7.059 2336.140
  432.000    0.219    0.436   98.266    7.193 2336.090
  432.250    0.226    0.441  100.700    7.190 2323.440
  432.500    0.230    0.451   97.622    6.922 2317.100
  432.750    0.216    0.457   93.934    6.920 2340.130
  433.000    0.211    0.448   92.079    7.185 2348.470
  433.250    0.214    0.420   93.285    7.748 2344.210
  433.500    0.215    0.404   94.490    8.045 2342.070
  433.750    0.218    0.393   93.863    8.043 2337.830
  434.000    0.219    0.408   92.627    7.890 2335.680
  434.250    0.214    0.414   94.445    7.740 2344.020
  434.500    0.203    0.415   99.325    7.594 2362.840
  434.750    0.196    0.401  101.145    7.592 2375.370
  435.000    0.198    0.386   99.901    7.881 2371.120
  435.250    0.202    0.380   99.885    7.880 2364.780
  435.500    0.202    0.386  100.485    8.029 2364.730
  435.750    0.193    0.398   99.853    8.336 2379.370
  436.000    0.139    0.409   96.778    8.989 2471.630
  436.250    0.122    0.386   88.800    9.334 2500.950
  436.500    0.149    0.354   92.459    8.816 2454.740
  436.750    0.185    0.365  100.400    8.649 2393.850
  437.000    0.200    0.386  102.832    8.170 2368.620
  437.250    0.190    0.394  105.879    7.572 2385.350
  437.500    0.194    0.397  111.982    7.018 2378.990
  437.750    0.202    0.400  108.902    6.383 2364.270
  438.000    0.219    0.408  103.379    5.916 2334.830
  438.250    0.226    0.417  102.749    5.483 2324.300
  438.500    0.232    0.428  105.792    4.987 2313.750
  438.750    0.234    0.442  104.554    4.450 2309.510
  439.000    0.237    0.449  100.860    4.048 2305.240
  439.250    0.244    0.453  104.516    3.612 2292.600
  439.500    0.264    0.460  103.891    2.878 2259.000
  439.750    0.301    0.477  100.202    2.473 2196.000
  440.000    0.309    0.534   94.063    2.249 2181.270
  440.250    0.304    0.552   89.763    2.248 2189.610
  440.500    0.290    0.560   91.582    2.334 2214.730
  440.750    0.263    0.580   90.949    2.566 2260.830
  441.000    0.237    0.560   86.646    3.158 2304.840
  441.250    0.230    0.493   86.021    3.605 2317.380
  441.500    0.238    0.468   87.231    4.355 2302.640
  441.750    0.204    0.465   85.987    5.065 2361.330
  442.000    0.183    0.379   84.748    5.673 2396.950
  442.250    0.182    0.355   92.077    6.234 2398.990
  442.500    0.202    0.383  101.244    6.352 2365.370
  442.750    0.209    0.432   96.329    6.349 2352.730
  443.000    0.204    0.452   82.844    6.113 2361.060
  443.250    0.203    0.424   92.007    5.884 2363.110
  443.500    0.210    0.403  100.560    5.454 2350.470
  443.750    0.223    0.405  101.158    4.867 2329.430
  444.000    0.230    0.416  101.145    4.511 2316.800
  444.250    0.235    0.440  106.025    4.026 2308.360
  444.500    0.237    0.463  106.008    3.525 2304.100
  444.750    0.241    0.469  104.150    3.267 2297.760
  445.000    0.246    0.478  107.200    3.205 2289.320
  445.250    0.240    0.489  107.182    3.266 2299.760
  445.500    0.233    0.479  103.487    3.456 2312.280
  445.750    0.231    0.460  109.598    3.657 2314.330
  446.000    0.229    0.458  115.703    3.869 2318.490
  446.250    0.217    0.476  115.686    4.017 2339.410
  446.500    0.195    0.496  105.871    4.251 2377.120
  446.750    0.170    0.467  107.084    4.331 2419.040
  447.000    0.163    0.428  119.305    4.413 2431.570
  447.250    0.190    0.407  118.677    4.496 2385.350
  447.500    0.223    0.421  114.374    4.411 2328.660
  447.750    0.223    0.445  111.295    4.327 2328.620
  448.000    0.208    0.455  111.895    4.409 2353.730
  448.250    0.210    0.457  114.329    4.937 2351.580
  448.500    0.202    0.477  105.739    5.425 2364.120
  448.750    0.195    0.391   88.585    5.424 2376.650
  449.000    0.223    0.336   79.385    5.423 2328.350
  449.250    0.243    0.312   88.543    6.074 2294.730
  449.500    0.220    0.386   90.369    7.199 2334.540
  449.750    0.193    0.429   75.050    8.697 2380.640
  450.000    0.193    0.294   80.542   11.120 2380.590
  450.250    0.236    0.290   89.095   14.490 2307.110
  450.500    0.268    0.315   89.080   17.176 2252.510
  450.750    0.249    0.306   79.876   18.175 2283.920
  451.000    0.246    0.285   78.637   17.168 2290.170
  451.250    0.231    0.292   82.904   15.034 2315.290
  451.500    0.223    0.334   86.562   13.164 2327.830
  451.750    0.251    0.365   87.161   12.434 2281.620
  452.000    0.266    0.350   86.530   12.199 2254.300
  452.250    0.262    0.348   82.841   12.196 2262.620
  452.500    0.242    0.329   77.928   12.425 2296.140
  452.750    0.227    0.318   76.686   12.422 2321.270
  453.000    0.208    0.326   91.974   11.958 2354.790
  453.250    0.189    0.362  105.422   11.730 2386.210
  453.500    0.181    0.350  111.531   11.952 2400.830
  453.750    0.192    0.326  120.695   13.386 2381.910
  454.000    0.240    0.306  121.294   15.278 2300.030
  454.250    0.270    0.288  104.136   18.455 2247.530
  454.500    0.306    0.253   86.365   21.065 2186.640
  454.750    0.317    0.242   83.894   24.042 2167.700
  455.000    0.288    0.262   86.329   24.962 2218.000
  455.250    0.262    0.282   86.316   23.137 2262.010
  455.500    0.245    0.285   82.620   22.272 2291.330
  455.750    0.244    0.289   83.831   23.123 2293.360
  456.000    0.249    0.303   85.647   24.470 2284.930
  456.250    0.247    0.312   83.189   27.406 2286.970
  456.500    0.255    0.273   72.765   30.693 2274.340
  456.750    0.265    0.249   61.730   33.099 2257.500
  457.000    0.225    0.245   56.814   34.366 2324.580
  457.250    0.202    0.252   62.307   33.082 2364.400
  457.500    0.240    0.278   68.412   30.086 2299.300
  457.750    0.270    0.299   75.740   26.850 2248.900
  458.000    0.249    0.318   80.623   24.887 2284.510
  458.250    0.230    0.337   86.722   23.507 2315.930
  458.500    0.229    0.352   87.929   22.628 2317.970
  458.750    0.234    0.359   86.693   20.578 2309.530
  459.000    0.216    0.346   83.003   19.074 2340.950
  459.250    0.179    0.341   89.723   17.023 2403.830
  459.500    0.174    0.339  101.948   16.699 2412.180
  459.750    0.190    0.345  103.769   18.352 2384.850
  460.000    0.256    0.332   97.016   22.170 2271.510
  460.250    0.291    0.279   85.371   29.438 2212.710
  460.500    0.330    0.207   67.603   35.565 2145.520
  460.750    0.335    0.191   65.746   47.225 2137.070
  461.000    0.342    0.166   72.463   59.252 2124.430
  461.250    0.369    0.138   75.509   80.185 2078.230
  461.500    0.389    0.119   70.595  100.605 2044.610
  461.750    0.398    0.102   61.396  138.740 2029.860
  462.000    0.415    0.082   50.972  144.051 2000.440
  462.250    0.389    0.156   45.445  123.782 2044.450
  462.500    0.354    0.204   48.489   98.617 2105.240
  462.750    0.332    0.294   56.429   83.152 2142.960
  463.000    0.332    0.245   63.760   80.037 2142.890
  463.250    0.356    0.177   70.479   83.102 2100.890
  463.500    0.355    0.175   75.971   89.621 2102.920
  463.750    0.342    0.202   80.853   94.832 2125.950
