~VERSION INFORMATION
 VERS.                 2.0:   CWLS LOG ASCII STANDARD -VERSION 2.0
 WRAP.                  NO:   ONE LINE PER DEPTH STEP
~WELL INFORMATION BLOCK
#MNEM.UNIT           DATA                    DESCRIPTION OF MNEMONIC
#---------    -------------------            -------------------------------
# Generated from Intellog Unique Number	CN_94_101/WELL/2749
WELL.         COLUMBIA GAS DEVELOPMENT LTD.  : Well_name    - WELL
LOC .         00/07-06-094-20W4/0            : Location     - LOCATION
UWI .         00/07-06-094-20W4/0            : Uwi          - UNIQUE WELL ID
ENTR.         JOETTE                         : Entered      - ENTERED BY
SRVC.         COMPUTALOG                     : Scn          - SERVICE COMPANY
DATE.         07\03\92                       : Date         - LOG DATE
STRT.M        180                            : top_depth    - START DEPTH
STOP.M        353                            : bot_depth    - STOP DEPTH
STEP.M        0.25                           : increment    - STEP LENGTH
 NULL. -999.2500:NULL Value
~CURVE INFORMATION BLOCK
#MNEM UNIT       ERCB CURVE CODE    CURVE DESCRIPTION
#-----------   ------------------   ----------------------------------
DEPT.M        00 001 00 00         : DEPTH        - DEPTH
CALI.MM       00 280 01 00         : CAL          - CALIPER
NPHI.V/V      00 330 00 00         : PHIN         - NEUTRON POROSITY (SANDSTONE)
GR  .API      00 310 00 00         : GR           - GAMMA RAY
DPHI.V/V      00 890 00 00         : PHID         - DENSITY POROSITY (SANDSTONE)
ILD .OHMM     00 120 00 00         : RESD         - DEEP RESISTIVITY (DIL)
~PARAMETER INFORMATION
#MNEM.UNIT           DATA             DESCRIPTION OF MNEMONIC
#---------         -----------     ------------------------------
GL  .M        661.36               : gl           - GROUND LEVEL ELEVATION
EREF.M        664.86               : kb           - ELEVATION OF DEPTH REFERENCE
DATM.M        664.86               : datum        - DATUM ELEVATION
TDD .M        354.7                : tdd          - TOTAL DEPTH DRILLER
RUN .         ONE                  : Run          - RUN NUMBER
ENG .         JO                   : Engineer     - RECORDING ENGINEER
WIT .         TIM                  : Witness      - WITNESSED BY
MUD .         GEL                  : Mud_type     - MUD TYPE
MATR.         SANDSTONE            : Logunit      - NEUTRON MATRIX
TMAX.C        22                   : BHT          - MAXIMUM RECORDED TEMPERATURE
BHTD.M        354.7                : BHTDEP       - MAXIMUM RECORDED TEMPERATURE
RMT .C        12.2                 : MDTP         - TEMPERATURE OF MUD
MUDD.KG/M     1150                 : MWT          - MUD DENSITY
NEUT.         1                    : NEUTRON      - NEUTRON TYPE
RESI.         0                    : RESIST       - RESISTIVITY TYPE
RM  .OHMM     3.3                  : RM           - RESISTIVITY OF MUD
RMC .OHMM     3.3                  : RMC          - RESISTIVITY OF MUD CAKE
RMF .OHMM     2.2                  : RMF          - RESISTIVITY OF MUD FILTRATE
SUFT.C        4                    : SUFT         - SURFACE TEMPERATURE
~A  DEPTH      CAL     PHIN       GR     PHID     RESD
# ...
  253.000  171.268    0.488  117.246    0.197    5.019
  253.250  170.277    0.473  121.459    0.196    5.111
  253.500  169.323    0.460  123.879    0.197    5.111
  253.750  168.341    0.469  125.710    0.203    5.110
  254.000  167.358    0.462  126.346    0.208    5.108
  254.250  166.395    0.445  126.361    0.201    5.107
  254.500  166.431    0.436  123.412    0.197    5.106
  254.750  168.488    0.448  121.045    0.191    5.105
  255.000  168.533    0.457  118.693    0.186    5.104
  255.250  168.561    0.466  115.744    0.178    5.102
  255.500  167.588    0.469  114.580    0.178    5.008
  255.750  163.595    0.468  114.013    0.191    5.007
  256.000  162.613    0.470  113.446    0.199    5.006
  256.250  159.639    0.466  114.672    0.201    4.913
  256.500  159.676    0.459  115.890    0.202    4.912
  256.750  159.704    0.450  117.720    0.204    5.003
  257.000  159.740    0.444  117.146    0.209    5.002
  257.250  160.778    0.448  114.794    0.216    5.188
  257.500  161.824    0.450  111.837    0.220    5.284
  257.750  162.880    0.444  110.665    0.226    5.382
  258.000  162.926    0.436  107.716    0.228    5.792
  258.250  162.953    0.432  105.357    0.232    5.900
  258.500  162.981    0.435  101.205    0.234    6.234
  258.750  163.036    0.433   97.644    0.234    6.233
  259.000  163.063    0.427   94.687    0.233    6.117
  259.250  162.100    0.422   89.938    0.232    5.576
  259.500  162.118    0.432   91.761    0.231    5.178
  259.750  162.164    0.445   95.391    0.233    4.549
  260.000  163.220    0.469   97.804    0.234    3.852
  260.250  165.276    0.491  102.009    0.235    4.070
  260.500  167.332    0.491  104.438    0.235    4.546
  260.750  168.378    0.479  102.078    0.236    4.985
  261.000  168.406    0.456   97.329    0.236    5.567
  261.250  166.423    0.434   96.762    0.235    5.884
  261.500  164.450    0.419   96.793    0.225    6.333
  261.750  161.467    0.406   96.831    0.214    6.571
  262.000  160.475    0.398   92.672   -0.037    6.943
  262.250  160.530    0.387   81.956   -0.004    7.203
  262.500  160.558    0.400   77.199    0.152    7.202
  262.750  160.586    0.407   71.852    0.176    7.068
  263.000  160.622    0.415   68.290    0.190    6.937
  263.250  160.668    0.425   77.888    0.202    6.562
  263.500  161.715    0.430   95.245    0.210    6.093
  263.750  161.751    0.420  102.446    0.214    5.657
  264.000  162.798    0.421  106.666    0.220    5.553
  264.250  163.853    0.426  107.294    0.223    5.450
  264.500  164.900    0.426  106.727    0.223    5.449
  264.750  166.947    0.427  105.571    0.220    5.448
  265.000  168.002    0.453  104.414    0.216    5.447
  265.250  169.049    0.457  103.832    0.212    5.446
  265.500  169.076    0.450  102.085    0.210    5.445
  265.750  170.122    0.440  101.511    0.201    5.545
  266.000  170.168    0.430  101.534    0.201    5.752
  266.250  170.205    0.442  101.572    0.207    5.858
  266.500  169.232    0.452  102.790    0.211    6.077
  266.750  169.269    0.461  106.420    0.213    6.304
  267.000  168.296    0.437  107.631    0.213    6.540
  267.250  167.323    0.413  110.649    0.214    6.661
  267.500  167.369    0.406  108.289    0.218    6.910
  267.750  169.425    0.410   97.566    0.224    7.037
  268.000  169.453    0.409   95.214    0.223    7.436
  268.250  170.499    0.399   92.847    0.218    7.857
  268.500  170.536    0.396   89.898    0.217    8.003
  268.750  171.601    0.397   92.319    0.214    8.302
  269.000  171.619    0.398   95.344    0.215    8.454
  269.250  174.685    0.397   96.570    0.220    8.453
  269.500  180.779    0.403   95.413    0.224    7.157
  269.750  185.864    0.452   94.233    0.235    6.173
  270.000  190.959    0.462   94.264    0.274    5.732
  270.250  189.976    0.461   96.684    0.308    5.523
  270.500  184.965    0.449   99.112    0.357    5.421
  270.750  177.934    0.443  101.525    0.348    5.320
  271.000  171.913    0.441  106.336    0.307    5.319
  271.250  164.891    0.443  106.964    0.300    5.318
  271.500  160.889    0.444   93.253    0.275    5.317
  271.750  159.935    0.448   82.529    0.227    5.315
  272.000  159.962    0.457   84.949    0.150    5.413
  272.250  159.999    0.464   98.124    0.178    5.412
  272.500  160.036    0.456  110.709    0.182    5.411
  272.750  160.082    0.451  103.570    0.154    5.409
  273.000  160.100    0.451  104.796    0.199    5.408
  273.250  162.165    0.453  109.009    0.212    5.407
  273.500  163.212    0.458  111.437    0.217    5.307
  273.750  162.239    0.475  113.252    0.225    5.113
  274.000  162.266    0.483  113.880    0.231    5.019
  274.250  160.284    0.478  107.936    0.232    4.836
  274.500  160.330    0.456  104.979    0.231    4.574
  274.750  161.376    0.445  113.382    0.226    4.408
  275.000  162.413    0.451  117.595    0.224    4.246
  275.250  163.478    0.451  120.613    0.217    4.246
  275.500  163.506    0.471  121.241    0.210    4.091
  275.750  163.561    0.489  119.479    0.206    4.015
  276.000  163.579    0.502  118.912    0.207    4.014
  276.250  163.625    0.507  120.735    0.207    4.088
  276.500  164.672    0.498  121.371    0.208    4.087
  276.750  166.728    0.488  120.797    0.209    4.240
  277.000  165.745    0.476  119.042    0.211    4.318
  277.250  161.744    0.467  116.683    0.213    4.398
  277.500  159.761    0.466  113.719    0.216    4.562
  277.750  160.807    0.457  110.762    0.222    4.821
  278.000  162.864    0.445  108.403    0.233    5.001
  278.250  166.948    0.450  107.844    0.240    5.285
  278.500  162.937    0.449  106.679    0.231    5.483
  278.750  156.916    0.435  103.117    0.172    5.794
  279.000  155.943    0.430   96.576    0.137    6.010
  279.250  157.999    0.423  100.191    0.169    6.235
  279.500  164.112    0.416  104.412    0.192    6.468
  279.750  165.149    0.419  103.845    0.201    6.467
  280.000  166.196    0.433  101.493    0.202    6.466
  280.250  167.251    0.446  105.101    0.202    6.229
  280.500  167.279    0.455  110.509    0.217    6.002
  280.750  167.315    0.464  112.332    0.219    5.371
  281.000  167.361    0.475  116.552    0.217    4.988
  281.250  167.389    0.477  118.965    0.219    4.806
  281.500  166.416    0.475  105.852    0.225    4.805
  281.750  165.443    0.473  100.513    0.226    4.893
  282.000  162.460    0.467   99.938    0.229    5.267
  282.250  161.478    0.453   97.594    0.233    5.567
  282.500  159.514    0.443   97.012    0.241    6.217
  282.750  158.523    0.437   95.258    0.233    6.692
  283.000  157.559    0.433   94.086    0.215    7.072
  283.250  156.586    0.426   91.137    0.168    7.203
  283.500  155.613    0.407   89.965    0.096    7.611
  283.750  155.650    0.380   85.216    0.084    7.751
  284.000  155.696    0.327   75.089    0.061    7.749
  284.250  155.732    0.338   84.679    0.100    7.064
  284.500  155.769    0.350   97.862    0.135    6.682
  284.750  156.815    0.369  114.622    0.160    6.091
  285.000  157.853    0.395  120.037    0.183    5.762
  285.250  158.899    0.415  119.470    0.189    5.761
  285.500  158.936    0.443  118.298    0.184    5.759
  285.750  160.992    0.462  121.914    0.178    5.758
  286.000  162.047    0.453  124.342    0.176    5.864
  286.250  163.094    0.460  124.372    0.187    5.972
  286.500  164.140    0.490  123.216    0.178    5.971
  286.750  164.168    0.506  117.264    0.168    6.081
  287.000  164.232    0.478  113.717    0.145    6.079
  287.250  164.250    0.472  117.923    0.183    6.078
  287.500  164.287    0.464  123.928    0.205    6.077
  287.750  164.333    0.450  122.763    0.220    6.188
  288.000  164.361    0.443  113.832    0.230    6.187
  288.250  164.416    0.436  100.121    0.238    6.418
  288.500  164.453    0.432   85.805    0.261    6.659
  288.750  164.480    0.419   85.238    0.269    6.908
  289.000  163.498    0.392   85.874    0.267    7.435
  289.250  163.553    0.386   87.107    0.273    8.153
