~VERSION INFORMATION
 VERS.                 2.0:   CWLS LOG ASCII STANDARD -VERSION 2.0
 WRAP.                  NO:   ONE LINE PER DEPTH STEP
~WELL INFORMATION BLOCK
#MNEM.UNIT           DATA                    DESCRIPTION OF MNEMONIC
#---------    -------------------            -------------------------------
# Generated from Intellog Unique Number	CS_67_68/WELL/771
WELL.         FISHER CREEK                   : Well_name    - WELL
LOC .         00/07-15-068-06W4/0            : Location     - LOCATION
UWI .         00/07-15-068-06W4/0            : Uwi          - UNIQUE WELL ID
ENTR.         SP                             : Entered      - ENTERED BY
SRVC.         SCHLUMBERGER                   : Scn          - SERVICE COMPANY
STRT.M        350                            : top_depth    - START DEPTH
STOP.M        580                            : bot_depth    - STOP DEPTH
STEP.M        0.25                           : increment    - STEP LENGTH
 NULL. -999.2500:NULL Value
~CURVE INFORMATION BLOCK
#MNEM UNIT       ERCB CURVE CODE    CURVE DESCRIPTION
#-----------   ------------------   ----------------------------------
DEPT.M        00 001 00 00         : DEPTH        - DEPTH
ILD .OHMM     00 120 00 00         : RESD         - DEEP RESISTIVITY (DIL)
DPHI.V/V      00 890 00 00         : PHID         - DENSITY POROSITY (LIMESTONE)
NPHI.V/V      00 330 00 00         : PHIN         - NEUTRON POROSITY (LIMESTONE)
GR  .API      00 310 00 00         : GR           - GAMMA RAY
~PARAMETER INFORMATION
#MNEM.UNIT           DATA             DESCRIPTION OF MNEMONIC
#---------         -----------     ------------------------------
GL  .M        694.03               : gl           - GROUND LEVEL ELEVATION
EREF.M        697.03               : kb           - ELEVATION OF DEPTH REFERENCE
DATM.M        694.03               : datum        - DATUM ELEVATION
TDD .M        591                  : tdd          - TOTAL DEPTH DRILLER
RUN .         ONE                  : Run          - RUN NUMBER
ENG .         BILL                 : Engineer     - RECORDING ENGINEER
WIT .         JIM                  : Witness      - WITNESSED BY
MUD .         GEL                  : Mud_type     - MUD TYPE
MATR.         LIMESTONE            : Logunit      - NEUTRON MATRIX
TMAX.C        23.2                 : BHT          - MAXIMUM RECORDED TEMPERATURE
BHTD.M        591                  : BHTDEP       - MAXIMUM RECORDED TEMPERATURE
MATR.         1                    : LOGUNIT      - NEUTRON MATRIX
RMT .C        25                   : MDTP         - TEMPERATURE OF MUD
NEUT.         1                    : NEUTRON      - NEUTRON TYPE
RESI.         0                    : RESIST       - RESISTIVITY TYPE
RMC .OHMM     0.25                 : RMC          - RESISTIVITY OF MUD CAKE
RMF .OHMM     0.25                 : RMF          - RESISTIVITY OF MUD FILTRATE
SUFT.C        15                   : SUFT         - SURFACE TEMPERATURE
~A  DEPTH     RESD     PHID     PHIN       GR
# ...
  480.500    2.253    0.292    0.537  100.679
  480.750    2.254    0.296    0.547  102.080
  481.000    2.260    0.293    0.557  101.774
  481.250    2.274    0.286    0.570  101.347
  481.500    2.327    0.279    0.548  101.651
  481.750    2.481    0.274    0.513  100.493
  482.000    2.685    0.270    0.533   93.607
  482.250    3.339    0.271    0.551   86.905
  482.500    4.303    0.274    0.489   83.126
  482.750    5.281    0.284    0.479   79.958
  483.000    6.518    0.295    0.495   77.763
  483.250    7.836    0.306    0.489   76.300
  483.500    8.990    0.314    0.480   69.903
  483.750    9.659    0.309    0.478   66.856
  484.000    9.865    0.302    0.455   72.521
  484.250    9.384    0.299    0.433   77.394
  484.500    8.613    0.295    0.442   76.723
  484.750    7.629    0.293    0.457   74.651
  485.000    6.770    0.295    0.449   78.245
  485.250    6.226    0.294    0.433   82.448
  485.500    5.911    0.287    0.459   85.067
  485.750    5.707    0.278    0.466   83.787
  486.000    5.605    0.285    0.450   80.922
  486.250    5.649    0.301    0.452   79.216
  486.500    5.802    0.308    0.460   77.936
  486.750    5.741    0.293    0.466   80.067
  487.000    5.359    0.292    0.473   84.148
  487.250    5.022    0.288    0.483   87.925
  487.500    4.758    0.265    0.471   90.422
  487.750    4.594    0.244    0.459   90.848
  488.000    4.403    0.232    0.461   91.152
  488.250    4.243    0.236    0.479   93.162
  488.500    4.136    0.242    0.495   95.111
  488.750    4.099    0.242    0.508   95.780
  489.000    4.171    0.243    0.508   94.865
  489.250    4.324    0.247    0.496   91.757
  489.500    4.543    0.256    0.486   89.259
  489.750    4.710    0.264    0.490   92.548
  490.000    4.757    0.269    0.471   96.690
  490.250    4.715    0.272    0.458   99.248
  490.500    4.691    0.263    0.449   98.943
  490.750    4.694    0.254    0.464   96.688
  491.000    4.722    0.246    0.461   95.651
  491.250    4.778    0.237    0.459   96.930
  491.500    4.899    0.251    0.463   96.625
  491.750    4.966    0.260    0.444   95.649
  492.000    5.072    0.252    0.442   93.699
  492.250    5.260    0.243    0.472   88.337
  492.500    5.464    0.254    0.491   82.365
  492.750    5.580    0.241    0.481   79.379
  493.000    5.839    0.205    0.452   79.987
  493.250    6.077    0.194    0.423   84.556
  493.500    6.254    0.231    0.430   87.480
  493.750    6.327    0.261    0.463   85.712
  494.000    6.426    0.279    0.485   78.400
  494.250    6.600    0.278    0.480   77.729
  494.500    6.947    0.285    0.467   82.237
  494.750    7.243    0.292    0.458   85.709
  495.000    7.370    0.287    0.453   82.845
  495.250    7.699    0.282    0.459   79.006
  495.500    8.766    0.290    0.467   77.421
  495.750   10.076    0.297    0.471   73.033
  496.000   10.927    0.300    0.465   67.976
  496.250   11.784    0.305    0.459   64.137
  496.500   12.733    0.307    0.457   67.852
  496.750   13.300    0.300    0.456   70.959
  497.000   14.051    0.183    0.460   64.561
  497.250   14.567    0.090    0.307   59.747
  497.500   14.769    0.155    0.250   65.900
  497.750   14.665    0.206    0.368   71.809
  498.000   14.001    0.245    0.410   76.560
  498.250   12.518    0.269    0.432   79.484
  498.500   10.097    0.260    0.448   80.702
  498.750    8.470    0.265    0.445   82.529
  499.000    7.673    0.278    0.425   85.269
  499.250    6.861    0.287    0.437   86.670
  499.500    6.111    0.291    0.448   88.436
  499.750    5.224    0.279    0.428   90.507
  500.000    4.293    0.269    0.411   92.821
  500.250    3.515    0.263    0.431   94.587
  500.500    2.620    0.271    0.459   93.795
  500.750    2.036    0.285    0.503   88.433
  501.000    1.879    0.299    0.553   84.715
  501.250    1.804    0.305    0.582   82.460
  501.500    1.755    0.299    0.572   80.692
  501.750    1.733    0.294    0.554   80.387
  502.000    1.721    0.293    0.546   80.508
  502.250    1.700    0.305    0.559   81.726
  502.500    1.694    0.316    0.571   83.309
  502.750    1.701    0.322    0.580   84.954
  503.000    1.728    0.330    0.587   86.963
  503.250    1.755    0.323    0.554   88.912
  503.500    1.823    0.312    0.534   87.754
  503.750    1.955    0.303    0.530   85.743
  504.000    2.065    0.298    0.531   84.097
  504.250    2.145    0.297    0.523   82.939
  504.500    2.179    0.291    0.530   84.278
  504.750    2.192    0.280    0.533   89.212
  505.000    2.206    0.273    0.524   92.623
  505.250    2.228    0.264    0.539   94.938
  505.500    2.250    0.259    0.547   96.582
  505.750    2.289    0.259    0.549   96.825
  506.000    2.342    0.267    0.546   99.931
  506.250    2.384    0.269    0.526  100.601
  506.500    2.412    0.262    0.501   94.325
  506.750    2.445    0.232    0.513   89.633
  507.000    2.488    0.187    0.522   91.155
  507.250    2.522    0.219    0.488   95.602
  507.500    2.561    0.255    0.501   97.855
  507.750    2.606    0.274    0.509   93.407
  508.000    2.647    0.278    0.519   88.715
  508.250    2.734    0.270    0.530   90.786
  508.500    2.994    0.263    0.539   92.796
  508.750    3.216    0.252    0.494   90.967
  509.000    3.508    0.242    0.460   90.052
  509.250    3.733    0.185    0.439   90.356
  509.500    3.922    0.161    0.443   90.660
  509.750    3.976    0.145    0.443   88.710
  510.000    3.970    0.137    0.436   93.035
  510.250    3.950    0.171    0.432   99.126
  510.500    3.945    0.201    0.436  101.563
  510.750    3.932    0.223    0.441  103.512
  511.000    4.322    0.216    0.444  100.099
  511.250    3.564    0.215    0.450   98.332
  511.500    3.435    0.214    0.454   98.453
  511.750    3.316    0.219    0.462   99.609
  512.000    3.073    0.229    0.471  100.888
  512.250    2.995    0.237    0.476  101.557
  512.500    2.974    0.233    0.465  102.349
  512.750    3.323    0.233    0.478  102.653
  513.000    4.283    0.241    0.494  102.408
  513.250    5.903    0.049    0.509   94.487
  513.500    7.780    0.011    0.261   73.162
  513.750    9.693   -0.003    0.253   62.865
  514.000   11.330    0.096    0.273   58.478
  514.250   12.242    0.145    0.297   63.412
  514.500   12.597    0.214    0.343   66.031
  514.750   12.627    0.286    0.399   66.579
  515.000   12.705    0.297    0.425   64.019
  515.250   12.570    0.307    0.414   62.982
  515.500   12.389    0.312    0.409   67.246
  515.750   11.036    0.301    0.399   72.424
  516.000    9.868    0.294    0.395   78.272
  516.250    9.177    0.302    0.402   81.501
  516.500    8.599    0.310    0.402   76.808
  516.750    8.088    0.307    0.395   73.944
  517.000    7.606    0.306    0.395   71.568
  517.250    7.101    0.307    0.401   73.943
  517.500    6.679    0.299    0.406   78.207
  517.750    6.424    0.291    0.412   82.776
  518.000    6.145    0.286    0.415   89.172
  518.250    6.034    0.280    0.407   92.705
  518.500    6.003    0.275    0.397   96.299
  518.750    6.177    0.270    0.386   99.405
  519.000    6.600    0.271    0.396  100.867
  519.250    6.741    0.277    0.409   99.221
  519.500    6.834    0.280    0.419   97.819
  519.750    6.850    0.268    0.398   98.793
  520.000    6.764    0.258    0.386  100.742
  520.250    6.580    0.250    0.380  101.472
  520.500    6.329    0.247    0.391   97.816
  520.750    6.826    0.261    0.411   82.766
  521.000    8.222    0.270    0.433   71.251
  521.250    9.468    0.277    0.409   55.166
  521.500   10.882    0.286    0.382   48.707
  521.750   11.670    0.292    0.363   58.515
  522.000   10.915    0.285    0.341   68.445
  522.250    9.981    0.259    0.326   76.730
  522.500    8.726    0.234    0.340   80.994
  522.750    7.818    0.234    0.351   80.628
  523.000    7.589    0.246    0.362   81.968
  523.250    6.940    0.256    0.374   91.166
  523.500    6.626    0.243    0.384   95.431
  523.750    6.531    0.230    0.374   94.090
