~VERSION INFORMATION
 VERS.                 2.0:   CWLS LOG ASCII STANDARD -VERSION 2.0
 WRAP.                  NO:   ONE LINE PER DEPTH STEP
~WELL INFORMATION BLOCK
#MNEM.UNIT           DATA                    DESCRIPTION OF MNEMONIC
#---------    -------------------            -------------------------------
# Generated from Intellog Unique Number	CW_76_78/WELL/2568
WELL.         06-25-078-25W4                 : Well_name    - WELL
LOC .         00/06-25-078-25W4/0            : Location     - LOCATION
UWI .         00/06-25-078-25W4/0            : Uwi          - UNIQUE WELL ID
ENTR.         MAX                            : Entered      - ENTERED BY
SRVC.         SCHLUMBERGER                   : Scn          - SERVICE COMPANY
STRT.M        274.32                         : top_depth    - START DEPTH
STOP.M        533.32                         : bot_depth    - STOP DEPTH
STEP.M        0.25                           : increment    - STEP LENGTH
 NULL. -999.2500:NULL Value
~CURVE INFORMATION BLOCK
#MNEM UNIT       ERCB CURVE CODE    CURVE DESCRIPTION
#-----------   ------------------   ----------------------------------
DEPT.M        00 001 00 00         : DEPTH        - DEPTH
ILD .OHMM     00 120 00 00         : RESD         - DEEP RESISTIVITY (DIL)
NPHI.V/V      00 330 00 00         : PHIN         - NEUTRON POROSITY (SANDSTONE)
DPHI.V/V      00 890 00 00         : PHID         - DENSITY POROSITY (SANDSTONE)
CALI.MM       00 280 01 00         : CAL          - CALIPER
GR  .API      00 310 00 00         : GR           - GAMMA RAY
~PARAMETER INFORMATION
#MNEM.UNIT           DATA             DESCRIPTION OF MNEMONIC
#---------         -----------     ------------------------------
GL  .M        589.483              : gl           - GROUND LEVEL ELEVATION
EREF.M        593.019              : kb           - ELEVATION OF DEPTH REFERENCE
DATM.M        589.483              : datum        - DATUM ELEVATION
TDD .M        535.534              : tdd          - TOTAL DEPTH DRILLER
RUN .         ONE                  : Run          - RUN NUMBER
ENG .         BILL                 : Engineer     - RECORDING ENGINEER
WIT .         JIM                  : Witness      - WITNESSED BY
MUD .         GEL                  : Mud_type     - MUD TYPE
MATR.         SANDSTONE            : Logunit      - NEUTRON MATRIX
TMAX.C        22.2222              : BHT          - MAXIMUM RECORDED TEMPERATURE
BHTD.M        535.534              : BHTDEP       - MAXIMUM RECORDED TEMPERATURE
RMT .C        10                   : MDTP         - TEMPERATURE OF MUD
MUDD.KG/M     9000                 : MWT          - MUD DENSITY
NEUT.         1                    : NEUTRON      - NEUTRON TYPE
RESI.         0                    : RESIST       - RESISTIVITY TYPE
RM  .OHMM     5.62                 : RM           - RESISTIVITY OF MUD
RMC .OHMM     0.25                 : RMC          - RESISTIVITY OF MUD CAKE
RMF .OHMM     5.41                 : RMF          - RESISTIVITY OF MUD FILTRATE
SUFT.C        -6.66667             : SUFT         - SURFACE TEMPERATURE
~A  DEPTH     RESD     PHIN     PHID      CAL       GR
  274.320    2.048    0.502    0.248  221.234   73.313
  274.570    2.034    0.524    0.242  219.763   74.800
  274.820    2.017    0.541    0.253  218.287   75.403
  275.070    2.097    0.549    0.279  216.813   75.417
  275.320    2.276    0.563    0.275  214.841   74.545
  275.570    2.555    0.568    0.273  212.875   73.383
  275.820    2.928    0.555    0.274  211.401   71.336
  276.070    3.305    0.542    0.270  209.925   68.992
  276.320    4.168    0.528    0.262  206.961   65.472
  276.570    5.714    0.499    0.249  204.989   61.368
  276.820   10.186    0.465    0.228  204.516   59.906
  277.070   14.953    0.447    0.219  204.538   56.095
  277.320   17.474    0.450    0.209  204.059   51.101
  277.570   19.117    0.465    0.209  203.084   45.226
  277.820   20.956    0.472    0.238  202.613   41.412
  278.070   22.404    0.449    0.261  202.633   39.658
  278.320   23.950    0.444    0.276  202.658   39.673
  278.570   23.252    0.442    0.279  202.677   41.160
  278.820   21.869    0.456    0.277  202.702   43.821
  279.070   20.389    0.471    0.286  203.223   47.370
  279.320   20.468    0.476    0.284  203.743   50.033
  279.570   21.042    0.476    0.280  203.774   50.048
  279.820   22.198    0.471    0.285  203.295   50.059
  280.070   23.939    0.455    0.300  202.821   48.895
  280.320   25.875    0.453    0.304  202.846   44.789
  280.570   27.420    0.453    0.302  202.868   44.215
  280.820   28.674    0.437    0.291  202.888   44.816
  281.070   29.732    0.424    0.275  202.913   44.240
  281.320   30.985    0.407    0.259  203.431   42.782
  281.570   32.921    0.383    0.208  204.455   40.440
  281.820   35.442    0.338    0.136  205.475   37.213
  282.070   38.355    0.275    0.094  206.494   36.933
  282.320   40.486    0.191    0.042  206.513   39.011
  282.570   40.177    0.135    0.024  207.042   39.905
  282.820   35.087    0.141    0.023  207.059   39.330
  283.070   29.998    0.164    0.039  207.580   36.695
  283.320   25.787    0.189    0.081  208.103   36.119
  283.570   22.453    0.219    0.127  208.125   39.961
  283.820   20.290    0.328    0.249  206.153   42.330
  284.070   18.615    0.399    0.281  203.688   45.876
  284.320   17.332    0.455    0.304  203.212   48.538
  284.570   15.752    0.453    0.309  202.733   46.787
  284.820   14.957    0.440    0.308  201.761   47.683
  285.070   14.162    0.452    0.295  201.788   50.051
  285.320   13.757    0.453    0.294  202.306   51.834
  285.570   13.154    0.456    0.291  202.331   50.081
  285.820   12.552    0.462    0.287  201.359   47.444
  286.070   11.952    0.459    0.276  200.883   45.691
  286.320   11.254    0.464    0.269  200.902   46.293
  286.570   11.042    0.464    0.261  200.924   48.367
  286.820   11.023    0.447    0.255  201.451   48.676
  287.070   11.008    0.449    0.252  200.972   44.862
  287.320   10.896    0.456    0.247  199.997   43.406
  287.570   10.590    0.436    0.249  199.520   45.771
  287.820   10.282    0.458    0.257  199.052   51.969
  288.070    9.583    0.494    0.257  199.074   56.105
  288.320    8.885    0.507    0.265  198.593   54.353
  288.570    8.382    0.512    0.264  199.116   52.602
  288.820    7.975    0.509    0.261  200.634   52.611
  289.070    8.153    0.479    0.260  202.653   52.626
  289.320    8.530    0.455    0.260  203.675   51.758
  289.570    8.808    0.468    0.249  205.190   48.827
  289.820    8.787    0.425    0.227  203.717   45.899
  290.070    8.579    0.332    0.207  204.246   43.555
  290.320    8.078    0.362    0.208  210.743   51.223
  290.570    7.476    0.414    0.223  222.736   64.779
  290.820    6.876    0.443    0.237  219.770   71.269
  291.070    5.782    0.472    0.244  221.781   73.051
  291.320    5.086    0.505    0.244  220.313   73.947
  291.570    4.387    0.515    0.244  215.848   75.434
  291.820    4.077    0.513    0.242  214.372   75.741
  292.070    3.871    0.499    0.236  213.402   75.754
  292.320    3.756    0.488    0.243  211.932   76.654
  292.570    3.644    0.486    0.249  211.450   76.374
  292.820    3.529    0.495    0.256  210.976   75.207
  293.070    3.512    0.506    0.254  213.494   74.925
  293.320    3.499    0.526    0.254  217.003   77.001
  293.570    3.482    0.552    0.253  218.527   77.897
  293.820    3.467    0.557    0.245  218.047   78.208
  294.070    3.648    0.568    0.250  221.061   77.043
  294.320    3.828    0.571    0.255  223.080   74.701
  294.570    4.203    0.544    0.255  214.630   72.063
  294.820    4.676    0.511    0.252  210.664   66.484
  295.070    5.439    0.498    0.247  207.700   65.025
  295.320    6.105    0.502    0.248  207.221   64.743
  295.570    6.576    0.497    0.261  206.742   60.931
  295.820    6.857    0.484    0.261  206.268   56.528
  296.070    6.938    0.458    0.257  205.299   52.713
  296.320    6.825    0.444    0.255  204.822   50.962
  296.570    6.613    0.458    0.255  205.842   52.741
  296.820    6.403    0.463    0.253  205.864   56.582
  297.070    6.386    0.459    0.250  205.889   62.190
  297.320    6.567    0.475    0.249  206.407   64.853
  297.570    6.938    0.462    0.249  206.407   60.746
  297.820    7.606    0.447    0.253  206.952   57.815
  298.070    8.180    0.444    0.257  212.464   54.590
  298.320    9.236    0.463    0.263  215.475   50.775
  298.570    9.906    0.456    0.273  215.500   44.017
  298.820   10.476    0.432    0.294  209.038   38.732
  299.070   10.165    0.376    0.269  203.576   41.985
  299.320    9.761    0.400    0.256  202.601   55.247
  299.570    9.161    0.419    0.239  202.632   60.854
  299.820    8.264    0.436    0.238  202.654   64.695
  300.070    7.666    0.436    0.245  202.671   70.303
  300.320    6.867    0.409    0.242  204.194   79.738
  300.570    6.167    0.409    0.241  206.706   83.874
  300.820    5.859    0.423    0.233  210.226   87.715
  301.070    5.846    0.446    0.226  211.744   87.437
  301.320    5.828    0.472    0.227  212.265   80.384
  301.570    6.011    0.489    0.225  212.293   77.746
  301.820    6.285    0.486    0.227  212.309   77.170
  302.070    6.565    0.472    0.220  213.329   76.010
  302.320    6.841    0.457    0.204  215.348   74.255
  302.570    6.726    0.446    0.202  218.857   73.679
  302.820    6.126    0.428    0.198  227.853   73.398
  303.070    5.332    0.427    0.191  215.417   75.472
  303.320    4.434    0.476    0.191  210.451   79.609
  303.570    4.325    0.492    0.194  208.485   82.566
  303.820    4.503    0.512    0.205  208.008   81.403
  304.070    5.169    0.521    0.201  207.529   80.534
  304.320    6.323    0.536    0.196  205.560   81.724
  304.570    7.190    0.542    0.225  204.086   83.798
  304.820    8.443    0.519    0.254  203.624   78.219
  305.070   10.281    0.493    0.264  203.134   73.523
  305.320   12.022    0.435    0.270  203.134   72.360
  305.570   12.495    0.441    0.265  203.189   72.665
  305.820   11.696    0.425    0.263  203.203   73.562
  306.070   11.000    0.403    0.255  203.233   75.343
  306.320    9.910    0.396    0.252  203.250   77.124
  306.570    8.625    0.423    0.255  203.776   77.136
  306.820    7.244    0.432    0.258  204.294   76.858
  307.070    6.154    0.437    0.255  205.314   75.693
  307.320    5.651    0.475    0.250  206.834   75.117
  307.570    6.025    0.501    0.248  210.850   76.012
  307.820    6.691    0.501    0.256  213.861   76.028
  308.070    7.263    0.484    0.267  214.384   73.096
  308.320    8.615    0.487    0.275  211.917   67.221
  308.570   12.015    0.480    0.295  208.443   61.640
  308.820   16.001    0.455    0.293  204.480   54.589
  309.070   19.205    0.443    0.275  203.508   50.480
  309.320   22.114    0.443    0.272  203.527   48.728
  309.570   21.906    0.442    0.270  204.048   50.509
  309.820   20.816    0.448    0.269  204.076   52.287
  310.070   20.021    0.448    0.269  203.599   54.363
  310.320   19.712    0.449    0.273  203.126   55.851
  310.570   18.622    0.454    0.296  202.148   55.570
