~VERSION INFORMATION
 VERS.                 2.0:   CWLS LOG ASCII STANDARD -VERSION 2.0
 WRAP.                  NO:   ONE LINE PER DEPTH STEP
~WELL INFORMATION BLOCK
#MNEM.UNIT           DATA                    DESCRIPTION OF MNEMONIC
#---------    -------------------            -------------------------------
# Generated from Intellog Unique Number	CW_82_90/WELL/3424
WELL.         PARA ET AL LIEGE               : Well_name    - WELL
LOC .         00/06-35-090-19W4/0            : Location     - LOCATION
UWI .         00/06-35-090-19W4/0            : Uwi          - UNIQUE WELL ID
ENTR.         MAX                            : Entered      - ENTERED BY
SRVC.         WESTERN ATLAS                  : Scn          - SERVICE COMPANY
STRT.M        70                             : top_depth    - START DEPTH
STOP.M        227                            : bot_depth    - STOP DEPTH
STEP.M        0.25                           : increment    - STEP LENGTH
 NULL. -999.2500:NULL Value
~CURVE INFORMATION BLOCK
#MNEM UNIT       ERCB CURVE CODE    CURVE DESCRIPTION
#-----------   ------------------   ----------------------------------
DEPT.M        00 001 00 00         : DEPTH        - DEPTH
ILD .OHMM     00 120 00 00         : RESD         - DEEP RESISTIVITY (DIL)
CALI.MM       00 280 01 00         : CAL          - CALIPER
DPHI.V/V      00 890 00 00         : PHID         - DENSITY POROSITY (SANDSTONE)
NPHI.V/V      00 330 00 00         : PHIN         - NEUTRON POROSITY (SANDSTONE)
GR  .API      00 310 00 00         : GR           - GAMMA RAY
~PARAMETER INFORMATION
#MNEM.UNIT           DATA             DESCRIPTION OF MNEMONIC
#---------         -----------     ------------------------------
GL  .M        515.5                : gl           - GROUND LEVEL ELEVATION
EREF.M        519.3                : kb           - ELEVATION OF DEPTH REFERENCE
DATM.M        515.5                : datum        - DATUM ELEVATION
TDD .M        227                  : tdd          - TOTAL DEPTH DRILLER
RUN .         ONE                  : Run          - RUN NUMBER
ENG .         BILL                 : Engineer     - RECORDING ENGINEER
WIT .         JIM                  : Witness      - WITNESSED BY
MUD .         GEL                  : Mud_type     - MUD TYPE
MATR.         SANDSTONE            : Logunit      - NEUTRON MATRIX
TMAX.C        20                   : BHT          - MAXIMUM RECORDED TEMPERATURE
BHTD.M        226                  : BHTDEP       - MAXIMUM RECORDED TEMPERATURE
MATR.         1                    : LOGUNIT      - NEUTRON MATRIX
RMT .C        17                   : MDTP         - TEMPERATURE OF MUD
NEUT.         1                    : NEUTRON      - NEUTRON TYPE
RESI.         0                    : RESIST       - RESISTIVITY TYPE
RMC .OHMM     3                    : RMC          - RESISTIVITY OF MUD CAKE
RMF .OHMM     3                    : RMF          - RESISTIVITY OF MUD FILTRATE
SUFT.C        -15                  : SUFT         - SURFACE TEMPERATURE
~A  DEPTH     RESD      CAL     PHID     PHIN       GR
# ...
  179.500   14.735  160.598    0.246    0.378   83.107
  179.750   14.463  160.010    0.239    0.383   86.090
  180.000   14.732  159.923    0.244    0.379   80.225
  180.250   15.286  159.826    0.273    0.373   74.069
  180.500   16.611  160.240    0.292    0.362   67.030
  180.750   17.886  160.153    0.307    0.356   63.526
  181.000   19.983  160.066    0.273    0.347   60.907
  181.250   21.716  159.968    0.195    0.323   62.412
  181.500   21.514  160.393    0.171    0.316   59.199
  181.750   20.163  160.808    0.177    0.317   57.169
  182.000   19.428  160.710    0.215    0.315   54.549
  182.250   18.721  161.113    0.243    0.315   57.826
  182.500   18.719  161.549    0.279    0.323   55.501
  182.750   19.244  161.942    0.243    0.335   56.417
  183.000   19.601  161.877    0.153    0.329   54.976
  183.250   19.965  161.790    0.151    0.312   50.887
  183.500   19.963  161.681    0.168    0.311   51.214
  183.750   19.777  162.085    0.184    0.322   52.126
  184.000   19.413  163.011    0.223    0.346   53.047
  184.250   19.411  163.926    0.249    0.363   55.137
  184.500   18.704  164.842    0.278    0.387   54.875
  184.750   20.139  164.744    0.300    0.406   57.862
  185.000   25.612  164.679    0.315    0.411   56.715
  185.250   30.248  164.592    0.085    0.381   55.565
  185.500   29.967  164.505    0.086    0.309   58.838
  185.750   30.242  164.897    0.115    0.304   58.584
  186.000   31.965  164.832    0.140    0.309   58.608
  186.250   34.737  165.225    0.232    0.316   58.051
  186.500   37.401  165.127    0.182    0.319   56.024
  186.750   34.410  165.062    0.113    0.311   57.231
  187.000   24.661  165.476    0.091    0.301   61.982
  187.250   19.209  165.378    0.086    0.283   68.496
  187.500   14.824  165.803    0.125    0.254   82.087
  187.750   13.265  165.706    0.184    0.270   89.485
  188.000   13.021  165.619    0.199    0.317   91.285
  188.250   13.019  165.543    0.167    0.350   75.112
  188.500   13.261  165.445    0.094    0.376   77.210
  188.750   13.759  165.859    0.133    0.372   86.962
  189.000   14.409  165.772    0.178    0.385   86.405
  189.250   15.090  165.685    0.185    0.389   82.022
  189.500   15.370  165.599    0.155    0.383   81.755
  189.750   15.087  165.501    0.124    0.365   83.265
  190.000   14.403  165.403    0.083    0.354   91.252
  190.250   13.624  165.338    0.114    0.345   94.231
  190.500   13.250  165.251    0.195    0.361   87.781
  190.750   13.127  165.665    0.204    0.373   79.276
  191.000   13.005  165.557    0.144    0.370   81.367
  191.250   12.883  165.481    0.137    0.359   83.757
  191.500   12.882  165.394    0.152    0.358   87.030
  191.750   12.881  163.792    0.165    0.366   87.353
  192.000   12.880  163.716    0.192    0.384   90.335
  192.250   12.878  164.131    0.200    0.397   89.782
  192.500   12.997  164.523    0.159    0.405   86.868
  192.750   13.238  164.948    0.118    0.399   86.602
  193.000   13.484  165.352    0.148    0.379   86.049
  193.250   13.608  165.766    0.190    0.376   84.603
  193.500   12.753  165.690    0.207    0.384   75.497
  193.750   13.111  166.594    0.202    0.391   60.797
  194.000   14.514  167.009    0.163    0.378   60.534
  194.250   15.060  166.911    0.011    0.322   78.544
  194.500   13.728  166.846    0.085    0.304  100.090
  194.750   12.059  167.249    0.188    0.321   94.524
  195.000   10.691  167.162    0.205    0.345   97.503
  195.250   10.302  167.075    0.206    0.393   96.946
  195.500   10.689  166.476    0.169    0.401   89.317
  195.750   11.298  166.400    0.132    0.388   85.228
  196.000   12.278  166.313    0.121    0.374   88.792
  196.250   12.277  166.216    0.142    0.370   87.940
  196.500   11.506  166.129    0.179    0.378   81.785
  196.750   11.938  165.541    0.042    0.387   84.174
  197.000   11.718  164.942    0.101    0.377   96.590
  197.250   12.047  164.866    0.167    0.389   96.323
  197.500   12.616  164.779    0.183    0.419   90.172
  197.750   12.969  164.692    0.196    0.410   89.909
  198.000   13.088  164.605    0.222    0.380   91.706
  198.250   13.581  164.017    0.227    0.365   89.086
  198.500   15.456  163.919    0.199    0.352   85.292
  198.750   16.186  164.333    0.171    0.343   81.784
  199.000   16.487  164.257    0.130    0.323   83.584
  199.250   16.183  164.672    0.063    0.312   90.393
  199.500   15.028  165.086    0.122    0.318   92.783
  199.750   12.839  164.498    0.173    0.347   93.699
  200.000   11.704  159.517    0.187    0.376   93.441
  200.250   11.488  160.010    0.172    0.388   94.946
  200.500   11.810  160.010    0.169    0.404   97.925
  200.750   11.592  160.503    0.156    0.406   96.189
  201.000   10.865  162.475    0.131    0.381   90.917
  201.250    9.812  165.434    0.183    0.382  102.445
  201.500    9.455  165.927    0.216    0.403  110.433
  201.750    9.281  164.448    0.226    0.423  107.519
  202.000    9.280  161.489    0.226    0.440   99.296
  202.250    9.629  159.517    0.200    0.436   87.248
  202.500   10.177  159.024    0.101    0.420   73.431
  202.750   11.162  159.517    0.071    0.396   85.548
  203.000   11.475  160.010    0.201    0.362   94.719
  203.250   10.855  160.503    0.226    0.394  103.881
  203.500    9.987  162.475    0.228    0.408  103.619
  203.750    9.103  164.448    0.224    0.414  105.714
  204.000    8.772  164.941    0.222    0.414  108.991
  204.250    8.531  163.462    0.224    0.413  106.961
  204.500    8.373  163.462    0.218    0.412  102.876
  204.750    8.373  162.475    0.214    0.417  105.257
  205.000    8.528  161.489    0.213    0.419  107.945
  205.250    8.849  160.996    0.213    0.417  106.210
  205.500    9.181  160.010    0.206    0.415  104.470
  205.750    9.886  158.037    0.180    0.409  103.618
  206.000   11.148  157.544    0.163    0.377  100.114
  206.250   12.227  156.558    0.123    0.358   89.240
  206.500   13.043  156.065    0.087    0.335   37.405
  206.750   13.534  156.558    0.173    0.334   31.544
  207.000   13.533  157.051    0.276    0.331   34.818
  207.250   13.283  157.544    0.303    0.327   33.377
  207.500   13.530  156.558    0.319    0.327   31.645
  207.750   14.568  156.065    0.333    0.338   31.378
  208.000   16.734  155.079    0.331    0.342   32.884
  208.250   19.948  155.079    0.333    0.352   37.635
  208.500   26.570  155.572    0.333    0.363   45.627
  208.750   34.105  156.065    0.331    0.369   50.083
  209.000   39.909  155.572    0.330    0.375   45.098
  209.250   48.911  155.572    0.331    0.378   39.241
  209.500   58.304  155.572    0.332    0.381   39.862
  209.750   66.975  155.572    0.325    0.390   36.359
  210.000   75.526  155.079    0.326    0.395   32.855
  210.250   82.073  154.586    0.329    0.410   31.119
  210.500   83.599  154.586    0.323    0.411   30.853
  210.750   83.590  155.079    0.324    0.402   29.412
  211.000   83.582  155.572    0.326    0.393   29.448
  211.250   82.041  155.572    0.321    0.392   32.427
  211.500   81.278  155.572    0.315    0.391   35.700
  211.750   82.025  155.572    0.310    0.392   35.147
  212.000   83.549  155.572    0.309    0.397   32.531
  212.250   86.688  156.065    0.311    0.399   31.672
  212.500   89.119  156.065    0.317    0.396   32.882
  212.750   93.327  156.558    0.320    0.392   34.093
  213.000   96.837  156.558    0.328    0.397   32.652
  213.250  101.411  156.065    0.324    0.400   30.626
  213.500  105.223  155.572    0.318    0.388   32.135
  213.750  108.171  155.572    0.312    0.388   31.574
  214.000  111.206  156.065    0.319    0.389   28.361
  214.250  113.268  157.051    0.338    0.383   27.215
  214.500  113.259  157.051    0.339    0.385   26.956
  214.750  113.247  157.051    0.336    0.392   26.992
  215.000  111.161  157.051    0.340    0.385   29.672
  215.250  109.112  158.037    0.349    0.378   33.830
  215.500  106.114  158.531    0.348    0.381   30.915
  215.750  104.159  158.531    0.343    0.390   29.478
