~VERSION INFORMATION
 VERS.                 2.0:   CWLS LOG ASCII STANDARD -VERSION 2.0
 WRAP.                  NO:   ONE LINE PER DEPTH STEP
~WELL INFORMATION BLOCK
#MNEM.UNIT           DATA                    DESCRIPTION OF MNEMONIC
#---------    -------------------            -------------------------------
# Generated from Intellog Unique Number	CS_73_76/WELL/774
WELL.         BOW VALLEY INDUSTRIES LTD.     : Well_name    - WELL
LOC .         00/07-33-073-16W4/0            : Location     - LOCATION
UWI .         00/07-33-073-16W4/0            : Uwi          - UNIQUE WELL ID
ENTR.         SP                             : Entered      - ENTERED BY
SRVC.         SCHLUMBERGER                   : Scn          - SERVICE COMPANY
STRT.M        245                            : top_depth    - START DEPTH
STOP.M        461                            : bot_depth    - STOP DEPTH
STEP.M        0.25                           : increment    - STEP LENGTH
 NULL. -999.2500:NULL Value
~CURVE INFORMATION BLOCK
#MNEM UNIT       ERCB CURVE CODE    CURVE DESCRIPTION
#-----------   ------------------   ----------------------------------
DEPT.M        00 001 00 00         : DEPTH        - DEPTH
ILD .OHMM     00 120 00 00         : RESD         - DEEP RESISTIVITY (DIL)
DPHI.V/V      00 890 00 00         : PHID         - DENSITY POROSITY (LIMESTONE)
NPHI.V/V      00 330 00 00         : PHIN         - NEUTRON POROSITY (LIMESTONE)
GR  .API      00 310 00 00         : GR           - GAMMA RAY
~PARAMETER INFORMATION
#MNEM.UNIT           DATA             DESCRIPTION OF MNEMONIC
#---------         -----------     ------------------------------
GL  .M        586.26               : gl           - GROUND LEVEL ELEVATION
EREF.M        589.81               : kb           - ELEVATION OF DEPTH REFERENCE
DATM.M        586.26               : datum        - DATUM ELEVATION
TDD .M        463                  : tdd          - TOTAL DEPTH DRILLER
RUN .         ONE                  : Run          - RUN NUMBER
ENG .         BILL                 : Engineer     - RECORDING ENGINEER
WIT .         JIM                  : Witness      - WITNESSED BY
MUD .         GEL                  : Mud_type     - MUD TYPE
MATR.         LIMESTONE            : Logunit      - NEUTRON MATRIX
TMAX.C        23                   : BHT          - MAXIMUM RECORDED TEMPERATURE
BHTD.M        463                  : BHTDEP       - MAXIMUM RECORDED TEMPERATURE
MATR.         1                    : LOGUNIT      - NEUTRON MATRIX
RMT .C        25                   : MDTP         - TEMPERATURE OF MUD
NEUT.         1                    : NEUTRON      - NEUTRON TYPE
RESI.         0                    : RESIST       - RESISTIVITY TYPE
RMC .OHMM     0.25                 : RMC          - RESISTIVITY OF MUD CAKE
RMF .OHMM     0.25                 : RMF          - RESISTIVITY OF MUD FILTRATE
SUFT.C        15                   : SUFT         - SURFACE TEMPERATURE
~A  DEPTH     RESD     PHID     PHIN       GR
# ...
  332.000    4.646    0.221    0.469   98.917
  332.250    3.999    0.216    0.450   97.704
  332.500    3.711    0.212    0.442   96.489
  332.750    3.643    0.208    0.441   95.277
  333.000    3.855    0.205    0.437   94.061
  333.250    4.079    0.203    0.448   92.237
  333.500    4.654    0.227    0.467   86.755
  333.750    5.308    0.263    0.477   79.443
  334.000    6.055    0.289    0.459   69.081
  334.250    6.779    0.318    0.445   60.551
  334.500    7.879    0.336    0.426   62.996
  334.750    8.496    0.340    0.417   67.879
  335.000    8.340    0.324    0.410   74.592
  335.250    6.660    0.307    0.413   81.307
  335.500    5.733    0.293    0.439   84.359
  335.750    5.028    0.303    0.473   89.243
  336.000    4.247    0.311    0.499   89.859
  336.250    3.796    0.276    0.510   80.720
  336.500    4.412    0.287    0.489   74.627
  336.750    5.129    0.312    0.477   70.363
  337.000    5.530    0.334    0.459   66.101
  337.250    6.075    0.347    0.454   65.499
  337.500    6.801    0.355    0.448   64.894
  337.750    7.906    0.352    0.443   63.679
  338.000    8.851    0.344    0.437   63.684
  338.250    9.020    0.339    0.430   64.909
  338.500    9.370    0.341    0.452   67.355
  338.750    9.372    0.346    0.467   67.969
  339.000    9.375    0.337    0.472   65.537
  339.250    9.376    0.331    0.465   63.102
  339.500    9.737    0.334    0.454   60.059
  339.750   10.304    0.348    0.456   63.114
  340.000   10.306    0.356    0.465   67.999
  340.250   10.309    0.358    0.465   66.784
  340.500   10.120    0.343    0.454   64.963
  340.750    9.935    0.336    0.446   64.966
  341.000    9.752    0.332    0.441   64.972
  341.250    9.395    0.332    0.439   64.978
  341.500    9.052    0.332    0.440   65.593
  341.750    8.886    0.338    0.438   66.817
  342.000    8.888    0.349    0.436   61.947
  342.250    8.725    0.353    0.432   60.121
  342.500    8.565    0.346    0.424   60.128
  342.750    8.567    0.341    0.422   62.571
  343.000    8.569    0.341    0.433   67.457
  343.250    8.571    0.342    0.450   69.290
  343.500    8.737    0.340    0.468   71.126
  343.750    8.738    0.332    0.480   71.131
  344.000    8.740    0.329    0.467   69.918
  344.250    8.743    0.337    0.457   68.706
  344.500    8.582    0.336    0.445   68.100
  344.750    8.585    0.333    0.452   67.495
  345.000    8.587    0.338    0.457   66.891
  345.250    8.589    0.343    0.449   66.896
  345.500    8.592    0.336    0.452   67.511
  345.750    8.593    0.326    0.457   68.737
  346.000    8.596    0.317    0.452   72.402
  346.250    8.762    0.308    0.450   73.627
  346.500    8.764    0.302    0.451   72.414
  346.750    8.932    0.311    0.445   71.809
  347.000    8.934    0.314    0.431   72.423
  347.250    8.937    0.320    0.425   74.259
  347.500    8.939    0.316    0.424   76.704
  347.750    8.941    0.305    0.428   76.099
  348.000    8.944    0.300    0.431   72.447
  348.250    8.946    0.310    0.434   72.451
  348.500    8.948    0.312    0.436   74.898
  348.750    8.950    0.311    0.440   76.122
  349.000    8.787    0.303    0.443   73.079
  349.250    8.789    0.298    0.436   71.256
  349.500    8.791    0.305    0.432   73.090
  349.750    8.793    0.320    0.441   74.314
  350.000    8.795    0.307    0.456   77.371
  350.250    8.965    0.303    0.464   77.985
  350.500    8.967    0.289    0.470   78.601
  350.750    8.969    0.254    0.475   77.387
  351.000    9.141    0.214    0.461   72.515
  351.250    9.317    0.191    0.350   68.250
  351.500    9.496    0.000    0.156   59.110
  351.750   10.833    0.000    0.147   53.628
  352.000   12.357    0.000    0.143   51.803
  352.250   14.362    0.000    0.140   51.200
  352.500   21.307    0.005    0.159   59.743
  352.750   31.611    0.058    0.258   67.678
  353.000   38.871    0.173    0.313   70.730
  353.250   31.040    0.264    0.364   73.174
  353.500   22.145    0.290    0.405   75.008
  353.750   15.801    0.312    0.435   70.749
  354.000   13.348    0.324    0.430   68.314
  354.250   12.385    0.333    0.427   65.879
  354.500   12.864    0.311    0.424   62.837
  354.750   13.109    0.304    0.405   62.232
  355.000   12.870    0.308    0.400   62.239
  355.250   12.633    0.321    0.398   61.635
  355.500   11.945    0.328    0.411   61.030
  355.750   11.083    0.323    0.416   60.426
  356.000   10.479    0.334    0.424   60.431
  356.250    9.366    0.338    0.433   60.437
  356.500    9.194    0.344    0.448   59.223
  356.750    8.532    0.346    0.457   59.838
  357.000    8.374    0.348    0.439   62.893
  357.250    8.069    0.351    0.431   62.288
  357.500    8.070    0.354    0.421   64.123
  357.750    7.923    0.361    0.425   65.959
  358.000    7.777    0.363    0.427   65.354
  358.250    7.634    0.365    0.433   64.142
  358.500    7.637    0.359    0.426   64.757
  358.750    7.638    0.354    0.416   65.980
  359.000    7.640    0.359    0.416   69.036
  359.250    7.787    0.360    0.422   71.484
  359.500    7.789    0.345    0.439   73.319
  359.750    7.791    0.338    0.453   76.979
  360.000    7.794    0.335    0.452   78.205
  360.250    7.795    0.334    0.450   76.381
  360.500    7.798    0.334    0.447   72.117
  360.750    7.654    0.330    0.443   71.515
  361.000    7.656    0.325    0.444   72.739
  361.250    7.659    0.320    0.442   74.575
  361.500    7.660    0.313    0.440   75.800
  361.750    7.663    0.303    0.437   74.587
  362.000    7.522    0.281    0.443   73.372
  362.250    7.523    0.269    0.438   70.938
  362.500    7.526    0.263    0.440   72.772
  362.750    7.527    0.271    0.448   76.437
  363.000    7.529    0.291    0.453   80.103
  363.250    7.531    0.300    0.440   81.937
  363.500    7.533    0.311    0.421   82.553
  363.750    7.258    0.288    0.415   85.607
  364.000    6.366    0.268    0.444   93.540
  364.250    5.689    0.249    0.487   96.593
  364.500    4.717    0.239    0.475   96.599
  364.750    4.377    0.235    0.460   99.043
  365.000    4.061    0.233    0.466   97.832
  365.250    3.912    0.230    0.478   98.445
  365.500    4.063    0.224    0.467  100.892
  365.750    4.299    0.230    0.461  101.507
  366.000    4.813    0.233    0.468  101.511
  366.250    5.190    0.247    0.455  100.909
  366.500    5.492    0.257    0.446  100.304
  366.750    5.922    0.260    0.434   96.650
  367.000    6.266    0.250    0.434   91.168
  367.250    6.757    0.242    0.439   97.273
  367.500    6.887    0.239    0.446   98.495
  367.750    7.152    0.232    0.447   93.623
  368.000    7.154    0.230    0.449   89.361
  368.250    7.157    0.221    0.451   97.294
  368.500    7.158    0.222    0.451  100.347
  368.750    7.160    0.227    0.447  100.356
  369.000    7.029    0.233    0.440   99.142
  369.250    7.030    0.237    0.433   97.319
  369.500    6.901    0.244    0.428   96.103
  369.750    6.903    0.248    0.444   95.499
  370.000    6.905    0.248    0.465   96.113
  370.250    6.778    0.251    0.474   96.731
  370.500    6.654    0.254    0.461   96.734
  370.750    6.532    0.254    0.441   94.911
  371.000    6.534    0.251    0.441   90.041
  371.250    6.536    0.259    0.457   87.606
  371.500    6.661    0.277    0.461   85.781
  371.750    6.789    0.282    0.463   82.738
  372.000    7.051    0.255    0.460   79.085
  372.250    7.186    0.206    0.445   77.871
  372.500    7.187    0.231    0.434   76.656
  372.750    7.189    0.282    0.434   72.394
  373.000    7.058    0.297    0.450   67.523
  373.250    6.928    0.327    0.448   65.697
  373.500    6.930    0.338    0.429   62.046
  373.750    6.933    0.332    0.418   60.831
  374.000    7.065    0.335    0.425   59.618
  374.250    7.067    0.339    0.433   58.404
  374.500    7.203    0.342    0.434   57.189
  374.750    7.204    0.346    0.423   57.804
  375.000    7.207    0.347    0.410   57.203
  375.250    7.208    0.335    0.425   56.597
