~VERSION INFORMATION
 VERS.                 2.0:   CWLS LOG ASCII STANDARD -VERSION 2.0
 WRAP.                  NO:   ONE LINE PER DEPTH STEP
~WELL INFORMATION BLOCK
#MNEM.UNIT           DATA                    DESCRIPTION OF MNEMONIC
#---------    -------------------            -------------------------------
# Generated from Intellog Unique Number	CS_71_72/WELL/819
WELL.         AMOCO AEC IPIATIK              : Well_name    - WELL
LOC .         00/07-28-072-04W4/0            : Location     - LOCATION
UWI .         00/07-28-072-04W4/0            : Uwi          - UNIQUE WELL ID
ENTR.         SP                             : Entered      - ENTERED BY
SRVC.         SCHLUMBERGER                   : Scn          - SERVICE COMPANY
STRT.M        315                            : top_depth    - START DEPTH
STOP.M        510                            : bot_depth    - STOP DEPTH
STEP.M        0.25                           : increment    - STEP LENGTH
 NULL. -999.2500:NULL Value
~CURVE INFORMATION BLOCK
#MNEM UNIT       ERCB CURVE CODE    CURVE DESCRIPTION
#-----------   ------------------   ----------------------------------
DEPT.M        00 001 00 00         : DEPTH        - DEPTH
ILD .OHMM     00 120 00 00         : RESD         - DEEP RESISTIVITY (DIL)
DPHI.V/V      00 890 00 00         : PHID         - DENSITY POROSITY (LIMESTONE)
NPHI.V/V      00 330 00 00         : PHIN         - NEUTRON POROSITY (LIMESTONE)
GR  .API      00 310 00 00         : GR           - GAMMA RAY
~PARAMETER INFORMATION
#MNEM.UNIT           DATA             DESCRIPTION OF MNEMONIC
#---------         -----------     ------------------------------
GL  .M        697.26               : gl           - GROUND LEVEL ELEVATION
EREF.M        701.51               : kb           - ELEVATION OF DEPTH REFERENCE
DATM.M        697.26               : datum        - DATUM ELEVATION
TDD .M        529.8                : tdd          - TOTAL DEPTH DRILLER
RUN .         ONE                  : Run          - RUN NUMBER
ENG .         BILL                 : Engineer     - RECORDING ENGINEER
WIT .         JIM                  : Witness      - WITNESSED BY
MUD .         GEL                  : Mud_type     - MUD TYPE
MATR.         LIMESTONE            : Logunit      - NEUTRON MATRIX
TMAX.C        21                   : BHT          - MAXIMUM RECORDED TEMPERATURE
BHTD.M        529.8                : BHTDEP       - MAXIMUM RECORDED TEMPERATURE
MATR.         1                    : LOGUNIT      - NEUTRON MATRIX
RMT .C        25                   : MDTP         - TEMPERATURE OF MUD
NEUT.         1                    : NEUTRON      - NEUTRON TYPE
RESI.         0                    : RESIST       - RESISTIVITY TYPE
RMC .OHMM     0.25                 : RMC          - RESISTIVITY OF MUD CAKE
RMF .OHMM     0.25                 : RMF          - RESISTIVITY OF MUD FILTRATE
SUFT.C        15                   : SUFT         - SURFACE TEMPERATURE
~A  DEPTH     RESD     PHID     PHIN       GR
# ...
  402.000    1.177    0.267    0.523   75.245
  402.250    1.074    0.271    0.526   75.862
  402.500    1.017    0.255    0.497   77.085
  402.750    0.927    0.242    0.513   75.272
  403.000    0.894    0.229    0.532   71.029
  403.250    0.878    0.250    0.542   66.178
  403.500    0.896    0.288    0.530   60.721
  403.750    0.948    0.307    0.498   57.692
  404.000    0.984    0.321    0.472   54.061
  404.250    0.985    0.316    0.469   53.458
  404.500    0.967    0.307    0.468   55.292
  404.750    0.950    0.294    0.469   56.513
  405.000    0.916    0.289    0.474   58.347
  405.250    0.884    0.288    0.487   58.353
  405.500    0.868    0.290    0.484   58.969
  405.750    0.869    0.288    0.478   58.979
  406.000    0.869    0.285    0.475   58.381
  406.250    0.903    0.289    0.480   57.779
  406.500    0.955    0.293    0.487   59.004
  406.750    1.049    0.295    0.474   59.619
  407.000    1.109    0.299    0.467   59.018
  407.250    1.152    0.303    0.451   55.383
  407.500    1.153    0.296    0.449   54.176
  407.750    1.133    0.288    0.459   56.615
  408.000    1.113    0.280    0.468   62.092
  408.250    1.093    0.263    0.457   63.920
  408.500    1.094    0.249    0.435   66.968
  408.750    1.136    0.228    0.421   67.580
  409.000    1.180    0.248    0.469   65.160
  409.250    1.248    0.285    0.496   64.564
  409.500    1.320    0.294    0.498   67.611
  409.750    1.397    0.304    0.487   70.655
  410.000    1.478    0.294    0.482   73.091
  410.250    1.563    0.284    0.483   76.135
  410.500    1.564    0.263    0.485   79.184
  410.750    1.566    0.254    0.475   80.403
  411.000    1.538    0.263    0.480   82.232
  411.250    1.568    0.273    0.499   82.241
  411.500    1.659    0.245    0.516   77.999
  411.750    1.691    0.245    0.528   69.507
  412.000    1.789    0.263    0.523   64.655
  412.250    1.892    0.273    0.520   66.485
  412.500    1.965    0.276    0.506   71.355
  412.750    2.118    0.267    0.489   73.790
  413.000    2.241    0.249    0.515   76.230
  413.250    2.327    0.234    0.533   78.059
  413.500    2.372    0.235    0.515   80.497
  413.750    2.418    0.249    0.518   81.721
  414.000    2.420    0.233    0.521   81.729
  414.250    2.334    0.240    0.518   79.917
  414.500    2.292    0.246    0.519   78.103
  414.750    2.294    0.244    0.535   78.718
  415.000    2.296    0.257    0.523   79.335
  415.250    2.429    0.241    0.538   79.341
  415.500    2.522    0.248    0.550   78.742
  415.750    2.668    0.268    0.553   75.717
  416.000    2.823    0.286    0.580   73.902
  416.250    2.986    0.286    0.592   75.126
  416.500    3.101    0.252    0.569   75.744
  416.750    3.221    0.236    0.534   75.143
  417.000    3.344    0.245    0.519   73.329
  417.250    3.410    0.252    0.499   72.732
  417.500    3.412    0.245    0.488   73.347
  417.750    3.352    0.241    0.487   73.961
  418.000    3.293    0.236    0.500   74.581
  418.250    3.235    0.246    0.511   75.194
  418.500    3.179    0.255    0.491   77.027
  418.750    3.122    0.265    0.486   78.856
  419.000    3.067    0.238    0.506   80.077
  419.250    3.013    0.234    0.526   81.909
  419.500    2.905    0.252    0.542   83.133
  419.750    2.751    0.231    0.535   83.746
  420.000    2.702    0.236    0.523   85.580
  420.250    2.511    0.240    0.512   86.195
  420.500    2.422    0.225    0.521   86.202
  420.750    2.378    0.223    0.520   85.604
  421.000    2.381    0.236    0.523   84.399
  421.250    2.427    0.233    0.548   83.193
  421.500    2.474    0.238    0.554   83.201
  421.750    2.522    0.225    0.561   84.424
  422.000    2.619    0.212    0.553   85.647
  422.250    2.671    0.207    0.559   85.655
  422.500    2.672    0.225    0.542   85.060
  422.750    2.724    0.210    0.545   84.457
  423.000    2.726    0.204    0.548   83.860
  423.250    2.728    0.199    0.530   83.258
  423.500    2.679    0.219    0.533   83.270
  423.750    2.732    0.212    0.568   84.493
  424.000    2.890    0.204    0.605   85.107
  424.250    3.057    0.230    0.625   86.331
  424.500    3.234    0.233    0.619   85.732
  424.750    3.486    0.237    0.602   85.132
  425.000    3.553    0.259    0.572   83.320
  425.250    3.690    0.262    0.565   81.506
  425.500    3.762    0.255    0.559   79.693
  425.750    3.765    0.243    0.524   78.486
  426.000    3.699    0.234    0.480   78.496
  426.250    3.567    0.219    0.496   78.506
  426.500    3.569    0.219    0.503   79.118
  426.750    3.507    0.226    0.488   80.344
  427.000    3.508    0.238    0.493   82.176
  427.250    3.578    0.234    0.502   82.788
  427.500    3.580    0.229    0.506   84.011
  427.750    3.649    0.248    0.510   80.381
  428.000    3.790    0.260    0.538   78.564
  428.250    3.936    0.267    0.534   75.539
  428.500    4.087    0.272    0.520   74.937
  428.750    4.324    0.278    0.517   73.732
  429.000    4.408    0.281    0.514   74.350
  429.250    4.412    0.263    0.517   74.354
  429.500    4.415    0.243    0.537   71.936
  429.750    4.418    0.250    0.501   70.123
  430.000    4.341    0.276    0.483   70.739
  430.250    4.342    0.280    0.476   71.353
  430.500    4.347    0.280    0.480   72.577
  430.750    4.431    0.301    0.482   71.979
  431.000    4.602    0.282    0.498   68.948
  431.250    4.779    0.275    0.513   62.889
  431.500    4.871    0.291    0.522   61.679
  431.750    4.875    0.269    0.509   58.652
  432.000    4.878    0.232    0.461   56.838
  432.250    4.618    0.117    0.414   55.630
  432.500    4.453    0.082    0.333   61.716
  432.750    4.215    0.109    0.342   64.759
  433.000    3.991    0.210    0.418   67.197
  433.250    3.849    0.248    0.458   70.244
  433.500    3.781    0.258    0.483   72.072
  433.750    3.783    0.265    0.485   74.510
  434.000    3.717    0.266    0.471   74.518
  434.250    3.585    0.251    0.470   72.704
  434.500    3.521    0.242    0.485   71.499
  434.750    3.333    0.269    0.490   69.687
  435.000    2.986    0.292    0.491   66.051
  435.250    2.826    0.308    0.481   64.235
  435.500    2.626    0.306    0.473   64.855
  435.750    2.440    0.291    0.489   67.290
  436.000    2.226    0.280    0.519   70.334
  436.250    2.031    0.270    0.549   73.987
  436.500    1.887    0.251    0.566   75.819
  436.750    1.854    0.263    0.591   77.649
  437.000    1.855    0.261    0.587   79.478
  437.250    1.927    0.275    0.580   83.741
  437.500    2.001    0.281    0.572   84.962
  437.750    2.078    0.283    0.590   83.758
  438.000    2.119    0.284    0.566   84.373
  438.250    2.199    0.266    0.546   86.201
  438.500    2.371    0.244    0.540   87.424
  438.750    2.555    0.236    0.553   86.826
  439.000    2.753    0.236    0.575   85.014
  439.250    3.256    0.237    0.593   82.591
  439.500    3.778    0.236    0.602   80.778
  439.750    4.303    0.236    0.567   80.184
  440.000    5.479    0.247    0.525   79.580
  440.250    6.599    0.270    0.493   74.732
  440.500    7.518    0.287    0.463   70.490
  440.750    8.102    0.290    0.440   68.677
  441.000    8.413    0.289    0.416   68.076
  441.250    8.265    0.294    0.411   68.088
  441.500    7.823    0.306    0.411   68.096
  441.750    6.753    0.323    0.404   66.280
  442.000    6.047    0.332    0.395   64.468
  442.250    5.516    0.347    0.392   65.691
  442.500    5.126    0.342    0.417   66.309
  442.750    5.034    0.331    0.436   66.313
  443.000    4.858    0.324    0.470   63.895
  443.250    4.772    0.317    0.494   61.474
  443.500    4.774    0.303    0.507   60.269
  443.750    4.777    0.297    0.497   59.668
  444.000    4.694    0.297    0.493   59.679
  444.250    4.784    0.308    0.486   60.899
  444.500    4.788    0.301    0.479   63.948
  444.750    4.792    0.289    0.474   65.167
  445.000    4.884    0.283    0.479   67.002
  445.250    4.800    0.285    0.504   67.006
