~VERSION INFORMATION
 VERS.                 2.0:   CWLS LOG ASCII STANDARD -VERSION 2.0
 WRAP.                  NO:   ONE LINE PER DEPTH STEP
~WELL INFORMATION BLOCK
#MNEM.UNIT           DATA                    DESCRIPTION OF MNEMONIC
#---------    -------------------            -------------------------------
# Generated from Intellog Unique Number	CS_77_79/WELL/875
WELL.         HOME OIL COMPANY               : Well_name    - WELL
LOC .         00/06-16-077-06W4/0            : Location     - LOCATION
UWI .         00/06-16-077-06W4/0            : Uwi          - UNIQUE WELL ID
ENTR.         SP                             : Entered      - ENTERED BY
SRVC.         SCHLUMBERGER                   : Scn          - SERVICE COMPANY
STRT.M        143.256                        : top_depth    - START DEPTH
STOP.M        362.506                        : bot_depth    - STOP DEPTH
STEP.M        0.25                           : increment    - STEP LENGTH
 NULL. -999.2500:NULL Value
~CURVE INFORMATION BLOCK
#MNEM UNIT       ERCB CURVE CODE    CURVE DESCRIPTION
#-----------   ------------------   ----------------------------------
DEPT.M        00 001 00 00         : DEPTH        - DEPTH
GR  .API      00 310 00 00         : GR           - GAMMA RAY
DPHI.V/V      00 890 00 00         : PHID         - DENSITY POROSITY (SANDSTONE)
NPHI.V/V      00 330 00 00         : PHIN         - NEUTRON POROSITY (SANDSTONE)
ILD .OHMM     00 120 00 00         : RESD         - DEEP RESISTIVITY (DIL)
~PARAMETER INFORMATION
#MNEM.UNIT           DATA             DESCRIPTION OF MNEMONIC
#---------         -----------     ------------------------------
GL  .M        566.105              : gl           - GROUND LEVEL ELEVATION
EREF.M        569.641              : kb           - ELEVATION OF DEPTH REFERENCE
DATM.M        566.105              : datum        - DATUM ELEVATION
TDD .M        368.808              : tdd          - TOTAL DEPTH DRILLER
RUN .         ONE                  : Run          - RUN NUMBER
ENG .         BILL                 : Engineer     - RECORDING ENGINEER
WIT .         JIM                  : Witness      - WITNESSED BY
MUD .         GEL                  : Mud_type     - MUD TYPE
MATR.         SANDSTONE            : Logunit      - NEUTRON MATRIX
TMAX.C        23.3333              : BHT          - MAXIMUM RECORDED TEMPERATURE
BHTD.M        389.534              : BHTDEP       - MAXIMUM RECORDED TEMPERATURE
MATR.         1                    : LOGUNIT      - NEUTRON MATRIX
RMT .C        25                   : MDTP         - TEMPERATURE OF MUD
NEUT.         1                    : NEUTRON      - NEUTRON TYPE
RESI.         0                    : RESIST       - RESISTIVITY TYPE
RMC .OHMM     0.25                 : RMC          - RESISTIVITY OF MUD CAKE
RMF .OHMM     0.25                 : RMF          - RESISTIVITY OF MUD FILTRATE
SUFT.C        15                   : SUFT         - SURFACE TEMPERATURE
~A  DEPTH       GR     PHID     PHIN     RESD
# ...
  273.756   85.969    0.314    0.472    6.703
  274.006   83.827    0.316    0.456    6.702
  274.256   84.806    0.305    0.447    6.703
  274.506   85.740    0.273    0.454    6.718
  274.756   85.281    0.253    0.448    6.816
  275.006   82.379    0.258    0.439    7.007
  275.256   81.749    0.254    0.443    7.214
  275.506   84.886    0.270    0.447    7.444
  275.756   86.441    0.263    0.449    7.458
  276.006   86.340    0.278    0.469    7.459
  276.256   88.168    0.273    0.486    7.326
  276.506   90.530    0.270    0.494    7.142
  276.756   91.703    0.276    0.492    6.932
  277.006   91.468    0.264    0.481    6.719
  277.256   88.621    0.282    0.473    6.493
  277.506   89.243    0.286    0.465    6.314
  277.756   90.936    0.279    0.460    6.182
  278.006   91.906    0.294    0.463    6.190
  278.256   93.962    0.294    0.463    6.283
  278.506   95.219    0.288    0.470    6.212
  278.756   97.246    0.280    0.486    5.959
  279.006  100.405    0.263    0.495    5.697
  279.256   99.736    0.257    0.479    5.498
  279.506   97.161    0.254    0.462    5.436
  279.756   95.576    0.243    0.459    5.364
  280.006   94.662    0.237    0.466    5.311
  280.256   93.092    0.250    0.482    5.232
  280.506   91.701    0.285    0.472    5.221
  280.756   86.467    0.319    0.458    5.334
  281.006   80.520    0.350    0.441    5.398
  281.256   76.112    0.364    0.461    5.689
  281.506   73.379    0.355    0.481    5.859
  281.756   73.483    0.344    0.492    6.131
  282.006   72.759    0.340    0.494    6.449
  282.256   72.824    0.348    0.491    6.630
  282.506   72.212    0.352    0.476    6.712
  282.756   72.213    0.354    0.475    6.743
  283.006   72.856    0.354    0.478    6.744
  283.256   73.243    0.353    0.480    6.739
  283.506   73.555    0.348    0.477    6.712
  283.756   74.636    0.342    0.464    6.619
  284.006   74.505    0.335    0.463    6.479
  284.256   72.014    0.325    0.456    6.485
  284.506   71.149    0.310    0.434    6.593
  284.756   70.510    0.295    0.364    6.659
  285.006   69.869    0.285    0.299    6.732
  285.256   67.421    0.260    0.322    6.945
  285.506   66.554    0.250    0.374    7.162
  285.756   67.605    0.289    0.464    7.234
  286.006   69.647    0.336    0.472    7.389
  286.256   70.903    0.342    0.471    7.219
  286.506   72.344    0.347    0.461    7.108
  286.756   73.138    0.355    0.454    6.694
  287.006   76.253    0.353    0.463    6.312
  287.256   77.065    0.347    0.471    6.230
  287.506   78.119    0.337    0.477    6.232
  287.756   78.411    0.334    0.466    6.239
  288.006   79.459    0.341    0.469    6.344
  288.256   80.686    0.338    0.474    6.293
  288.506   82.034    0.332    0.478    6.222
  288.756   84.535    0.320    0.474    6.229
  289.006   88.138    0.295    0.471    6.071
  289.256   92.626    0.275    0.466    5.779
  289.506   95.561    0.245    0.467    5.618
  289.756   96.407    0.251    0.452    5.328
  290.006   95.219    0.265    0.452    5.172
  290.256   93.909    0.277    0.467    5.116
  290.506   92.703    0.274    0.484    5.072
  290.756   92.920    0.265    0.499    5.060
  291.006   92.734    0.243    0.494    5.171
  291.256   95.159    0.219    0.492    5.160
  291.506   96.624    0.228    0.487    5.083
  291.756   98.668    0.235    0.479    5.053
  292.006   99.336    0.217    0.487    4.698
  292.256   99.352    0.233    0.471    4.643
  292.506  100.604    0.229    0.458    4.592
  292.756  103.949    0.245    0.466    4.525
  293.006  109.688    0.247    0.474    4.514
  293.256  107.801    0.235    0.475    4.608
  293.506  102.504    0.229    0.464    4.757
  293.756   99.596    0.229    0.469    4.953
  294.006  101.997    0.238    0.457    5.152
  294.256  101.432    0.242    0.448    5.300
  294.506  101.440    0.252    0.435    5.579
  294.756  102.441    0.261    0.441    5.735
  295.006  103.208    0.251    0.447    5.740
  295.256  100.920    0.246    0.449    5.613
  295.506   99.470    0.243    0.457    5.622
  295.756   98.064    0.251    0.459    5.552
  296.006   95.041    0.259    0.451    5.497
  296.256   95.873    0.274    0.435    5.411
  296.506   95.829    0.290    0.427    5.347
  296.756   96.523    0.300    0.428    5.418
  297.006   97.156    0.288    0.450    5.487
  297.256   94.785    0.290    0.465    5.620
  297.506   91.564    0.294    0.450    5.616
  297.756   90.535    0.287    0.443    5.713
  298.006   91.738    0.275    0.445    5.678
  298.256   95.419    0.272    0.452    5.498
  298.506   97.295    0.225    0.446    5.265
  298.756  100.054    0.210    0.440    5.087
  299.006  100.231    0.209    0.464    4.839
  299.256   99.635    0.228    0.484    4.671
  299.506  100.269    0.238    0.496    4.092
  299.756   97.563    0.246    0.509    3.572
  300.006   95.398    0.259    0.530    3.095
  300.256   94.973    0.269    0.544    2.811
  300.506   96.659    0.284    0.562    2.470
  300.756   94.876    0.294    0.567    2.367
  301.006   93.671    0.295    0.551    2.222
  301.256   95.192    0.280    0.529    2.112
  301.506   95.295    0.278    0.520    2.095
  301.756   94.294    0.286    0.518    2.068
  302.006   94.332    0.293    0.515    2.066
  302.256   94.502    0.297    0.530    2.064
  302.506   97.156    0.284    0.535    2.101
  302.756   99.166    0.271    0.538    2.099
  303.006  100.282    0.270    0.530    2.147
  303.256  100.855    0.273    0.519    2.286
  303.506  100.398    0.274    0.530    2.475
  303.756  102.203    0.260    0.534    2.681
  304.006  102.710    0.250    0.532    3.136
  304.256  102.680    0.241    0.503    3.382
  304.506  103.346    0.227    0.489    3.712
  304.756  105.017    0.214    0.466    3.961
  305.006  105.298    0.208    0.460    4.348
  305.256  105.155    0.215    0.466    4.612
  305.506  102.919    0.209    0.451    4.854
  305.756  100.083    0.202    0.427    4.860
  306.006  100.313    0.206    0.415    4.714
  306.256  101.932    0.212    0.441    4.447
  306.506  103.546    0.219    0.478    4.091
  306.756  106.699    0.228    0.496    3.791
  307.006  107.853    0.228    0.506    3.558
  307.256  103.719    0.226    0.495    3.492
  307.506  100.594    0.215    0.449    3.316
  307.756  101.446    0.211    0.424    3.313
  308.006  103.416    0.215    0.438    3.246
  308.256  105.438    0.221    0.463    3.205
  308.506  106.595    0.229    0.476    3.171
  308.756  107.012    0.218    0.501    3.128
  309.006  106.696    0.208    0.506    3.067
  309.256  106.544    0.202    0.513    2.996
  309.506  107.440    0.211    0.505    2.958
  309.756  109.600    0.213    0.498    2.893
  310.006  109.454    0.217    0.508    2.894
  310.256  108.947    0.223    0.502    2.843
  310.506  108.622    0.222    0.512    2.846
  310.756  108.249    0.210    0.526    2.846
  311.006  107.731    0.212    0.531    2.926
  311.256  106.059    0.225    0.521    3.072
  311.506  103.638    0.214    0.519    3.345
  311.756   98.096    0.202    0.431    3.545
  312.006   89.666    0.177    0.415    3.859
  312.256   82.097    0.148    0.388    4.683
  312.506   77.288    0.111    0.354    5.313
  312.756   79.382    0.202    0.346    5.869
  313.006   83.025    0.229    0.370    6.145
  313.256   83.198    0.239    0.382    6.142
  313.506   80.904    0.256    0.377    6.007
  313.756   80.734    0.273    0.387    5.837
  314.006   84.660    0.273    0.395    5.510
  314.256   85.141    0.273    0.409    5.188
  314.506   82.103    0.279    0.415    4.824
  314.756   76.867    0.291    0.421    4.513
  315.006   73.191    0.295    0.441    4.250
  315.256   80.422    0.299    0.451    3.953
  315.506   86.110    0.301    0.449    3.840
  315.756   93.077    0.291    0.478    3.854
  316.006  101.087    0.261    0.489    3.925
  316.256  116.147    0.235    0.447    4.094
  316.506  126.049    0.206    0.428    4.279
  316.756  128.311    0.178    0.455    4.627
  317.006  123.820    0.154    0.448    4.901
