~VERSION INFORMATION
 VERS.                 2.0:   CWLS LOG ASCII STANDARD -VERSION 2.0
 WRAP.                  NO:   ONE LINE PER DEPTH STEP
~WELL INFORMATION BLOCK
#MNEM.UNIT           DATA                    DESCRIPTION OF MNEMONIC
#---------    -------------------            -------------------------------
# Generated from Intellog Unique Number	CW_73_75/WELL/2732
WELL.         SUNDANCE MCMORGAN  MARTENH 07- : Well_name    - WELL
LOC .         00/07-28-073-24W4/0            : Location     - LOCATION
UWI .         00/07-28-073-24W4/0            : Uwi          - UNIQUE WELL ID
ENTR.         JAYE                           : Entered      - ENTERED BY
SRVC.         SCHLUMBERGER                   : Scn          - SERVICE COMPANY
DATE.         19 MAR 73                      : Date         - LOG DATE
STRT.M        396.24                         : top_depth    - START DEPTH
STOP.M        624.74                         : bot_depth    - STOP DEPTH
STEP.M        0.25                           : increment    - STEP LENGTH
 NULL. -999.2500:NULL Value
~CURVE INFORMATION BLOCK
#MNEM UNIT       ERCB CURVE CODE    CURVE DESCRIPTION
#-----------   ------------------   ----------------------------------
DEPT.M        00 001 00 00         : DEPTH        - DEPTH
ILD .OHMM     00 120 00 00         : RESD         - DEEP RESISTIVITY (DIL)
NPHI.V/V      00 330 00 00         : PHIN         - NEUTRON POROSITY (SANDSTONE)
DPHI.V/V      00 890 00 00         : PHID         - DENSITY POROSITY (SANDSTONE)
GR  .API      00 310 00 00         : GR           - GAMMA RAY
CALI.MM       00 280 01 00         : CAL          - CALIPER
~PARAMETER INFORMATION
#MNEM.UNIT           DATA             DESCRIPTION OF MNEMONIC
#---------         -----------     ------------------------------
GL  .M        654.558              : gl           - GROUND LEVEL ELEVATION
EREF.M        656.844              : kb           - ELEVATION OF DEPTH REFERENCE
DATM.M        654.558              : datum        - DATUM ELEVATION
TDD .M        630.936              : tdd          - TOTAL DEPTH DRILLER
RUN .         ONE                  : Run          - RUN NUMBER
ENG .         MCLEVIN              : Engineer     - RECORDING ENGINEER
WIT .         LOWTHER              : Witness      - WITNESSED BY
BASE.         RD                   : Branch       - HOME BASE OF LOGGING UNIT
MUD .         GEL                  : Mud_type     - MUD TYPE
MATR.         SANDSTONE            : Logunit      - NEUTRON MATRIX
TMAX.C        28.8889              : BHT          - MAXIMUM RECORDED TEMPERATURE
BHTD.M        631.85               : BHTDEP       - MAXIMUM RECORDED TEMPERATURE
RMT .C        21.1111              : MDTP         - TEMPERATURE OF MUD
MUDD.KG/M     1104                 : MWT          - MUD DENSITY
NEUT.         1                    : NEUTRON      - NEUTRON TYPE
RESI.         0                    : RESIST       - RESISTIVITY TYPE
RM  .OHMM     3.04                 : RM           - RESISTIVITY OF MUD
RMC .OHMM     0                    : RMC          - RESISTIVITY OF MUD CAKE
RMF .OHMM     0                    : RMF          - RESISTIVITY OF MUD FILTRATE
SUFT.C        -17.7778             : SUFT         - SURFACE TEMPERATURE
~A  DEPTH     RESD     PHIN     PHID       GR      CAL
# ...
  542.240   16.620    0.459    0.210   62.500  160.218
  542.490   16.233    0.503    0.194   64.340  162.090
  542.740   16.122    0.524    0.192   69.239  162.099
  542.990   16.134    0.506    0.216   66.491  157.964
  543.240   16.922    0.477    0.214   63.438  152.481
  543.490   17.980    0.431    0.184   61.485  153.940
  543.740   18.196    0.411    0.159   60.572  158.609
  543.990   17.343    0.454    0.193   62.168  156.338
  544.240   16.529    0.485    0.219   64.986  150.753
  544.490   16.854    0.469    0.236   66.826  156.977
  544.740   17.677    0.462    0.219   66.403  161.544
  544.990   19.176    0.476    0.166   63.104  157.926
  545.240   20.801    0.407    0.099   56.380  151.718
  545.490   21.860    0.341    0.048   51.552  156.078
  545.740   21.628    0.335    0.056   53.882  163.441
  545.990   20.344    0.424    0.178   60.983  163.656
  546.240   18.747    0.481    0.209   65.759  163.459
  546.490   17.468    0.475    0.206   61.910  163.465
  546.740   16.187    0.460    0.206   60.018  163.163
  546.990   15.543    0.450    0.197   60.329  163.171
  547.240   15.381    0.453    0.190   62.537  163.180
  547.490   15.449    0.464    0.182   65.233  163.293
  547.740   15.664    0.482    0.187   66.278  163.300
  547.990   16.153    0.473    0.203   64.080  163.204
  548.240   16.564    0.459    0.193   62.495  165.700
  548.490   16.794    0.451    0.192   62.745  167.053
  548.740   16.808    0.446    0.181   64.095  167.063
  548.990   16.139    0.442    0.188   64.712  166.345
  549.240   16.212    0.461    0.192   62.148  164.282
  549.490   16.907    0.485    0.192   58.726  162.426
  549.740   18.169    0.459    0.187   55.917  164.298
  549.990   19.859    0.432    0.177   56.228  167.312
  550.240   22.834    0.410    0.172   56.723  168.251
  550.490   25.862    0.394    0.168   55.565  168.777
  550.740   30.416    0.379    0.147   51.104  168.995
  550.990   34.515    0.357    0.122   45.419  168.898
  551.240   37.440    0.330    0.085   39.062  167.663
  551.490   35.953    0.301    0.029   32.888  165.910
  551.740   31.431    0.324    0.046   36.502  163.744
  551.990   26.968    0.387    0.102   44.950  162.405
  552.240   23.225    0.428    0.202   51.929  161.584
  552.490   21.970    0.452    0.214   52.912  160.971
  552.740   21.456    0.460    0.214   53.774  160.875
  552.990   21.837    0.455    0.206   54.452  160.573
  553.240   22.143    0.450    0.189   55.007  160.892
  553.490   22.119    0.441    0.169   54.828  161.936
  553.740   22.049    0.420    0.191   54.466  165.984
  553.990   21.780    0.435    0.181   54.471  166.096
  554.240   21.509    0.455    0.182   55.210  161.857
  554.490   21.124    0.480    0.162   57.539  160.829
  554.740   20.515    0.456    0.154   56.749  162.184
  554.990   20.187    0.433    0.181   55.041  165.404
  555.240   20.164    0.442    0.180   55.780  167.588
  555.490   20.405    0.435    0.168   57.559  168.010
  555.740   20.846    0.422    0.156   59.338  168.123
  555.990   21.577    0.432    0.151   60.811  166.887
  556.240   22.501    0.448    0.147   58.002  165.032
  556.490   23.913    0.442    0.163   57.578  163.900
  556.740   25.601    0.448    0.174   58.746  163.494
  556.990   27.409    0.443    0.192   60.892  165.056
  557.240   29.512    0.421    0.180   61.570  166.307
  557.490   30.721    0.400    0.145   59.922  166.626
  557.740   31.037    0.378    0.097   53.260  166.531
  557.990   30.712    0.353    0.064   51.184  166.331
  558.240   29.877    0.343    0.062   51.435  166.135
  558.490   27.999    0.362    0.100   52.234  165.728
  558.740   27.240    0.419    0.149   57.010  165.736
  558.990   26.955    0.428    0.170   60.258  165.641
  559.240   26.823    0.412    0.182   61.547  165.234
  559.490   26.948    0.403    0.195   62.960  164.724
  559.740   26.964    0.412    0.171   63.943  164.318
  559.990   26.781    0.430    0.161   64.621  164.326
  560.240   25.859    0.445    0.171   63.953  167.132
  560.490   24.507    0.421    0.181   62.612  170.247
  560.740   19.802    0.421    0.191   64.329  170.566
  560.990   15.123    0.426    0.185   69.534  169.747
  561.240   12.083    0.427    0.165   75.473  168.822
  561.490    9.091    0.423    0.146   82.880  168.415
  561.740    6.944    0.411    0.121   87.718  168.838
  561.990    5.958    0.410    0.092   93.412  169.571
  562.240    5.531    0.426    0.075   95.864  170.719
  562.490    5.301    0.440    0.085   98.928  172.593
  562.740    5.324    0.441    0.094  101.196  173.222
  562.990    5.522    0.431    0.099  103.403  173.438
  563.240    5.737    0.419    0.082  105.916  172.825
  563.490    6.074    0.425    0.102  107.511  171.797
  563.740    6.406    0.432    0.114  109.718  170.148
  563.990    6.898    0.431    0.108  114.434  168.912
  564.240    7.302    0.415    0.103  110.096  172.443
  564.490    8.012    0.390    0.082  103.738  175.041
  564.740    8.482    0.371    0.093   99.889  174.842
  564.990    8.928    0.381    0.106   98.609  174.229
  565.240    9.452    0.385    0.097   96.901  173.411
  565.490    9.840    0.383    0.100   92.930  173.313
  565.740   10.070    0.395    0.126   87.062  173.011
  565.990   10.327    0.385    0.107   84.314  172.917
  566.240   10.452    0.373    0.086   84.625  172.924
  566.490   10.227    0.381    0.092   86.465  172.725
  566.740    9.969    0.370    0.083   89.467  172.734
  566.990    9.735    0.354    0.099   91.491  172.637
  567.240    9.400    0.361    0.091   94.738  172.750
  567.490    8.760    0.368    0.089   99.882  173.173
  567.740    8.507    0.378    0.098  101.599  173.387
  567.990    9.229    0.391    0.095  102.155  173.706
  568.240   10.710    0.403    0.058   98.183  173.093
  568.490   12.618    0.363    0.031   90.664  171.858
  568.740   14.292    0.320   -0.014   86.080  169.380
  568.990   14.850    0.293   -0.022   80.213  169.390
  569.240   12.273    0.288   -0.023   82.665  171.676
  569.490    9.804    0.294   -0.021   88.665  174.792
  569.740    7.952    0.309   -0.013   91.912  176.251
  569.990    6.836    0.350    0.036   95.709  175.534
  570.240    6.613    0.390    0.071   97.794  173.574
  570.490    6.655    0.425    0.091   98.716  170.681
  570.740    6.774    0.435    0.100   94.684  166.442
  570.990    6.817    0.434    0.088   97.686  168.522
  571.240    6.887    0.429    0.074   95.856  169.567
  571.490    6.969    0.418    0.050   92.374  169.886
  571.740    7.094    0.405    0.048   93.724  170.308
  571.990    7.140    0.393    0.068   96.482  170.835
  572.240    7.171    0.402    0.082   94.958  171.259
  572.490    7.216    0.419    0.080   97.960  171.265
  572.740    7.221    0.411    0.102   96.558  171.482
  572.990    7.254    0.400    0.093   93.504  171.698
  573.240    7.285    0.393    0.076   91.735  171.706
  573.490    7.333    0.390    0.064   91.434  171.714
  573.740    7.407    0.383    0.052   92.785  171.618
  573.990    7.482    0.390    0.059   95.175  171.835
  574.240    7.543    0.395    0.080   99.463  171.842
  574.490    7.549    0.389    0.089   99.957  171.851
  574.740    7.541    0.378    0.073   97.331  171.754
  574.990    7.517    0.367    0.046   97.826  171.141
  575.240    7.355    0.375    0.036  101.501  169.285
  575.490    7.210    0.387    0.071  106.094  166.185
  575.740    7.015    0.397    0.090  108.485  161.946
  575.990    6.889    0.413    0.080  105.125  157.293
  576.240    6.767    0.427    0.060  104.334  157.197
  576.490    6.695    0.413    0.047  103.422  156.791
  576.740    6.688    0.399    0.043  102.509  155.972
  576.990    6.680    0.389    0.041  104.166  155.462
  577.240    6.760    0.391    0.053  108.637  154.849
  577.490    6.985    0.386    0.075  110.415  154.546
  577.740    7.122    0.377    0.057  109.503  154.659
  577.990    7.330    0.368    0.047  104.919  156.324
  578.240    7.587    0.364    0.044  100.825  157.678
  578.490    7.884    0.357    0.021  100.647  160.069
