~VERSION INFORMATION
 VERS.                 2.0:   CWLS LOG ASCII STANDARD -VERSION 2.0
 WRAP.                  NO:   ONE LINE PER DEPTH STEP
~WELL INFORMATION BLOCK
#MNEM.UNIT           DATA                    DESCRIPTION OF MNEMONIC
#---------    -------------------            -------------------------------
# Generated from Intellog Unique Number	CS_77_79/WELL/872
WELL.         CHRISTINA                      : Well_name    - WELL
LOC .         00/06-11-079-09W4/0            : Location     - LOCATION
UWI .         00/06-11-079-09W4/0            : Uwi          - UNIQUE WELL ID
ENTR.         JHS                            : Entered      - ENTERED BY
SRVC.         SCHLUMBERGER                   : Scn          - SERVICE COMPANY
STRT.M        198.12                         : top_depth    - START DEPTH
STOP.M        420.37                         : bot_depth    - STOP DEPTH
STEP.M        0.25                           : increment    - STEP LENGTH
 NULL. -999.2500:NULL Value
~CURVE INFORMATION BLOCK
#MNEM UNIT       ERCB CURVE CODE    CURVE DESCRIPTION
#-----------   ------------------   ----------------------------------
DEPT.M        00 001 00 00         : DEPTH        - DEPTH
RHOB.KG/M3    00 350 00 00         : DENS         - BULK DENSITY
GR  .API      00 310 00 00         : GR           - GAMMA RAY
DPHI.V/V      00 890 00 00         : PHID         - DENSITY POROSITY (SANDSTONE)
NPHI.V/V      00 330 00 00         : PHIN         - NEUTRON POROSITY (SANDSTONE)
ILD .OHMM     00 120 00 00         : RESD         - DEEP RESISTIVITY (DIL)
~PARAMETER INFORMATION
#MNEM.UNIT           DATA             DESCRIPTION OF MNEMONIC
#---------         -----------     ------------------------------
GL  .M        637.733              : gl           - GROUND LEVEL ELEVATION
EREF.M        640.385              : kb           - ELEVATION OF DEPTH REFERENCE
DATM.M        640.385              : datum        - DATUM ELEVATION
TDD .M        431.292              : tdd          - TOTAL DEPTH DRILLER
RUN .         ONE                  : Run          - RUN NUMBER
ENG .         BILL                 : Engineer     - RECORDING ENGINEER
WIT .         JIM                  : Witness      - WITNESSED BY
MUD .         GEL                  : Mud_type     - MUD TYPE
MATR.         SANDSTONE            : Logunit      - NEUTRON MATRIX
TMAX.C        23.8889              : BHT          - MAXIMUM RECORDED TEMPERATURE
BHTD.M        431.292              : BHTDEP       - MAXIMUM RECORDED TEMPERATURE
MATR.         1                    : LOGUNIT      - NEUTRON MATRIX
RMT .C        25                   : MDTP         - TEMPERATURE OF MUD
NEUT.         1                    : NEUTRON      - NEUTRON TYPE
RESI.         0                    : RESIST       - RESISTIVITY TYPE
RMC .OHMM     0.25                 : RMC          - RESISTIVITY OF MUD CAKE
RMF .OHMM     0.25                 : RMF          - RESISTIVITY OF MUD FILTRATE
SUFT.C        15                   : SUFT         - SURFACE TEMPERATURE
~A  DEPTH     DENS       GR     PHID     PHIN     RESD
# ...
  380.620 2189.680   48.388    0.304    0.378   28.938
  380.870 2203.890   53.772    0.296    0.406   26.938
  381.120 2239.540   57.535    0.275    0.427   24.858
  381.370 2256.600   60.273    0.265    0.436   23.929
  381.620 2197.730   59.494    0.300    0.456   22.948
  381.870 2199.780   61.053    0.298    0.422   22.565
  382.120 2218.300   63.795    0.288    0.411   22.097
  382.370 2237.150   63.754    0.277    0.418   22.143
  382.620 2219.960   59.711    0.287    0.408   21.971
  382.870 2194.440   57.346    0.301    0.388   20.790
  383.120 2191.860   56.377    0.303    0.379   19.535
  383.370 2245.310   57.495    0.272    0.362   19.434
  383.620 2286.270   60.959    0.248    0.337   20.304
  383.870 2333.420   62.987    0.220    0.326   21.123
  384.120 2337.490   60.236    0.218    0.357   24.728
  384.370 2306.240   52.456    0.236    0.379   31.277
  384.620 2241.290   46.627    0.274    0.380   49.961
  384.870 2195.920   45.270    0.301    0.384  107.287
  385.120 2196.170   42.577    0.300    0.405  167.251
  385.370 2156.750   41.571    0.324    0.395  190.003
  385.620 2139.700   50.152    0.334    0.381  133.908
  385.870 2157.730   56.072    0.323    0.375   57.029
  386.120 2189.610   63.485    0.304    0.378   30.772
  386.370 2222.100   66.684    0.285    0.395   22.371
  386.620 2247.130   65.062    0.271    0.440   18.620
  386.870 2169.740   52.339    0.316    0.493   17.588
  387.120 2131.310   45.602    0.338    0.512   17.863
  387.370 2141.820   39.945    0.332    0.551   18.591
  387.620 2172.990   29.732    0.314    0.419   20.861
  387.870 2189.590   26.228    0.304    0.412   27.466
  388.120 2179.430   25.656    0.310    0.415   57.878
  388.370 2174.050   25.699    0.313    0.411  135.872
  388.620 2153.470   25.067    0.325    0.398  239.019
  388.870 2129.610   24.989    0.339    0.395  437.579
  389.120 2167.570   25.677    0.317    0.387  458.901
  389.370 2183.290   26.099    0.308    0.390  414.449
  389.620 2165.470   27.639    0.318    0.420  458.701
  389.870 2154.970   30.831    0.325    0.411  550.204
  390.120 2196.450   35.078    0.300    0.390  476.229
  390.370 2216.110   41.398    0.289    0.379   38.415
  390.620 2206.520   46.880    0.294    0.383   57.236
  390.870 2196.300   51.375    0.300    0.397   19.556
  391.120 2203.950   51.463    0.296    0.418   16.458
  391.370 2197.320   46.542    0.300    0.438   15.425
  391.620 2159.810   42.578    0.322    0.465   15.533
  391.870 2127.540   45.480    0.341    0.488   17.313
  392.120 2133.620   51.108    0.337    0.537   20.927
  392.370 2185.040   54.901    0.307    0.505   23.434
  392.620 2247.550   55.401    0.270    0.447   25.666
  392.870 2301.400   54.428    0.239    0.410   22.573
  393.120 2409.660   54.094    0.176    0.397   16.471
  393.370 2392.330   56.905    0.186    0.443   13.193
  393.620 2232.360   60.367    0.279    0.500   11.340
  393.870 2185.670   63.502    0.307    0.511    9.850
  394.120 2193.260   64.440    0.302    0.507    9.409
  394.370 2194.110   66.442    0.302    0.515    9.423
  394.620 2194.770   70.702    0.301    0.493    9.129
  394.870 2210.740   77.439    0.292    0.484    8.758
  395.120 2243.740   86.517    0.273    0.476    7.988
  395.370 2279.150   93.508    0.252    0.475    7.490
  395.620 2300.260   98.900    0.240    0.470    7.046
  395.870 2310.380  100.567    0.234    0.470    6.884
  396.120 2304.430   99.075    0.237    0.489    7.077
  396.370 2302.570  100.179    0.238    0.520    7.761
  396.620 2310.690  101.126    0.234    0.493    8.876
  396.870 2331.970   98.925    0.221    0.452   10.193
  397.120 2318.790   91.969    0.229    0.415   12.378
  397.370 2287.620   82.488    0.247    0.401   14.729
  397.620 2245.170   73.900    0.272    0.419   17.001
  397.870 2220.850   65.321    0.286    0.399   19.545
  398.120 2253.970   57.515    0.267    0.393   25.374
  398.370 2246.650   47.903    0.271    0.399   29.838
  398.620 2204.270   42.266    0.296    0.424   33.762
  398.870 2178.260   42.261    0.311    0.405   36.075
  399.120 2180.220   47.317    0.310    0.437   34.472
  399.370 2183.380   54.936    0.308    0.450   30.222
  399.620 2243.230   62.447    0.273    0.430   27.803
  399.870 2265.090   63.087    0.260    0.413   26.692
  400.120 2239.960   57.988    0.275    0.437   25.290
  400.370 2193.170   56.463    0.302    0.445   24.073
  400.620 2213.950   58.386    0.290    0.423   22.089
  400.870 2248.520   63.427    0.270    0.417   19.847
  401.120 2277.600   65.423    0.253    0.399   16.142
  401.370 2305.220   72.110    0.237    0.381   13.269
  401.620 2312.750   80.509    0.232    0.364   11.013
  401.870 2339.120   86.805    0.217    0.367    9.657
  402.120 2381.370   87.900    0.192    0.419    9.258
  402.370 2382.470   82.638    0.192    0.428    9.289
  402.620 2347.970   78.734    0.212    0.406    9.396
  402.870 2374.200   76.621    0.196    0.404   10.573
  403.120 2365.130   72.868    0.202    0.391   12.825
  403.370 2313.690   73.861    0.232    0.386   14.832
  403.620 2280.730   75.950    0.251    0.393   17.265
  403.870 2250.460   70.677    0.269    0.404   18.704
  404.120 2239.720   65.776    0.275    0.416   18.261
  404.370 2213.840   63.689    0.290    0.421   17.030
  404.620 2226.770   71.723    0.283    0.391   15.573
  404.870 2281.940   74.094    0.250    0.394   15.387
  405.120 2301.310   69.131    0.239    0.424   15.695
  405.370 2287.550   68.020    0.247    0.439   16.651
  405.620 2288.380   61.895    0.247    0.449   19.020
  405.870 2207.010   54.768    0.294    0.455   22.764
  406.120 2213.560   47.346    0.290    0.415   25.776
  406.370 2240.600   49.048    0.275    0.397   25.887
  406.620 2246.550   56.485    0.271    0.375   24.601
  406.870 2267.150   58.677    0.259    0.374   20.134
  407.120 2262.970   65.359    0.261    0.400   16.207
  407.370 2278.610   72.989    0.252    0.394   13.230
  407.620 2313.280   78.891    0.232    0.376   11.505
  407.870 2371.750   83.624    0.198    0.394   10.306
  408.120 2374.110   82.799    0.196    0.396   10.219
  408.370 2353.160   77.448    0.209    0.401   10.626
  408.620 2327.220   74.632    0.224    0.418   11.337
  408.870 2345.210   71.745    0.213    0.434   11.866
  409.120 2321.270   65.046    0.227    0.445   11.788
  409.370 2282.290   58.340    0.250    0.453   11.172
  409.620 2232.910   57.304    0.279    0.453   10.394
  409.870 2212.420   50.024    0.291    0.430    9.171
  410.120 2191.630   44.714    0.303    0.466    8.039
  410.370 2130.220   43.659    0.339    0.514    6.771
  410.620 2102.190   47.082    0.355    0.498    6.036
  410.870 2109.680   51.742    0.351    0.475    5.698
  411.120 2124.370   57.172    0.342    0.440    5.582
  411.370 2133.920   57.528    0.337    0.432    5.587
  411.620 2160.190   55.154    0.322    0.447    5.594
  411.870 2154.010   51.359    0.325    0.435    5.425
  412.120 2155.220   50.593    0.324    0.440    5.382
  412.370 2135.930   48.855    0.336    0.449    5.208
  412.620 2102.870   43.983    0.355    0.438    5.201
  412.870 2115.400   45.331    0.348    0.432    5.203
  413.120 2119.700   49.003    0.345    0.454    5.308
  413.370 2122.520   51.686    0.344    0.467    5.164
  413.620 2138.570   47.636    0.334    0.464    5.012
  413.870 2117.010   40.717    0.347    0.468    4.805
  414.120 2107.090   37.874    0.353    0.451    4.622
  414.370 2136.250   38.059    0.336    0.428    4.338
  414.620 2133.730   36.163    0.337    0.419    4.166
  414.870 2111.400   33.442    0.350    0.422    4.009
  415.120 2101.310   30.387    0.356    0.432    3.949
  415.370 2093.520   29.011    0.361    0.448    3.948
  415.620 2125.960   27.644    0.341    0.421    4.042
  415.870 2152.920   24.050    0.326    0.391    4.318
  416.120 2213.310   21.882    0.299    0.354    5.857
  416.370 2287.340   19.877    0.258    0.297    9.140
  416.620  680.672   18.078    0.136    0.171   15.981
  416.870   67.319   17.285    0.043    0.162   31.273
