~VERSION INFORMATION
 VERS.                 2.0:   CWLS LOG ASCII STANDARD -VERSION 2.0
 WRAP.                  NO:   ONE LINE PER DEPTH STEP
~WELL INFORMATION BLOCK
#MNEM.UNIT           DATA                    DESCRIPTION OF MNEMONIC
#---------    -------------------            -------------------------------
# Generated from Intellog Unique Number	CX_WELLS/WELL/2711
WELL.         MAYNARD THORTANY               : Well_name    - WELL
LOC .         00/06-03-080-12W4/0            : Location     - LOCATION
UWI .         00/06-03-080-12W4/0            : Uwi          - UNIQUE WELL ID
ENTR.         T                              : Entered      - ENTERED BY
SRVC.         SCHLUMBERGER                   : Scn          - SERVICE COMPANY
STRT.M        250                            : top_depth    - START DEPTH
STOP.M        495                            : bot_depth    - STOP DEPTH
STEP.M        0.25                           : increment    - STEP LENGTH
 NULL. -999.2500:NULL Value
~CURVE INFORMATION BLOCK
#MNEM UNIT       ERCB CURVE CODE    CURVE DESCRIPTION
#-----------   ------------------   ----------------------------------
DEPT.M        00 001 00 00         : DEPTH        - DEPTH
GR  .API      00 310 00 00         : GR           - GAMMA RAY
NPHI.V/V      00 330 00 00         : PHIN         - NEUTRON POROSITY (SANDSTONE)
DPHI.V/V      00 890 00 00         : PHID         - DENSITY POROSITY (SANDSTONE)
ILD .OHMM     00 120 00 00         : RESD         - DEEP RESISTIVITY (DIL)
~PARAMETER INFORMATION
#MNEM.UNIT           DATA             DESCRIPTION OF MNEMONIC
#---------         -----------     ------------------------------
GL  .M        687                  : gl           - GROUND LEVEL ELEVATION
EREF.M        690                  : kb           - ELEVATION OF DEPTH REFERENCE
DATM.M        690                  : datum        - DATUM ELEVATION
TDD .M        505                  : tdd          - TOTAL DEPTH DRILLER
RUN .         ONE                  : Run          - RUN NUMBER
ENG .         BILL                 : Engineer     - RECORDING ENGINEER
WIT .         JIM                  : Witness      - WITNESSED BY
MUD .         GEL                  : Mud_type     - MUD TYPE
MATR.         SANDSTONE            : Logunit      - NEUTRON MATRIX
TMAX.C        21                   : BHT          - MAXIMUM RECORDED TEMPERATURE
BHTD.M        505                  : BHTDEP       - MAXIMUM RECORDED TEMPERATURE
MATR.         1                    : LOGUNIT      - NEUTRON MATRIX
RMT .C        20                   : MDTP         - TEMPERATURE OF MUD
NEUT.         1                    : NEUTRON      - NEUTRON TYPE
RESI.         3.2                  : RESIST       - RESISTIVITY TYPE
RMC .OHMM     3                    : RMC          - RESISTIVITY OF MUD CAKE
RMF .OHMM     2.1                  : RMF          - RESISTIVITY OF MUD FILTRATE
SUFT.C        3                    : SUFT         - SURFACE TEMPERATURE
~A  DEPTH       GR     PHIN     PHID     RESD
# ...
  424.000   88.944    0.450    0.254    2.356
  424.250   88.983    0.425    0.248    2.760
  424.500   88.425    0.413    0.239    3.562
  424.750   87.239    0.400    0.216    4.046
  425.000   86.064    0.394    0.208    5.247
  425.250   84.888    0.387    0.198    6.050
  425.500   85.544    0.382    0.196    6.214
  425.750   86.798    0.379    0.210    6.143
  426.000   88.041    0.384    0.222    5.988
  426.250   91.117    0.398    0.233    5.679
  426.500   93.585    0.410    0.234    5.445
  426.750   93.016    0.417    0.229    5.133
  427.000   91.850    0.422    0.225    4.901
  427.250   90.077    0.429    0.221    4.988
  427.500   90.126    0.432    0.216    5.071
  427.750   91.370    0.437    0.214    5.397
  428.000   93.838    0.446    0.213    5.483
  428.250   96.315    0.460    0.216    5.013
  428.500   97.549    0.470    0.226    4.778
  428.750   98.205    0.483    0.239    4.386
  429.000  100.673    0.487    0.245    4.074
  429.250  102.534    0.486    0.248    3.842
  429.500  103.787    0.480    0.248    3.611
  429.750  105.658    0.464    0.236    3.536
  430.000  106.294    0.461    0.210    3.465
  430.250  107.567    0.456    0.206    3.469
  430.500  108.203    0.451    0.212    3.477
  430.750  108.840    0.447    0.219    3.566
  431.000  110.103    0.445    0.227    3.569
  431.250  111.347    0.441    0.227    3.657
  431.500  113.207    0.437    0.223    3.744
  431.750  116.292    0.430    0.220    3.827
  432.000  117.565    0.425    0.214    3.992
  432.250  115.165    0.424    0.209    4.078
  432.500  112.775    0.422    0.207    4.325
  432.750  110.993    0.422    0.217    4.570
  433.000  109.210    0.422    0.219    4.815
  433.250  106.820    0.420    0.217    5.059
  433.500  105.634    0.411    0.216    5.304
  433.750  102.039    0.400    0.219    5.548
  434.000  100.247    0.392    0.224    6.192
  434.250   96.035    0.381    0.222    6.915
  434.500   91.823    0.377    0.224    7.796
  434.750   87.611    0.371    0.229    8.598
  435.000   84.614    0.368    0.238    9.879
  435.250   82.224    0.364    0.251   10.920
  435.500   81.058    0.361    0.253   11.246
  435.750   83.545    0.368    0.254   10.935
  436.000   84.779    0.376    0.251   10.783
  436.250   87.247    0.386    0.246   10.628
  436.500   89.098    0.389    0.242   10.474
  436.750   91.566    0.386    0.238   10.402
  437.000   94.641    0.388    0.232   10.486
  437.250   98.334    0.392    0.230   10.492
  437.500  102.026    0.395    0.222   10.580
  437.750  104.484    0.400    0.218   10.507
  438.000  107.569    0.405    0.213   10.432
  438.250  110.027    0.407    0.211   10.280
  438.500  113.729    0.402    0.214   10.050
  438.750  116.795    0.391    0.215    9.973
  439.000  116.834    0.383    0.216    9.903
  439.250  113.239    0.371    0.215    9.989
  439.500  109.634    0.360    0.213   10.232
  439.750  106.020    0.354    0.214   11.273
  440.000  100.584    0.354    0.216   14.145
  440.250   93.336    0.356    0.217   15.584
  440.500   88.516    0.357    0.215   16.386
  440.750   84.305    0.353    0.218   20.372
  441.000   80.103    0.335    0.224   22.130
  441.250   77.105    0.303    0.234   22.773
  441.500   74.108    0.293    0.258   23.098
  441.750   71.708    0.292    0.271   22.945
  442.000   67.496    0.311    0.282   22.316
  442.250   65.116    0.330    0.227   22.003
  442.500   66.986    0.342    0.201   21.613
  442.750   68.230    0.348    0.173   21.460
  443.000   71.305    0.355    0.165   21.385
  443.250   74.987    0.360    0.211   21.073
  443.500   80.492    0.367    0.223   19.010
  443.750   84.781    0.370    0.232   18.299
  444.000   87.857    0.370    0.242   17.909
  444.250   90.334    0.367    0.246   17.755
  444.500   92.812    0.362    0.236   17.525
  444.750   95.280    0.356    0.229   17.449
  445.000   96.534    0.353    0.232   17.060
  445.250   96.582    0.355    0.228   16.904
  445.500   96.602    0.357    0.222   16.433
  445.750   98.472    0.364    0.217   15.723
  446.000   99.109    0.367    0.210   14.934
  446.250  100.969    0.369    0.200   13.906
  446.500  101.625    0.369    0.180   12.639
  446.750   98.638    0.369    0.181   11.848
  447.000   97.442    0.367    0.195   11.060
  447.250   93.848    0.355    0.207   10.909
  447.500   91.448    0.351    0.218   10.993
  447.750   89.058    0.352    0.225   10.998
  448.000   87.275    0.353    0.225   11.404
  448.250   87.333    0.354    0.222   11.967
  448.500   87.362    0.354    0.211   12.610
  448.750   87.401    0.354    0.206   13.571
  449.000   86.833    0.353    0.217   14.933
  449.250   86.872    0.350    0.222   15.177
  449.500   85.696    0.349    0.229   15.662
  449.750   85.138    0.345    0.233   16.303
  450.000   84.570    0.343    0.237   19.255
  450.250   84.001    0.340    0.244   18.704
  450.500   84.030    0.343    0.250   17.277
  450.750   85.284    0.361    0.255   16.887
  451.000   87.144    0.368    0.245   16.494
  451.250   90.837    0.382    0.218   14.590
  451.500   94.519    0.394    0.207   13.801
  451.750   99.416    0.392    0.187   12.373
  452.000  103.099    0.383    0.169   11.345
  452.250  103.745    0.377    0.178   11.114
  452.500  100.150    0.374    0.188   11.200
  452.750   97.750    0.374    0.195   11.205
  453.000   95.370    0.378    0.204   11.213
  453.250   98.435    0.381    0.206   10.821
  453.500  102.735    0.382    0.211   10.511
  453.750  107.641    0.384    0.209   10.515
  454.000  110.109    0.386    0.207   10.520
  454.250  111.970    0.386    0.204   10.768
  454.500  110.197    0.387    0.203   11.013
  454.750  108.404    0.387    0.203   11.338
  455.000  106.612    0.386    0.204   11.661
  455.250  103.017    0.383    0.209   12.542
  455.500  100.617    0.379    0.212   13.982
  455.750   96.415    0.374    0.214   14.386
  456.000   93.408    0.365    0.216   15.268
  456.250   91.018    0.350    0.222   16.070
  456.500   86.208    0.327    0.225   17.430
  456.750   83.211    0.312    0.216   18.789
  457.000   80.204    0.307    0.197   20.308
  457.250   75.395    0.311    0.196   21.429
  457.500   71.183    0.325    0.209   21.197
  457.750   69.390    0.340    0.219   20.885
  458.000   70.036    0.353    0.232   20.495
  458.250   71.290    0.357    0.238   20.181
  458.500   71.936    0.355    0.239   19.312
  458.750   70.780    0.355    0.241   18.601
  459.000   69.585    0.349    0.246   17.493
  459.250   68.409    0.347    0.249   16.545
  459.500   67.234    0.347    0.257   16.393
  459.750   62.424    0.347    0.265   16.639
  460.000   60.024    0.347    0.272   16.963
  460.250   59.456    0.346    0.282   17.127
  460.500   59.505    0.346    0.291   17.770
  460.750   59.544    0.346    0.298   18.732
  461.000   59.573    0.343    0.286   20.091
  461.250   57.800    0.346    0.274   21.929
  461.500   56.017    0.353    0.265   22.413
  461.750   55.458    0.358    0.263   22.021
  462.000   54.900    0.359    0.264   21.391
  462.250   54.929    0.359    0.270   20.520
  462.500   54.351    0.359    0.272   16.787
  462.750   54.390    0.359    0.277   15.837
  463.000   54.429    0.359    0.282   15.606
  463.250   53.273    0.359    0.286   15.692
  463.500   52.087    0.361    0.286   15.778
  463.750   51.509    0.372    0.285   16.102
  464.000   49.139    0.379    0.283   16.506
  464.250   48.561    0.376    0.280   16.992
  464.500   47.992    0.373    0.276   17.474
  464.750   48.022    0.366    0.272   18.196
  465.000   48.070    0.359    0.268   19.159
  465.250   47.492    0.359    0.270   20.359
  465.500   45.121    0.360    0.272   22.515
  465.750   43.936    0.361    0.278   24.033
  466.000   43.378    0.361    0.282   24.439
  466.250   46.462    0.357    0.281   24.287
  466.500   47.706    0.356    0.279   24.291
  466.750   49.557    0.356    0.279   24.298
  467.000   52.632    0.357    0.288   24.066
  467.250   56.325    0.360    0.295   23.275
