~VERSION INFORMATION
 VERS.                 2.0:   CWLS LOG ASCII STANDARD -VERSION 2.0
 WRAP.                  NO:   ONE LINE PER DEPTH STEP
~WELL INFORMATION BLOCK
#MNEM.UNIT           DATA                    DESCRIPTION OF MNEMONIC
#---------    -------------------            -------------------------------
# Generated from Intellog Unique Number	CW_73_75/WELL/3521
WELL.         G&W ET AL SPUR                 : Well_name    - WELL
LOC .         00/08-05-073-02W5/0            : Location     - LOCATION
UWI .         00/08-05-073-02W5/0            : Uwi          - UNIQUE WELL ID
ENTR.         TOM                            : Entered      - ENTERED BY
SRVC.         SCHLUMBERGER                   : Scn          - SERVICE COMPANY
STRT.M        350                            : top_depth    - START DEPTH
STOP.M        600                            : bot_depth    - STOP DEPTH
STEP.M        0.25                           : increment    - STEP LENGTH
 NULL. -999.2500:NULL Value
~CURVE INFORMATION BLOCK
#MNEM UNIT       ERCB CURVE CODE    CURVE DESCRIPTION
#-----------   ------------------   ----------------------------------
DEPT.M        00 001 00 00         : DEPTH        - DEPTH
GR  .API      00 310 00 00         : GR           - GAMMA RAY
NPHI.V/V      00 330 00 00         : PHIN         - NEUTRON POROSITY (SANDSTONE)
DPHI.V/V      00 890 00 00         : PHID         - DENSITY POROSITY (SANDSTONE)
ILD .OHMM     00 120 00 00         : RESD         - DEEP RESISTIVITY (DIL)
~PARAMETER INFORMATION
#MNEM.UNIT           DATA             DESCRIPTION OF MNEMONIC
#---------         -----------     ------------------------------
GL  .M        601.5                : gl           - GROUND LEVEL ELEVATION
EREF.M        604.3                : kb           - ELEVATION OF DEPTH REFERENCE
DATM.M        604.3                : datum        - DATUM ELEVATION
TDD .M        604                  : tdd          - TOTAL DEPTH DRILLER
RUN .         ONE                  : Run          - RUN NUMBER
ENG .         BILL                 : Engineer     - RECORDING ENGINEER
WIT .         JIM                  : Witness      - WITNESSED BY
MUD .         GEL                  : Mud_type     - MUD TYPE
MATR.         SANDSTONE            : Logunit      - NEUTRON MATRIX
TMAX.C        28                   : BHT          - MAXIMUM RECORDED TEMPERATURE
BHTD.M        604                  : BHTDEP       - MAXIMUM RECORDED TEMPERATURE
RMT .C        17                   : MDTP         - TEMPERATURE OF MUD
MUDD.KG/M     1100                 : MWT          - MUD DENSITY
NEUT.         1                    : NEUTRON      - NEUTRON TYPE
RESI.         0                    : RESIST       - RESISTIVITY TYPE
RM  .OHMM     4.5                  : RM           - RESISTIVITY OF MUD
RMC .OHMM     0                    : RMC          - RESISTIVITY OF MUD CAKE
RMF .OHMM     2.744                : RMF          - RESISTIVITY OF MUD FILTRATE
SUFT.C        15                   : SUFT         - SURFACE TEMPERATURE
~A  DEPTH       GR     PHIN     PHID     RESD
# ...
  393.500   64.627    0.388    0.243    2.972
  393.750   71.126    0.398    0.214    3.196
  394.000   83.598    0.412    0.202    3.437
  394.250   90.115    0.448    0.201    3.432
  394.500   96.614    0.426    0.199    3.365
  394.750  100.724    0.410    0.195    3.238
  395.000  104.219    0.401    0.187    3.234
  395.250  101.776    0.386    0.173    3.415
  395.500   85.561    0.390    0.178    3.810
  395.750   78.322    0.390    0.203    4.098
  396.000   72.278    0.379    0.213    4.409
  396.250   68.605    0.371    0.220    4.569
  396.500   72.715    0.372    0.224    4.562
  396.750   80.427    0.396    0.240    4.474
  397.000   82.147    0.390    0.263    4.225
  397.250   67.126    0.373    0.267    3.991
  397.500   59.290    0.367    0.275    3.913
  397.750   51.437    0.369    0.279    3.838
  398.000   47.782    0.372    0.247    3.833
  398.250   54.281    0.360    0.237    4.045
  398.500   62.590    0.365    0.234    4.117
  398.750   73.867    0.380    0.241    4.111
  399.000   79.172    0.399    0.244    3.957
  399.250   82.105    0.400    0.249    3.669
  399.500   89.799    0.370    0.226    3.466
  399.750   92.117    0.378    0.205    3.940
  400.000   75.304    0.385    0.228    5.391
  400.250   68.065    0.377    0.232    5.483
  400.500   63.795    0.378    0.242    5.576
  400.750   63.127    0.376    0.251    5.573
  401.000   66.621    0.374    0.257    5.265
  401.250   68.975    0.379    0.252    4.974
  401.500   74.280    0.385    0.222    4.528
  401.750   83.168    0.390    0.210    4.046
  402.000   98.047    0.460    0.191    3.684
  402.250  109.325    0.477    0.180    3.114
  402.500  112.855    0.489    0.178    2.682
  402.750  110.359    0.488    0.187    2.397
  403.000  109.111    0.485    0.199    2.437
  403.250  107.248    0.481    0.200    2.721
  403.500  102.996    0.458    0.204    3.270
  403.750   95.757    0.409    0.212    3.390
  404.000   66.981    0.330    0.236    3.446
  404.250   57.950    0.313    0.243    3.443
  404.500   43.526    0.313    0.270    3.254
  404.750   30.894    0.315    0.292    2.906
  405.000   25.447    0.318    0.305    2.645
  405.250   25.973    0.322    0.311    2.452
  405.500   25.902    0.320    0.311    2.362
  405.750   23.442    0.318    0.309    2.273
  406.000   22.176    0.320    0.308    2.228
  406.250   22.105    0.325    0.313    2.225
  406.500   21.437    0.328    0.314    2.262
  406.750   20.751    0.327    0.313    2.260
  407.000   20.680    0.328    0.318    2.258
  407.250   21.188    0.326    0.322    2.255
  407.500   22.311    0.321    0.319    2.252
  407.750   25.245    0.316    0.309    2.249
  408.000   30.567    0.309    0.290    2.287
  408.250   38.858    0.309    0.260    2.371
  408.500   66.895    0.340    0.202    2.597
  408.750   99.096    0.382    0.180    2.795
  409.000   97.830    0.374    0.181    3.118
  409.250   99.551    0.379    0.187    3.546
  409.500  104.856    0.387    0.195    3.814
  409.750  105.364    0.381    0.200    4.101
  410.000  102.307    0.374    0.203    4.249
  410.250  102.253    0.373    0.206    4.325
  410.500  109.947    0.408    0.205    4.320
  410.750  114.075    0.464    0.200    3.652
  411.000  114.004    0.486    0.200    2.973
  411.250  115.725    0.496    0.207    2.657
  411.500  117.410    0.505    0.216    2.419
  411.750  116.777    0.513    0.230    2.243
  412.000  111.910    0.442    0.226    2.240
  412.250  106.463    0.410    0.222    2.322
  412.500  101.016    0.422    0.224    2.498
  412.750   91.968    0.433    0.233    2.946
  413.000   85.326    0.422    0.243    3.349
  413.250   77.473    0.398    0.257    3.670
  413.500   69.637    0.405    0.268    3.804
  413.750   64.190    0.408    0.276    3.940
  414.000   61.097    0.394    0.270    4.010
  414.250   64.030    0.382    0.259    4.005
  414.500   68.158    0.357    0.253    4.000
  414.750   74.657    0.368    0.247    3.993
  415.000   72.161    0.388    0.245    3.989
  415.250   71.528    0.399    0.254    3.985
  415.500   66.679    0.391    0.280    3.979
  415.750   60.617    0.384    0.288    4.049
  416.000   54.573    0.368    0.295    4.044
  416.250   50.321    0.366    0.300    3.749
  416.500   48.422    0.364    0.300    3.477
  416.750   49.581    0.359    0.295    3.285
  417.000   54.886    0.357    0.287    3.341
  417.250   62.580    0.363    0.273    3.461
  417.500   63.703    0.367    0.262    3.459
  417.750   65.424    0.376    0.264    3.585
  418.000   68.321    0.387    0.265    3.646
  418.250   70.024    0.387    0.266    3.642
  418.500   69.989    0.378    0.262    3.704
  418.750   68.108    0.385    0.253    3.701
  419.000   65.648    0.396    0.257    3.905
  419.250   64.979    0.409    0.268    4.049
  419.500   64.926    0.402    0.274    4.195
  419.750   64.855    0.401    0.279    4.267
  420.000   64.169    0.401    0.281    4.264
  420.250   62.903    0.401    0.276    4.100
  420.500   65.836    0.397    0.271    4.021
  420.750   70.544    0.394    0.263    4.017
  421.000   74.056    0.401    0.261    3.939
  421.250   73.335    0.407    0.254    4.006
  421.500   72.719    0.409    0.243    4.076
  421.750   71.436    0.409    0.233    4.145
  422.000   72.577    0.409    0.228    4.143
  422.250   79.674    0.412    0.216    4.213
  422.500   84.381    0.420    0.209    4.206
  422.750   85.504    0.426    0.203    4.204
  423.000   83.641    0.423    0.228    4.045
  423.250   76.403    0.416    0.256    3.965
  423.500   61.364    0.407    0.272    3.887
  423.750   61.310    0.377    0.285    3.671
  424.000   78.579    0.390    0.284    3.282
  424.250   90.454    0.429    0.275    2.624
  424.500   97.568    0.487    0.258    2.218
  424.750   95.705    0.530    0.234    1.946
  425.000   74.710    0.521    0.260    2.092
  425.250   67.454    0.443    0.286    2.210
  425.500   57.229    0.383    0.290    2.421
  425.750   45.791    0.375    0.288    2.652
  426.000   49.304    0.377    0.295    2.749
  426.250   48.618    0.378    0.304    3.068
  426.500   45.560    0.382    0.309    3.300
  426.750   43.100    0.382    0.314    3.356
  427.000   41.237    0.378    0.315    3.414
  427.250   38.759    0.367    0.303    3.411
  427.500   36.896    0.291    0.256    3.343
  427.750   36.825    0.264    0.201    3.400
  428.000   36.772    0.176    0.098    3.659
  428.250   37.298    0.221    0.078    4.160
  428.500   39.001    0.247    0.111    5.286
  428.750   41.301    0.264    0.153    6.840
  429.000   42.460    0.295    0.209    5.892
  429.250   46.570    0.336    0.260    4.981
  429.500   49.486    0.390    0.288    3.697
  429.750   51.224    0.395    0.309    3.184
  430.000   51.153    0.392    0.298    2.953
  430.250   49.887    0.393    0.300    2.948
  430.500   48.604    0.405    0.306    3.171
  430.750   49.727    0.403    0.302    3.348
  431.000   49.059    0.396    0.298    3.343
  431.250   47.793    0.389    0.296    3.340
  431.500   47.125    0.385    0.295    3.398
  431.750   47.054    0.387    0.290    3.392
  432.000   50.549    0.389    0.289    3.451
  432.250   51.057    0.388    0.292    3.448
  432.500   51.022    0.387    0.292    3.379
  432.750   50.353    0.387    0.293    3.376
  433.000   51.459    0.395    0.298    3.248
  433.250   53.162    0.398    0.303    3.244
  433.500   53.706    0.396    0.302    3.239
  433.750   55.427    0.393    0.304    3.235
  434.000   57.745    0.405    0.330    3.353
  434.250   60.098    0.425    0.334    3.475
  434.500   66.597    0.427    0.326    3.600
  434.750   70.690    0.426    0.303    3.663
  435.000   68.247    0.425    0.298    3.657
  435.250   71.760    0.423    0.295    3.723
  435.500   77.662    0.418    0.289    3.858
  435.750   81.174    0.414    0.265    3.997
  436.000   82.895    0.407    0.248    4.067
  436.250   82.824    0.394    0.229    4.136
  436.500   84.545    0.392    0.222    4.367
  436.750   86.266    0.397    0.227    4.445
