~VERSION INFORMATION
 VERS.                 2.0:   CWLS LOG ASCII STANDARD -VERSION 2.0
 WRAP.                  NO:   ONE LINE PER DEPTH STEP
~WELL INFORMATION BLOCK
#MNEM.UNIT           DATA                    DESCRIPTION OF MNEMONIC
#---------    -------------------            -------------------------------
# Generated from Intellog Unique Number	CW_79_81/WELL/2448
WELL.         SHELL FINA PASTECHO            : Well_name    - WELL
LOC .         00/05-25-081-03W5/0            : Location     - LOCATION
UWI .         00/05-25-081-03W5/0            : Uwi          - UNIQUE WELL ID
ENTR.         MAX                            : Entered      - ENTERED BY
SRVC.         SCHLUMBERGER                   : Scn          - SERVICE COMPANY
STRT.M        250                            : top_depth    - START DEPTH
STOP.M        479.75                         : bot_depth    - STOP DEPTH
STEP.M        0.25                           : increment    - STEP LENGTH
 NULL. -999.2500:NULL Value
~CURVE INFORMATION BLOCK
#MNEM UNIT       ERCB CURVE CODE    CURVE DESCRIPTION
#-----------   ------------------   ----------------------------------
DEPT.M        00 001 00 00         : DEPTH        - DEPTH
ILD .OHMM     00 120 00 00         : RESD         - DEEP RESISTIVITY (DIL)
NPHI.V/V      00 330 00 00         : PHIN         - NEUTRON POROSITY (SANDSTONE)
DPHI.V/V      00 890 00 00         : PHID         - DENSITY POROSITY (SANDSTONE)
GR  .API      00 310 00 00         : GR           - GAMMA RAY
CALI.MM       00 280 01 00         : CAL          - CALIPER
~PARAMETER INFORMATION
#MNEM.UNIT           DATA             DESCRIPTION OF MNEMONIC
#---------         -----------     ------------------------------
GL  .M        574.37               : gl           - GROUND LEVEL ELEVATION
EREF.M        578.37               : kb           - ELEVATION OF DEPTH REFERENCE
DATM.M        574.37               : datum        - DATUM ELEVATION
TDD .M        455.2                : tdd          - TOTAL DEPTH DRILLER
RUN .         ONE                  : Run          - RUN NUMBER
ENG .         BILL                 : Engineer     - RECORDING ENGINEER
WIT .         JIM                  : Witness      - WITNESSED BY
MUD .         GEL                  : Mud_type     - MUD TYPE
MATR.         SANDSTONE            : Logunit      - NEUTRON MATRIX
TMAX.C        16.7                 : BHT          - MAXIMUM RECORDED TEMPERATURE
BHTD.M        455.2                : BHTDEP       - MAXIMUM RECORDED TEMPERATURE
MATR.         1                    : LOGUNIT      - NEUTRON MATRIX
RMT .C        22.2                 : MDTP         - TEMPERATURE OF MUD
NEUT.         1                    : NEUTRON      - NEUTRON TYPE
RESI.         0                    : RESIST       - RESISTIVITY TYPE
RMC .OHMM     3.58                 : RMC          - RESISTIVITY OF MUD CAKE
RMF .OHMM     2.73                 : RMF          - RESISTIVITY OF MUD FILTRATE
SUFT.C        -20                  : SUFT         - SURFACE TEMPERATURE
~A  DEPTH     RESD     PHIN     PHID       GR      CAL
# ...
  432.500    6.797    0.465    0.144   99.942  213.675
  432.750    6.890    0.473    0.167  102.608  213.622
  433.000    6.885    0.480    0.191  103.073  213.576
  433.250    6.880    0.468    0.186  106.591  213.926
  433.500    6.875    0.456    0.190  109.934  213.393
  433.750    6.870    0.441    0.192  110.853  212.564
  434.000    6.864    0.427    0.190  109.111  212.518
  434.250    6.858    0.421    0.186  106.037  214.823
  434.500    6.852    0.425    0.190  103.797  214.773
  434.750    6.847    0.425    0.191  101.878  213.954
  435.000    6.992    0.420    0.194   99.783  213.122
  435.250    7.372    0.414    0.186   96.569  212.684
  435.500    8.063    0.407    0.165   91.347  212.740
  435.750    9.256    0.393    0.136   82.244  212.909
  436.000    9.908    0.358    0.101   77.047  212.052
  436.250    9.972    0.338    0.090   79.623  212.402
  436.500    9.820    0.366    0.135   85.209  212.456
  436.750    9.493    0.395    0.170   87.310  212.415
  437.000    9.046    0.405    0.168   85.688  212.373
  437.250    8.464    0.398    0.146   87.153  212.317
  437.500    8.144    0.399    0.161   91.064  212.280
  437.750    7.961    0.430    0.172   91.274  212.236
  438.000    7.696    0.430    0.168   88.118  212.484
  438.250    7.277    0.412    0.149   84.783  212.637
  438.500    6.905    0.387    0.125   83.633  212.694
  438.750    7.051    0.374    0.109   85.958  213.113
  439.000    7.604    0.395    0.117   84.702  213.482
  439.250    7.823    0.407    0.096   75.697  213.442
  439.500    7.875    0.380    0.070   73.602  213.691
  439.750    7.811    0.344    0.072   78.185  214.039
  440.000    7.561    0.337    0.105   86.962  214.391
  440.250    6.880    0.404    0.143   95.990  214.822
  440.500    6.425    0.414    0.147   99.904  215.181
  440.750    6.053    0.423    0.167  103.422  215.531
  441.000    5.801    0.439    0.164  104.990  215.582
  441.250    5.652    0.453    0.157  105.674  215.543
  441.500    5.627    0.456    0.157  106.949  215.605
  441.750    5.882    0.447    0.166  110.846  216.185
  442.000    6.393    0.453    0.164  111.557  217.379
  442.250    6.721    0.466    0.142  103.970  218.118
  442.500    6.582    0.455    0.085  102.584  217.095
  442.750    6.224    0.428    0.056  106.576  216.263
  443.000    5.815    0.403    0.082  112.754  216.018
  443.250    5.355    0.417    0.154  115.706  214.857
  443.500    5.114    0.438    0.166  116.417  213.170
  443.750    4.818    0.475    0.172  115.684  214.697
  444.000    4.747    0.484    0.163  113.707  215.348
  444.250    4.830    0.480    0.145  111.081  215.698
  444.500    5.066    0.466    0.112  107.984  215.845
  444.750    5.687    0.431    0.049  103.821  215.156
  445.000    6.628    0.404    0.072  102.073  213.874
  445.250    7.749    0.424    0.091   91.653  214.233
  445.500    8.848    0.414    0.127   78.037  214.877
  445.750   10.074    0.398    0.162   65.838  215.820
  446.000   11.556    0.387    0.204   58.072  217.160
  446.250   13.655    0.375    0.277   56.345  219.155
  446.500   16.552    0.370    0.267   57.305  219.529
  446.750   17.150    0.375    0.279   58.226  219.874
  447.000   17.866    0.381    0.286   58.435  219.931
  447.250   18.847    0.377    0.286   58.407  219.887
  447.500   19.577    0.364    0.276   58.382  219.842
  447.750   18.280    0.348    0.256   58.404  219.797
  448.000   16.324    0.336    0.242   58.623  219.751
  448.250   14.600    0.328    0.183   59.775  218.920
  448.500   13.985    0.338    0.170   61.641  218.078
  448.750   13.975    0.364    0.191   63.508  217.638
  449.000   14.373    0.393    0.224   64.428  217.502
  449.250   15.318    0.399    0.238   62.473  217.057
  449.500   16.396    0.394    0.249   58.753  217.020
  449.750   18.373    0.377    0.277   57.075  216.976
  450.000   19.249    0.369    0.280   55.750  215.750
  450.250   19.021    0.362    0.282   55.369  214.722
  450.500   17.913    0.355    0.286   55.993  214.382
  450.750   15.796    0.350    0.276   57.194  214.412
  451.000   14.103    0.346    0.261   57.413  214.781
  451.250   12.710    0.335    0.248   57.623  214.732
  451.500   11.592    0.329    0.256   57.478  214.986
  451.750   10.490    0.331    0.269   57.572  215.336
  452.000    9.442    0.338    0.280   58.373  215.684
  452.250    8.300    0.348    0.282   60.767  216.197
  452.500    7.090    0.365    0.261   63.448  216.967
  452.750    5.837    0.397    0.252   66.265  217.711
  453.000    4.815    0.432    0.250   71.735  217.870
  453.250    4.178    0.457    0.239   76.789  218.028
  453.500    3.853    0.469    0.224   79.717  218.376
  453.750    3.767    0.466    0.230   80.259  218.795
  454.000    3.764    0.450    0.236   80.724  219.159
  454.250    3.789    0.438    0.225   79.752  219.119
  454.500    3.876    0.423    0.225   79.314  219.076
  454.750    3.973    0.408    0.227   78.697  219.225
  455.000    4.043    0.396    0.231   77.960  219.472
  455.250    4.019    0.384    0.237   77.976  219.508
  455.500    3.780    0.382    0.250   78.192  219.868
  455.750    3.722    0.406    0.249   77.935  219.439
  456.000    3.747    0.424    0.253   77.496  219.302
  456.250    3.868    0.422    0.254   74.753  219.455
  456.500    4.074    0.403    0.251   70.296  219.802
  456.750    4.367    0.378    0.242   67.323  220.143
  457.000    4.639    0.366    0.247   66.809  220.102
  457.250    5.090    0.360    0.267   66.546  220.456
  457.500    5.415    0.356    0.270   66.815  220.512
  457.750    5.654    0.356    0.258   67.264  220.271
  458.000    5.807    0.358    0.242   67.950  219.832
  458.250    5.793    0.355    0.232   70.222  219.381
  458.500    5.746    0.348    0.214   74.622  219.340
  458.750    5.535    0.338    0.276   77.907  221.654
  459.000    5.362    0.335    0.314   79.951  223.093
  459.250    5.184    0.348    0.350   80.633  225.611
  459.500    5.005    0.376    0.385   80.546  230.487
  459.750    4.835    0.405    0.404   80.839  242.091
  460.000    4.723    0.419    0.418   80.073  260.927
  460.250    4.858    0.427    0.428   78.398  353.832
  460.500    5.133    0.436    0.440   77.959  364.039
  460.750    5.571    0.448    0.452   78.996  325.196
  461.000    5.802    0.462    0.464   80.624  272.474
  461.250    4.879    0.474    0.469   80.930  240.595
  461.500    4.138    0.462    0.452   81.395  231.108
  461.750    3.870    0.447    0.451   82.550  235.405
  462.000    3.952    0.451    0.459   84.591  260.080
  462.250    4.243    0.458    0.459   85.155  271.854
  462.500    4.788    0.448    0.419   83.594  259.897
  462.750    6.349    0.387    0.287   80.718  233.679
  463.000    9.096    0.293    0.244   79.457  222.961
  463.250   14.412    0.285    0.268   80.378  223.311
  463.500   16.595    0.285    0.279   82.538  223.372
  463.750   15.249    0.290    0.282   85.349  223.332
  464.000   13.338    0.297    0.282   89.696  223.387
  464.250   11.397    0.305    0.276   98.969  223.809
  464.500    9.736    0.303    0.265  104.111  224.174
  464.750    8.906    0.321    0.279  105.502  226.103
  465.000    8.478    0.356    0.303  105.832  226.257
  465.250    8.260    0.385    0.330  103.800  224.835
  465.500    8.222    0.394    0.346   98.872  222.919
  465.750    8.547    0.377    0.311   90.438  222.304
  466.000    9.010    0.358    0.249   86.223  221.443
  466.250   10.098    0.320    0.232   85.729  221.009
  466.500   11.446    0.297    0.224   87.358  220.569
  466.750   12.162    0.283    0.225   91.467  220.326
  467.000   11.679    0.277    0.234   96.757  220.282
  467.250   10.378    0.286    0.252   99.680  220.311
  467.500    9.911    0.303    0.266   96.701  220.680
  467.750    9.976    0.301    0.280   95.021  221.035
  468.000   10.041    0.297    0.277   92.631  221.678
  468.250   10.179    0.293    0.274   88.469  222.224
  468.500   10.378    0.290    0.278   83.481  222.676
  468.750   10.632    0.289    0.287   80.810  223.493
