~VERSION INFORMATION
 VERS.                 2.0:   CWLS LOG ASCII STANDARD -VERSION 2.0
 WRAP.                  NO:   ONE LINE PER DEPTH STEP
~WELL INFORMATION BLOCK
#MNEM.UNIT           DATA                    DESCRIPTION OF MNEMONIC
#---------    -------------------            -------------------------------
# Generated from Intellog Unique Number	CS_69_70/WELL/843
WELL.         GOLDEN EAGLE OIL & GAS         : Well_name    - WELL
LOC .         00/07-24-069-17W4/0            : Location     - LOCATION
UWI .         00/07-24-069-17W4/0            : Uwi          - UNIQUE WELL ID
ENTR.         SP                             : Entered      - ENTERED BY
SRVC.         SCHLUMBERGER                   : Scn          - SERVICE COMPANY
STRT.M        275                            : top_depth    - START DEPTH
STOP.M        445                            : bot_depth    - STOP DEPTH
STEP.M        0.25                           : increment    - STEP LENGTH
 NULL. -999.2500:NULL Value
~CURVE INFORMATION BLOCK
#MNEM UNIT       ERCB CURVE CODE    CURVE DESCRIPTION
#-----------   ------------------   ----------------------------------
DEPT.M        00 001 00 00         : DEPTH        - DEPTH
GR  .API      00 310 00 00         : GR           - GAMMA RAY
NPHI.V/V      00 330 00 00         : PHIN         - NEUTRON POROSITY (LIMESTONE)
DPHI.V/V      00 890 00 00         : PHID         - DENSITY POROSITY (LIMESTONE)
ILD .OHMM     00 120 00 00         : RESD         - DEEP RESISTIVITY (DIL)
~PARAMETER INFORMATION
#MNEM.UNIT           DATA             DESCRIPTION OF MNEMONIC
#---------         -----------     ------------------------------
GL  .M        550.5                : gl           - GROUND LEVEL ELEVATION
EREF.M        553.4                : kb           - ELEVATION OF DEPTH REFERENCE
DATM.M        550.5                : datum        - DATUM ELEVATION
TDD .M        480                  : tdd          - TOTAL DEPTH DRILLER
RUN .         ONE                  : Run          - RUN NUMBER
ENG .         BILL                 : Engineer     - RECORDING ENGINEER
WIT .         JIM                  : Witness      - WITNESSED BY
MUD .         GEL                  : Mud_type     - MUD TYPE
MATR.         LIMESTONE            : Logunit      - NEUTRON MATRIX
TMAX.C        22.2                 : BHT          - MAXIMUM RECORDED TEMPERATURE
BHTD.M        480                  : BHTDEP       - MAXIMUM RECORDED TEMPERATURE
MATR.         1                    : LOGUNIT      - NEUTRON MATRIX
RMT .C        25                   : MDTP         - TEMPERATURE OF MUD
NEUT.         1                    : NEUTRON      - NEUTRON TYPE
RESI.         0                    : RESIST       - RESISTIVITY TYPE
RMC .OHMM     0.25                 : RMC          - RESISTIVITY OF MUD CAKE
RMF .OHMM     0.25                 : RMF          - RESISTIVITY OF MUD FILTRATE
SUFT.C        15                   : SUFT         - SURFACE TEMPERATURE
~A  DEPTH       GR     PHIN     PHID     RESD
  275.000  102.149    0.496    0.187    2.660
  275.250  104.977    0.510    0.190    2.747
  275.500  106.394    0.524    0.202    2.837
  275.750  105.541    0.529    0.211    2.902
  276.000  100.823    0.474    0.210    2.996
  276.250   99.356    0.473    0.204    3.054
  276.500  101.509    0.492    0.199    3.124
  276.750  103.601    0.511    0.194    3.232
  277.000  100.662    0.507    0.191    3.319
  277.250   98.029    0.474    0.179    3.357
  277.500   96.808    0.460    0.177    3.320
  277.750   96.936    0.451    0.190    3.223
  278.000  100.746    0.474    0.194    3.140
  278.250  103.451    0.493    0.193    2.992
  278.500  101.064    0.498    0.194    2.877
  278.750  100.580    0.507    0.201    2.766
  279.000  100.646    0.520    0.202    2.701
  279.250   98.014    0.498    0.204    2.651
  279.500   99.983    0.493    0.211    2.652
  279.750  104.283    0.511    0.210    2.687
  280.000  101.283    0.526    0.196    2.744
  280.250   97.914    0.470    0.190    2.802
  280.500   99.270    0.466    0.195    2.904
  280.750  105.964    0.504    0.202    2.960
  281.000  108.422    0.521    0.206    2.977
  281.250  106.282    0.497    0.196    2.967
  281.500  102.054    0.482    0.193    2.918
  281.750   95.557    0.496    0.192    2.875
  282.000   94.519    0.486    0.208    2.908
  282.250   94.218    0.502    0.204    3.020
  282.500   90.666    0.557    0.200    3.178
  282.750   82.573    0.437    0.195    3.350
  283.000   72.701    0.411    0.138    3.646
  283.250   75.407    0.394    0.089    3.626
  283.500   81.056    0.406    0.192    3.546
  283.750   81.737    0.409    0.212    3.391
  284.000   79.411    0.400    0.236    3.285
  284.250   81.626    0.404    0.260    3.256
  284.500   87.092    0.422    0.278    3.263
  284.750   90.165    0.430    0.262    3.319
  285.000   93.054    0.428    0.250    3.427
  285.250   95.882    0.429    0.240    3.626
  285.500  100.858    0.435    0.232    3.830
  285.750   99.636    0.450    0.238    4.022
  286.000   73.200    0.476    0.262    4.709
  286.250   54.371    0.472    0.283    5.745
  286.500   43.150    0.454    0.302    7.209
  286.750   36.775    0.429    0.324    7.934
  287.000   30.646    0.406    0.334    7.052
  287.250   36.357    0.384    0.320    6.447
  287.500   47.774    0.383    0.308    6.062
  287.750   56.368    0.395    0.300    5.700
  288.000   62.694    0.404    0.294    5.616
  288.250   65.828    0.418    0.296    5.909
  288.500   63.012    0.430    0.305    6.639
  288.750   61.852    0.436    0.314    7.131
  289.000   62.779    0.435    0.323    6.948
  289.250   64.992    0.431    0.329    6.460
  289.500   67.145    0.429    0.311    5.939
  289.750   67.397    0.424    0.302    5.181
  290.000   67.832    0.418    0.303    4.692
  290.250   69.188    0.412    0.292    4.428
  290.500   73.733    0.399    0.281    4.187
  290.750   79.445    0.378    0.262    4.004
  291.000   88.959    0.369    0.237    4.035
  291.250   98.413    0.379    0.189    4.254
  291.500   99.400    0.380    0.195    4.160
  291.750   84.805    0.361    0.187    3.775
  292.000   75.792    0.346    0.174    3.438
  292.250   72.301    0.367    0.210    3.214
  292.500   71.632    0.378    0.232    2.977
  292.750   71.392    0.369    0.223    2.842
  293.000   70.478    0.370    0.228    2.774
  293.250   70.913    0.380    0.241    2.811
  293.500   78.771    0.383    0.212    3.003
  293.750   88.778    0.398    0.194    3.262
  294.000   95.225    0.411    0.188    3.412
  294.250   99.035    0.421    0.177    3.537
  294.500  100.206    0.428    0.155    3.518
  294.750  101.009    0.419    0.134    3.383
  295.000  103.224    0.433    0.182    3.247
  295.250  105.376    0.468    0.200    3.094
  295.500   98.082    0.486    0.217    3.037
  295.750   86.186    0.498    0.238    2.959
  296.000   77.786    0.480    0.264    2.921
  296.250   73.559    0.465    0.280    2.884
  296.500   73.258    0.454    0.292    2.852
  296.750   73.571    0.444    0.302    2.853
  297.000   74.189    0.448    0.308    2.902
  297.250   76.895    0.453    0.304    3.002
  297.500   83.344    0.429    0.286    3.159
  297.750   85.925    0.420    0.267    3.238
  298.000   84.458    0.433    0.255    3.312
  298.250   81.212    0.434    0.255    3.389
  298.500   78.457    0.427    0.263    3.415
  298.750   81.163    0.444    0.248    3.441
  299.000   83.868    0.461    0.230    3.461
  299.250   84.487    0.457    0.215    3.469
  299.500   84.983    0.460    0.210    3.483
  299.750   87.566    0.465    0.225    3.503
  300.000   92.664    0.466    0.227    3.570
  300.250   93.713    0.466    0.214    3.673
  300.500   92.860    0.460    0.223    3.879
  300.750   91.331    0.469    0.234    4.112
  301.000   90.662    0.484    0.237    4.318
  301.250   88.091    0.492    0.243    4.535
  301.500   81.165    0.440    0.251    4.562
  301.750   74.544    0.406    0.261    4.453
  302.000   68.844    0.407    0.275    4.363
  302.250   71.120    0.424    0.286    4.204
  302.500   74.193    0.440    0.296    4.028
  302.750   77.390    0.452    0.289    3.917
  303.000   80.647    0.434    0.261    3.852
  303.250   81.818    0.433    0.240    3.846
  303.500   82.131    0.446    0.228    3.847
  303.750   81.462    0.457    0.230    3.899
  304.000   78.891    0.449    0.237    3.922
  304.250   79.020    0.438    0.215    3.959
  304.500   80.313    0.430    0.192    3.961
  304.750   84.369    0.431    0.179    3.932
  305.000   92.411    0.437    0.174    3.874
  305.250   99.473    0.441    0.175    3.796
  305.500  104.938    0.445    0.175    3.644
  305.750  110.956    0.468    0.178    3.491
  306.000  117.772    0.487    0.188    3.440
  306.250  123.238    0.500    0.199    3.447
  306.500  119.869    0.514    0.208    3.487
  306.750  108.096    0.466    0.218    3.527
  307.000   98.285    0.447    0.229    3.588
  307.250   88.659    0.429    0.252    3.636
  307.500   80.014    0.430    0.257    3.692
  307.750   91.923    0.433    0.235    3.784
  308.000   98.125    0.430    0.220    3.915
  308.250  101.566    0.417    0.208    4.073
  308.500  101.940    0.408    0.196    4.391
  308.750  101.209    0.428    0.188    4.620
  309.000  102.074    0.431    0.193    4.880
  309.250  100.055    0.412    0.197    4.983
  309.500   99.141    0.400    0.196    4.956
  309.750  100.741    0.415    0.205    4.856
  310.000  103.939    0.434    0.215    4.794
  310.250  102.840    0.433    0.216    4.813
  310.500  103.151    0.416    0.209    4.814
  310.750  108.434    0.406    0.214    4.761
  311.000  111.692    0.423    0.221    4.648
  311.250  113.660    0.446    0.224    4.436
  311.500  114.340    0.444    0.213    4.339
  311.750  112.138    0.452    0.207    4.259
  312.000  105.824    0.473    0.216    4.268
  312.250  100.186    0.467    0.235    4.342
  312.500   96.633    0.445    0.225    4.417
  312.750  102.774    0.421    0.209    4.535
  313.000  106.952    0.416    0.201    4.710
  313.250  111.007    0.419    0.192    4.854
  313.500  113.589    0.402    0.189    4.892
  313.750  112.613    0.405    0.185    4.748
  314.000  111.023    0.410    0.180    4.366
  314.250  115.017    0.414    0.191    3.954
  314.500  118.214    0.436    0.172    3.683
  314.750  120.551    0.461    0.158    3.495
  315.000  120.126    0.475    0.192    3.349
  315.250  114.795    0.483    0.206    3.287
  315.500  105.905    0.477    0.211    3.203
  315.750   95.359    0.471    0.216    3.198
  316.000   88.922    0.467    0.240    3.163
  316.250   84.879    0.472    0.260    3.128
  316.500   83.903    0.473    0.247    3.106
  316.750   80.903    0.467    0.240    3.083
  317.000   77.719    0.454    0.263    3.096
  317.250   76.558    0.447    0.269    3.143
  317.500   78.957    0.441    0.275    3.252
  317.750   78.227    0.442    0.290    3.377
  318.000   75.165    0.455    0.299    3.513
  318.250   78.790    0.475    0.307    3.655
