~VERSION INFORMATION
 VERS.                 2.0:   CWLS LOG ASCII STANDARD -VERSION 2.0
 WRAP.                  NO:   ONE LINE PER DEPTH STEP
~WELL INFORMATION BLOCK
#MNEM.UNIT           DATA                    DESCRIPTION OF MNEMONIC
#---------    -------------------            -------------------------------
# Generated from Intellog Unique Number	CS_67_68/WELL/2185
WELL.         CHIEFCO et al TWEEDIE          : Well_name    - WELL
LOC .         00/08-22-067-12W4/2            : Location     - LOCATION
UWI .         00/08-22-067-12W4/2            : Uwi          - UNIQUE WELL ID
ENTR.         SP                             : Entered      - ENTERED BY
SRVC.         SCHLUMBERGER                   : Scn          - SERVICE COMPANY
STRT.M        285                            : top_depth    - START DEPTH
STOP.M        455                            : bot_depth    - STOP DEPTH
STEP.M        0.25                           : increment    - STEP LENGTH
 NULL. -999.2500:NULL Value
~CURVE INFORMATION BLOCK
#MNEM UNIT       ERCB CURVE CODE    CURVE DESCRIPTION
#-----------   ------------------   ----------------------------------
DEPT.M        00 001 00 00         : DEPTH        - DEPTH
ILD .OHMM     00 120 00 00         : RESD         - DEEP RESISTIVITY (DIL)
DPHI.V/V      00 890 00 00         : PHID         - DENSITY POROSITY (LIMESTONE)
NPHI.V/V      00 330 00 00         : PHIN         - NEUTRON POROSITY (LIMESTONE)
GR  .API      00 310 00 00         : GR           - GAMMA RAY
CALI.MM       00 280 01 00         : CAL          - CALIPER
~PARAMETER INFORMATION
#MNEM.UNIT           DATA             DESCRIPTION OF MNEMONIC
#---------         -----------     ------------------------------
GL  .M        668.6                : gl           - GROUND LEVEL ELEVATION
EREF.M        671.6                : kb           - ELEVATION OF DEPTH REFERENCE
DATM.M        671.6                : datum        - DATUM ELEVATION
TDD .M        456.4                : tdd          - TOTAL DEPTH DRILLER
RUN .         ONE                  : Run          - RUN NUMBER
ENG .         BILL                 : Engineer     - RECORDING ENGINEER
WIT .         JIM                  : Witness      - WITNESSED BY
MUD .         GEL                  : Mud_type     - MUD TYPE
MATR.         LIMESTONE            : Logunit      - NEUTRON MATRIX
TMAX.C        11.7                 : BHT          - MAXIMUM RECORDED TEMPERATURE
BHTD.M        455.5                : BHTDEP       - MAXIMUM RECORDED TEMPERATURE
MATR.         1                    : LOGUNIT      - NEUTRON MATRIX
RMT .C        25                   : MDTP         - TEMPERATURE OF MUD
NEUT.         1                    : NEUTRON      - NEUTRON TYPE
RESI.         0                    : RESIST       - RESISTIVITY TYPE
RMC .OHMM     0.25                 : RMC          - RESISTIVITY OF MUD CAKE
RMF .OHMM     0.25                 : RMF          - RESISTIVITY OF MUD FILTRATE
SUFT.C        15                   : SUFT         - SURFACE TEMPERATURE
~A  DEPTH     RESD     PHID     PHIN       GR      CAL
# ...
  358.000    2.457    0.106    0.478   71.081  154.480
  358.250    2.425    0.112    0.429   65.683  153.867
  358.500    2.285    0.255    0.407   69.437  155.678
  358.750    2.177    0.309    0.442   73.614  157.994
  359.000    2.083    0.329    0.463   76.458  159.907
  359.250    2.018    0.321    0.472   77.303  163.030
  359.500    2.006    0.331    0.478   75.541  164.943
  359.750    2.017    0.321    0.472   72.567  160.188
  360.000    2.028    0.315    0.467   69.350  158.161
  360.250    2.081    0.321    0.464   68.195  159.266
  360.500    2.115    0.315    0.469   68.070  162.794
  360.750    2.162    0.310    0.476   68.793  161.474
  361.000    2.252    0.313    0.483   70.546  157.023
  361.250    2.332    0.309    0.469   72.481  160.147
  361.500    2.415    0.288    0.459   75.811  162.867
  361.750    2.487    0.270    0.467   78.837  157.103
  362.000    2.491    0.274    0.480   80.833  153.156
  362.250    2.431    0.260    0.485   82.465  152.441
  362.500    2.351    0.250    0.499   76.582  152.840
  362.750    2.303    0.264    0.504   72.760  155.357
  363.000    2.240    0.282    0.486   70.513  154.947
  363.250    2.190    0.295    0.487   69.600  152.213
  363.500    2.150    0.287    0.494   68.383  150.892
  363.750    2.091    0.277    0.504   66.258  154.623
  364.000    2.067    0.270    0.503   67.950  157.545
  364.250    2.086    0.266    0.488   70.552  160.266
  364.500    2.140    0.270    0.478   72.972  159.249
  364.750    2.192    0.265    0.465   75.150  156.716
  365.000    2.258    0.259    0.457   76.601  154.385
  365.250    2.360    0.288    0.468   74.536  152.460
  365.500    2.597    0.315    0.494   67.926  151.241
  365.750    3.033    0.311    0.492   68.891  151.840
  366.000    3.601    0.300    0.481   72.584  156.479
  366.250    4.420    0.295    0.469   72.883  159.200
  366.500    5.366    0.277    0.463   66.818  153.435
  366.750    7.651    0.251    0.266   61.116  156.357
  367.000   13.770    0.110    0.220   56.870  159.683
  367.250   17.933    0.090    0.191   50.927  162.706
  367.500   19.557    0.063    0.177   45.589  164.517
  367.750   17.860    0.032    0.166   44.737  164.612
  368.000    5.204    0.005    0.235   52.248  161.272
  368.250    4.215    0.046    0.289   62.910  157.225
  368.500    3.792    0.228    0.362   70.300  154.087
  368.750    3.344    0.264    0.418   76.114  152.160
  369.000    3.128    0.293    0.453   78.594  153.265
  369.250    2.846    0.310    0.472   71.317  155.883
  369.500    2.638    0.318    0.484   70.586  157.998
  369.750    2.486    0.315    0.495   71.733  160.011
  370.000    2.395    0.306    0.493   72.456  158.792
  370.250    2.360    0.299    0.481   71.118  155.856
  370.500    2.381    0.312    0.478   70.448  154.435
  370.750    2.448    0.307    0.491   70.626  156.447
  371.000    2.553    0.296    0.499   72.803  159.268
  371.250    2.674    0.282    0.506   72.860  161.585
  371.500    2.789    0.264    0.494   68.250  163.094
  371.750    2.905    0.250    0.481   62.184  164.703
  372.000    2.975    0.247    0.466   60.605  163.887
  372.250    3.018    0.239    0.459   78.177  161.759
  372.500    3.024    0.228    0.473   93.748  160.036
  372.750    3.001    0.234    0.468   88.834  162.957
  373.000    2.984    0.243    0.469   91.618  165.576
  373.250    2.983    0.237    0.473   91.553  167.287
  373.500    3.038    0.227    0.477   89.731  168.190
  373.750    3.100    0.232    0.483   89.666  168.586
  374.000    3.228    0.224    0.482   91.843  167.974
  374.250    3.269    0.221    0.472   93.960  167.259
  374.500    3.318    0.219    0.464   95.836  166.343
  374.750    3.379    0.215    0.456   97.649  165.426
  375.000    3.460    0.211    0.453   98.736  164.006
  375.250    3.524    0.207    0.457   93.277  162.787
  375.500    3.576    0.212    0.449   90.001  164.295
  375.750    3.636    0.217    0.436   91.571  165.702
  376.000    3.703    0.221    0.455   92.235  166.907
  376.250    3.757    0.216    0.438   92.049  165.991
  376.500    3.827    0.210    0.432   90.772  163.156
  376.750    3.876    0.206    0.451   89.374  160.523
  377.000    3.925    0.215    0.459   87.248  159.102
  377.250    3.961    0.218    0.467   86.214  157.984
  377.500    3.997    0.210    0.454   87.482  157.977
  377.750    3.997    0.199    0.449   88.266  159.383
  378.000    3.981    0.198    0.453   88.201  162.609
  378.250    3.966    0.201    0.461   86.499  163.411
  378.500    3.980    0.211    0.473   83.951  162.393
  378.750    3.986    0.213    0.468   80.250  158.952
  379.000    3.993    0.226    0.458   80.851  157.430
  379.250    3.992    0.216    0.451   81.817  157.928
  379.500    3.984    0.201    0.452   82.843  160.749
  379.750    3.976    0.200    0.465   84.535  162.864
  380.000    3.946    0.225    0.472   87.380  164.978
  380.250    3.960    0.236    0.464   89.557  166.082
  380.500    3.937    0.218    0.453   92.341  166.782
  380.750    3.929    0.197    0.457   94.458  166.270
  381.000    3.914    0.194    0.459   91.000  163.737
  381.250    3.913    0.204    0.471   87.359  162.014
  381.500    3.913    0.207    0.485   88.143  160.391
  381.750    3.933    0.212    0.503   89.290  163.111
  382.000    3.933    0.222    0.492   90.135  165.326
  382.250    3.932    0.219    0.479   88.554  167.036
  382.500    3.932    0.207    0.481   87.399  167.736
  382.750    4.019    0.209    0.491   89.031  168.638
  383.000    4.078    0.214    0.493   90.784  168.834
  383.250    4.040    0.221    0.484   92.901  169.432
  383.500    3.814    0.218    0.479   92.534  170.637
  383.750    3.509    0.212    0.474   91.196  171.540
  384.000    3.181    0.217    0.496   93.918  172.442
  384.250    2.921    0.215    0.538   96.702  172.536
  384.500    2.748    0.220    0.549   98.214  172.327
  384.750    2.768    0.221    0.529   97.482  171.310
  385.000    2.809    0.209    0.511   94.630  170.192
  385.250    2.871    0.201    0.498   95.959  169.477
  385.500    2.935    0.192    0.494   95.106  169.671
  385.750    3.062    0.183    0.497   92.678  169.969
  386.000    3.141    0.168    0.507   92.068  170.568
  386.250    3.176    0.210    0.523   92.912  170.965
  386.500    3.295    0.237    0.538   92.847  169.847
  386.750    3.418    0.245    0.523   91.813  167.618
  387.000    3.520    0.239    0.499   90.596  166.601
  387.250    3.592    0.230    0.477   89.865  166.190
  387.500    3.572    0.224    0.458   89.012  165.879
  387.750    3.617    0.215    0.447   88.341  165.872
  388.000    3.570    0.226    0.462   85.974  165.765
  388.250    3.511    0.239    0.473   83.000  165.657
  388.500    3.414    0.244    0.484   83.601  165.144
  388.750    3.339    0.240    0.456   83.416  165.037
  389.000    3.277    0.226    0.455   80.805  165.030
  389.250    3.204    0.227    0.477   78.256  164.415
  389.500    2.964    0.231    0.504   71.646  164.006
  389.750    2.763    0.222    0.479   66.308  163.898
  390.000    2.463    0.240    0.491   62.849  163.689
  390.250    2.241    0.277    0.501   58.845  163.177
  390.500    2.132    0.311    0.458   58.962  162.463
  390.750    2.108    0.309    0.438   61.806  161.950
  391.000    2.139    0.303    0.433   64.166  161.641
  391.250    2.199    0.297    0.441   62.828  161.229
  391.500    2.260    0.287    0.441   62.279  161.020
  391.750    2.319    0.278    0.436   63.911  160.710
  392.000    2.401    0.268    0.449   65.664  160.096
  392.250    2.487    0.274    0.454   64.872  160.292
  392.500    2.528    0.276    0.443   65.049  159.983
  392.750    2.560    0.261    0.442   65.773  159.774
  393.000    2.593    0.270    0.458   66.617  159.161
  393.250    2.578    0.285    0.473   67.462  158.952
  393.500    2.507    0.285    0.466   68.003  158.541
  393.750    2.457    0.283    0.469   68.302  158.635
  394.000    2.659    0.281    0.485   68.297  158.426
  394.250    2.800    0.278    0.499   66.900  158.216
