~VERSION INFORMATION
 VERS.                 2.0:   CWLS LOG ASCII STANDARD -VERSION 2.0
 WRAP.                  NO:   ONE LINE PER DEPTH STEP
~WELL INFORMATION BLOCK
#MNEM.UNIT           DATA                    DESCRIPTION OF MNEMONIC
#---------    -------------------            -------------------------------
# Generated from Intellog Unique Number	CS_77_79/WELL/913
WELL.         NOVALTA VIOLET                 : Well_name    - WELL
LOC .         00/07-32-078-03W4/0            : Location     - LOCATION
UWI .         00/07-32-078-03W4/0            : Uwi          - UNIQUE WELL ID
ENTR.         JHS                            : Entered      - ENTERED BY
SRVC.         SCHLUMBERGER                   : Scn          - SERVICE COMPANY
STRT.M        135                            : top_depth    - START DEPTH
STOP.M        400                            : bot_depth    - STOP DEPTH
STEP.M        0.25                           : increment    - STEP LENGTH
 NULL. -999.2500:NULL Value
~CURVE INFORMATION BLOCK
#MNEM UNIT       ERCB CURVE CODE    CURVE DESCRIPTION
#-----------   ------------------   ----------------------------------
DEPT.M        00 001 00 00         : DEPTH        - DEPTH
DPHI.V/V      00 890 00 00         : PHID         - DENSITY POROSITY (LIMESTONE)
NPHI.V/V      00 330 00 00         : PHIN         - NEUTRON POROSITY (LIMESTONE)
GR  .API      00 310 00 00         : GR           - GAMMA RAY
ILD .OHMM     00 120 00 00         : RESD         - DEEP RESISTIVITY (DIL)
RHOB.KG/M3    00 350 00 00         : DENS         - BULK DENSITY
~PARAMETER INFORMATION
#MNEM.UNIT           DATA             DESCRIPTION OF MNEMONIC
#---------         -----------     ------------------------------
GL  .M        549.79               : gl           - GROUND LEVEL ELEVATION
EREF.M        552.8                : kb           - ELEVATION OF DEPTH REFERENCE
DATM.M        552.8                : datum        - DATUM ELEVATION
TDD .M        405                  : tdd          - TOTAL DEPTH DRILLER
RUN .         ONE                  : Run          - RUN NUMBER
ENG .         BILL                 : Engineer     - RECORDING ENGINEER
WIT .         JIM                  : Witness      - WITNESSED BY
MUD .         GEL                  : Mud_type     - MUD TYPE
MATR.         LIMESTONE            : Logunit      - NEUTRON MATRIX
TMAX.C        23                   : BHT          - MAXIMUM RECORDED TEMPERATURE
BHTD.M        405                  : BHTDEP       - MAXIMUM RECORDED TEMPERATURE
MATR.         1                    : LOGUNIT      - NEUTRON MATRIX
RMT .C        25                   : MDTP         - TEMPERATURE OF MUD
NEUT.         1                    : NEUTRON      - NEUTRON TYPE
RESI.         0                    : RESIST       - RESISTIVITY TYPE
RMC .OHMM     0.25                 : RMC          - RESISTIVITY OF MUD CAKE
RMF .OHMM     0.25                 : RMF          - RESISTIVITY OF MUD FILTRATE
SUFT.C        15                   : SUFT         - SURFACE TEMPERATURE
~A  DEPTH     PHID     PHIN       GR     RESD     DENS
# ...
  171.500    0.273    0.392   78.517   17.515    0.000
  171.750    0.325    0.384   63.973   18.874    0.000
  172.000    0.343    0.388   53.681   19.963    0.000
  172.250    0.340    0.418   53.105   21.115    0.000
  172.500    0.370    0.458   57.381   21.515    0.000
  172.750    0.417    0.493   54.989   21.925    0.000
  173.000    0.406    0.461   41.658   21.930    0.000
  173.250    0.373    0.408   30.760   21.935    0.000
  173.500    0.341    0.374   28.965   22.352    0.000
  173.750    0.336    0.356   28.386   22.358    0.000
  174.000    0.336    0.349   29.031   22.365    0.000
  174.250    0.335    0.351   28.447   22.367    0.000
  174.500    0.329    0.364   29.087   22.373    0.000
  174.750    0.330    0.370   30.330   22.379    0.000
  175.000    0.333    0.358   28.536   22.382    0.000
  175.250    0.326    0.360   28.568   22.387    0.000
  175.500    0.335    0.368   34.071   22.813    0.000
  175.750    0.338    0.364   32.274   23.684    0.000
  176.000    0.327    0.359   32.302   24.137    0.000
  176.250    0.320    0.355   35.370   24.140    0.000
  176.500    0.324    0.353   34.190   24.146    0.000
  176.750    0.324    0.353   31.178   23.706    0.000
  177.000    0.320    0.353   34.863   23.276    0.000
  177.250    0.322    0.351   34.284   22.849    0.000
  177.500    0.329    0.367   33.707   22.433    0.000
  177.750    0.331    0.359   34.339   21.619    0.000
  178.000    0.328    0.343   39.234   20.834    0.000
  178.250    0.326    0.383   42.901   20.837    0.000
  178.500    0.319    0.391   45.367   20.458    0.000
  178.750    0.333    0.369   44.177   20.463    0.000
  179.000    0.339    0.350   39.349   20.850    0.000
  179.250    0.341    0.363   35.130   21.646    0.000
  179.500    0.339    0.384   32.130   22.476    0.000
  179.750    0.331    0.377   31.541   22.479    0.000
  180.000    0.328    0.359   34.008   22.069    0.000
  180.250    0.324    0.348   41.928   21.266    0.000
  180.500    0.295    0.372   61.390   20.494    0.000
  180.750    0.267    0.405   74.782   20.120    0.000
  181.000    0.263    0.406   77.239   20.125    0.000
  181.250    0.270    0.395   77.886   20.131    0.000
  181.500    0.286    0.390   80.948   19.765    0.000
  181.750    0.296    0.373   85.234   19.045    0.000
  182.000    0.300    0.354   89.505   18.697    0.000
  182.250    0.295    0.372   93.787   17.686    0.000
  182.500    0.269    0.385   95.053   17.043    0.000
  182.750    0.244    0.367   95.669   16.423    0.000
  183.000    0.210    0.351  100.559   16.124    0.000
  183.250    0.198    0.358  104.237   15.253    0.000
  183.500    0.204    0.392  101.834   15.255    0.000
  183.750    0.200    0.391   93.364   15.258    0.000
  184.000    0.197    0.375   83.678   15.550    0.000
  184.250    0.215    0.370   81.883   16.143    0.000
  184.500    0.240    0.374   79.492   16.759    0.000
  184.750    0.252    0.370   73.446   18.398    0.000
  185.000    0.263    0.366   69.830   19.460    0.000
  185.250    0.263    0.364   63.181   20.969    0.000
  185.500    0.276    0.352   53.494   22.178    0.000
  185.750    0.299    0.340   58.382   23.458    0.000
  186.000    0.296    0.333   80.274   24.811    0.000
  186.250    0.294    0.328   89.413   25.283    0.000
  186.500    0.300    0.328   87.624   24.366    0.000
  186.750    0.306    0.334   88.266   23.046    0.000
  187.000    0.292    0.350   90.112   21.798    0.000
  187.250    0.271    0.374   84.072   19.866    0.000
  187.500    0.258    0.356   69.527   19.504    0.000
  187.750    0.261    0.339   56.197   19.149    0.000
  188.000    0.276    0.333   56.840   19.153    0.000
  188.250    0.278    0.360   63.550   19.156    0.000
  188.500    0.278    0.359   67.826   19.161    0.000
  188.750    0.270    0.352   67.856   19.166    0.000
  189.000    0.270    0.340   67.278   19.530    0.000
  189.250    0.284    0.342   61.846   19.901    0.000
  189.500    0.294    0.340   49.729   19.907    0.000
  189.750    0.301    0.323   41.256   19.544    0.000
  190.000    0.297    0.321   40.683   19.186    0.000
  190.250    0.281    0.340   54.679   18.489    0.000
  190.500    0.269    0.363   66.856   17.819    0.000
  190.750    0.257    0.370   80.243   17.821    0.000
  191.000    0.248    0.387   87.568   18.162    0.000
  191.250    0.282    0.375   87.594   18.509    0.000
  191.500    0.321    0.366   82.158   18.512    0.000
  191.750    0.332    0.371   74.909   18.173    0.000
  192.000    0.315    0.379   74.333   17.191    0.000
  192.250    0.293    0.366   76.186   16.565    0.000
  192.500    0.284    0.366   81.683   15.669    0.000
  192.750    0.282    0.382   83.525   14.548    0.000
  193.000    0.281    0.392   87.803   13.761    0.000
  193.250    0.272    0.402   96.337   12.776    0.000
  193.500    0.261    0.409  103.656   12.085    0.000
  193.750    0.244    0.401  110.369   11.220    0.000
  194.000    0.228    0.402  115.256   10.813    0.000
  194.250    0.215    0.414  121.363   10.815    0.000
  194.500    0.213    0.418  123.815   10.617    0.000
  194.750    0.213    0.403  118.386   10.819    0.000
  195.000    0.212    0.394  115.980   10.823    0.000
  195.250    0.214    0.399  125.132   10.824    0.000
  195.500    0.211    0.418  125.765   10.431    0.000
  195.750    0.216    0.441  122.752   10.433    0.000
  196.000    0.222    0.455  117.318   10.832    0.000
  196.250    0.224    0.454  114.927   12.343    0.000
  196.500    0.230    0.439  115.561   13.054    0.000
  196.750    0.249    0.419  110.732   14.066    0.000
  197.000    0.268    0.407  102.864   14.604    0.000
  197.250    0.271    0.396   94.394   14.606    0.000
  197.500    0.267    0.401   91.994   14.342    0.000
  197.750    0.276    0.418   95.691   14.079    0.000
  198.000    0.277    0.419   97.522   13.822    0.000
  198.250    0.255    0.401  104.837   13.571    0.000
  198.500    0.244    0.406  111.550   13.573    0.000
  198.750    0.228    0.421  117.660   13.833    0.000
  199.000    0.211    0.441  118.897   13.835    0.000
  199.250    0.203    0.432  117.713   14.099    0.000
  199.500    0.207    0.417  119.566   14.367    0.000
  199.750    0.217    0.432  115.345   15.195    0.000
  200.000    0.228    0.454  106.875   16.072    0.000
  200.250    0.241    0.409  100.829   16.378    0.000
  200.500    0.247    0.361   95.401   16.079    0.000
  200.750    0.259    0.360   94.213   15.494    0.000
  201.000    0.257    0.388   90.597   14.931    0.000
  201.250    0.252    0.384   84.560   14.935    0.000
  201.500    0.254    0.368   81.550   15.505    0.000
  201.750    0.266    0.380   86.435   16.096    0.000
  202.000    0.288    0.412   99.828   16.404    0.000
  202.250    0.314    0.411  105.929   16.716    0.000
  202.500    0.324    0.402  102.927   17.034    0.000
  202.750    0.338    0.413   98.098   17.036    0.000
  203.000    0.339    0.409   93.882   17.361    0.000
  203.250    0.325    0.398   92.690   17.366    0.000
  203.500    0.316    0.403   91.507   17.369    0.000
  203.750    0.302    0.410   82.436   17.374    0.000
  204.000    0.295    0.398   84.287   17.377    0.000
  204.250    0.294    0.380   89.178   17.061    0.000
  204.500    0.298    0.368   91.629   17.064    0.000
  204.750    0.301    0.364   83.771   16.753    0.000
  205.000    0.286    0.359   80.766   16.757    0.000
  205.250    0.265    0.360   82.609   16.451    0.000
  205.500    0.242    0.377   89.936   15.853    0.000
  205.750    0.219    0.382   89.349   14.995    0.000
  206.000    0.180    0.421   83.314   14.184    0.000
  206.250    0.155    0.449   79.701   13.417    0.000
  206.500    0.152    0.423   81.556   13.419    0.000
  206.750    0.192    0.418   81.583   13.933    0.000
  207.000    0.241    0.403   79.187   14.197    0.000
  207.250    0.236    0.382   78.600   14.740    0.000
  207.500    0.230    0.369   78.632   14.742    0.000
  207.750    0.234    0.379   79.884   14.745    0.000
