~VERSION INFORMATION
 VERS.                 2.0:   CWLS LOG ASCII STANDARD -VERSION 2.0
 WRAP.                  NO:   ONE LINE PER DEPTH STEP
~WELL INFORMATION BLOCK
#MNEM.UNIT           DATA                    DESCRIPTION OF MNEMONIC
#---------    -------------------            -------------------------------
# Generated from Intellog Unique Number	CW_76_78/WELL/2573
WELL.         SCURRY ET AL MCMULLEN          : Well_name    - WELL
LOC .         00/07-11-078-02W5/0            : Location     - LOCATION
UWI .         00/07-11-078-02W5/0            : Uwi          - UNIQUE WELL ID
ENTR.         MAX                            : Entered      - ENTERED BY
SRVC.         SCHLUMBERGER                   : Scn          - SERVICE COMPANY
STRT.M        332.232                        : top_depth    - START DEPTH
STOP.M        582.232                        : bot_depth    - STOP DEPTH
STEP.M        0.25                           : increment    - STEP LENGTH
 NULL. -999.2500:NULL Value
~CURVE INFORMATION BLOCK
#MNEM UNIT       ERCB CURVE CODE    CURVE DESCRIPTION
#-----------   ------------------   ----------------------------------
DEPT.M        00 001 00 00         : DEPTH        - DEPTH
ILD .OHMM     00 120 00 00         : RESD         - DEEP RESISTIVITY (DIL)
NPHI.V/V      00 330 00 00         : PHIN         - NEUTRON POROSITY (SANDSTONE)
DPHI.V/V      00 890 00 00         : PHID         - DENSITY POROSITY (SANDSTONE)
CALI.MM       00 280 01 00         : CAL          - CALIPER
GR  .API      00 310 00 00         : GR           - GAMMA RAY
~PARAMETER INFORMATION
#MNEM.UNIT           DATA             DESCRIPTION OF MNEMONIC
#---------         -----------     ------------------------------
GL  .M        630.601              : gl           - GROUND LEVEL ELEVATION
EREF.M        634.289              : kb           - ELEVATION OF DEPTH REFERENCE
DATM.M        630.601              : datum        - DATUM ELEVATION
TDD .M        556.26               : tdd          - TOTAL DEPTH DRILLER
RUN .         ONE                  : Run          - RUN NUMBER
ENG .         BILL                 : Engineer     - RECORDING ENGINEER
WIT .         JIM                  : Witness      - WITNESSED BY
MUD .         GEL                  : Mud_type     - MUD TYPE
MATR.         SANDSTONE            : Logunit      - NEUTRON MATRIX
TMAX.C        31.1111              : BHT          - MAXIMUM RECORDED TEMPERATURE
BHTD.M        556.26               : BHTDEP       - MAXIMUM RECORDED TEMPERATURE
RMT .C        15.5556              : MDTP         - TEMPERATURE OF MUD
MUDD.KG/M     9700                 : MWT          - MUD DENSITY
NEUT.         1                    : NEUTRON      - NEUTRON TYPE
RESI.         0                    : RESIST       - RESISTIVITY TYPE
RM  .OHMM     3.75                 : RM           - RESISTIVITY OF MUD
RMC .OHMM     5.24                 : RMC          - RESISTIVITY OF MUD CAKE
RMF .OHMM     5.21                 : RMF          - RESISTIVITY OF MUD FILTRATE
SUFT.C        -12.2222             : SUFT         - SURFACE TEMPERATURE
~A  DEPTH     RESD     PHIN     PHID      CAL       GR
# ...
  441.732    3.933    0.475    0.278  231.638   83.635
  441.982    3.973    0.496    0.279  231.657   82.776
  442.232    3.974    0.519    0.268  231.679   78.713
  442.482    3.895    0.505    0.244  231.700   73.481
  442.732    3.501    0.506    0.229  231.725   71.455
  442.982    3.107    0.512    0.204  231.750   70.017
  443.232    2.713    0.468    0.168  231.772   72.065
  443.482    2.516    0.486    0.154  231.791   75.865
  443.732    2.438    0.520    0.192  231.815   81.704
  443.982    2.438    0.571    0.254  231.347   84.339
  444.232    2.439    0.570    0.231  231.366   86.101
  444.482    2.439    0.537    0.218  230.895   88.444
  444.732    2.440    0.493    0.211  230.919   88.748
  444.982    2.440    0.484    0.201  230.451   87.306
  445.232    2.401    0.474    0.198  230.475   87.028
  445.482    2.323    0.463    0.189  230.988   87.623
  445.732    2.245    0.456    0.182  231.503   88.801
  445.982    2.127    0.451    0.182  231.525   89.979
  446.232    1.970    0.475    0.181  231.552   90.285
  446.482    1.891    0.527    0.185  231.571   90.298
  446.732    1.852    0.537    0.190  232.089   90.311
  446.982    1.813    0.523    0.186  232.114   90.911
  447.232    1.854    0.518    0.176  232.136   90.922
  447.482    1.973    0.491    0.180  232.160   90.063
  447.732    2.131    0.459    0.185  232.182   90.073
  447.982    2.329    0.453    0.190  232.204   87.468
  448.232    2.606    0.429    0.203  232.220   83.986
  448.482    2.883    0.449    0.205  231.259   80.502
  448.732    3.279    0.457    0.200  230.300   76.440
  448.982    3.871    0.425    0.185  229.823   74.704
  449.232    4.504    0.417    0.173  229.373   74.429
  449.482    4.978    0.412    0.160  228.888   74.730
  449.732    4.821    0.424    0.160  228.908   72.414
  449.982    4.466    0.400    0.146  229.420   68.643
  450.232    3.835    0.321    0.117  230.924   70.694
  450.482    3.401    0.353    0.106  232.426   74.783
  450.732    3.086    0.383    0.135  232.450   79.168
  450.982    3.086    0.485    0.201  230.009   79.472
  451.232    2.969    0.478    0.205  229.042   81.231
  451.482    2.772    0.468    0.205  229.066   80.956
  451.732    2.733    0.454    0.209  229.581   79.513
  451.982    2.733    0.442    0.214  229.581   79.524
  452.232    2.734    0.433    0.217  230.121   80.120
  452.482    2.853    0.449    0.218  231.623   81.882
  452.732    3.012    0.463    0.215  232.634   83.353
  452.982    3.289    0.482    0.215  233.151   83.073
  453.232    3.566    0.508    0.216  232.675   84.545
  453.482    3.961    0.493    0.197  232.203   86.016
  453.732    4.317    0.522    0.190  231.740   84.571
  453.982    4.633    0.500    0.202  231.263   82.543
  454.232    5.266    0.477    0.232  231.299   79.645
  454.482    6.017    0.441    0.252  230.819   76.454
  454.732    7.202    0.434    0.240  230.841   68.603
  454.982    8.150    0.414    0.219  230.841   63.958
  455.232    8.150    0.392    0.193  230.888   63.972
  455.482    8.151    0.408    0.180  230.910   66.605
  455.732    8.270    0.508    0.154  230.934   68.076
  455.982    8.468    0.485    0.200  230.951   67.798
  456.232    8.706    0.428    0.235  230.978   67.811
  456.482    8.627    0.405    0.220  230.997   65.786
  456.732    8.391    0.389    0.197  231.515   68.131
  456.982    7.760    0.419    0.190  231.540   71.637
  457.232    6.815    0.434    0.229  227.650   76.590
  457.482    5.603    0.429    0.232  227.661   78.668
  457.732    4.549    0.457    0.234  227.676   80.745
  457.982    4.043    0.469    0.232  228.690   82.527
  458.232    3.889    0.472    0.216  230.207   83.127
  458.482    3.853    0.501    0.219  231.224   82.840
  458.732    3.895    0.508    0.220  231.736   82.256
  458.982    4.133    0.485    0.220  231.248   81.968
  459.232    4.292    0.442    0.210  230.263   79.314
  459.482    4.295    0.403    0.188  230.274   78.434
  459.732    4.180    0.403    0.191  230.285   80.808
  459.982    4.066    0.417    0.196  231.304   84.365
  460.232    3.951    0.441    0.193  231.314   86.442
  460.482    3.837    0.429    0.180  231.328   85.859
  460.732    3.840    0.422    0.171  231.342   82.910
  460.982    3.843    0.410    0.171  231.365   82.030
  461.232    3.845    0.411    0.170  231.368   82.039
  461.482    3.848    0.417    0.167  231.382   83.525
  461.732    3.851    0.417    0.173  231.896   85.604
  461.982    3.814    0.426    0.175  231.909   86.792
  462.232    3.778    0.445    0.173  231.921   86.803
  462.482    3.703    0.443    0.178  232.435   84.739
  462.732    3.549    0.453    0.176  232.449   82.085
  462.982    3.395    0.439    0.174  231.961   81.205
  463.232    3.163    0.424    0.174  231.475   83.579
  463.482    3.010    0.464    0.176  231.475   86.544
  463.732    2.934    0.466    0.179  230.504   88.031
  463.982    2.897    0.441    0.180  229.510   88.335
  464.232    2.901    0.443    0.178  228.523   87.751
  464.482    2.865    0.460    0.193  228.035   86.871
  464.732    2.828    0.476    0.191  227.548   86.584
  464.982    2.831    0.472    0.189  227.563   86.888
  465.232    2.873    0.464    0.184  227.076   86.895
  465.482    2.917    0.476    0.180  227.087   85.423
  465.732    2.996    0.501    0.189  227.101   85.137
  465.982    3.234    0.462    0.193  227.114   86.918
  466.232    3.707    0.500    0.186  227.128   91.954
  466.482    4.258    0.493    0.201  227.139   92.259
  466.732    5.553    0.470    0.212  227.152   89.900
  466.982    7.397    0.436    0.222  227.167   87.540
  467.232    9.240    0.433    0.236  227.181   81.931
  467.482   10.809    0.429    0.233  226.194   74.547
  467.732   11.831    0.422    0.221  225.704   68.049
  467.982   13.518    0.389    0.163  226.216   65.394
  468.232   14.460    0.304    0.113  229.235   63.036
  468.482   10.704    0.328    0.079  231.254   64.228
  468.732    8.670    0.353    0.114  231.265   66.010
  468.982    8.243    0.328    0.168  230.777   68.087
  469.232    8.010    0.340    0.135  230.790   71.053
  469.482    7.582    0.396    0.169  231.806   74.903
  469.732    7.076    0.424    0.161  231.817   77.573
  469.982    6.726    0.414    0.164  230.832   76.398
  470.232    6.808    0.385    0.152  229.342   76.112
  470.482    6.849    0.368    0.146  227.350   76.117
  470.732    6.657    0.369    0.153  225.864   76.717
  470.982    6.385    0.385    0.157  226.878   77.318
  471.232    6.036    0.391    0.172  229.393   78.508
  471.482    5.686    0.398    0.200  230.911   80.289
  471.732    5.415    0.406    0.225  230.923   83.550
  471.982    5.261    0.422    0.222  230.435   84.151
  472.232    5.303    0.424    0.206  228.947   82.383
  472.482    5.619    0.420    0.203  227.960   80.025
  472.732    6.131    0.419    0.223  226.971   78.555
  472.982    6.761    0.442    0.232  226.982   75.310
  473.232    7.390    0.432    0.234  226.982   72.361
  473.482    7.941    0.453    0.237  227.009   70.890
  473.732    8.179    0.463    0.241  228.027   69.419
  473.982    8.221    0.461    0.241  228.542   70.316
  474.232    8.459    0.438    0.264  228.553   72.687
  474.482    8.462    0.429    0.272  228.065   76.245
  474.732    8.152    0.428    0.249  228.080   75.366
  474.982    7.724    0.423    0.233  228.091   72.417
  475.232    7.100    0.419    0.230  228.104   72.127
  475.482    6.437    0.425    0.222  228.617   74.205
  475.732    5.853    0.445    0.210  228.632   75.989
  475.982    5.738    0.461    0.224  228.646   76.586
  476.232    6.015    0.470    0.228  228.660   77.778
  476.482    5.940    0.485    0.231  228.675   76.898
  476.732    6.256    0.483    0.249  228.675   74.540
  476.982    6.493    0.477    0.250  228.697   73.364
  477.232    6.379    0.497    0.236  229.715   73.965
  477.482    6.108    0.515    0.237  229.727   74.267
  477.732    6.111    0.522    0.234  229.738   74.573
  477.982    6.270    0.515    0.227  229.753   75.762
