~VERSION INFORMATION
 VERS.                 2.0:   CWLS LOG ASCII STANDARD -VERSION 2.0
 WRAP.                  NO:   ONE LINE PER DEPTH STEP
~WELL INFORMATION BLOCK
#MNEM.UNIT           DATA                    DESCRIPTION OF MNEMONIC
#---------    -------------------            -------------------------------
# Generated from Intellog Unique Number	CS_77_79/WELL/922
WELL.         CANADIAN WORLDWIDE ENERGY      : Well_name    - WELL
LOC .         00/09-06-077-04W4/0            : Location     - LOCATION
UWI .         00/09-06-077-04W4/0            : Uwi          - UNIQUE WELL ID
ENTR.         SP                             : Entered      - ENTERED BY
SRVC.         SCHLUMBERGER                   : Scn          - SERVICE COMPANY
STRT.M        150                            : top_depth    - START DEPTH
STOP.M        392                            : bot_depth    - STOP DEPTH
STEP.M        0.25                           : increment    - STEP LENGTH
 NULL. -999.2500:NULL Value
~CURVE INFORMATION BLOCK
#MNEM UNIT       ERCB CURVE CODE    CURVE DESCRIPTION
#-----------   ------------------   ----------------------------------
DEPT.M        00 001 00 00         : DEPTH        - DEPTH
ILD .OHMM     00 120 00 00         : RESD         - DEEP RESISTIVITY (DIL)
DPHI.V/V      00 890 00 00         : PHID         - DENSITY POROSITY (LIMESTONE)
NPHI.V/V      00 330 00 00         : PHIN         - NEUTRON POROSITY (LIMESTONE)
GR  .API      00 310 00 00         : GR           - GAMMA RAY
~PARAMETER INFORMATION
#MNEM.UNIT           DATA             DESCRIPTION OF MNEMONIC
#---------         -----------     ------------------------------
GL  .M        576.6                : gl           - GROUND LEVEL ELEVATION
EREF.M        579.8                : kb           - ELEVATION OF DEPTH REFERENCE
DATM.M        576.6                : datum        - DATUM ELEVATION
TDD .M        397                  : tdd          - TOTAL DEPTH DRILLER
RUN .         ONE                  : Run          - RUN NUMBER
ENG .         BILL                 : Engineer     - RECORDING ENGINEER
WIT .         JIM                  : Witness      - WITNESSED BY
MUD .         GEL                  : Mud_type     - MUD TYPE
MATR.         LIMESTONE            : Logunit      - NEUTRON MATRIX
TMAX.C        19                   : BHT          - MAXIMUM RECORDED TEMPERATURE
BHTD.M        397                  : BHTDEP       - MAXIMUM RECORDED TEMPERATURE
MATR.         1                    : LOGUNIT      - NEUTRON MATRIX
RMT .C        25                   : MDTP         - TEMPERATURE OF MUD
NEUT.         1                    : NEUTRON      - NEUTRON TYPE
RESI.         0                    : RESIST       - RESISTIVITY TYPE
RMC .OHMM     0.25                 : RMC          - RESISTIVITY OF MUD CAKE
RMF .OHMM     0.25                 : RMF          - RESISTIVITY OF MUD FILTRATE
SUFT.C        15                   : SUFT         - SURFACE TEMPERATURE
~A  DEPTH     RESD     PHID     PHIN       GR
# ...
  237.000   22.771    0.324    0.412   66.096
  237.250   21.538    0.331    0.423   69.779
  237.500   21.146    0.341    0.434   74.691
  237.750   20.774    0.336    0.439   74.705
  238.000   20.400    0.329    0.442   74.105
  238.250   20.412    0.325    0.440   70.443
  238.500   20.812    0.317    0.433   66.781
  238.750   21.218    0.303    0.424   63.732
  239.000   22.469    0.297    0.423   61.909
  239.250   23.795    0.294    0.431   62.532
  239.500   23.810    0.292    0.419   62.548
  239.750   23.380    0.307    0.398   63.167
  240.000   22.532    0.315    0.402   65.630
  240.250   21.309    0.320    0.409   66.866
  240.500   20.530    0.326    0.419   66.264
  240.750   19.418    0.340    0.431   65.665
  241.000   19.064    0.341    0.442   66.292
  241.250   18.378    0.335    0.443   66.915
  241.500   18.048    0.324    0.432   68.154
  241.750   18.059    0.316    0.425   69.386
  242.000   18.070    0.319    0.420   66.338
  242.250   17.747    0.326    0.432   67.580
  242.500   17.757    0.328    0.447   70.041
  242.750   17.433    0.330    0.453   69.436
  243.000   17.442    0.337    0.452   65.775
  243.250   17.128    0.340    0.446   68.239
  243.500   17.141    0.333    0.431   70.086
  243.750   17.151    0.326    0.420   72.546
  244.000   17.162    0.328    0.410   76.235
  244.250   17.174    0.330    0.418   77.469
  244.500   17.191    0.326    0.431   78.709
  244.750   16.880    0.320    0.434   81.167
  245.000   16.889    0.318    0.438   89.751
  245.250   16.584    0.321    0.431   94.049
  245.500   16.289    0.315    0.427   94.672
  245.750   15.991    0.310    0.427   95.297
  246.000   13.002    0.311    0.426   98.374
  246.250   10.180    0.300    0.439  100.835
  246.500    7.253    0.249    0.454  102.681
  246.750    6.124    0.244    0.460   92.898
  247.000    5.371    0.244    0.454   87.398
  247.250    5.077    0.244    0.440   94.150
  247.500    4.712    0.235    0.414   98.443
  247.750    4.627    0.228    0.433   98.464
  248.000    4.631    0.227    0.437   98.470
  248.250    4.633    0.230    0.437   94.806
  248.500    4.636    0.229    0.437   96.050
  248.750    4.467    0.224    0.433   97.893
  249.000    4.225    0.234    0.427  100.967
  249.250    4.071    0.230    0.424  102.819
  249.500    3.923    0.229    0.436  103.439
  249.750    3.781    0.234    0.453  107.129
  250.000    3.783    0.234    0.470  109.589
  250.250    3.785    0.229    0.466  104.703
  250.500    4.323    0.228    0.450  101.039
  250.750    5.127    0.233    0.459   97.379
  251.000    6.195    0.239    0.470   95.556
  251.250    8.075    0.260    0.473   91.896
  251.500    9.397    0.286    0.436   87.007
  251.750   10.333    0.291    0.431   80.901
  252.000   11.366    0.292    0.433   77.240
  252.250   11.811    0.294    0.418   74.190
  252.500   12.044    0.302    0.423   71.750
  252.750   12.051    0.307    0.414   71.764
  253.000   12.063    0.307    0.411   75.453
  253.250   12.067    0.298    0.414   76.685
  253.500   12.076    0.288    0.414   78.537
  253.750   11.859    0.283    0.416   79.159
  254.000   11.214    0.293    0.427   74.275
  254.250    8.948    0.298    0.432   71.222
  254.500    7.554    0.295    0.438   71.847
  254.750    5.915    0.289    0.442   79.819
  255.000    4.719    0.272    0.446   86.567
  255.250    3.985    0.258    0.453   92.090
  255.500    3.628    0.243    0.467   97.618
  255.750    3.431    0.237    0.474   99.462
  256.000    3.565    0.240    0.482  101.311
  256.250    4.072    0.238    0.484  101.320
  256.500    5.016    0.235    0.477  100.110
  256.750    5.619    0.231    0.461   99.508
  257.000    7.054    0.248    0.452   93.401
  257.250    8.055    0.275    0.435   89.736
  257.500    9.553    0.288    0.384   84.851
  257.750   12.450    0.285    0.389   97.113
  258.000   14.765    0.278    0.406  105.692
  258.250   15.635    0.270    0.413  108.156
  258.500   15.066    0.255    0.410  106.328
  258.750   15.658    0.242    0.410  108.179
  259.000   17.546    0.253    0.429  103.296
  259.250   21.206    0.243    0.465  102.692
  259.500   26.618    0.050    0.355   98.418
  259.750   29.825    0.018    0.202   87.410
  260.000   30.998    0.000    0.152   61.096
  260.250   29.869    0.006    0.174   70.295
  260.500   25.702    0.069    0.266   83.163
  260.750   22.112    0.212    0.355   91.132
  261.000   18.671    0.261    0.413   83.802
  261.250   17.327    0.290    0.418   77.693
  261.500   17.014    0.308    0.417   75.251
  261.750   17.027    0.313    0.413   81.999
  262.000   17.040    0.304    0.409   85.684
  262.250   17.373    0.293    0.409   82.638
  262.500   17.059    0.278    0.420   77.143
  262.750   16.752    0.280    0.433   74.703
  263.000   16.148    0.292    0.428   80.225
  263.250   15.854    0.299    0.409   86.360
  263.500   15.566    0.292    0.396   90.046
  263.750   15.289    0.286    0.414   85.160
  264.000   15.008    0.287    0.425   79.660
  264.250   15.020    0.292    0.415   79.060
  264.500   14.752    0.297    0.409   80.298
  264.750   14.760    0.303    0.415   76.637
  265.000   15.055    0.305    0.407   77.260
  265.250   15.061    0.305    0.409   76.051
  265.500   15.652    0.305    0.420   74.223
  265.750   17.541    0.307    0.424   75.460
  266.000   19.657    0.304    0.423   80.987
  266.250   21.212    0.297    0.418   82.833
  266.500   21.633    0.125    0.371   78.557
  266.750   20.845    0.110    0.258   81.021
  267.000   19.710    0.143    0.281   84.096
  267.250   21.676    0.264    0.316   74.924
  267.500   25.225    0.311    0.399   65.137
  267.750   32.880    0.224    0.366   50.456
  268.000   38.261    0.166    0.180   47.406
  268.250   43.689    0.016    0.114   50.484
  268.500   49.897    0.037    0.089   51.716
  268.750   46.312    0.161    0.124   48.670
  269.000   40.606    0.093    0.219   48.070
  269.250   27.852    0.079    0.217   53.596
  269.500   19.844    0.124    0.264   56.665
  269.750   16.755    0.286    0.383   59.131
  270.000   14.971    0.317    0.390   59.754
  270.250   13.636    0.323    0.394   59.150
  270.500   13.137    0.323    0.393   59.162
  270.750   12.660    0.330    0.393   60.399
  271.000   12.431    0.339    0.391   61.025
  271.250   12.210    0.351    0.392   60.424
  271.500   11.988    0.359    0.402   59.828
  271.750   12.001    0.362    0.416   60.447
  272.000   12.006    0.357    0.423   62.908
  272.250   12.239    0.345    0.420   64.757
  272.500   12.251    0.347    0.413   62.319
  272.750   12.262    0.358    0.410   58.660
  273.000   12.504    0.361    0.412   58.062
  273.250   12.511    0.358    0.405   60.527
  273.500   12.519    0.349    0.401   62.373
  273.750   12.530    0.339    0.403   63.605
  274.000   12.538    0.332    0.400   62.393
  274.250   12.784    0.312    0.395   56.284
  274.500   13.035    0.195    0.419   50.785
  274.750   13.291    0.127    0.212   45.900
  275.000   13.555    0.108    0.233   49.588
  275.250   13.822    0.213    0.249   55.111
  275.500   13.573    0.271    0.301   59.406
  275.750   13.326    0.324    0.322   63.094
  276.000   12.846    0.338    0.438   66.172
  276.250   12.376    0.334    0.438   66.791
  276.500   12.157    0.327    0.433   68.641
  276.750   12.162    0.329    0.427   68.038
  277.000   11.941    0.341    0.417   65.606
  277.250   11.954    0.343    0.430   65.615
  277.500   11.961    0.324    0.439   66.859
  277.750   11.967    0.315    0.440   67.479
  278.000   11.974    0.329    0.434   67.487
  278.250   11.984    0.345    0.429   68.111
  278.500   11.992    0.354    0.434   68.739
  278.750   12.000    0.342    0.434   68.748
  279.000   11.783    0.329    0.426   66.927
  279.250   11.354    0.328    0.416   65.712
  279.500   10.338    0.337    0.430   66.337
  279.750    9.238    0.345    0.429   72.476
  280.000    6.965    0.339    0.426   77.995
  280.250    5.453    0.327    0.435   86.577
