~VERSION INFORMATION
 VERS.                 2.0:   CWLS LOG ASCII STANDARD -VERSION 2.0
 WRAP.                  NO:   ONE LINE PER DEPTH STEP
~WELL INFORMATION BLOCK
#MNEM.UNIT           DATA                    DESCRIPTION OF MNEMONIC
#---------    -------------------            -------------------------------
# Generated from Intellog Unique Number	CS_77_79/WELL/915
WELL.         MESA HB LEISMER                : Well_name    - WELL
LOC .         00/07-33-078-09W4/0            : Location     - LOCATION
UWI .         00/07-33-078-09W4/0            : Uwi          - UNIQUE WELL ID
ENTR.         JHS                            : Entered      - ENTERED BY
SRVC.         SCHLUMBERGER                   : Scn          - SERVICE COMPANY
STRT.M        228.6                          : top_depth    - START DEPTH
STOP.M        460.1                          : bot_depth    - STOP DEPTH
STEP.M        0.25                           : increment    - STEP LENGTH
 NULL. -999.2500:NULL Value
~CURVE INFORMATION BLOCK
#MNEM UNIT       ERCB CURVE CODE    CURVE DESCRIPTION
#-----------   ------------------   ----------------------------------
DEPT.M        00 001 00 00         : DEPTH        - DEPTH
RHOB.KG/M3    00 350 00 00         : DENS         - BULK DENSITY
GR  .API      00 310 00 00         : GR           - GAMMA RAY
DPHI.V/V      00 890 00 00         : PHID         - DENSITY POROSITY (SANDSTONE)
NPHI.V/V      00 330 00 00         : PHIN         - NEUTRON POROSITY (SANDSTONE)
ILD .OHMM     00 120 00 00         : RESD         - DEEP RESISTIVITY (DIL)
~PARAMETER INFORMATION
#MNEM.UNIT           DATA             DESCRIPTION OF MNEMONIC
#---------         -----------     ------------------------------
GL  .M        660.38               : gl           - GROUND LEVEL ELEVATION
EREF.M        661.416              : kb           - ELEVATION OF DEPTH REFERENCE
DATM.M        661.416              : datum        - DATUM ELEVATION
TDD .M        475.488              : tdd          - TOTAL DEPTH DRILLER
RUN .         ONE                  : Run          - RUN NUMBER
ENG .         BILL                 : Engineer     - RECORDING ENGINEER
WIT .         JIM                  : Witness      - WITNESSED BY
MUD .         GEL                  : Mud_type     - MUD TYPE
MATR.         SANDSTONE            : Logunit      - NEUTRON MATRIX
TMAX.C        60                   : BHT          - MAXIMUM RECORDED TEMPERATURE
BHTD.M        475.488              : BHTDEP       - MAXIMUM RECORDED TEMPERATURE
MATR.         1                    : LOGUNIT      - NEUTRON MATRIX
RMT .C        25                   : MDTP         - TEMPERATURE OF MUD
NEUT.         1                    : NEUTRON      - NEUTRON TYPE
RESI.         0                    : RESIST       - RESISTIVITY TYPE
RMC .OHMM     0.25                 : RMC          - RESISTIVITY OF MUD CAKE
RMF .OHMM     0.25                 : RMF          - RESISTIVITY OF MUD FILTRATE
SUFT.C        15                   : SUFT         - SURFACE TEMPERATURE
~A  DEPTH     DENS       GR     PHID     PHIN     RESD
# ...
  301.600    0.000   68.931    0.354    0.472   15.801
  301.850    0.000   71.030    0.344    0.486   16.138
  302.100    0.000   73.393    0.338    0.487   16.191
  302.350   -0.000   73.201    0.337    0.497   16.460
  302.600   -0.000   72.955    0.353    0.495   16.154
  302.850   -0.000   71.195    0.351    0.476   15.808
  303.100    0.000   70.561    0.355    0.451   15.573
  303.350    0.000   73.612    0.343    0.439   15.986
  303.600    0.000   70.515    0.306    0.440   17.194
  303.850   -0.000   64.672    0.271    0.433   17.134
  304.100   -0.000   60.498    0.169    0.375   17.024
  304.350   -0.000   53.149    0.049    0.309   17.191
  304.600    0.000   51.376    0.041    0.221   17.604
  304.850    0.000   53.463    0.073    0.251   18.892
  305.100   -0.000   62.102    0.165    0.331   23.436
  305.350   -0.000   63.210    0.197    0.373   28.532
  305.600   -0.000   57.802    0.107    0.314   33.955
  305.850    0.000   51.477    0.032    0.183   36.558
  306.100    0.000   52.328    0.005    0.147   36.959
  306.350    0.000   55.688    0.039    0.172   33.056
  306.600   -0.000   60.702    0.101    0.302   27.101
  306.850   -0.000   67.348    0.234    0.388   22.109
  307.100   -0.000   72.088    0.303    0.425   18.253
  307.350    0.000   71.489    0.313    0.430   16.356
  307.600    0.000   66.962    0.287    0.429   15.886
  307.850    0.000   68.959    0.277    0.452   15.601
  308.100   -0.000   74.405    0.345    0.468   15.596
  308.350   -0.000   72.601    0.338    0.481   15.937
  308.600    0.000   66.576    0.338    0.475   16.198
  308.850    0.000   68.144    0.349    0.459   16.578
  309.100    0.000   68.804    0.349    0.454   16.615
  309.350   -0.000   65.077    0.343    0.462   16.901
  309.600   -0.000   63.239    0.348    0.470   16.896
  309.850   -0.000   62.297    0.347    0.479   16.896
  310.100    0.000   63.088    0.346    0.499   16.613
  310.350    0.000   66.441    0.354    0.511   16.642
  310.600    0.000   65.916    0.351    0.497   16.662
  310.850   -0.000   64.207    0.337    0.484   16.897
  311.100   -0.000   65.003    0.337    0.492   16.993
  311.350    0.000   65.361    0.345    0.495   17.019
  311.600    0.000   65.410    0.350    0.486   17.069
  311.850    0.000   64.584    0.359    0.471   16.727
  312.100   -0.000   63.685    0.358    0.463   16.482
  312.350   -0.000   61.011    0.355    0.465   16.470
  312.600   -0.000   63.729    0.349    0.461   16.443
  312.850    0.000   63.652    0.339    0.470   16.199
  313.100    0.000   60.902    0.335    0.461   15.658
  313.350    0.000   57.983    0.350    0.458   15.060
  313.600   -0.000   57.576    0.358    0.457   14.630
  313.850   -0.000   61.093    0.359    0.464   14.296
  314.100   -0.000   62.963    0.349    0.474   14.050
  314.350    0.000   64.297    0.344    0.468   13.650
  314.600    0.000   66.354    0.356    0.480   13.257
  314.850   -0.000   67.237    0.362    0.488   12.869
  315.100   -0.000   65.716    0.363    0.488   12.874
  315.350   -0.000   62.364    0.360    0.492   12.880
  315.600    0.000   59.949    0.346    0.479   12.894
  315.850    0.000   61.210    0.333    0.484   12.887
  316.100    0.000   61.768    0.324    0.486   13.185
  316.350   -0.000   60.867    0.316    0.497   13.807
  316.600   -0.000   60.171    0.303    0.519   14.267
  316.850   -0.000   61.269    0.329    0.542   15.032
  317.100    0.000   67.761    0.353    0.551   16.226
  317.350    0.000   72.530    0.342    0.505   16.884
  317.600   -0.000   73.823    0.337    0.493   16.833
  317.850   -0.000   72.442    0.326    0.486   14.112
  318.100   -0.000   76.770    0.332    0.483   10.562
  318.350    0.000   78.200    0.337    0.501    6.648
  318.600    0.000   82.314    0.337    0.489    5.223
  318.850    0.000   89.545    0.317    0.473    4.523
  319.100   -0.000   92.832    0.285    0.492    4.272
  319.350   -0.000   94.014    0.252    0.505    4.362
  319.600   -0.000   93.583    0.278    0.516    4.920
  319.850    0.000   89.978    0.278    0.522    6.207
  320.100    0.000   88.484    0.297    0.523    7.694
  320.350    0.000   87.069    0.297    0.533    8.298
  320.600   -0.000   86.509    0.309    0.519    7.809
  320.850   -0.000   87.162    0.327    0.503    6.563
  321.100    0.000   91.236    0.310    0.519    5.590
  321.350    0.000   92.481    0.297    0.528    4.690
  321.600    0.000   96.344    0.280    0.546    4.326
  321.850   -0.000   99.713    0.262    0.548    3.887
  322.100   -0.000  100.417    0.242    0.527    3.589
  322.350   -0.000  100.394    0.237    0.544    3.321
  322.600    0.000  101.386    0.250    0.558    3.234
  322.850    0.000  103.528    0.255    0.546    3.136
  323.100    0.000  105.858    0.243    0.546    3.111
  323.350   -0.000  108.054    0.237    0.563    3.106
  323.600   -0.000  108.872    0.239    0.550    3.171
  323.850    0.000  108.185    0.259    0.547    3.294
  324.100    0.000  106.946    0.251    0.550    3.400
  324.350    0.000  103.127    0.248    0.567    3.526
  324.600   -0.000   99.791    0.259    0.589    3.887
  324.850   -0.000  100.169    0.271    0.607    4.095
  325.100   -0.000  103.545    0.274    0.604    4.289
  325.350    0.000  100.248    0.267    0.582    4.509
  325.600    0.000   97.126    0.277    0.550    4.521
  325.850    0.000   94.106    0.260    0.515    4.512
  326.100   -0.000   92.714    0.248    0.509    4.172
  326.350   -0.000   96.359    0.251    0.516    3.813
  326.600   -0.000   98.584    0.248    0.532    3.581
  326.850    0.000  101.297    0.241    0.559    3.549
  327.100    0.000  101.522    0.240    0.581    3.545
  327.350   -0.000  102.096    0.254    0.581    3.654
  327.600   -0.000  104.849    0.245    0.563    3.947
  327.850   -0.000  105.228    0.248    0.567    4.371
  328.100    0.000  103.630    0.266    0.550    4.791
  328.350    0.000  100.257    0.288    0.532    5.260
  328.600    0.000   98.496    0.269    0.530    5.774
  328.850   -0.000   97.459    0.266    0.547    6.437
  329.100   -0.000   96.239    0.281    0.552    7.056
  329.350   -0.000   91.152    0.298    0.544    7.567
  329.600    0.000   88.002    0.298    0.559    8.186
  329.850    0.000   89.162    0.289    0.546    8.257
  330.100   -0.000   87.731    0.283    0.548    7.721
  330.350   -0.000   85.670    0.284    0.552    6.486
  330.600   -0.000   85.506    0.298    0.526    5.498
  330.850    0.000   88.692    0.316    0.502    4.735
  331.100    0.000   92.797    0.306    0.508    4.529
  331.350    0.000   94.360    0.265    0.499    4.652
  331.600   -0.000   94.284    0.245    0.495    5.199
  331.850   -0.000   96.451    0.227    0.519    6.001
  332.100   -0.000   97.930    0.272    0.533    6.760
  332.350    0.000   96.954    0.250    0.513    7.447
  332.600    0.000   95.172    0.234    0.491    7.915
  332.850    0.000   91.886    0.242    0.477    8.246
  333.100   -0.000   91.280    0.255    0.463    8.205
  333.350   -0.000   92.088    0.246    0.477    7.881
  333.600    0.000   94.254    0.244    0.453    7.412
  333.850    0.000   96.510    0.235    0.440    6.705
  334.100    0.000   98.035    0.235    0.470    6.089
  334.350   -0.000   98.568    0.235    0.491    5.658
  334.600   -0.000   96.698    0.234    0.503    5.325
  334.850   -0.000   94.742    0.238    0.522    5.134
  335.100    0.000   93.663    0.242    0.538    5.049
  335.350    0.000   94.462    0.235    0.537    5.178
  335.600    0.000   98.252    0.240    0.515    5.065
  335.850   -0.000  102.217    0.215    0.501    5.085
  336.100   -0.000  106.681    0.227    0.500    4.975
  336.350    0.000  107.616    0.243    0.505    4.993
  336.600    0.000  104.186    0.232    0.490    4.853
  336.850    0.000  103.152    0.222    0.495    4.577
  337.100   -0.000  106.747    0.234    0.521    4.192
  337.350   -0.000  112.638    0.244    0.542    3.566
  337.600   -0.000  112.199    0.239    0.556    3.260
  337.850    0.000  110.631    0.258    0.572    3.069
