~VERSION INFORMATION
 VERS.                 2.0:   CWLS LOG ASCII STANDARD -VERSION 2.0
 WRAP.                  NO:   ONE LINE PER DEPTH STEP
~WELL INFORMATION BLOCK
#MNEM.UNIT           DATA                    DESCRIPTION OF MNEMONIC
#---------    -------------------            -------------------------------
# Generated from Intellog Unique Number	CW_70_72/WELL/549
NULL.         -999.25                        : NULL_VALUE
WELL.         CZAR ET AL CALLW 06-03         : Well_name    - WELL              
LOC .         06-03-071-19W4                 : Location     - LOCATION          
UWI .         00/06-03-071-19W4/0            : Uwi          - UNIQUE WELL ID    
ENTR.         JAYE                           : Entered      - ENTERED BY        
SRVC.         SCHLUMBERGER                   : Scn          - SERVICE COMPANY   
DATE.         13 DEC 80                      : Date         - LOG DATE          
STRT.M        315                            : top_depth    - START DEPTH       
STOP.M        480                            : bot_depth    - STOP DEPTH        
STEP.M        0.25                           : increment    - STEP LENGTH       
~CURVE INFORMATION BLOCK
#MNEM UNIT       ERCB CURVE CODE    CURVE DESCRIPTION
#-----------   ------------------   ----------------------------------
DEPT.M        00 001 00 00         : DEPTH        - DEPTH                       
DPHI.V/V      00 890 00 00         : PHID         - DENSITY POROSITY (SANDSTONE)
NPHI.V/V      00 330 00 00         : PHIN         - NEUTRON POROSITY (SANDSTONE)
GR  .API      00 310 00 00         : GR           - GAMMA RAY                   
CALI.MM       00 280 01 00         : CAL          - CALIPER                     
ILD .OHMM     00 120 00 00         : RESD         - DEEP RESISTIVITY (DIL)      
~PARAMETER INFORMATION       
#MNEM.UNIT           DATA             DESCRIPTION OF MNEMONIC
#---------         -----------     ------------------------------
GL  .M        586.5                : gl           - GROUND LEVEL ELEVATION      
EREF.M        589.7                : kb           - ELEVATION OF DEPTH REFERENCE
DATM.M        586.5                : datum        - DATUM ELEVATION             
TDD .M        563                  : tdd          - TOTAL DEPTH DRILLER         
RUN .         ONE                  : Run          - RUN NUMBER                  
ENG .         BRANDSTROM           : Engineer     - RECORDING ENGINEER          
WIT .         JOHNSON              : Witness      - WITNESSED BY                
BASE.         EDM                  : Branch       - HOME BASE OF LOGGING UNIT   
MUD .         GEL CHEM             : Mud_type     - MUD TYPE                    
MATR.         SANDSTONE            : Logunit      - NEUTRON MATRIX              
TMAX.C        27.7                 : BHT          - MAXIMUM RECORDED TEMPERATURE
BHTD.M        564                  : BHTDEP       - MAXIMUM RECORDED TEMPERATURE
RMT .C        2.8                  : MDTP         - TEMPERATURE OF MUD          
MUDD.KG/M     1040                 : MWT          - MUD DENSITY                 
NEUT.         1                    : NEUTRON      - NEUTRON TYPE                
RESI.         0                    : RESIST       - RESISTIVITY TYPE            
RM  .OHMM     2.73                 : RM           - RESISTIVITY OF MUD          
RMC .OHMM     0                    : RMC          - RESISTIVITY OF MUD CAKE     
RMF .OHMM     2.35                 : RMF          - RESISTIVITY OF MUD FILTRATE 
SUFT.C        0                    : SUFT         - SURFACE TEMPERATURE         
~A  DEPTH     PHID     PHIN       GR      CAL     RESD
# ...
  388.000    0.322    0.434   63.287  161.256    4.502
  388.250    0.327    0.433   65.346  160.541    4.498
  388.500    0.329    0.427   65.605  159.320    4.494
  388.750    0.335    0.410   65.429  159.023    4.517
  389.000    0.333    0.418   65.749  158.628    4.522
  389.250    0.324    0.420   67.994  159.058    4.544
  389.500    0.315    0.408   72.661  159.800    4.566
  389.750    0.301    0.419   75.216  160.227    4.579
  390.000    0.312    0.428   73.239  160.969    4.592
  390.250    0.323    0.435   75.920  161.295    4.597
  390.500    0.328    0.446   75.681  161.420    4.603
  390.750    0.332    0.449   72.835  161.537    4.617
  391.000    0.319    0.427   71.169  162.073    4.613
  391.250    0.296    0.412   73.600  162.502    4.592
  391.500    0.284    0.421   71.438  162.829    4.563
  391.750    0.307    0.418   71.696  162.948    4.559
  392.000    0.313    0.427   74.996  162.967    4.581
  392.250    0.322    0.434   74.013  162.982    4.622
  392.500    0.332    0.444   72.222  162.895    4.670
  392.750    0.325    0.460   72.170  161.880    4.719
  393.000    0.311    0.465   73.920  161.379    4.751
  393.250    0.309    0.437   76.785  161.083    4.774
  393.500    0.302    0.434   81.452  161.514    4.726
  393.750    0.302    0.461   86.181  163.496    4.583
  394.000    0.355    0.488   90.290  168.274    4.194
  394.250    0.404    0.524   88.498  217.444    3.739
  394.500    0.398    0.542   85.466  247.265    3.241
  394.750    0.349    0.559   82.869  229.586    3.016
  395.000    0.406    0.582   81.017  205.492    3.128
  395.250    0.424    0.599   78.791  195.368    3.319
  395.500    0.375    0.553   75.820  184.206    3.587
  395.750    0.334    0.514   76.576  170.564    3.966
  396.000    0.318    0.488   83.913  160.957    4.199
  396.250    0.304    0.475   82.494  162.319    4.243
  396.500    0.307    0.437   74.433  165.854    4.256
  396.750    0.310    0.447   73.200  167.113    4.236
  397.000    0.298    0.455   75.384  165.887    4.266
  397.250    0.295    0.461   78.685  162.179    4.318
  397.500    0.307    0.468   77.143  158.264    4.405
  397.750    0.305    0.478   72.558  157.970    4.510
  398.000    0.282    0.464   80.019  159.436    4.574
  398.250    0.266    0.458   83.568  161.526    4.606
  398.500    0.253    0.478   85.130  161.850    4.706
  398.750    0.242    0.493   87.748  160.315    4.755
  399.000    0.258    0.466   89.808  157.536    4.815
  399.250    0.268    0.445   87.707  156.105    4.865
  399.500    0.249    0.464   86.040  157.882    4.897
  399.750    0.243    0.460   85.863  161.104    4.931
  400.000    0.251    0.434   83.141  163.294    4.965
  400.250    0.258    0.448   77.874  163.107    4.988
  400.500    0.251    0.479   82.541  162.089    5.013
  400.750    0.238    0.497   88.325  161.378    5.047
  401.000    0.229    0.496   92.060  160.465    5.052
  401.250    0.238    0.457   86.359  159.759    5.039
  401.500    0.252    0.440   80.035  159.566    5.016
  401.750    0.255    0.442   85.075  160.825    4.983
  402.000    0.258    0.453   84.837  163.225    4.962
  402.250    0.267    0.453   78.637  164.894    5.042
  402.500    0.266    0.430   74.551  166.154    5.057
  402.750    0.260    0.414   72.883  166.999    4.997
  403.000    0.267    0.429   75.564  167.536    4.974
  403.250    0.267    0.457   79.423  167.861    4.888
  403.500    0.257    0.453   85.083  168.498    4.758
  403.750    0.244    0.432   87.452  169.134    4.511
  404.000    0.219    0.412   86.966  171.843    3.940
  404.250    0.211    0.417   89.149  172.066    3.364
  404.500    0.228    0.427   90.214  170.842    2.982
  404.750    0.243    0.437   84.574  169.304    3.334
  405.000    0.250    0.453   83.156  168.700    3.734
  405.250    0.257    0.467   86.706  169.339    4.128
  405.500    0.271    0.470   86.157  169.771    4.693
  405.750    0.261    0.455   84.057  169.687    5.045
  406.000    0.262    0.434   82.265  169.393    5.242
  406.250    0.262    0.428   80.785  168.889    5.298
  406.500    0.254    0.435   80.795  167.664    5.224
  406.750    0.260    0.417   83.661  165.714    5.163
  407.000    0.269    0.411   84.230  163.353    5.101
  407.250    0.262    0.414   82.874  162.022    4.983
  407.500    0.265    0.412   81.208  160.900    4.788
  407.750    0.270    0.409   77.927  160.192    4.532
  408.000    0.277    0.402   73.529  159.175    4.273
  408.250    0.289    0.402   68.944  158.779    4.090
  408.500    0.300    0.431   67.837  158.589    3.959
  408.750    0.301    0.451   71.572  158.914    3.941
  409.000    0.288    0.449   69.844  159.657    4.035
  409.250    0.266    0.467   64.017  161.534    4.683
  409.500    0.213    0.475   58.066  163.414    5.538
  409.750    0.053    0.374   49.446  164.362    6.609
  410.000    0.020    0.328   40.826  164.277    7.729
  410.250    0.016    0.150   44.810  163.466    9.190
  410.500    0.089    0.172   53.885  162.655    8.102
  410.750    0.132    0.199   61.656  162.049    6.639
  411.000    0.254    0.309   67.068  161.963    5.584
  411.250    0.306    0.385   67.016  161.773    5.643
  411.500    0.270    0.363   58.457  161.996    6.967
  411.750    0.228    0.240   51.079  163.152    8.714
  412.000    0.079    0.144   48.171  164.721   10.094
  412.250    0.031    0.165   54.638  165.047   11.433
  412.500    0.062    0.209   60.175  164.340    9.493
  412.750    0.163    0.281   62.606  163.737    7.521
  413.000    0.208    0.314   68.018  163.029    6.072
  413.250    0.302    0.380   72.498  162.529    4.811
  413.500    0.317    0.424   71.452  162.131    4.162
  413.750    0.328    0.432   69.974  161.423    3.614
  414.000    0.333    0.439   69.610  161.026    3.402
  414.250    0.332    0.428   69.807  161.146    3.355
  414.500    0.333    0.461   69.879  160.544    3.422
  414.750    0.336    0.471   69.889  159.628    3.497
  415.000    0.335    0.459   70.893  157.472    3.580
  415.250    0.330    0.445   75.559  153.143    3.611
  415.500    0.320    0.436   74.948  149.951    3.629
  415.750    0.306    0.455   72.413  149.034    3.640
  416.000    0.291    0.482   73.850  149.674    3.664
  416.250    0.287    0.500   77.027  152.899    3.703
  416.500    0.297    0.448   79.025  155.501    3.763
  416.750    0.300    0.425   79.407  157.278    3.831
  417.000    0.301    0.423   78.237  158.744    3.893
  417.250    0.304    0.441   76.758  159.794    3.963
  417.500    0.295    0.453   74.408  160.329    4.035
  417.750    0.280    0.457   73.611  160.555    4.077
  418.000    0.261    0.455   74.552  159.533    4.090
  418.250    0.266    0.448   78.846  155.929    4.109
  418.500    0.272    0.437   78.670  156.154    4.122
  418.750    0.274    0.443   76.818  158.033    4.142
  419.000    0.286    0.456   77.076  161.052    4.154
  419.250    0.295    0.456   78.762  163.343    4.159
  419.500    0.289    0.443   82.188  166.981    4.117
  419.750    0.275    0.431   85.550  175.070    4.030
  420.000    0.255    0.429   89.534  185.230    3.716
  420.250    0.307    0.460   94.201  198.697    3.362
  420.500    0.326    0.548   94.211  207.820    2.975
  420.750    0.308    0.538   92.730  202.870    2.687
  421.000    0.339    0.537   92.927  226.585    2.538
  421.250    0.380    0.578   91.819  245.849    2.471
  421.500    0.442    0.592   93.568  234.483    2.516
  421.750    0.380    0.588   98.359  217.012    2.614
  422.000    0.335    0.535  104.019  206.369    2.826
  422.250    0.286    0.488  109.680  188.483    3.136
  422.500    0.238    0.473  112.297  177.119    3.626
  422.750    0.211    0.457  107.464  170.510    4.061
  423.000    0.202    0.469  105.115  169.907    4.531
  423.250    0.210    0.496   99.475  169.098    4.825
  423.500    0.237    0.491   91.475  167.873    4.858
  423.750    0.238    0.464   92.665  166.335    4.918
  424.000    0.229    0.432   97.456  164.696    4.970
  424.250    0.213    0.426   96.597  164.196    5.022
