~V
VERS. 2.00: Ver 2.00
WRAP. NO:
VEND. PRIZM:GeoGraphix
~W
STRT.M 43.8912:START DEPTH
STOP.M 295.6560:STOP DEPTH
STEP.M 0.3048:STEP
NULL. -999.2500:NULL VALUE
WELL. NUMAC SURMONT :WELL
COMP. :COMPANY
UWI. 00_06-35-082-06W4_0:UNIQUE WELL ID
FLD. :FIELD
CNTY. :COUNTY
STAT. :STATE
CTRY. :COUNTRY
PDAT. :PERMANENT DATUM
LMF. :LOG MEASURED FROM
DMF. :DRILLING MEASURED FROM
LOC1. 06-35-082-06W4:LOCATION LINE 1
LOC2. :LOCATION LINE 2
LOC3. :LOCATION LINE 3
SEC. :SECTION
TWP. :TOWNSHIP
RAN. :RANGE
SRVC. SCHLUMBERGER:Logging Company
BASE. :Logging Unit Location
ENG. BILL:Logging Engineer
WITN. JIM:Witnessed By
DATE. 21 - MAR - 1973:Date
RUN. ONE:Run No.
MUD_TYPE. GEL:Type Fluid in Hole
MUDS. :Source of Mud Sample
RMFS. :Source of Mud Filtrate
RMCS. :Source of Mud Cake
LOC. :LOCATION
~C
DEPT.M :DEPTH
PHID. :Density Pososity
NPHI. :PHIN         - NEUTRON POROSITY (LIMESTONE)
GR.API :GR           - GAMMA RAY
RHOB.KG/M3 :DENS         - BULK DENSITY
ILD.OHMM :RESD         - DEEP RESISTIVITY (DIL)
~P
EKB. 495.6000:ELEVATION OF KELLY BUSHING
EDF. -999.2500:ELEVATION OF DRILLING FLOOR
EGL. 493.7760:ELEVATION OF GROUND LEVEL
EPD. -999.2500:ELEVATION OF PERMANENT DATUM
APD. -999.2500:LMF DISTANCE ABOVE PERMANENT DATUM
LAT. 56.1488:LATITUDE OF WELL LOCATION
LONG. 110.8308:LONGITUDE OF WELL LOCATION
TDD. 296.8750:Total Depth Driller
TDL. -999.2500:Total Depth Logger
LCSG1. -999.2500:Depth of Casing from Logger
CSIZE. -999.2500:Casing Size
CWT. -999.2500:Casing Weight
BS. -999.2500:Bit Size
TLI. 43.8912:Top Logged Interval
BLI. 295.6560:Bottom Logged Interval
MRT. 17.2222:Maximum Recorded Temperature
WMUD. -999.2500:Drilling Mud Density
DFV. -999.2500:Drilling Mud Viscosity
PH. -999.2500:Drilling Mud pH
DFL. -999.2500:Drilling Mud Fluid Loss
RM. -999.2500:Resistivity of Drilling Fluid
RMT. -999.2500:Measured Temp. of Drilling Fluid
RMF. 0.2500:Resistivity of Drilling Fluid Filtrate
RMFT. -999.2500:Measured Temp. of Drilling Fluid Filtrate
RMC. 0.2500:Resistivity of Mud Cake
RMCT. -999.2500:Measured Temp. of Mud Cake
PHImax.V/V 0.3900:Maximum allowable Porosity
RwBnd.OHMM 0.1500:Bound Water Resistivity
RhoHy.KG/MT 1000.0000:Hydrocarbon Bulk density
SwCutoff.V/V 0.7000:Water Saturation Cutoff
PHINsh.V/V 0.4800:New Description
Rw.OHMM 1.0000:Formation Water Resistivity
Rshl.OHMM 5.0000:Resistivity shale
Trw.DEGC 25.0000:Rw measured at Lab conditions
ShaleCutoff.V/V 0.4000:New Description
GRcln.API 45.0000:Gamma Ray clean
RhoM.KG/MT 2650.0000:Bulk Density Matrix
GRshl.API 90.0000:Gamma Ray shale
m. 2.0000:Archie "m"
n. 2.0000:Archie "n"
GasTol.V/V 0.0500:Gas Tollerance
BHTemp.DEGC 25.0000:Bottom Hole Temperature
BHTDepth.M 1000.0000:Bottom Hole Depth
PHIDsh.US/MT 0.1800:New Description
a. 1.0000:Archie "a"
Gas Tol.V/V 0.0500:Gas Tollerance
RhoF.KG/MT 1000.0000:Bulk Density Fluid
RhoShl.KG/MT 2300.0000:Bulk Density Shale
TarCutoff.V/V 0.0300:New Description
SurfTemp.DEGC 10.0000:New Description
HIshl.V/V 0.4000:Neutron Hydrogen Index shale
MATR. 1.0000:
NEUT. 0.0000:
BHTD.M 296.8750:
DATM.M 495.6050:
NULL. -999.2500:
RESI. 0.0000:
SUFT.C 15.0000:
~A
# ...
  226.7712     0.3063     0.2610    39.0760  2144.5601    19.2100 
  227.0760     0.2940     0.2450    39.7060  2164.9600    21.4980 
  227.3808     0.2915     0.2420    36.6790  2169.0901    27.9340 
  227.6856     0.2914     0.2430    34.2600  2169.1499    72.4140 
  227.9904     0.2951     0.2450    34.2850  2163.1101   103.2960 
  228.2952     0.2901     0.2450    36.1270  2171.3301    95.9340 
  228.6000     0.2864     0.2410    37.9760  2177.4800    82.6610 
  228.9048     0.2851     0.2430    37.9960  2179.5801   111.4950 
  229.2096     0.2875     0.2410    36.1870  2175.5901   109.4950 
  229.5144     0.2974     0.2470    36.2160  2159.3701    90.9050 
  229.8192     0.2961     0.2450    36.2380  2161.4700   156.2890 
  230.1240     0.3047     0.2380    37.4760  2147.3101   122.6850 
  230.4288     0.2923     0.2420    36.8830  2167.7000   153.5760 
  230.7336     0.2923     0.2500    36.2970  2167.7600   159.5110 
  231.0384     0.3008     0.2510    36.9210  2153.6001   223.3210 
  231.3432     0.2873     0.2530    39.3820  2176.0300   172.0770 
  231.6480     0.2761     0.2540    41.8390  2194.3899   162.7880 
  231.9528     0.2687     0.2530    44.3000  2206.6499   169.0850 
  232.2576     0.2760     0.2540    44.3220  2194.5200   185.7320 
  232.5624     0.2723     0.2490    44.9510  2200.6799   172.4610 
  232.8672     0.2587     0.2510    47.4080  2223.1001    62.9760 
  233.1720     0.2193     0.2810    56.5790  2288.2200    10.6980 
  233.4768     0.1995     0.2770    65.7460  2320.8000    10.9060 
  233.7816     0.1748     0.2620    73.6930  2361.5300     9.7560 
  234.0864     0.1883     0.2490    75.5440  2339.2400     8.7270 
  234.3912     0.1932     0.2540    74.9510  2331.1699     9.5860 
  234.6960     0.2326     0.2560    70.0990  2266.1799    21.8060 
  235.0008     0.2584     0.2580    64.0160  2223.5601    70.7200 
  235.3056     0.2424     0.2560    59.7720  2250.0500    14.2110 
  235.6104     0.2226     0.2490    62.8380  2282.6399    11.5810 
  235.9152     0.1918     0.2450    73.2250  2333.5200    13.7060 
  236.2200     0.2226     0.2480    78.1260  2282.7700    10.3650 
  236.5248     0.2324     0.2530    78.1500  2266.5701     9.1010 
  236.8296     0.2262     0.2600    77.5570  2276.8000    10.3760 
  237.1344     0.2483     0.2640    75.1390  2240.2800    13.7380 
  237.4392     0.2446     0.2610    68.4520  2246.4500    14.5370 
  237.7440     0.2224     0.2460    66.6390  2283.0901    14.5480 
  238.0488     0.2002     0.2380    70.3290  2319.7500    14.8290 
  238.3536     0.2100     0.2340    71.5590  2303.5500    13.5150 
  238.6584     0.2149     0.2380    73.4110  2295.4900    15.7030 
  238.9632     0.2136     0.2490    73.4290  2297.5801    16.6140 
  239.2680     0.2185     0.2530    71.0140  2289.5100    14.0520 
  239.5728     0.2258     0.2530    69.2030  2277.3899    16.6320 
  239.8776     0.2258     0.2610    66.1750  2277.4399    17.2750 
  240.1824     0.2319     0.2670    64.3670  2267.3501    20.8320 
  240.4872     0.2393     0.2720    62.5590  2255.2100    67.5600 
  240.7920     0.2454     0.2650    61.9670  2245.1101    12.3660 
  241.0968     0.2133     0.2600    69.9130  2298.0300    11.7000 
  241.4016     0.2428     0.2650    71.1530  2249.3101    16.3800 
  241.7064     0.2416     0.2710    68.7360  2251.4099    21.2860 
  242.0112     0.2169     0.2620    65.7070  2292.1299    11.9400 
  242.3160     0.2230     0.2610    68.1680  2282.0300    18.7000 
  242.6208     0.2476     0.2730    65.7480  2241.4299    23.8480 
  242.9256     0.2205     0.2770    62.7190  2286.2300    10.4960 
  243.2304     0.1958     0.2740    66.3970  2326.9500    10.5020 
  243.5352     0.2389     0.2710    71.2960  2255.8601    14.9810 
  243.8400     0.2365     0.2610    59.2800  2259.7000    23.2940 
  244.1448     0.2206     0.2600    57.4530  2286.0500    26.5710 
  244.4496     0.2833     0.2570    60.4590  2182.5500    18.6270 
  244.7544     0.2673     0.2600    57.4250  2208.8999    25.6320 
  245.0592     0.3055     0.2740    51.9670  2145.9800    41.7500 
  245.3640     0.2895     0.2750    55.5810  2172.3301    46.7520 
  245.6688     0.2588     0.2650    63.4240  2223.0300    19.7610 
  245.9736     0.2330     0.2510    64.6220  2265.6101    20.1490 
  246.2784     0.2318     0.2490    56.1440  2267.6101    26.2130 
  246.5832     0.2428     0.2510    56.1300  2249.3201    44.3280 
  246.8880     0.2773     0.2550    56.1160  2192.4900    74.9590 
  247.1928     0.2859     0.2590    53.6830  2178.2600   155.7790 
  247.4976     0.2933     0.2630    50.0420  2166.0701   273.5230 
  247.8024     0.3068     0.2720    48.2120  2143.7200   218.5990 
  248.1072     0.2995     0.2780    51.2250  2155.8701    42.8510 
  248.4120     0.2552     0.2740    57.8620  2228.8899    50.7650 
  248.7168     0.2602     0.2600    59.6610  2220.7400    19.5360 
  249.0216     0.2073     0.2630    60.2480  2307.9700    33.0380 
  249.3264     0.2553     0.2710    57.2150  2228.8101    31.8450 
  249.6312     0.2663     0.2810    45.7140  2210.5300    47.2330 
  249.9360     0.2664     0.2740    49.9330  2210.5000    39.1920 
  250.2408     0.2553     0.2680    45.0810  2228.7400   246.0490 
  250.5456     0.3021     0.2750    39.0200  2151.6101   237.2040 
  250.8504     0.3144     0.2800    40.2160  2131.3000   189.5390 
  251.1552     0.3144     0.2810    43.8270  2131.2700   106.1150 
  251.4600     0.3119     0.2810    51.0710  2135.3000    26.5400 
  251.7648     0.2960     0.2700    56.4960  2161.6499    16.9400 
  252.0696     0.2837     0.2760    59.5080  2181.9199    25.6000 
  252.3744     0.3194     0.3010    61.3030  2123.0601    19.7070 
  252.6792     0.2899     0.2800    59.4720  2171.7300    25.1630 
  252.9840     0.2813     0.2810    58.8590  2185.8999    26.6390 
  253.2888     0.2788     0.2890    60.0480  2189.9399    41.7920 
  253.5936     0.2702     0.2770    60.6410  2204.1101   123.9930 
  253.8984     0.3035     0.2850    58.2150  2149.3000   170.6380 
  254.2032     0.3084     0.2910    50.3380  2141.1699   149.7570 
  254.5080     0.2789     0.3010    56.9760  2189.8401    64.5010 
  254.8128     0.2814     0.2710    59.3830  2185.7500    19.0940 
  255.1176     0.2383     0.2840    69.0390  2256.7400    20.5960 
  255.4224     0.2482     0.2790    72.6490  2240.4700    17.0930 
  255.7272     0.2556     0.2660    72.0320  2228.2800    16.1670 
  256.0320     0.2433     0.2630    68.3940  2248.5400    17.1160 
  256.3368     0.2507     0.2790    59.9170  2236.3501    36.9230 
  256.6416     0.2839     0.2830    55.0660  2181.5400    96.0790 
  256.9464     0.3073     0.2830    47.7970  2142.9700   103.6410 
  257.2512     0.3012     0.2740    53.8300  2153.0901    38.4190 
  257.5560     0.2606     0.2720    62.2770  2220.0200    24.9850 
  257.8608     0.2286     0.2740    65.2860  2272.7400    23.6350 
  258.1656     0.2336     0.2820    60.4360  2264.6001    23.2150 
  258.4704     0.2520     0.2890    54.3780  2234.1399    26.4890 
  258.7752     0.2779     0.2970    47.1080  2191.5100    38.5560 
  259.0800     0.3332     0.3030    38.6310  2100.1799   169.5430 
  259.3848     0.3296     0.2990    34.9890  2106.2400   326.9240 
  259.6896     0.3259     0.2840    34.9740  2112.3101   359.2760 
  259.9944     0.3517     0.2810    36.1700  2069.6799   346.3400 
  260.2992     0.3431     0.2920    39.1780  2083.8501   271.6560 
  260.6040     0.3308     0.2810    43.3980  2104.1101   157.8750 
  260.9088     0.2903     0.2600    50.0350  2171.0400    28.1820 
  261.2136     0.2423     0.2500    62.1110  2250.1499     9.8770 
  261.5184     0.2227     0.2570    63.3070  2282.5801    30.4200 
  261.8232     0.2866     0.2970    48.7840  2177.0601   158.3410 
  262.1280     0.3272     0.3090    34.8630  2110.0801   230.5140 
  262.4328     0.3518     0.3050    36.0550  2069.4700    79.2720 
  262.7376     0.3568     0.2970    38.4610  2061.3301    63.3560 
  263.0424     0.3469     0.2880    39.6560  2077.5400   214.3330 
