~VERSION INFORMATION
 VERS.                 2.0:   CWLS LOG ASCII STANDARD -VERSION 2.0
 WRAP.                  NO:   ONE LINE PER DEPTH STEP
~WELL INFORMATION BLOCK
#MNEM.UNIT           DATA                    DESCRIPTION OF MNEMONIC
#---------    -------------------            -------------------------------
# Generated from Intellog Unique Number	CW_76_78/WELL/2571
WELL.         07-07-078-23W4                 : Well_name    - WELL
LOC .         00/07-07-078-23W4/0            : Location     - LOCATION
UWI .         00/07-07-078-23W4/0            : Uwi          - UNIQUE WELL ID
ENTR.         MAX                            : Entered      - ENTERED BY
SRVC.         WESTERN ATLAS                  : Scn          - SERVICE COMPANY
STRT.M        290                            : top_depth    - START DEPTH
STOP.M        562                            : bot_depth    - STOP DEPTH
STEP.M        0.25                           : increment    - STEP LENGTH
 NULL. -999.2500:NULL Value
~CURVE INFORMATION BLOCK
#MNEM UNIT       ERCB CURVE CODE    CURVE DESCRIPTION
#-----------   ------------------   ----------------------------------
DEPT.M        00 001 00 00         : DEPTH        - DEPTH
ILD .OHMM     00 120 00 00         : RESD         - DEEP RESISTIVITY (DIL)
NPHI.V/V      00 330 00 00         : PHIN         - NEUTRON POROSITY (SANDSTONE)
DPHI.V/V      00 890 00 00         : PHID         - DENSITY POROSITY (SANDSTONE)
CALI.MM       00 280 01 00         : CAL          - CALIPER
GR  .API      00 310 00 00         : GR           - GAMMA RAY
~PARAMETER INFORMATION
#MNEM.UNIT           DATA             DESCRIPTION OF MNEMONIC
#---------         -----------     ------------------------------
GL  .M        601.9                : gl           - GROUND LEVEL ELEVATION
EREF.M        606                  : kb           - ELEVATION OF DEPTH REFERENCE
DATM.M        601.9                : datum        - DATUM ELEVATION
TDD .M        566                  : tdd          - TOTAL DEPTH DRILLER
RUN .         ONE                  : Run          - RUN NUMBER
ENG .         BILL                 : Engineer     - RECORDING ENGINEER
WIT .         JIM                  : Witness      - WITNESSED BY
MUD .         GEL                  : Mud_type     - MUD TYPE
MATR.         SANDSTONE            : Logunit      - NEUTRON MATRIX
TMAX.C        27                   : BHT          - MAXIMUM RECORDED TEMPERATURE
BHTD.M        566                  : BHTDEP       - MAXIMUM RECORDED TEMPERATURE
RMT .C        20                   : MDTP         - TEMPERATURE OF MUD
MUDD.KG/M     1110                 : MWT          - MUD DENSITY
NEUT.         1                    : NEUTRON      - NEUTRON TYPE
RESI.         0                    : RESIST       - RESISTIVITY TYPE
RM  .OHMM     5                    : RM           - RESISTIVITY OF MUD
RMC .OHMM     5.5                  : RMC          - RESISTIVITY OF MUD CAKE
RMF .OHMM     4.8                  : RMF          - RESISTIVITY OF MUD FILTRATE
SUFT.C        -20                  : SUFT         - SURFACE TEMPERATURE
~A  DEPTH     RESD     PHIN     PHID      CAL       GR
  290.000    2.070    0.430    0.227  223.042  109.122
  290.250    2.107    0.422    0.225  223.518  108.215
  290.500    2.145    0.422    0.242  223.492  109.094
  290.750    2.164    0.416    0.253  223.471  108.185
  291.000    2.204    0.407    0.251  223.945  106.979
  291.250    2.244    0.453    0.267  224.415  103.387
  291.500    2.284    0.467    0.279  224.394  103.373
  291.750    2.326    0.452    0.275  224.371  110.514
  292.000    2.368    0.441    0.273  223.850  116.163
  292.250    2.389    0.461    0.272  223.330  117.937
  292.500    2.433    0.456    0.268  222.804  115.838
  292.750    2.432    0.465    0.261  222.780  110.754
  293.000    2.454    0.474    0.261  222.260  118.195
  293.250    2.476    0.441    0.261  222.236  114.303
  293.500    2.475    0.429    0.257  222.709  114.885
  293.750    2.497    0.418    0.248  223.680  118.747
  294.000    2.519    0.425    0.244  224.147  123.801
  294.250    2.612    0.433    0.245  224.626  123.191
  294.500    2.733    0.413    0.250  224.603  111.251
  294.750    2.939    0.420    0.262  224.582  109.148
  295.000    3.655    0.425    0.285  223.562  103.173
  295.250    4.587    0.401    0.338  219.063   94.809
  295.500    5.809    0.375    0.325  215.064   84.954
  295.750    6.189    0.355    0.224  210.569   88.222
  296.000    6.244    0.354    0.178  210.545   98.046
  296.250    6.075    0.355    0.214  211.021  105.486
  296.500    5.857    0.351    0.215  210.004  107.857
  296.750    5.803    0.373    0.216  208.487  109.032
  297.000    6.071    0.380    0.222  208.460  109.617
  297.250    6.528    0.375    0.221  208.931  111.392
  297.500    7.279    0.374    0.222  209.407  110.185
  297.750    7.479    0.364    0.220  209.878  104.503
  298.000    7.276    0.350    0.225  210.357  108.964
  298.250    6.951    0.334    0.222  211.324  108.352
  298.500    6.288    0.324    0.198  212.788  102.672
  298.750    5.536    0.355    0.194  214.758  103.554
  299.000    4.962    0.375    0.187  214.732  114.571
  299.250    4.368    0.376    0.201  216.202  124.694
  299.500    3.811    0.385    0.177  217.166  117.522
  299.750    3.385    0.395    0.147  216.652  111.249
  300.000    2.900    0.401    0.140  214.635  112.427
  300.250    2.576    0.405    0.246  212.626  112.711
  300.500    2.351    0.407    0.265  210.612  111.803
  300.750    2.267    0.413    0.271  209.595  105.228
  301.000    2.186    0.428    0.273  210.071  105.214
  301.250    2.088    0.415    0.274  210.045  105.794
  301.500    2.032    0.412    0.278  210.021  106.078
  301.750    2.031    0.410    0.278  211.988  104.575
  302.000    2.144    0.419    0.286  214.449  108.735
  302.250    2.619    0.423    0.297  213.432  106.336
  302.500    4.201    0.398    0.324  212.406  103.040
  302.750    4.992    0.363    0.329  211.885   87.821
  303.000    5.417    0.343    0.252  210.374   98.242
  303.250    5.824    0.348    0.230  210.850   97.929
  303.500    6.377    0.359    0.257  213.308   90.163
  303.750    6.734    0.375    0.273  214.281   84.186
  304.000    6.734    0.389    0.280  214.255   80.889
  304.250    6.979    0.387    0.284  209.762   82.966
  304.500    7.042    0.386    0.282  208.736   85.931
  304.750    6.914    0.384    0.272  208.718   82.339
  305.000    6.086    0.369    0.257  208.195   84.710
  305.250    5.710    0.363    0.219  208.168   88.272
  305.500    5.606    0.391    0.226  208.151   89.154
  305.750    5.604    0.390    0.237  208.127   89.736
  306.000    5.706    0.383    0.255  208.104   90.020
  306.250    6.843    0.382    0.273  207.577   85.232
  306.500    7.841    0.392    0.283  207.063   83.433
  306.750    8.664    0.393    0.292  207.036   81.034
  307.000    9.148    0.386    0.300  207.016   79.231
  307.250    9.230    0.386    0.298  207.486   75.041
  307.500    9.144    0.388    0.297  206.963   78.008
  307.750    9.060    0.375    0.302  206.939   77.992
  308.000    8.814    0.366    0.306  206.416   77.383
  308.250    8.812    0.359    0.309  205.901   79.455
  308.500    8.891    0.377    0.302  205.378   76.461
  308.750    9.219    0.362    0.306  205.357   69.290
  309.000    9.385    0.356    0.304  205.827   72.555
  309.250    9.469    0.356    0.301  205.801   71.350
  309.500    9.468    0.361    0.295  205.286   69.843
  309.750    8.963    0.367    0.293  205.260   69.231
  310.000    8.408    0.374    0.299  204.739   68.025
  310.250    7.817    0.380    0.301  204.713   72.186
  310.500    7.536    0.387    0.302  204.689   76.044
  310.750    7.534    0.398    0.297  204.169   78.121
  311.000    7.672    0.413    0.294  203.648   79.299
  311.250    7.954    0.407    0.311  203.131   74.217
  311.500    7.809    0.392    0.314  202.608   77.778
  311.750    7.460    0.376    0.298  202.587   78.361
  312.000    6.749    0.363    0.294  202.563   79.839
  312.250    5.995    0.367    0.294  202.540   84.593
  312.500    5.423    0.375    0.290  202.016   87.562
  312.750    4.951    0.396    0.285  201.975   89.933
  313.000    4.645    0.402    0.285  201.966   88.425
  313.250    4.437    0.409    0.281  201.940   86.622
  313.500    4.518    0.415    0.284  201.919   86.610
  313.750    4.727    0.420    0.287  201.896   84.507
  314.000    5.037    0.407    0.291  201.872   81.811
  314.250    5.222    0.401    0.299  201.849   80.901
  314.500    5.221    0.414    0.289  201.822   81.483
  314.750    5.173    0.402    0.282  201.804   81.769
  315.000    5.079    0.394    0.278  201.775   87.119
  315.250    5.079    0.386    0.281  201.748   81.737
  315.500    5.076    0.377    0.279  201.725   82.915
  315.750    5.311    0.374    0.282  201.704   84.692
  316.000    5.608    0.378    0.289  201.681   85.870
  316.250    5.658    0.379    0.293  201.160   89.730
  316.500    5.657    0.372    0.292  201.140   86.438
  316.750    5.760    0.361    0.281  200.616   84.933
  317.000    6.193    0.358    0.258  201.087   89.391
  317.250    7.563    0.364    0.264  202.057   94.446
  317.500    8.281    0.355    0.283  202.536   85.189
  317.750    9.067    0.348    0.298  202.507   74.142
  318.000    9.232    0.348    0.327  202.977   74.424
  318.250    9.064    0.354    0.307  202.954   77.093
  318.500    8.274    0.364    0.294  202.930   77.975
  318.750    8.198    0.379    0.294  202.912   81.837
  319.000    8.198    0.391    0.292  202.912   78.245
  319.250    8.268    0.394    0.286  202.862   72.863
  319.500    8.496    0.391    0.295  202.839   72.849
  319.750    9.135    0.381    0.299  203.315   74.325
  320.000    9.133    0.383    0.300  204.285   73.417
  320.250    9.049    0.390    0.300  205.253   74.595
  320.500    9.047    0.382    0.299  205.229   73.685
  320.750    9.127    0.370    0.303  204.206   72.778
  321.000    9.464    0.359    0.324  203.691   72.168
  321.250    9.901    0.367    0.324  203.171   72.450
  321.500   10.173    0.368    0.315  203.141   71.541
  321.750   10.453    0.365    0.301  203.121   71.529
  322.000   10.936    0.356    0.307  203.094   75.093
  322.250   11.034    0.356    0.335  203.071   71.795
  322.500   11.132    0.364    0.326  202.553   72.676
  322.750   11.029    0.371    0.310  202.033   74.747
  323.000   10.927    0.374    0.296  202.006   76.525
  323.250   10.729    0.373    0.313  201.986   75.018
  323.500   10.250    0.370    0.312  202.459   75.899
  323.750    9.615    0.371    0.306  202.932   76.183
  324.000    9.440    0.366    0.306  203.403   77.063
  324.250    9.438    0.367    0.298  203.382   75.560
  324.500    9.875    0.366    0.299  203.359   75.544
  324.750   11.523    0.350    0.296  203.332   72.550
  325.000   12.733    0.335    0.278  203.309   62.992
  325.250   14.198    0.310    0.265  203.285   55.824
  325.500   15.265    0.283    0.278  203.755   53.425
  325.750   14.852    0.302    0.300  204.232   54.901
  326.000   13.934    0.318    0.281  204.705   59.358
  326.250   11.405    0.299    0.232  205.175   58.153
