~VERSION INFORMATION
 VERS.                 2.0:   CWLS LOG ASCII STANDARD -VERSION 2.0
 WRAP.                  NO:   ONE LINE PER DEPTH STEP
~WELL INFORMATION BLOCK
#MNEM.UNIT           DATA                    DESCRIPTION OF MNEMONIC
#---------    -------------------            -------------------------------
# Generated from Intellog Unique Number	CW_79_81/WELL/2441
WELL.         01-32-080-22W4                 : Well_name    - WELL
LOC .         AA/01-32-080-22W4/0            : Location     - LOCATION
UWI .         AA/01-32-080-22W4/0            : Uwi          - UNIQUE WELL ID
ENTR.         MAX                            : Entered      - ENTERED BY
SRVC.         SCHLUMBERGER                   : Scn          - SERVICE COMPANY
STRT.M        220                            : top_depth    - START DEPTH
STOP.M        439.75                         : bot_depth    - STOP DEPTH
STEP.M        0.25                           : increment    - STEP LENGTH
 NULL. -999.2500:NULL Value
~CURVE INFORMATION BLOCK
#MNEM UNIT       ERCB CURVE CODE    CURVE DESCRIPTION
#-----------   ------------------   ----------------------------------
DEPT.M        00 001 00 00         : DEPTH        - DEPTH
ILD .OHMM     00 120 00 00         : RESD         - DEEP RESISTIVITY (DIL)
NPHI.V/V      00 330 00 00         : PHIN         - NEUTRON POROSITY (SANDSTONE)
DPHI.V/V      00 890 00 00         : PHID         - DENSITY POROSITY (SANDSTONE)
GR  .API      00 310 00 00         : GR           - GAMMA RAY
CALI.MM       00 280 01 00         : CAL          - CALIPER
~PARAMETER INFORMATION
#MNEM.UNIT           DATA             DESCRIPTION OF MNEMONIC
#---------         -----------     ------------------------------
GL  .M        588.6                : gl           - GROUND LEVEL ELEVATION
EREF.M        592.9                : kb           - ELEVATION OF DEPTH REFERENCE
DATM.M        588.6                : datum        - DATUM ELEVATION
TDD .M        443                  : tdd          - TOTAL DEPTH DRILLER
RUN .         ONE                  : Run          - RUN NUMBER
ENG .         BILL                 : Engineer     - RECORDING ENGINEER
WIT .         JIM                  : Witness      - WITNESSED BY
MUD .         GEL                  : Mud_type     - MUD TYPE
MATR.         SANDSTONE            : Logunit      - NEUTRON MATRIX
TMAX.C        27                   : BHT          - MAXIMUM RECORDED TEMPERATURE
BHTD.M        443                  : BHTDEP       - MAXIMUM RECORDED TEMPERATURE
MATR.         1                    : LOGUNIT      - NEUTRON MATRIX
RMT .C        15.6                 : MDTP         - TEMPERATURE OF MUD
NEUT.         1                    : NEUTRON      - NEUTRON TYPE
RESI.         0                    : RESIST       - RESISTIVITY TYPE
RMC .OHMM     3.23                 : RMC          - RESISTIVITY OF MUD CAKE
RMF .OHMM     4.36                 : RMF          - RESISTIVITY OF MUD FILTRATE
SUFT.C        -5                   : SUFT         - SURFACE TEMPERATURE
~A  DEPTH     RESD     PHIN     PHID       GR      CAL
# ...
  256.500   21.002    0.454    0.312   55.964  214.497
  256.750   24.009    0.440    0.323   55.206  213.827
  257.000   26.489    0.425    0.332   55.764  213.350
  257.250   28.328    0.425    0.340   58.452  212.795
  257.500   29.637    0.437    0.344   60.148  212.322
  257.750   30.052    0.449    0.348   59.871  210.647
  258.000   30.298    0.446    0.349   59.770  210.186
  258.250   30.379    0.443    0.350   60.205  210.123
  258.500   30.351    0.444    0.352   61.356  210.054
  258.750   30.270    0.438    0.355   63.710  210.061
  259.000   30.006    0.437    0.355   66.147  210.409
  259.250   29.749    0.439    0.355   67.068  209.934
  259.500   29.506    0.437    0.353   67.266  209.768
  259.750   29.155    0.439    0.351   66.747  209.694
  260.000   28.592    0.445    0.350   65.394  209.716
  260.250   27.557    0.457    0.355   63.011  210.207
  260.500   26.692    0.456    0.360   63.221  210.955
  260.750   26.080    0.448    0.363   64.124  211.290
  261.000   26.061    0.444    0.362   64.328  211.331
  261.250   26.231    0.444    0.360   64.171  211.264
  261.500   26.152    0.446    0.359   63.767  211.189
  261.750   25.205    0.452    0.353   62.698  211.105
  262.000   24.422    0.452    0.349   61.167  211.039
  262.250   23.334    0.457    0.349   60.175  210.976
  262.500   22.553    0.461    0.351   60.074  210.908
  262.750   22.040    0.462    0.353   60.390  211.040
  263.000   21.776    0.458    0.355   61.006  211.472
  263.250   21.583    0.444    0.356   62.454  212.264
  263.500   20.747    0.440    0.355   63.897  212.597
  263.750   19.977    0.438    0.361   62.662  212.534
  264.000   19.558    0.439    0.360   62.861  212.764
  264.250   19.320    0.437    0.356   62.824  212.896
  264.500   19.228    0.430    0.351   61.770  212.831
  264.750   19.474    0.424    0.345   59.657  212.827
  265.000   20.063    0.428    0.338   58.872  213.161
  265.250   20.638    0.431    0.324   59.073  213.503
  265.500   20.770    0.434    0.309   59.449  213.535
  265.750   20.596    0.438    0.312   59.884  213.660
  266.000   20.199    0.443    0.334   60.558  213.984
  266.250   19.379    0.448    0.347   62.485  214.637
  266.500   18.349    0.454    0.342   65.175  216.228
  266.750   17.794    0.479    0.330   67.528  216.165
  267.000   17.642    0.490    0.337   67.368  214.893
  267.250   17.428    0.488    0.345   65.775  213.828
  267.500   17.069    0.479    0.348   63.885  213.470
  267.750   16.777    0.472    0.350   63.231  213.468
  268.000   16.633    0.476    0.350   64.922  213.809
  268.250   16.616    0.482    0.353   65.596  213.753
  268.500   16.596    0.485    0.350   65.557  213.388
  268.750   16.579    0.487    0.346   65.519  212.920
  269.000   16.595    0.488    0.345   66.136  212.452
  269.250   16.592    0.483    0.346   68.194  211.970
  269.500   16.078    0.471    0.349   69.148  211.896
  269.750   15.940    0.473    0.345   67.666  211.819
  270.000   16.071    0.464    0.340   66.190  212.056
  270.250   16.591    0.446    0.328   65.675  212.394
  270.500   17.810    0.425    0.306   66.294  212.826
  270.750   20.662    0.407    0.277   67.384  213.536
  271.000   21.455    0.404    0.275   67.101  213.463
  271.250   20.963    0.415    0.294   66.577  213.400
  271.500   20.027    0.428    0.322   66.418  213.624
  271.750   19.219    0.440    0.342   66.499  214.150
  272.000   18.748    0.450    0.348   66.699  214.684
  272.250   18.617    0.454    0.348   66.489  214.604
  272.500   18.737    0.442    0.341   64.456  214.524
  272.750   18.737    0.437    0.340   65.603  214.865
  273.000   18.605    0.445    0.332   66.043  215.196
  273.250   18.509    0.451    0.327   66.125  215.520
  273.500   18.526    0.447    0.324   66.081  215.745
  273.750   18.670    0.436    0.319   66.027  215.751
  274.000   18.792    0.442    0.329   65.988  216.099
  274.250   18.913    0.441    0.339   66.431  216.427
  274.500   19.037    0.443    0.343   67.763  216.461
  274.750   19.160    0.449    0.343   69.272  216.586
  275.000   19.281    0.453    0.340   70.363  216.905
  275.250   19.369    0.450    0.338   70.550  217.307
  275.500   19.204    0.445    0.338   70.507  217.648
  275.750   18.625    0.452    0.334   70.234  217.592
  276.000   17.964    0.459    0.328   69.237  219.011
  276.250   17.165    0.457    0.320   67.882  221.324
  276.500   16.193    0.445    0.308   66.649  223.243
  276.750   14.771    0.429    0.288   66.317  222.354
  277.000   13.571    0.419    0.285   67.271  220.209
  277.250   12.490    0.451    0.298   67.710  218.158
  277.500   11.902    0.475    0.316   67.789  216.990
  277.750   11.460    0.479    0.329   67.629  216.522
  278.000   11.098    0.469    0.335   67.528  216.456
  278.250   10.874    0.460    0.333   68.148  216.532
  278.500   10.615    0.452    0.328   69.111  217.302
  278.750   10.448    0.458    0.335   70.974  217.239
  279.000   10.342    0.455    0.337   72.839  217.165
  279.250   10.218    0.454    0.331   74.827  216.900
  279.500   10.077    0.456    0.320   76.756  216.542
  279.750    9.975    0.450    0.311   78.139  216.457
  280.000    9.885    0.447    0.297   78.104  216.384
  280.250    9.880    0.452    0.306   76.869  215.525
  280.500    9.980    0.458    0.311   75.448  214.661
  280.750   10.155    0.464    0.313   73.974  213.991
  281.000   10.391    0.468    0.315   72.866  213.518
  281.250   10.706    0.469    0.319   72.769  212.872
  281.500   10.777    0.468    0.324   72.472  211.985
  281.750   10.767    0.468    0.329   72.430  211.106
  282.000   10.756    0.465    0.330   72.752  210.838
  282.250   10.746    0.467    0.328   73.187  211.375
  282.500   10.755    0.473    0.323   73.438  212.507
  282.750   10.836    0.472    0.311   73.253  213.526
  283.000   10.910    0.462    0.312   73.715  213.046
  283.250   10.978    0.470    0.322   73.435  212.983
  283.500   10.987    0.476    0.330   73.691  212.914
  283.750   11.017    0.473    0.334   73.651  212.844
  284.000   11.169    0.463    0.332   72.777  212.676
  284.250   11.729    0.457    0.325   70.816  212.201
  284.500   12.564    0.458    0.327   70.768  212.127
  284.750   13.306    0.457    0.331   70.730  212.057
  285.000   13.346    0.454    0.337   72.123  212.275
  285.250   12.595    0.450    0.338   75.064  212.797
  285.500   11.347    0.447    0.335   78.778  213.432
  285.750    9.744    0.446    0.328   82.644  213.840
  286.000    8.557    0.451    0.319   87.823  214.174
  286.250    7.415    0.487    0.305   94.467  216.106
  286.500    5.729    0.520    0.299   98.776  218.618
  286.750    4.593    0.542    0.296   99.684  220.341
  287.000    4.012    0.548    0.294   98.567  220.976
  287.250    3.891    0.540    0.288   99.141  221.200
  287.500    3.891    0.529    0.286   98.600  220.720
  287.750    3.856    0.533    0.284   98.801  220.657
  288.000    3.824    0.549    0.283   99.359  220.886
  288.250    3.833    0.553    0.284   99.200  221.214
  288.500    3.879    0.540    0.284   97.727  221.541
  288.750    3.904    0.525    0.284   94.165  221.855
  289.000    3.904    0.526    0.285   90.886  221.789
  289.250    3.896    0.524    0.287   89.655  221.726
  289.500    3.912    0.519    0.288   90.565  221.658
  289.750    3.923    0.513    0.287   91.957  221.584
  290.000    3.905    0.505    0.283   93.115  221.411
  290.250    3.819    0.495    0.279   94.061  220.935
  290.500    3.700    0.487    0.273   93.014  220.862
  290.750    3.589    0.487    0.281   91.071  221.189
  291.000    3.939    0.493    0.292   87.870  223.018
  291.250    4.875    0.491    0.302   84.010  223.751
  291.500    6.683    0.479    0.310   80.091  222.189
  291.750    9.229    0.459    0.327   76.351  217.945
  292.000   11.208    0.446    0.327   74.562  214.973
  292.250   12.397    0.442    0.337   73.805  214.107
  292.500   13.078    0.438    0.338   74.123  213.833
  292.750   13.212    0.438    0.339   74.322  213.965
