~VERSION INFORMATION
 VERS.                 2.0:   CWLS LOG ASCII STANDARD -VERSION 2.0
 WRAP.                  NO:   ONE LINE PER DEPTH STEP
~WELL INFORMATION BLOCK
#MNEM.UNIT           DATA                    DESCRIPTION OF MNEMONIC
#---------    -------------------            -------------------------------
# Generated from Intellog Unique Number	CN_91_93/WELL/3039
WELL.         PARAMOUNT RESOURCES LTD.       : Well_name    - WELL
LOC .         00/06-29-092-20W4/0            : Location     - LOCATION
UWI .         00/06-29-092-20W4/0            : Uwi          - UNIQUE WELL ID
ENTR.         JOETTE                         : Entered      - ENTERED BY
SRVC.         COMPUTALOG                     : Scn          - SERVICE COMPANY
DATE.         04/09/92                       : Date         - LOG DATE
STRT.F        100                            : top_depth    - START DEPTH
STOP.F        703.675                        : bot_depth    - STOP DEPTH
STEP.F        0.82                           : increment    - STEP LENGTH
 NULL. -999.2500:NULL Value
~CURVE INFORMATION BLOCK
#MNEM UNIT       ERCB CURVE CODE    CURVE DESCRIPTION
#-----------   ------------------   ----------------------------------
DEPT.F        00 001 00 00         : DEPTH        - DEPTH
GR  .API      00 310 00 00         : GR           - GAMMA RAY
NPHI.V/V      00 330 00 00         : PHIN         - NEUTRON POROSITY (SANDSTONE)
DPHI.V/V      00 890 00 00         : PHID         - DENSITY POROSITY (SANDSTONE)
ILD .OHMM     00 120 00 00         : RESD         - DEEP RESISTIVITY (DIL)
~PARAMETER INFORMATION
#MNEM.UNIT           DATA             DESCRIPTION OF MNEMONIC
#---------         -----------     ------------------------------
GL  .F        1698                 : gl           - GROUND LEVEL ELEVATION
EREF.F        1708                 : kb           - ELEVATION OF DEPTH REFERENCE
DATM.F        1708                 : datum        - DATUM ELEVATION
TDD .F        702                  : tdd          - TOTAL DEPTH DRILLER
RUN .         ONE                  : Run          - RUN NUMBER
ENG .         JO                   : Engineer     - RECORDING ENGINEER
WIT .         TIM                  : Witness      - WITNESSED BY
MUD .         GEL                  : Mud_type     - MUD TYPE
MATR.         SANDSTONE            : Logunit      - NEUTRON MATRIX
TMAX.F        58                   : BHT          - MAXIMUM RECORDED TEMPERATURE
BHTD.F        702                  : BHTDEP       - MAXIMUM RECORDED TEMPERATURE
RMT .F        58                   : MDTP         - TEMPERATURE OF MUD
MUDD.LB/G     9                    : MWT          - MUD DENSITY
NEUT.         1                    : NEUTRON      - NEUTRON TYPE
RESI.         0                    : RESIST       - RESISTIVITY TYPE
RM  .OHMM     3.6                  : RM           - RESISTIVITY OF MUD
RMC .OHMM     3.6                  : RMC          - RESISTIVITY OF MUD CAKE
RMF .OHMM     3.6                  : RMF          - RESISTIVITY OF MUD FILTRATE
SUFT.F        39.2                 : SUFT         - SURFACE TEMPERATURE
~A  DEPTH       GR     PHIN     PHID     RESD
# ...
  242.717   18.528    0.512    0.155    0.000
  243.537   22.842    0.478    0.118    0.000
  244.357   27.783    0.448    0.067    0.000
  245.177   32.096    0.429    0.029    0.000
  245.997   33.403    0.425    0.017    0.000
  246.818   33.508    0.433    0.024    0.000
  247.638   32.409    0.437    0.073    0.000
  248.458   34.344    0.431    0.157    0.000
  249.278   35.651    0.430    0.173    0.000
  250.098   36.356    0.431    0.164    0.000
  250.919   35.912    0.428    0.110    0.000
  251.739   34.787    0.419    0.080    0.000
  252.559   32.486    0.409    0.051    0.000
  253.379   30.787    0.420    0.050    0.000
  254.199   28.486    0.433    0.043    0.000
  255.020   27.963    0.439    0.047    0.000
  255.840   29.270    0.443    0.085    0.000
  256.660   29.976    0.431    0.140    0.000
  257.480   29.505    0.435    0.114    0.000
  258.301   27.204    0.457    0.084    0.000
  259.121   26.106    0.415    0.060    0.000
  259.941   25.609    0.444    0.095    0.000
  260.761   28.093    0.460    0.117    0.000
  261.581   33.635    0.453    0.108    0.000
  262.402   33.138    0.459    0.060    0.000
  263.222   29.660    0.460    0.036    0.000
  264.042   30.366    0.446    0.008    0.000
  264.862   32.876    0.438    0.054    0.000
  265.682   35.385    0.438    0.100    0.000
  266.503   36.692    0.444    0.123    0.000
  267.323   34.993    0.442    0.129    0.000
  268.143   32.091    0.424    0.123    0.000
  268.963   28.587    0.410    0.095    0.000
  269.783   27.489    0.391    0.087    0.000
  270.604   28.796    0.355    0.090    0.000
  271.424   28.874    0.300    0.088    0.000
  272.244   28.377    0.327    0.092    0.000
  273.064   27.279    0.375    0.092    0.000
  273.885   26.207    0.426    0.065    0.000
  274.705   26.913    0.460    0.051    0.000
  275.525   27.618    0.454    0.054    0.000
  276.345   27.122    0.425    0.066    0.000
  277.165   27.226    0.414    0.097    0.000
  277.986   29.134    0.425    0.131    0.000
  278.806   32.245    0.435    0.152    0.000
  279.626   32.977    0.450    0.063    0.000
  280.446   32.480    0.464    0.027    0.000
  281.266   32.584    0.467    0.019    0.000
  282.087   30.885    0.457    0.057    0.000
  282.907   28.558    0.446    0.083    0.000
  283.727   23.277    0.452    0.091    0.000
  284.547   22.178    0.460    0.059    0.000
  285.367   24.688    0.463    0.083    0.000
  286.188   26.570    0.451    0.097    0.000
  287.008   23.720    0.426    0.096    0.000
  287.828   24.374    0.417    0.078    0.000
  288.648   25.681    0.422    0.089    0.000
  289.469   28.216    0.439    0.094    0.000
  290.289   30.151    0.432    0.124    0.000
  291.109   29.654    0.402    0.139    0.000
  291.929   28.529    0.374    0.141    0.000
  292.749   26.856    0.367    0.110    0.000
  293.570   25.157    0.383    0.086    0.000
  294.390   27.065    0.397    0.061    0.000
  295.210   27.797    0.380    0.087    0.000
  296.030   27.247    0.376    0.104    0.000
  296.850   24.947    0.382    0.094    0.000
  297.671   27.482    0.393    0.073    0.000
  298.491   29.966    0.389    0.094    0.000
  299.311   29.547    0.387    0.099    0.000
  300.131   28.998    0.389    0.088    0.000
  300.951   29.103    0.386    0.097    0.000
  301.772   27.403    0.371    0.102    0.000
  302.592   28.710    0.362    0.071    0.000
  303.412   31.821    0.385    0.044    0.000
  304.232   29.546    0.393    0.085    0.000
  305.052   33.258    0.402    0.084    0.000
  305.873   34.539    0.405    0.118    0.000
  306.693   32.265    0.395    0.161    0.000
  307.513   30.591    0.384    0.196    0.000
  308.333   30.643    0.373    0.224    0.000
  309.154   33.806    0.372    0.219    0.000
  309.974   34.512    0.379    0.209    0.000
  310.794   34.617    0.382    0.118    0.000
  311.614   31.714    0.387    0.038    0.000
  312.434   27.584    0.389    0.018    0.000
  313.255   27.714    0.360    0.013    0.000
  314.075   29.622    0.351   -0.012    0.000
  314.895   32.132    0.346   -0.026    0.000
  315.715   34.040    0.361    0.009    0.000
  316.535   35.949    0.377    0.025    0.000
  317.356   35.452    0.393    0.068    0.000
  318.176   31.948    0.401    0.104    0.000
  318.996   29.020    0.406    0.053    0.000
  319.816   27.922    0.394    0.045    0.000
  320.636   28.052    0.407    0.067    0.000
  321.457   29.934    0.432    0.081    0.000
  322.277   34.274    0.440    0.080    0.000
  323.097   35.581    0.429    0.081    0.000
  323.917   34.483    0.433    0.033    0.000
  324.738   31.581    0.424    0.023    0.000
  325.558   29.881    0.417    0.055    0.000
  326.378   29.384    0.419    0.078    0.000
  327.198   29.515    0.421    0.077    0.000
  328.018   29.018    0.413    0.057    0.000
  328.839   27.919    0.412    0.064    0.000
  329.659   25.593    0.419    0.067    0.000
  330.479   30.534    0.384    0.024    0.000
  331.299   34.847    0.377    0.000    0.000
  332.119   37.357    0.393    0.011    0.000
  332.940   37.461    0.413    0.013    0.000
  333.760   33.984    0.430    0.044    0.000
  334.580   36.493    0.424    0.040    0.000
  335.400   39.604    0.419    0.029    0.000
  336.220   41.512    0.425    0.010    0.000
  337.041   40.414    0.441    0.004    0.000
  337.861   36.283    0.452    0.003    0.000
  338.681   31.577    0.445   -0.001    0.000
  339.501   29.878    0.441   -0.001    0.000
  340.322   32.387    0.439    0.058    0.000
  341.142   40.335    0.444    0.035    0.000
  341.962   43.446    0.452    0.030    0.000
  342.782   42.374    0.421    0.047    0.000
  343.602   40.047    0.416    0.051    0.000
  344.423   41.981    0.430    0.028    0.000
  345.243   42.687    0.444    0.030    0.000
  346.063   39.758    0.436    0.042    0.000
  346.883   32.046    0.436    0.020    0.000
  347.703   33.954    0.446    0.006    0.000
  348.524   33.483    0.461    0.018    0.000
  349.344   29.954    0.471    0.029    0.000
  350.164   28.856    0.476    0.023    0.000
  350.984   30.189    0.465   -0.002    0.000
  351.804   30.868    0.467   -0.006    0.000
  352.625   28.567    0.474   -0.007    0.000
  353.445   25.665    0.474   -0.001    0.000
  354.265   23.391    0.469    0.010    0.000
  355.085   24.070    0.461    0.030    0.000
  355.906   26.606    0.456    0.040    0.000
  356.726   29.116    0.457    0.065    0.000
  357.546   28.017    0.462   -0.013    0.000
  358.366   26.292    0.453   -0.003    0.000
  359.186   25.246    0.448    0.010    0.000
  360.007   25.298    0.452    0.021    0.000
  360.827   29.036    0.462    0.041    0.000
  361.647   32.173    0.467    0.073    0.000
  362.467   34.683    0.473    0.029    0.000
  363.287   35.388    0.483    0.002    0.000
  364.108   33.689    0.486   -0.026    0.000
  364.928   30.787    0.478   -0.023    0.000
  365.748   28.460    0.436   -0.015    0.000
  366.568   28.590    0.417   -0.024    0.000
  367.388   29.296    0.480   -0.029    0.000
  368.209   33.008    0.447   -0.017    0.000
  369.029   34.341    0.425   -0.019    0.000
  369.849   32.616    0.420   -0.017    0.000
  370.669   28.537    0.398    0.002    0.000
  371.490   28.040    0.406    0.002    0.000
  372.310   28.118    0.437   -0.008    0.000
  373.130   30.027    0.454   -0.012    0.000
  373.950   32.536    0.464   -0.003    0.000
  374.770   33.869    0.457   -0.010    0.000
  375.591   34.000    0.456   -0.016    0.000
  376.411   34.052    0.464   -0.018    0.000
  377.231   35.411    0.474    0.007    0.000
  378.051   35.542    0.484    0.030    0.000
  378.871   34.993    0.487    0.046    0.000
  379.692   33.345    0.487    0.068    0.000
  380.512   31.593    0.481    0.038    0.000
  381.332   29.293    0.474    0.033    0.000
  382.152   27.593    0.476    0.033    0.000
  382.972   27.724    0.469    0.035    0.000
  383.793   30.834    0.470    0.047    0.000
  384.613   34.521    0.470    0.062    0.000
