~VERSION INFORMATION
 VERS.                 2.0:   CWLS LOG ASCII STANDARD -VERSION 2.0
 WRAP.                  NO:   ONE LINE PER DEPTH STEP
~WELL INFORMATION BLOCK
#MNEM.UNIT           DATA                    DESCRIPTION OF MNEMONIC
#---------    -------------------            -------------------------------
# Generated from Intellog Unique Number	CW_82_90/WELL/3058
WELL.         PARA ET AL LIVOCKR 06-36       : Well_name    - WELL
LOC .         00/06-36-085-20W4/0            : Location     - LOCATION
UWI .         00/06-36-085-20W4/0            : Uwi          - UNIQUE WELL ID
ENTR.         JAYE                           : Entered      - ENTERED BY
SRVC.         SCHLUMBERGER                   : Scn          - SERVICE COMPANY
DATE.         17 JAN 81                      : Date         - LOG DATE
STRT.M        200                            : top_depth    - START DEPTH
STOP.M        357                            : bot_depth    - STOP DEPTH
STEP.M        0.25                           : increment    - STEP LENGTH
 NULL. -999.2500:NULL Value
~CURVE INFORMATION BLOCK
#MNEM UNIT       ERCB CURVE CODE    CURVE DESCRIPTION
#-----------   ------------------   ----------------------------------
DEPT.M        00 001 00 00         : DEPTH        - DEPTH
ILD .OHMM     00 120 00 00         : RESD         - DEEP RESISTIVITY (DIL)
CALI.MM       00 280 01 00         : CAL          - CALIPER
GR  .API      00 310 00 00         : GR           - GAMMA RAY
NPHI.V/V      00 330 00 00         : PHIN         - NEUTRON POROSITY (SANDSTONE)
DPHI.V/V      00 890 00 00         : PHID         - DENSITY POROSITY (SANDSTONE)
~PARAMETER INFORMATION
#MNEM.UNIT           DATA             DESCRIPTION OF MNEMONIC
#---------         -----------     ------------------------------
GL  .M        616                  : gl           - GROUND LEVEL ELEVATION
EREF.M        619                  : kb           - ELEVATION OF DEPTH REFERENCE
DATM.M        616                  : datum        - DATUM ELEVATION
TDD .M        358                  : tdd          - TOTAL DEPTH DRILLER
RUN .         ONE                  : Run          - RUN NUMBER
ENG .         SALSMAN              : Engineer     - RECORDING ENGINEER
WIT .         CONNELLY             : Witness      - WITNESSED BY
BASE.         EDMONTON             : Branch       - HOME BASE OF LOGGING UNIT
MUD .         GEL CHEM             : Mud_type     - MUD TYPE
MATR.         SANDSTONE            : Logunit      - NEUTRON MATRIX
TMAX.C        11.1                 : BHT          - MAXIMUM RECORDED TEMPERATURE
BHTD.M        358                  : BHTDEP       - MAXIMUM RECORDED TEMPERATURE
RMT .C        11.1                 : MDTP         - TEMPERATURE OF MUD
MUDD.KG/M     9.5                  : MWT          - MUD DENSITY
NEUT.         1                    : NEUTRON      - NEUTRON TYPE
RESI.         0                    : RESIST       - RESISTIVITY TYPE
RM  .OHMM     6.64                 : RM           - RESISTIVITY OF MUD
RMC .OHMM     0                    : RMC          - RESISTIVITY OF MUD CAKE
RMF .OHMM     5                    : RMF          - RESISTIVITY OF MUD FILTRATE
SUFT.C        0                    : SUFT         - SURFACE TEMPERATURE
~A  DEPTH     RESD      CAL       GR     PHIN     PHID
# ...
  236.500   19.361  153.395   54.701    0.369    0.120
  236.750   17.902  153.094   56.336    0.318    0.177
  237.000   14.696  152.690   59.538    0.393    0.289
  237.250   12.225  152.288   60.984    0.485    0.280
  237.500   10.822  151.987   57.610    0.494    0.275
  237.750    7.979  152.828   58.055    0.491    0.274
  238.000    5.353  156.685   63.009    0.468    0.280
  238.250    3.148  159.193   66.898    0.451    0.265
  238.500    9.621  157.955   66.404    0.471    0.255
  238.750   11.604  154.330   65.847    0.473    0.260
  239.000   11.790  153.926   64.226    0.463    0.276
  239.250   10.900  153.940   60.477    0.450    0.272
  239.500   10.786  154.158   55.601    0.446    0.263
  239.750   12.554  154.482   56.172    0.472    0.228
  240.000   12.777  155.011   62.127    0.477    0.250
  240.250   12.571  156.061   65.890    0.466    0.260
  240.500   10.320  157.425   67.776    0.455    0.282
  240.750    7.594  159.517   69.286    0.456    0.284
  241.000    4.284  160.358   72.297    0.479    0.265
  241.250    2.918  160.576   75.936    0.491    0.235
  241.500    3.661  160.589   74.566    0.502    0.228
  241.750    5.155  159.976   74.573    0.512    0.223
  242.000    5.595  158.845   77.272    0.527    0.213
  242.250    5.413  158.026   79.909    0.549    0.211
  242.500    5.406  157.724   82.422    0.561    0.254
  242.750    4.497  157.946   84.806    0.566    0.245
  243.000    4.501  157.539   85.127    0.520    0.246
  243.250    5.219  156.720   82.630    0.498    0.241
  243.500    5.105  157.356   79.944    0.485    0.249
  243.750    3.961  157.990   77.699    0.484    0.240
  244.000    4.178  159.144   83.277    0.501    0.244
  244.250    3.515  161.234   87.543    0.501    0.239
  244.500    3.356  162.182   89.178    0.506    0.222
  244.750    3.436  161.674   83.988    0.502    0.214
  245.000    4.113  158.463   82.116    0.492    0.220
  245.250    5.845  154.111   78.367    0.489    0.235
  245.500    9.181  151.214   72.489    0.515    0.246
  245.750   10.193  150.809   65.672    0.502    0.231
  246.000   10.736  150.926   63.425    0.495    0.249
  246.250   10.884  151.144   60.552    0.488    0.267
  246.500   10.689  151.675   59.934    0.488    0.272
  246.750    6.958  152.208   64.699    0.486    0.280
  247.000    7.624  152.739   65.959    0.491    0.256
  247.250   10.200  153.165   65.026    0.512    0.257
  247.500   11.782  153.592   58.960    0.508    0.274
  247.750   12.620  154.333   60.158    0.478    0.280
  248.000   13.213  154.450   60.790    0.473    0.294
  248.250   13.475  154.565   60.673    0.465    0.286
  248.500   13.460  154.677   58.614    0.468    0.278
  248.750   12.825  154.481   58.246    0.465    0.269
  249.000    8.851  154.493   66.079    0.465    0.259
  249.250    5.487  154.399   72.535    0.465    0.257
  249.500    8.569  154.311   75.985    0.467    0.250
  249.750   11.251  154.427   68.416    0.485    0.238
  250.000   13.444  154.435   66.169    0.477    0.231
  250.250   14.400  154.758   62.546    0.382    0.205
  250.500   13.877  155.498   53.975    0.335    0.097
  250.750   11.965  156.652   51.854    0.293    0.039
  251.000   10.105  157.287   56.932    0.310    0.045
  251.250    8.680  157.298   65.141    0.355    0.110
  251.500    7.248  156.583   74.602    0.433    0.190
  251.750    5.040  156.178   79.993    0.472    0.232
  252.000    4.633  156.709   81.316    0.471    0.216
  252.250    4.991  158.072   78.193    0.469    0.203
  252.500    6.716  156.733   71.500    0.487    0.219
  252.750    7.830  154.458   64.871    0.495    0.239
  253.000    8.154  154.158   63.939    0.473    0.235
  253.250    6.373  154.588   62.569    0.469    0.239
  253.500    5.412  155.531   62.576    0.492    0.261
  253.750    5.099  156.481   69.470    0.516    0.269
  254.000    4.363  156.805   72.796    0.502    0.256
  254.250    4.408  156.605   69.296    0.505    0.246
  254.500    4.857  156.516   58.473    0.515    0.265
  254.750    5.925  156.109   47.461    0.534    0.279
  255.000    6.805  155.290   39.079    0.516    0.290
  255.250   14.051  154.574   39.524    0.461    0.303
  255.500   16.106  153.653   38.968    0.450    0.298
  255.750   16.394  153.558   37.910    0.458    0.302
  256.000   15.302  153.258   39.358    0.457    0.311
  256.250   14.093  153.061   41.807    0.451    0.300
  256.500   12.106  153.177   43.630    0.451    0.297
  256.750   11.087  153.084   45.327    0.454    0.289
  257.000   11.330  153.098   50.656    0.454    0.282
  257.250   11.978  153.212   52.541    0.462    0.287
  257.500   12.165  153.123   47.289    0.481    0.291
  257.750   12.199  153.234   41.724    0.466    0.299
  258.000   12.345  153.145   41.483    0.453    0.310
  258.250   12.590  153.363   43.304    0.445    0.310
  258.500   12.601  153.583   46.254    0.455    0.318
  258.750   12.350  153.698   45.509    0.489    0.310
  259.000   12.106  153.917   43.513    0.480    0.293
  259.250   11.279  153.825   44.585    0.467    0.295
  259.500    9.890  154.044   50.039    0.461    0.296
  259.750    8.723  154.470   55.367    0.465    0.293
  260.000    8.065  155.627   62.950    0.489    0.285
  260.250    8.010  156.678   65.900    0.501    0.270
  260.500    8.514  157.414   65.782    0.493    0.249
  260.750    9.434  157.739   61.469    0.472    0.195
  261.000   10.493  157.126   51.459    0.418    0.130
  261.250   11.848  156.825   44.830    0.357    0.033
  261.500   11.548  156.837   46.968    0.252    0.029
  261.750    9.919  157.889   56.865    0.291    0.081
  262.000    8.667  158.837   65.700    0.328    0.152
  262.250    8.088  159.365   68.024    0.428    0.226
  262.500    7.592  159.482   69.471    0.482    0.231
  262.750    7.344  159.079   72.484    0.500    0.233
  263.000    7.158  159.088   73.179    0.485    0.240
  263.250    7.056  158.996   74.187    0.474    0.233
  263.500    7.076  159.320   75.699    0.474    0.244
  263.750    7.093  159.541   75.767    0.492    0.240
  264.000    6.992  159.550   75.962    0.478    0.242
  264.250    6.893  159.875   76.720    0.479    0.246
  264.500    6.718  159.989   78.355    0.491    0.235
  264.750    6.475  161.040   80.869    0.489    0.216
  265.000    6.603  162.507   82.940    0.474    0.183
  265.250    6.509  166.050   88.582    0.445    0.174
  265.500    6.040  168.453   93.222    0.459    0.177
  265.750    5.199  167.945   99.051    0.489    0.168
  266.000    5.589  166.293  101.188    0.502    0.166
  266.250    5.732  166.306   97.689    0.488    0.165
  266.500    5.769  167.563   97.257    0.479    0.174
  266.750    5.731  168.407   98.643    0.474    0.169
  267.000    5.735  168.314   98.524    0.473    0.187
  267.250    5.815  168.429   94.963    0.473    0.188
  267.500    5.919  168.753   92.403    0.476    0.183
  267.750    6.024  169.284   91.158    0.489    0.181
  268.000    6.007  168.983   90.978    0.497    0.179
  268.250    5.966  167.852   91.862    0.505    0.169
  268.500    5.826  166.410   92.995    0.497    0.175
  268.750    5.625  165.070   90.435    0.490    0.197
  269.000    5.968  163.627   90.068    0.477    0.196
  269.250    6.626  162.494   91.138    0.479    0.187
  269.500    6.631  161.260   92.084    0.489    0.178
  269.750    6.378  160.651   91.654    0.490    0.175
  270.000    4.874  160.244   91.598    0.482    0.171
  270.250    6.303  159.113   88.976    0.479    0.164
  270.500    7.647  156.838   79.153    0.476    0.162
  270.750    7.681  154.980   70.208    0.467    0.177
  271.000    6.813  154.679   72.470    0.459    0.190
  271.250    6.204  155.314   80.114    0.454    0.217
  271.500    5.824  156.676   84.316    0.469    0.206
  271.750    6.052  158.249   84.073    0.523    0.190
  272.000    6.925  158.468   79.885    0.500    0.191
  272.250    7.515  158.582   75.447    0.479    0.195
  272.500    9.167  158.697   71.886    0.455    0.184
  272.750   12.981  158.397   67.010    0.421    0.158
