~VERSION INFORMATION
 VERS.                 2.0:   CWLS LOG ASCII STANDARD -VERSION 2.0
 WRAP.                  NO:   ONE LINE PER DEPTH STEP
~WELL INFORMATION BLOCK
#MNEM.UNIT           DATA                    DESCRIPTION OF MNEMONIC
#---------    -------------------            -------------------------------
# Generated from Intellog Unique Number	CS_69_70/WELL/906
NULL.         -999.25                        : NULL_VALUE
WELL.         HUSKY OIL OPERATION LTD.       : Well_name    - WELL              
LOC .         00/09-12-070-06W4/0            : Location     - LOCATION          
UWI .         00/09-12-070-06W4/0            : Uwi          - UNIQUE WELL ID    
ENTR.         SP                             : Entered      - ENTERED BY        
SRVC.         SCHLUMBERGER                   : Scn          - SERVICE COMPANY   
STRT.M        315                            : top_depth    - START DEPTH       
STOP.M        560                            : bot_depth    - STOP DEPTH        
STEP.M        0.25                           : increment    - STEP LENGTH       
~CURVE INFORMATION BLOCK
#MNEM UNIT       ERCB CURVE CODE    CURVE DESCRIPTION
#-----------   ------------------   ----------------------------------
DEPT.M        00 001 00 00         : DEPTH        - DEPTH                       
ILD .OHMM     00 120 00 00         : RESD         - DEEP RESISTIVITY (DIL)      
DPHI.V/V      00 890 00 00         : PHID         - DENSITY POROSITY (LIMESTONE)
NPHI.V/V      00 330 00 00         : PHIN         - NEUTRON POROSITY (LIMESTONE)
GR  .API      00 310 00 00         : GR           - GAMMA RAY                   
~PARAMETER INFORMATION       
#MNEM.UNIT           DATA             DESCRIPTION OF MNEMONIC
#---------         -----------     ------------------------------
GL  .M        675.2                : gl           - GROUND LEVEL ELEVATION      
EREF.M        678.8                : kb           - ELEVATION OF DEPTH REFERENCE
DATM.M        675.2                : datum        - DATUM ELEVATION             
TDD .M        567                  : tdd          - TOTAL DEPTH DRILLER         
RUN .         ONE                  : Run          - RUN NUMBER                  
ENG .         BILL                 : Engineer     - RECORDING ENGINEER          
WIT .         JIM                  : Witness      - WITNESSED BY                
MUD .         GEL                  : Mud_type     - MUD TYPE                    
MATR.         LIMESTONE            : Logunit      - NEUTRON MATRIX              
TMAX.C        25                   : BHT          - MAXIMUM RECORDED TEMPERATURE
BHTD.M        567                  : BHTDEP       - MAXIMUM RECORDED TEMPERATURE
MATR.         1                    : LOGUNIT      - NEUTRON MATRIX              
RMT .C        25                   : MDTP         - TEMPERATURE OF MUD          
NEUT.         1                    : NEUTRON      - NEUTRON TYPE                
RESI.         0                    : RESIST       - RESISTIVITY TYPE            
RMC .OHMM     0.25                 : RMC          - RESISTIVITY OF MUD CAKE     
RMF .OHMM     0.25                 : RMF          - RESISTIVITY OF MUD FILTRATE 
SUFT.C        15                   : SUFT         - SURFACE TEMPERATURE         
~A  DEPTH     RESD     PHID     PHIN       GR
  315.000    3.000    0.251    0.545  101.205
  315.250    3.058    0.245    0.521   95.784
  315.500    3.117    0.244    0.521   94.580
  315.750    3.177    0.250    0.531  100.605
  316.000    3.238    0.255    0.521  104.220
  316.250    3.301    0.256    0.512   97.594
  316.500    3.365    0.256    0.503   90.968
  316.750    3.430    0.262    0.499   87.957
  317.000    3.431    0.255    0.498   89.163
  317.250    3.498    0.252    0.519   96.392
  317.500    3.564    0.246    0.526  100.610
  317.750    3.702    0.236    0.524   99.406
  318.000    3.773    0.228    0.507   98.804
  318.250    3.775    0.221    0.497   98.805
  318.500    3.848    0.212    0.488   93.384
  318.750    3.849    0.215    0.473   89.770
  319.000    3.924    0.227    0.456   89.168
  319.250    3.925    0.233    0.456   94.591
  319.500    3.928    0.236    0.473   97.604
  319.750    3.929    0.248    0.482   98.207
  320.000    3.859    0.259    0.487   95.195
  320.250    3.861    0.244    0.488   93.389
  320.500    3.863    0.227    0.492   89.173
  320.750    4.011    0.216    0.485   86.764
  321.000    4.088    0.205    0.441   86.764
  321.250    4.167    0.193    0.431   90.982
  321.500    4.169    0.201    0.416   90.983
  321.750    3.945    0.235    0.418   89.176
  322.000    3.596    0.248    0.447   90.382
  322.250    3.278    0.257    0.480   90.985
  322.500    2.988    0.263    0.490   89.781
  322.750    3.103    0.265    0.504   94.601
  323.000    3.222    0.262    0.507   99.421
  323.250    3.742    0.304    0.474   98.217
  323.500    4.264    0.445    0.516   84.964
  323.750    4.952    0.507    0.611   67.495
  324.000    5.969    0.462    0.585   72.315
  324.250    6.677    0.242    0.538   80.147
  324.500    7.898    0.235    0.384   77.136
  324.750    9.698    0.240    0.342   69.305
  325.000   11.688    0.250    0.328   63.282
  325.250   14.351    0.327    0.311   61.475
  325.500   18.636    0.339    0.334   57.862
  325.750   21.638    0.333    0.337   52.441
  326.000   25.127    0.339    0.210   48.224
  326.250   27.082    0.354    0.185   44.008
  326.500   28.651    0.355    0.162   39.792
  326.750   30.312    0.354    0.199   40.395
  327.000   29.772    0.358    0.231   53.649
  327.250   27.644    0.376    0.242   58.469
  327.500   20.533    0.388    0.261   63.891
  327.750   13.895    0.321    0.273   72.928
  328.000   10.320    0.281    0.296   86.182
  328.250    9.063    0.264    0.343   95.219
  328.500    8.262    0.246    0.379   98.232
  328.750    7.817    0.240    0.400   90.401
  329.000    7.536    0.264    0.388   84.980
  329.250    7.540    0.290    0.383   81.366
  329.500    7.542    0.308    0.395   79.560
  329.750    7.546    0.310    0.408   81.970
  330.000    7.550    0.304    0.414   82.573
  330.250    7.553    0.303    0.419   81.972
  330.500    7.558    0.303    0.425   81.972
  330.750    7.421    0.299    0.411   84.383
  331.000    7.288    0.294    0.404   85.588
  331.250    6.896    0.292    0.396   90.409
  331.500    6.772    0.299    0.393   92.819
  331.750    6.775    0.282    0.396   97.036
  332.000    6.779    0.264    0.407   98.844
  332.250    6.909    0.246    0.422   94.628
  332.500    7.175    0.245    0.402   91.014
  332.750    7.313    0.230    0.382   90.412
  333.000    7.453    0.224    0.372   93.425
  333.250    7.459    0.214    0.384   97.040
  333.500    7.461    0.205    0.397   98.246
  333.750    7.465    0.214    0.410   92.223
  334.000    7.469    0.252    0.416   88.006
  334.250    7.335    0.282    0.410   85.598
  334.500    7.476    0.302    0.413   84.394
  334.750    7.342    0.313    0.414   94.635
  335.000    7.210    0.225    0.408  107.286
  335.250    6.822    0.201    0.411  110.902
  335.500    6.454    0.170    0.428  105.481
  335.750    5.669    0.167    0.440   98.855
  336.000    5.362    0.199    0.440  104.880
  336.250    4.980    0.213    0.458  111.507
  336.500    4.625    0.222    0.473  115.122
  336.750    4.376    0.227    0.490  116.327
  337.000    4.141    0.225    0.507  117.533
  337.250    3.917    0.225    0.505  122.353
  337.500    3.706    0.231    0.494  122.956
  337.750    3.506    0.233    0.509  116.933
  338.000    3.380    0.237    0.521  113.922
  338.250    3.381    0.253    0.522  115.730
  338.500    3.645    0.263    0.526  118.742
  338.750    4.002    0.268    0.510  115.128
  339.000    4.562    0.274    0.468  103.683
  339.250    5.498    0.251    0.443   92.841
  339.500    6.266    0.224    0.422   87.420
  339.750    6.881    0.195    0.422   95.854
  340.000    7.557    0.235    0.456   98.265
  340.250    7.702    0.257    0.485   82.000
  340.500    7.851    0.285    0.380   69.953
  340.750    7.711    0.325    0.368   52.483
  341.000    7.713    0.354    0.368   41.038
  341.250    7.575    0.354    0.373   39.834
  341.500    7.578    0.356    0.379   48.871
  341.750    7.583    0.345    0.383   56.703
  342.000    7.587    0.340    0.389   62.126
  342.250    7.590    0.340    0.385   64.536
  342.500    7.736    0.339    0.380   60.922
  342.750    7.739    0.332    0.370   59.116
  343.000    7.889    0.328    0.396   63.936
  343.250    8.041    0.328    0.417   65.744
  343.500    8.045    0.313    0.419   61.528
  343.750    8.050    0.300    0.413   58.516
  344.000    7.905    0.305    0.390   57.312
  344.250    7.762    0.317    0.382   56.711
  344.500    7.623    0.316    0.388   56.109
  344.750    7.487    0.315    0.380   55.508
  345.000    7.490    0.322    0.378   57.315
  345.250    7.355    0.328    0.393   60.328
  345.500    7.224    0.322    0.407   60.931
  345.750    7.227    0.317    0.391   67.558
  346.000    7.230    0.308    0.394   69.969
  346.250    7.234    0.319    0.406   69.367
  346.500    7.237    0.345    0.418   62.741
  346.750    7.240    0.355    0.410   57.320
  347.000    7.244    0.360    0.399   59.730
  347.250    7.384    0.354    0.394   62.141
  347.500    7.387    0.342    0.394   64.551
  347.750    7.530    0.330    0.411   67.564
  348.000    7.676    0.322    0.403   68.167
  348.250    7.823    0.308    0.391   74.192
  348.500    7.974    0.299    0.386   75.397
  348.750    8.281    0.288    0.386   74.796
  349.000    8.599    0.276    0.386   76.604
  349.250    8.929    0.269    0.384   75.400
  349.500    9.273    0.256    0.403   72.991
  349.750    9.454    0.188    0.409   67.570
  350.000    9.456    0.145    0.337   64.558
  350.250    9.461    0.120    0.296   68.776
  350.500    9.291    0.169    0.339   80.222
  350.750    8.956    0.197    0.378   83.837
  351.000    8.474    0.225    0.403   78.417
  351.250    8.167    0.264    0.417   76.007
  351.500    7.873    0.286    0.416   86.249
  351.750    7.732    0.268    0.413   90.467
  352.000    7.735    0.258    0.419   94.684
  352.250    7.456    0.269    0.436   98.902
  352.500    7.187    0.270    0.434  101.915
  352.750    7.058    0.273    0.428  103.120
  353.000    7.062    0.275    0.426  100.109
  353.250    7.198    0.288    0.440   89.266
  353.500    7.337    0.315    0.453   77.219
  353.750    7.479    0.338    0.442   66.376
  354.000    7.622    0.351    0.428   76.618
  354.250    7.626    0.334    0.423   89.872
  354.500    7.489    0.316    0.417   93.487
  354.750    7.493    0.293    0.413   97.704
  355.000    7.496    0.265    0.413  100.717
  355.250    7.500    0.256    0.419  102.525
  355.500    7.366    0.260    0.432   97.104
  355.750    7.233    0.260    0.452   94.695
  356.000    7.103    0.258    0.463   90.479
  356.250    6.847    0.262    0.470   88.070
  356.500    6.724    0.271    0.471   85.662
  356.750    6.726    0.279    0.496   85.662
  357.000    6.605    0.283    0.506   88.675
  357.250    6.488    0.282    0.483   92.290
  357.500    6.612    0.285    0.477   94.098
  357.750    6.866    0.291    0.468   95.906
  358.000    7.130    0.305    0.454   96.509
  358.250    7.544    0.309    0.460   94.100
