~VERSION INFORMATION
 VERS.                 2.0:   CWLS LOG ASCII STANDARD -VERSION 2.0
 WRAP.                  NO:   ONE LINE PER DEPTH STEP
~WELL INFORMATION BLOCK
#MNEM.UNIT           DATA                    DESCRIPTION OF MNEMONIC
#---------    -------------------            -------------------------------
# Generated from Intellog Unique Number	CS_67_68/WELL/2175
WELL.         MURPHY ET AL SANDHILL          : Well_name    - WELL
LOC .         00/07-07-067-16W4/0            : Location     - LOCATION
UWI .         00/07-07-067-16W4/0            : Uwi          - UNIQUE WELL ID
ENTR.         SP                             : Entered      - ENTERED BY
SRVC.         SCHLUMBERGER                   : Scn          - SERVICE COMPANY
STRT.M        384.048                        : top_depth    - START DEPTH
STOP.M        550.298                        : bot_depth    - STOP DEPTH
STEP.M        0.25                           : increment    - STEP LENGTH
 NULL. -999.2500:NULL Value
~CURVE INFORMATION BLOCK
#MNEM UNIT       ERCB CURVE CODE    CURVE DESCRIPTION
#-----------   ------------------   ----------------------------------
DEPT.M        00 001 00 00         : DEPTH        - DEPTH
CALI.MM       00 280 01 00         : CAL          - CALIPER
GR  .API      00 310 00 00         : GR           - GAMMA RAY
DPHI.V/V      00 890 00 00         : PHID         - DENSITY POROSITY (SANDSTONE)
NPHI.V/V      00 330 00 00         : PHIN         - NEUTRON POROSITY (SANDSTONE)
ILD .OHMM     00 120 00 00         : RESD         - DEEP RESISTIVITY (DIL)
~PARAMETER INFORMATION
#MNEM.UNIT           DATA             DESCRIPTION OF MNEMONIC
#---------         -----------     ------------------------------
GL  .M        609.905              : gl           - GROUND LEVEL ELEVATION
EREF.M        612.953              : kb           - ELEVATION OF DEPTH REFERENCE
DATM.M        612.953              : datum        - DATUM ELEVATION
TDD .M        574.853              : tdd          - TOTAL DEPTH DRILLER
RUN .         ONE                  : Run          - RUN NUMBER
ENG .         BILL                 : Engineer     - RECORDING ENGINEER
WIT .         JIM                  : Witness      - WITNESSED BY
MUD .         GEL                  : Mud_type     - MUD TYPE
MATR.         SANDSTONE            : Logunit      - NEUTRON MATRIX
TMAX.C        14.4444              : BHT          - MAXIMUM RECORDED TEMPERATURE
BHTD.M        574.853              : BHTDEP       - MAXIMUM RECORDED TEMPERATURE
MATR.         1                    : LOGUNIT      - NEUTRON MATRIX
RMT .C        25                   : MDTP         - TEMPERATURE OF MUD
NEUT.         1                    : NEUTRON      - NEUTRON TYPE
RESI.         0                    : RESIST       - RESISTIVITY TYPE
RMC .OHMM     0.25                 : RMC          - RESISTIVITY OF MUD CAKE
RMF .OHMM     0.25                 : RMF          - RESISTIVITY OF MUD FILTRATE
SUFT.C        15                   : SUFT         - SURFACE TEMPERATURE
~A  DEPTH      CAL       GR     PHID     PHIN     RESD
# ...
  457.048  161.173   85.618    0.224    0.415    2.181
  457.298  160.715   85.619    0.216    0.413    2.126
  457.548  160.651   82.642    0.233    0.418    2.099
  457.798  161.020   81.073    0.249    0.419    2.078
  458.048  162.015   80.101    0.253    0.409    2.069
  458.298  163.153   78.465    0.237    0.407    2.070
  458.548  164.030   82.431    0.234    0.413    2.079
  458.798  163.685   87.864    0.224    0.414    2.100
  459.048  163.990   96.713    0.206    0.406    2.132
  459.298  165.994  100.870    0.193    0.416    2.177
  459.548  174.644  101.861    0.212    0.433    2.282
  459.798  181.110   92.123    0.235    0.448    2.336
  460.048  180.608   85.109    0.246    0.456    2.372
  460.298  164.856   80.337    0.255    0.451    2.334
  460.548  158.695   79.762    0.247    0.437    2.241
  460.798  157.009   84.161    0.246    0.429    2.115
  461.048  155.896   85.973    0.254    0.421    2.020
  461.298  155.422   81.838    0.255    0.420    1.988
  461.548  155.924   79.781    0.242    0.410    2.014
  461.798  157.169   78.718    0.229    0.403    2.058
  462.048  159.114   78.782    0.218    0.404    2.113
  462.298  159.485   78.601    0.229    0.425    2.162
  462.548  159.165   76.741    0.222    0.420    2.195
  462.798  158.726   73.773    0.161    0.367    2.261
  463.048  158.572   71.618    0.120    0.338    2.339
  463.298  158.584   72.995    0.134    0.323    2.542
  463.548  158.502   74.461    0.170    0.373    2.840
  463.798  158.088   75.367    0.197    0.408    3.144
  464.048  157.610   74.404    0.222    0.427    3.034
  464.298  156.836   73.873    0.237    0.429    2.770
  464.548  156.213   73.835    0.244    0.428    2.348
  464.798  155.698   74.667    0.248    0.423    2.153
  465.048  155.348   76.371    0.250    0.416    1.969
  465.298  155.123   77.588    0.261    0.408    1.843
  465.548  154.906   78.154    0.258    0.416    1.780
  465.798  154.925   76.665    0.251    0.425    1.771
  466.048  155.271   73.782    0.266    0.432    1.774
  466.298  155.875   71.193    0.283    0.437    1.798
  466.548  156.347   70.304    0.277    0.448    1.924
  466.798  156.776   71.822    0.260    0.462    2.085
  467.048  157.327   75.574    0.261    0.473    2.297
  467.298  158.161   78.215    0.262    0.472    2.529
  467.548  159.067   79.515    0.261    0.465    2.697
  467.798  160.265   79.229    0.274    0.461    2.662
  468.048  161.589   78.665    0.273    0.458    2.530
  468.298  163.035   78.470    0.258    0.455    2.333
  468.548  164.252   78.223    0.252    0.453    2.187
  468.798  164.843   77.085    0.253    0.455    2.061
  469.048  164.826   77.395    0.255    0.448    2.002
  469.298  164.378   81.628    0.265    0.433    2.002
  469.548  164.339   85.359    0.230    0.415    2.059
  469.798  164.319   90.294    0.196    0.409    2.203
  470.048  163.809   95.094    0.162    0.418    2.387
  470.298  163.564  100.216    0.145    0.422    2.663
  470.548  163.309  102.344    0.151    0.415    2.887
  470.798  162.861   98.812    0.156    0.410    3.171
  471.048  162.090   95.172    0.146    0.408    3.383
  471.298  161.950   94.998    0.135    0.399    3.495
  471.548  162.236   96.334    0.129    0.407    3.527
  471.798  162.594   96.733    0.140    0.416    3.512
  472.048  162.653   96.875    0.153    0.417    3.547
  472.298  162.631   95.180    0.154    0.416    3.610
  472.548  162.428   92.928    0.156    0.409    3.687
  472.798  162.137   92.047    0.162    0.410    3.736
  473.048  162.217   93.083    0.144    0.404    3.785
  473.298  163.664   95.197    0.137    0.402    3.791
  473.548  164.425   96.932    0.129    0.413    3.760
  473.798  164.758   97.439    0.143    0.426    3.705
  474.048  164.572   99.493    0.156    0.433    3.549
  474.298  164.118  102.851    0.163    0.439    3.569
  474.548  163.769  103.488    0.137    0.446    3.356
  474.798  163.906  102.740    0.128    0.437    3.112
  475.048  164.194  106.826    0.145    0.429    2.932
  475.298  164.430  110.739    0.136    0.433    2.904
  475.548  164.648  114.957    0.155    0.435    3.086
  475.798  164.503  118.251    0.167    0.428    3.339
  476.048  164.476  118.282    0.156    0.429    3.564
  476.298  164.676  111.559    0.162    0.434    3.706
  476.548  164.426  107.004    0.156    0.430    3.832
  476.798  163.710  103.443    0.153    0.421    3.868
  477.048  163.094  102.527    0.158    0.419    3.821
  477.298  163.197  104.082    0.143    0.441    3.730
  477.548  164.476  106.323    0.146    0.457    3.723
  477.798  165.774  108.034    0.150    0.458    3.757
  478.048  166.952  109.343    0.152    0.455    3.826
  478.298  168.049  109.506    0.157    0.457    3.904
  478.548  168.402  109.645    0.139    0.443    4.012
  478.798  168.660  107.982    0.127    0.424    4.062
  479.048  168.867  104.721    0.127    0.421    4.127
  479.298  168.006  102.590    0.138    0.419    4.222
  479.548  166.851  100.785    0.120    0.420    4.294
  479.798  165.218   99.690    0.111    0.428    4.413
  480.048  163.610  100.853    0.107    0.436    4.529
  480.298  162.844   98.154    0.103    0.393    4.674
  480.548  162.654   95.155    0.082    0.374    4.727
  480.798  163.027  100.152    0.070    0.396    4.559
  481.048  163.122  104.852    0.112    0.430    4.360
  481.298  163.237  107.423    0.151    0.443    4.184
  481.548  163.420  107.196    0.141    0.449    3.936
  481.798  163.393  107.061    0.129    0.455    3.777
  482.048  163.445  105.071    0.122    0.448    3.633
  482.298  163.336   96.737    0.115    0.422    3.502
  482.548  163.349   91.204    0.111    0.407    3.747
  482.798  163.259   89.119    0.118    0.429    3.296
  483.048  163.059   86.568    0.143    0.436    3.270
  483.298  162.677   87.967    0.132    0.423    3.269
  483.548  162.070   90.949    0.115    0.410    3.302
  483.798  162.019   95.814    0.110    0.411    3.357
  484.048  161.586   97.985    0.122    0.422    3.405
  484.298  161.169   99.193    0.150    0.428    3.454
  484.548  160.867  101.095    0.154    0.425    3.492
  484.798  160.828  102.588    0.159    0.413    3.517
  485.048  160.882  103.474    0.160    0.404    3.562
  485.298  161.373  101.738    0.148    0.398    3.602
  485.548  162.051   99.059    0.152    0.400    3.634
  485.798  162.121  100.077    0.158    0.408    3.660
  486.048  162.634   98.450    0.160    0.419    3.672
  486.298  162.747   98.683    0.145    0.427    3.682
  486.548  162.893   97.731    0.145    0.432    3.672
  486.798  162.424   95.777    0.154    0.425    3.625
  487.048  162.078   93.973    0.158    0.416    3.528
  487.298  162.166   91.887    0.167    0.419    3.372
  487.548  162.405   90.552    0.178    0.432    3.229
  487.798  162.838   89.853    0.177    0.430    3.080
  488.048  163.294   89.940    0.185    0.428    2.907
  488.298  163.505   89.572    0.199    0.435    2.634
  488.548  163.350   88.008    0.187    0.441    2.464
  488.798  163.101   84.086    0.199    0.396    2.408
  489.048  162.817   76.249    0.208    0.306    3.690
  489.298  162.929   69.562    0.171    0.262    4.751
  489.548  163.334   65.080    0.126    0.243    5.803
  489.798  163.602   62.801    0.082    0.228    4.922
  490.048  163.834   62.963    0.089    0.249    3.142
  490.298  164.069   66.113    0.164    0.322    2.588
  490.548  164.078   69.513    0.199    0.360    2.359
  490.798  164.027   70.396    0.222    0.396    2.336
  491.048  164.251   70.716    0.161    0.391    2.814
  491.298  163.942   71.337    0.087    0.339    3.658
  491.548  163.323   74.059    0.064    0.303    4.950
  491.798  162.828   76.642    0.053    0.274    6.476
  492.048  162.881   77.308    0.060    0.272    7.665
  492.298  162.871   74.452    0.079    0.302    8.055
  492.548  163.326   76.945    0.079    0.304    7.571
  492.798  163.476   83.317    0.067    0.309    5.916
  493.048  163.074   89.369    0.093    0.341    4.731
  493.298  162.218   91.806    0.143    0.380    3.882
