~VERSION INFORMATION
 VERS.                 2.0:   CWLS LOG ASCII STANDARD -VERSION 2.0
 WRAP.                  NO:   ONE LINE PER DEPTH STEP
~WELL INFORMATION BLOCK
#MNEM.UNIT           DATA                    DESCRIPTION OF MNEMONIC
#---------    -------------------            -------------------------------
# Generated from Intellog Unique Number	CS_73_76/WELL/958
WELL.         DOME PETROLEUM LIMITED         : Well_name    - WELL
LOC .         00/05-12-075-05W4/0            : Location     - LOCATION
UWI .         00/05-12-075-05W4/0            : Uwi          - UNIQUE WELL ID
ENTR.         SP                             : Entered      - ENTERED BY
SRVC.         SCHLUMBERGER                   : Scn          - SERVICE COMPANY
STRT.M        200                            : top_depth    - START DEPTH
STOP.M        410                            : bot_depth    - STOP DEPTH
STEP.M        0.25                           : increment    - STEP LENGTH
 NULL. -999.2500:NULL Value
~CURVE INFORMATION BLOCK
#MNEM UNIT       ERCB CURVE CODE    CURVE DESCRIPTION
#-----------   ------------------   ----------------------------------
DEPT.M        00 001 00 00         : DEPTH        - DEPTH
GR  .API      00 310 00 00         : GR           - GAMMA RAY
NPHI.V/V      00 330 00 00         : PHIN         - NEUTRON POROSITY (LIMESTONE)
DPHI.V/V      00 890 00 00         : PHID         - DENSITY POROSITY (LIMESTONE)
ILD .OHMM     00 120 00 00         : RESD         - DEEP RESISTIVITY (DIL)
~PARAMETER INFORMATION
#MNEM.UNIT           DATA             DESCRIPTION OF MNEMONIC
#---------         -----------     ------------------------------
GL  .M        609.08               : gl           - GROUND LEVEL ELEVATION
EREF.M        612.85               : kb           - ELEVATION OF DEPTH REFERENCE
DATM.M        609.08               : datum        - DATUM ELEVATION
TDD .M        415                  : tdd          - TOTAL DEPTH DRILLER
RUN .         ONE                  : Run          - RUN NUMBER
ENG .         BILL                 : Engineer     - RECORDING ENGINEER
WIT .         JIM                  : Witness      - WITNESSED BY
MUD .         GEL                  : Mud_type     - MUD TYPE
MATR.         LIMESTONE            : Logunit      - NEUTRON MATRIX
TMAX.C        19                   : BHT          - MAXIMUM RECORDED TEMPERATURE
BHTD.M        415                  : BHTDEP       - MAXIMUM RECORDED TEMPERATURE
MATR.         1                    : LOGUNIT      - NEUTRON MATRIX
RMT .C        25                   : MDTP         - TEMPERATURE OF MUD
NEUT.         1                    : NEUTRON      - NEUTRON TYPE
RESI.         0                    : RESIST       - RESISTIVITY TYPE
RMC .OHMM     0.25                 : RMC          - RESISTIVITY OF MUD CAKE
RMF .OHMM     0.25                 : RMF          - RESISTIVITY OF MUD FILTRATE
SUFT.C        15                   : SUFT         - SURFACE TEMPERATURE
~A  DEPTH       GR     PHIN     PHID     RESD
# ...
  243.500   72.563    0.376    0.292   13.871
  243.750   75.606    0.381    0.283   13.868
  244.000   79.258    0.386    0.276   14.128
  244.250   69.553    0.381    0.278   15.228
  244.500   62.273    0.375    0.299   15.514
  244.750   53.779    0.373    0.314   16.411
  245.000   49.537    0.363    0.333   17.036
  245.250   47.116    0.318    0.351   17.034
  245.500   51.375    0.337    0.340   16.712
  245.750   52.599    0.372    0.327   16.090
  246.000   50.180    0.377    0.320   15.491
  246.250   55.047    0.371    0.293   14.364
  246.500   58.699    0.365    0.262   13.319
  246.750   64.172    0.344    0.273   12.585
  247.000   78.148    0.368    0.265   11.029
  247.250   90.303    0.399    0.254   10.227
  247.500   86.668    0.393    0.280   10.419
  247.750   81.210    0.410    0.304   10.614
  248.000   76.361    0.424    0.319   11.018
  248.250   81.229    0.411    0.301   11.015
  248.500   89.739    0.389    0.292   10.408
  248.750  102.503    0.389    0.278    9.651
  249.000  109.798    0.394    0.245    8.782
  249.250  115.879    0.404    0.231    8.143
  249.500  118.316    0.408    0.232    7.840
  249.750  117.112    0.403    0.233    7.838
  250.000  113.477    0.394    0.222    7.547
  250.250  109.843    0.406    0.219    7.131
  250.500  108.638    0.439    0.218    6.866
  250.750  108.036    0.470    0.244    6.366
  251.000  107.439    0.471    0.261    6.129
  251.250  106.838    0.452    0.238    6.128
  251.500  106.847    0.439    0.241    6.242
  251.750  107.465    0.447    0.261    6.360
  252.000  105.043    0.465    0.271    6.602
  252.250  100.195    0.477    0.283    6.726
  252.500   93.523    0.452    0.296    6.852
  252.750   86.849    0.426    0.307    6.981
  253.000   92.932    0.415    0.293    6.979
  253.250   99.621    0.405    0.278    6.977
  253.500  101.452    0.405    0.280    6.976
  253.750   99.639    0.416    0.288    7.106
  254.000  100.861    0.407    0.280    7.239
  254.250  103.301    0.414    0.266    7.238
  254.500  103.309    0.417    0.246    7.236
  254.750  100.891    0.420    0.236    7.100
  255.000  100.288    0.421    0.242    6.836
  255.250   97.869    0.438    0.252    6.338
  255.500   86.339    0.439    0.257    5.989
  255.750   71.772    0.423    0.279    5.766
  256.000   63.886    0.413    0.319    5.657
  256.250   66.931    0.401    0.335    5.656
  256.500   74.834    0.394    0.305    5.654
  256.750   86.989    0.394    0.272    5.760
  257.000   96.108    0.444    0.252    5.759
  257.250   94.902    0.490    0.253    5.866
  257.500   92.481    0.504    0.251    5.977
  257.750   91.276    0.512    0.245    6.089
  258.000   88.854    0.435    0.289    6.321
  258.250   80.361    0.418    0.313    6.562
  258.500   81.586    0.406    0.301    6.684
  258.750   85.236    0.405    0.285    6.810
  259.000   87.673    0.403    0.273    6.938
  259.250   85.862    0.412    0.262    7.068
  259.500   90.124    0.421    0.252    7.066
  259.750   91.953    0.428    0.247    6.933
  260.000   90.746    0.433    0.253    6.931
  260.250   85.288    0.441    0.257    6.930
  260.500   79.832    0.439    0.262    7.059
  260.750   74.982    0.414    0.267    7.058
  261.000   75.600    0.381    0.256    7.190
  261.250   81.073    0.368    0.234    7.054
  261.500   84.117    0.391    0.224    7.053
  261.750   81.698    0.403    0.221    6.790
  262.000   76.846    0.417    0.249    6.538
  262.250   64.709    0.434    0.277    6.295
  262.500   62.896    0.427    0.308    6.060
  262.750   63.512    0.419    0.309    5.836
  263.000   71.417    0.419    0.313    5.944
  263.250   76.889    0.408    0.287    6.171
  263.500   71.433    0.403    0.270    6.652
  263.750   54.438    0.441    0.249    8.028
  264.000   42.907    0.477    0.208    9.688
  264.250   36.236    0.356    0.122   10.641
  264.500   35.637    0.210    0.056   11.257
  264.750   43.543    0.232    0.087   11.908
  265.000   49.623    0.282    0.271   10.835
  265.250   53.274    0.347    0.311    9.145
  265.500   53.894    0.414    0.331    7.864
  265.750   53.899    0.417    0.344    7.292
  266.000   58.159    0.399    0.343    6.762
  266.250   58.774    0.393    0.340    6.270
  266.500   52.105    0.406    0.337    6.037
  266.750   47.253    0.414    0.328    5.812
  267.000   49.693    0.394    0.324    5.921
  267.250   51.522    0.386    0.316    6.033
  267.500   53.963    0.401    0.322    6.145
  267.750   54.575    0.413    0.330    6.144
  268.000   55.195    0.415    0.319    5.805
  268.250   53.986    0.407    0.309    5.589
  268.500   50.958    0.414    0.300    5.381
  268.750   46.720    0.419    0.295    5.280
  269.000   46.116    0.411    0.294    4.989
  269.250   51.592    0.400    0.283    4.803
  269.500   57.067    0.397    0.293    4.712
  269.750   59.503    0.391    0.316    4.537
  270.000   61.335    0.405    0.327    4.369
  270.250   63.773    0.415    0.321    4.368
  270.500   64.995    0.406    0.310    4.367
  270.750   61.360    0.405    0.304    4.284
  271.000   55.905    0.415    0.315    4.203
  271.250   50.451    0.405    0.326    4.047
  271.500   49.242    0.392    0.329    3.824
  271.750   46.213    0.387    0.333    3.613
  272.000   48.047    0.387    0.337    3.545
  272.250   49.873    0.378    0.329    3.544
  272.500   54.134    0.397    0.305    3.610
  272.750   56.572    0.438    0.290    3.748
  273.000   55.974    0.448    0.293    3.965
  273.250   55.374    0.439    0.309    4.039
  273.500   55.990    0.420    0.327    4.114
  273.750   54.785    0.426    0.338    4.114
  274.000   51.756    0.432    0.332    3.961
  274.250   46.907    0.425    0.343    3.742
  274.500   45.100    0.418    0.361    3.672
  274.750   45.105    0.416    0.373    3.469
  275.000   46.327    0.428    0.384    3.404
  275.250   46.333    0.481    0.394    3.277
  275.500   43.913    0.498    0.377    3.155
  275.750   46.352    0.464    0.370    3.155
  276.000   51.828    0.426    0.363    3.095
  276.250   54.264    0.410    0.361    3.094
  276.500   48.810    0.407    0.356    3.094
  276.750   46.993    0.404    0.350    3.093
  277.000   48.825    0.404    0.346    3.034
  277.250   51.267    0.410    0.341    3.091
  277.500   51.274    0.395    0.345    3.033
  277.750   51.886    0.383    0.360    2.975
  278.000   51.896    0.393    0.371    2.919
  278.250   54.940    0.406    0.362    2.918
  278.500   57.379    0.415    0.349    2.863
  278.750   57.387    0.428    0.352    2.863
  279.000   56.180    0.439    0.356    2.862
  279.250   56.799    0.430    0.358    2.808
  279.500   57.413    0.427    0.356    2.807
  279.750   56.814    0.433    0.355    2.806
  280.000   54.395    0.441    0.355    2.754
  280.250   51.975    0.450    0.358    2.753
  280.500   53.198    0.454    0.352    2.701
  280.750   54.421    0.455    0.348    2.650
  281.000   51.393    0.446    0.351    2.600
  281.250   50.187    0.441    0.358    2.599
  281.500   52.018    0.432    0.361    2.550
  281.750   54.457    0.422    0.357    2.549
  282.000   55.676    0.438    0.359    2.501
  282.250   53.865    0.460    0.361    2.500
  282.500   54.480    0.447    0.354    2.453
  282.750   55.704    0.435    0.352    2.453
  283.000   55.105    0.438    0.350    2.407
  283.250   56.936    0.435    0.347    2.406
  283.500   60.592    0.428    0.350    2.361
  283.750   61.813    0.429    0.342    2.360
  284.000   62.426    0.434    0.335    2.272
  284.250   63.043    0.440    0.330    2.229
  284.500   61.836    0.456    0.326    2.106
  284.750   56.989    0.462    0.330    2.028
  285.000   53.961    0.452    0.341    2.028
  285.250   52.752    0.441    0.347    1.952
  285.500   50.941    0.435    0.347    1.952
  285.750   55.808    0.436    0.359    1.951
  286.000   61.891    0.443    0.343    1.988
  286.250   64.326    0.453    0.332    1.987
  286.500   64.942    0.461    0.327    1.987
  286.750   63.736    0.468    0.326    1.949
