~VERSION INFORMATION
 VERS.                 2.0:   CWLS LOG ASCII STANDARD -VERSION 2.0
 WRAP.                  NO:   ONE LINE PER DEPTH STEP
~WELL INFORMATION BLOCK
#MNEM.UNIT           DATA                    DESCRIPTION OF MNEMONIC
#---------    -------------------            -------------------------------
# Generated from Intellog Unique Number	CS_77_79/WELL/881
WELL.         DOME PETROLEUM LIMITED         : Well_name    - WELL
LOC .         00/06-24-077-16W4/0            : Location     - LOCATION
UWI .         00/06-24-077-16W4/0            : Uwi          - UNIQUE WELL ID
ENTR.         SP                             : Entered      - ENTERED BY
SRVC.         SCHLUMBERGER                   : Scn          - SERVICE COMPANY
STRT.M        260                            : top_depth    - START DEPTH
STOP.M        485                            : bot_depth    - STOP DEPTH
STEP.M        0.25                           : increment    - STEP LENGTH
 NULL. -999.2500:NULL Value
~CURVE INFORMATION BLOCK
#MNEM UNIT       ERCB CURVE CODE    CURVE DESCRIPTION
#-----------   ------------------   ----------------------------------
DEPT.M        00 001 00 00         : DEPTH        - DEPTH
ILD .OHMM     00 120 00 00         : RESD         - DEEP RESISTIVITY (DIL)
DPHI.V/V      00 890 00 00         : PHID         - DENSITY POROSITY (LIMESTONE)
NPHI.V/V      00 330 00 00         : PHIN         - NEUTRON POROSITY (LIMESTONE)
GR  .API      00 310 00 00         : GR           - GAMMA RAY
~PARAMETER INFORMATION
#MNEM.UNIT           DATA             DESCRIPTION OF MNEMONIC
#---------         -----------     ------------------------------
GL  .M        653.8                : gl           - GROUND LEVEL ELEVATION
EREF.M        657.6                : kb           - ELEVATION OF DEPTH REFERENCE
DATM.M        653.8                : datum        - DATUM ELEVATION
TDD .M        499                  : tdd          - TOTAL DEPTH DRILLER
RUN .         ONE                  : Run          - RUN NUMBER
ENG .         BILL                 : Engineer     - RECORDING ENGINEER
WIT .         JIM                  : Witness      - WITNESSED BY
MUD .         GEL                  : Mud_type     - MUD TYPE
MATR.         LIMESTONE            : Logunit      - NEUTRON MATRIX
TMAX.C        21                   : BHT          - MAXIMUM RECORDED TEMPERATURE
BHTD.M        499                  : BHTDEP       - MAXIMUM RECORDED TEMPERATURE
MATR.         1                    : LOGUNIT      - NEUTRON MATRIX
RMT .C        25                   : MDTP         - TEMPERATURE OF MUD
NEUT.         1                    : NEUTRON      - NEUTRON TYPE
RESI.         0                    : RESIST       - RESISTIVITY TYPE
RMC .OHMM     0.25                 : RMC          - RESISTIVITY OF MUD CAKE
RMF .OHMM     0.25                 : RMF          - RESISTIVITY OF MUD FILTRATE
SUFT.C        15                   : SUFT         - SURFACE TEMPERATURE
~A  DEPTH     RESD     PHID     PHIN       GR
# ...
  303.500   10.712    0.225    0.332   71.627
  303.750   11.769    0.177    0.311   66.818
  304.000   12.221    0.155    0.311   65.625
  304.250   12.226    0.181    0.334   68.646
  304.500    8.570    0.207    0.363   89.741
  304.750    7.663    0.241    0.384   99.389
  305.000    6.982    0.266    0.400  101.207
  305.250    6.602    0.288    0.400   92.782
  305.500    5.904    0.306    0.406   86.168
  305.750    5.688    0.288    0.412   86.781
  306.000    5.380    0.262    0.424   91.610
  306.250    5.184    0.267    0.429   96.439
  306.500    5.187    0.274    0.437  100.064
  306.750    5.386    0.279    0.445  101.278
  307.000    5.490    0.292    0.434   99.481
  307.250    5.920    0.317    0.425   92.260
  307.500    6.504    0.339    0.410   82.029
  307.750    6.881    0.332    0.407   73.005
  308.000    7.281    0.330    0.413   67.594
  308.250    6.761    0.304    0.416   66.396
  308.500    6.514    0.290    0.419   77.250
  308.750    6.395    0.276    0.413   90.515
  309.000    6.278    0.293    0.402   96.551
  309.250    6.400    0.308    0.391   95.954
  309.500    6.901    0.321    0.387   88.739
  309.750    7.581    0.338    0.392   85.733
  310.000    8.021    0.332    0.396   82.734
  310.250    8.331    0.314    0.402   81.538
  310.500    8.334    0.304    0.405   80.949
  310.750    8.032    0.303    0.411   80.955
  311.000    7.886    0.277    0.411   78.555
  311.250    7.598    0.281    0.409   77.963
  311.500    7.186    0.299    0.399   82.795
  311.750    6.925    0.307    0.386   75.573
  312.000    7.192    0.317    0.380   66.546
  312.250    7.610    0.338    0.375   58.724
  312.500    9.011    0.343    0.381   51.508
  312.750    9.899    0.334    0.384   47.298
  313.000   12.631    0.317    0.387   43.091
  313.250   14.139    0.319    0.400   51.537
  313.500   14.145    0.331    0.413   59.979
  313.750   12.885    0.336    0.427   71.436
  314.000   11.099    0.350    0.434   76.267
  314.250   10.694    0.354    0.415   72.661
  314.500   11.107    0.335    0.406   68.456
  314.750   11.534    0.328    0.387   62.440
  315.000   12.671    0.332    0.369   53.413
  315.250   14.451    0.335    0.361   51.615
  315.500   17.764    0.348    0.367   50.422
  315.750   20.257    0.363    0.373   49.832
  316.000   23.985    0.362    0.375   49.239
  316.250   28.398    0.350    0.374   48.644
  316.500   30.049    0.344    0.371   47.454
  316.750   30.630    0.333    0.367   47.459
  317.000   35.594    0.322    0.364   46.867
  317.250   39.098    0.327    0.366   46.876
  317.500   37.681    0.335    0.369   47.488
  317.750   34.326    0.347    0.372   48.102
  318.000   32.464    0.358    0.375   48.713
  318.250   30.701    0.362    0.380   49.935
  318.500   33.108    0.353    0.383   51.752
  318.750   35.030    0.340    0.385   52.361
  319.000   30.170    0.334    0.385   54.178
  319.250   26.475    0.330    0.381   55.392
  319.500   25.993    0.336    0.380   54.801
  319.750   24.585    0.342    0.379   53.004
  320.000   21.575    0.347    0.378   51.806
  320.250   20.401    0.351    0.375   51.214
  320.500   17.904    0.345    0.375   50.628
  320.750   16.006    0.337    0.376   50.036
  321.000   14.046    0.338    0.379   50.650
  321.250   12.559    0.343    0.381   51.260
  321.500   11.878    0.349    0.382   52.475
  321.750   11.025    0.352    0.382   53.086
  322.000   10.626    0.355    0.381   53.698
  322.250   10.829    0.355    0.379   54.912
  322.500   10.635    0.351    0.379   55.524
  322.750   10.638    0.347    0.380   56.133
  323.000   10.443    0.349    0.380   54.938
  323.250   10.448    0.353    0.375   51.939
  323.500   10.651    0.354    0.374   53.757
  323.750   10.654    0.349    0.374   55.570
  324.000   11.068    0.339    0.383   59.197
  324.250   11.072    0.330    0.400   60.411
  324.500   11.285    0.321    0.410   59.817
  324.750   11.289    0.311    0.420   57.418
  325.000   11.294    0.310    0.417   56.827
  325.250   11.511    0.315    0.412   56.233
  325.500   11.732    0.305    0.406   57.450
  325.750   12.186    0.305    0.401   60.472
  326.000   12.419    0.308    0.403   62.289
  326.250   12.899    0.295    0.406   61.096
  326.500   12.902    0.303    0.407   59.900
  326.750   12.670    0.310    0.412   61.113
  327.000   12.438    0.321    0.415   64.135
  327.250   12.447    0.329    0.417   67.762
  327.500   12.220    0.340    0.417   71.390
  327.750   12.224    0.350    0.416   71.999
  328.000   12.228    0.352    0.413   72.612
  328.250   12.232    0.354    0.410   71.416
  328.500   12.239    0.355    0.406   70.822
  328.750   12.243    0.339    0.405   69.629
  329.000   12.248    0.340    0.406   67.235
  329.250   12.252    0.349    0.414   66.037
  329.500   12.030    0.360    0.418   65.443
  329.750   12.034    0.362    0.419   64.249
  330.000   11.816    0.360    0.420   64.257
  330.250   11.819    0.357    0.419   64.265
  330.500   11.606    0.349    0.414   65.484
  330.750   11.610    0.329    0.413   66.093
  331.000   11.400    0.314    0.413   66.108
  331.250   11.403    0.329    0.406   65.511
  331.500   11.409    0.344    0.403   65.521
  331.750   11.412    0.352    0.403   64.328
  332.000   11.417    0.359    0.408   63.131
  332.250   11.422    0.369    0.412   61.333
  332.500   11.213    0.369    0.413   58.934
  332.750   11.222    0.365    0.414   57.742
  333.000   11.226    0.362    0.415   57.152
  333.250   11.021    0.364    0.416   57.761
  333.500   11.232    0.368    0.418   58.375
  333.750   10.822    0.373    0.419   58.382
  334.000   11.032    0.375    0.420   58.391
  334.250   11.245    0.366    0.421   59.005
  334.500   11.249    0.357    0.420   59.621
  334.750   11.684    0.343    0.427   60.230
  335.000   11.687    0.323    0.431   61.448
  335.250   11.475    0.331    0.431   62.060
  335.500   11.266    0.348    0.425   62.066
  335.750   10.858    0.355    0.417   61.476
  336.000   10.462    0.372    0.409   61.484
  336.250   10.466    0.378    0.408   62.096
  336.500   10.870    0.386    0.411   63.313
  336.750   11.503    0.383    0.420   64.526
  337.000   11.507    0.393    0.427   63.332
  337.250   10.482    0.398    0.429   61.533
  337.500   10.101    0.395    0.426   60.943
  337.750    9.918    0.388    0.418   62.759
  338.000    9.738    0.386    0.412   64.580
  338.250    9.211    0.376    0.410   65.190
  338.500    9.043    0.383    0.405   64.596
  338.750    8.878    0.388    0.413   63.403
  339.000    8.555    0.393    0.418   62.808
  339.250    8.561    0.387    0.421   61.011
  339.500    8.563    0.370    0.424   58.011
  339.750    8.729    0.356    0.428   55.008
  340.000    8.897    0.338    0.422   52.009
  340.250    9.068    0.331    0.417   50.811
  340.500    9.418    0.334    0.413   49.013
  340.750    9.599    0.334    0.407   47.819
  341.000    9.784    0.329    0.405   46.025
  341.250    9.974    0.327    0.405   45.431
  341.500    9.978    0.324    0.403   44.836
  341.750   10.171    0.327    0.401   45.451
  342.000   10.175    0.328    0.399   47.266
  342.250   10.373    0.325    0.389   50.290
  342.500   10.572    0.325    0.384   51.503
  342.750   10.378    0.328    0.385   52.118
  343.000   11.401    0.328    0.386   52.125
  343.250   11.406    0.328    0.385   51.538
  343.500   11.411    0.328    0.380   49.739
  343.750   11.415    0.329    0.378   48.540
  344.000   11.209    0.340    0.378   47.346
  344.250   11.211    0.345    0.382   47.961
  344.500   11.216    0.348    0.389   48.572
  344.750   11.012    0.356    0.391   49.787
  345.000   11.016    0.346    0.401   50.399
  345.250   10.816    0.339    0.404   50.413
  345.500   11.026    0.342    0.405   50.419
  345.750   11.031    0.328    0.397   51.037
  346.000   11.034    0.337    0.392   51.045
  346.250   11.040    0.341    0.388   51.659
  346.500   11.044    0.336    0.387   52.272
  346.750   11.047    0.336    0.388   52.883
