~VERSION INFORMATION
 VERS.                 2.0:   CWLS LOG ASCII STANDARD -VERSION 2.0
 WRAP.                  NO:   ONE LINE PER DEPTH STEP
~WELL INFORMATION BLOCK
#MNEM.UNIT           DATA                    DESCRIPTION OF MNEMONIC
#---------    -------------------            -------------------------------
# Generated from Intellog Unique Number	CW_76_78/WELL/2568
WELL.         06-25-078-25W4                 : Well_name    - WELL
LOC .         00/06-25-078-25W4/0            : Location     - LOCATION
UWI .         00/06-25-078-25W4/0            : Uwi          - UNIQUE WELL ID
ENTR.         MAX                            : Entered      - ENTERED BY
SRVC.         SCHLUMBERGER                   : Scn          - SERVICE COMPANY
STRT.M        274.32                         : top_depth    - START DEPTH
STOP.M        533.32                         : bot_depth    - STOP DEPTH
STEP.M        0.25                           : increment    - STEP LENGTH
 NULL. -999.2500:NULL Value
~CURVE INFORMATION BLOCK
#MNEM UNIT       ERCB CURVE CODE    CURVE DESCRIPTION
#-----------   ------------------   ----------------------------------
DEPT.M        00 001 00 00         : DEPTH        - DEPTH
ILD .OHMM     00 120 00 00         : RESD         - DEEP RESISTIVITY (DIL)
NPHI.V/V      00 330 00 00         : PHIN         - NEUTRON POROSITY (SANDSTONE)
DPHI.V/V      00 890 00 00         : PHID         - DENSITY POROSITY (SANDSTONE)
CALI.MM       00 280 01 00         : CAL          - CALIPER
GR  .API      00 310 00 00         : GR           - GAMMA RAY
~PARAMETER INFORMATION
#MNEM.UNIT           DATA             DESCRIPTION OF MNEMONIC
#---------         -----------     ------------------------------
GL  .M        589.483              : gl           - GROUND LEVEL ELEVATION
EREF.M        593.019              : kb           - ELEVATION OF DEPTH REFERENCE
DATM.M        589.483              : datum        - DATUM ELEVATION
TDD .M        535.534              : tdd          - TOTAL DEPTH DRILLER
RUN .         ONE                  : Run          - RUN NUMBER
ENG .         BILL                 : Engineer     - RECORDING ENGINEER
WIT .         JIM                  : Witness      - WITNESSED BY
MUD .         GEL                  : Mud_type     - MUD TYPE
MATR.         SANDSTONE            : Logunit      - NEUTRON MATRIX
TMAX.C        22.2222              : BHT          - MAXIMUM RECORDED TEMPERATURE
BHTD.M        535.534              : BHTDEP       - MAXIMUM RECORDED TEMPERATURE
RMT .C        10                   : MDTP         - TEMPERATURE OF MUD
MUDD.KG/M     9000                 : MWT          - MUD DENSITY
NEUT.         1                    : NEUTRON      - NEUTRON TYPE
RESI.         0                    : RESIST       - RESISTIVITY TYPE
RM  .OHMM     5.62                 : RM           - RESISTIVITY OF MUD
RMC .OHMM     0.25                 : RMC          - RESISTIVITY OF MUD CAKE
RMF .OHMM     5.41                 : RMF          - RESISTIVITY OF MUD FILTRATE
SUFT.C        -6.66667             : SUFT         - SURFACE TEMPERATURE
~A  DEPTH     RESD     PHIN     PHID      CAL       GR
# ...
  420.320   10.415    0.462    0.199  214.277   78.442
  420.570   10.512    0.458    0.201  214.795   78.168
  420.820   11.104    0.447    0.198  215.321   76.434
  421.070   11.794    0.433    0.192  215.850   74.697
  421.320   12.188    0.430    0.180  215.880   73.253
  421.570   12.285    0.433    0.168  215.419   72.394
  421.820   12.283    0.425    0.163  214.951   72.119
  422.070   12.084    0.431    0.167  214.989   73.896
  422.320   11.587    0.424    0.182  215.511   75.957
  422.570   10.695    0.442    0.185  217.030   79.781
  422.820   10.000    0.425    0.186  219.041   84.185
  423.070    9.801    0.437    0.190  220.062   87.714
  423.320    9.799    0.449    0.181  225.044   86.853
  423.570   10.094    0.447    0.165  231.512   82.484
  423.820   10.488    0.436    0.182  234.521   78.993
  424.070   11.178    0.420    0.182  233.066   77.553
  424.320   11.868    0.415    0.168  227.150   78.741
  424.570   12.559    0.442    0.172  212.821   78.466
  424.820   13.348    0.447    0.193  209.880   73.805
  425.070   13.742    0.425    0.193  210.904   69.730
  425.320   14.333    0.401    0.196  212.915   69.750
  425.570   15.023    0.396    0.200  213.445   71.522
  425.820   15.615    0.419    0.202  212.984   72.123
  426.070   16.305    0.432    0.214  213.018   70.391
  426.320   17.688    0.439    0.218  213.544   68.359
  426.570   18.675    0.456    0.218  213.544   66.040
  426.820   19.366    0.446    0.217  213.604   64.303
  427.070   20.550    0.433    0.203  213.631   63.739
  427.320   22.032    0.410    0.190  212.180   64.929
  427.570   24.107    0.385    0.148  211.223   63.773
  427.820   28.753    0.393    0.128  210.264   60.574
  428.070   31.915    0.314    0.106  210.294   55.036
  428.320   36.462    0.278    0.095  210.324   51.547
  428.570   39.230    0.263    0.087  209.859   49.812
  428.820   42.392    0.249    0.073  208.900   50.120
  429.070   43.083    0.258    0.077  209.433   51.310
  429.320   41.400    0.284    0.100  209.951   53.087
  429.570   36.255    0.319    0.120  209.951   54.270
  429.820   30.122    0.344    0.147  210.034   56.045
  430.070   27.252    0.377    0.171  210.545   58.990
  430.320   24.877    0.386    0.157  211.074   61.055
  430.570   23.095    0.380    0.143  211.596   62.240
  430.820   22.302    0.409    0.168  212.125   63.430
  431.070   22.201    0.424    0.198  212.152   63.745
  431.320   21.803    0.433    0.201  212.681   64.343
  431.570   21.010    0.433    0.197  212.711   65.238
  431.820   20.118    0.433    0.188  212.749   66.723
  432.070   18.831    0.419    0.176  213.271   67.616
  432.320   18.235    0.407    0.167  213.301   67.634
  432.570   17.937    0.392    0.154  213.831   66.779
  432.820   17.638    0.379    0.139  213.857   64.752
  433.070   17.043    0.361    0.133  213.899   64.766
  433.320   16.448    0.356    0.134  213.926   66.833
  433.570   15.654    0.382    0.153  212.474   72.992
  433.820   15.158    0.414    0.169  211.511   78.568
  434.070   14.464    0.432    0.169  211.541   77.416
  434.320   14.067    0.442    0.170  211.084   75.095
  434.570   13.669    0.429    0.170  209.621   75.698
  434.820   13.469    0.411    0.158  208.174   76.300
  435.070   13.270    0.392    0.145  209.686   76.323
  435.320   13.070    0.397    0.153  212.695   76.343
  435.570   12.771    0.419    0.173  212.718   76.941
  435.820   12.669    0.423    0.174  212.260   78.714
  436.070   12.471    0.428    0.173  210.805   79.904
  436.320   12.370    0.435    0.181  210.340   81.094
  436.570   12.368    0.443    0.189  212.847   81.696
  436.820   12.368    0.458    0.186  213.867   80.839
  437.070   12.363    0.462    0.173  213.403   79.100
  437.320   12.462    0.445    0.166  212.446   77.949
  437.570   12.459    0.442    0.171  212.972   78.846
  437.820   12.457    0.409    0.170  214.991   83.838
  438.070   12.555    0.436    0.160  216.004   82.683
  438.320   12.553    0.457    0.160  215.048   79.777
  438.570   12.551    0.444    0.165  214.583   78.043
  438.820   12.351    0.431    0.178  214.613   78.648
  439.070   12.250    0.418    0.176  214.647   79.835
  439.320   12.050    0.415    0.171  214.685   81.021
  439.570   12.049    0.443    0.179  214.213   81.630
  439.820   12.343    0.451    0.179  214.739   79.307
  440.070   12.836    0.442    0.176  215.268   77.275
  440.320   13.230    0.431    0.175  215.794   77.005
  440.570   13.425    0.416    0.172  215.333   77.608
  440.820   13.127    0.413    0.181  215.363   77.921
  441.070   12.829    0.407    0.180  216.883   79.104
  441.320   12.431    0.403    0.171  216.913   79.711
  441.570   12.034    0.419    0.173  216.448   78.557
  441.820   11.834    0.426    0.175  216.479   75.361
  442.070   11.733    0.424    0.177  217.004   75.379
  442.320   11.731    0.410    0.174  217.035   77.153
  442.570   11.729    0.401    0.168  215.579   77.756
  442.820   11.727    0.397    0.164  210.666   76.314
  443.070   11.923    0.425    0.167  208.715   74.281
  443.320   12.119    0.438    0.174  208.746   74.013
  443.570   12.611    0.435    0.170  211.252   73.444
  443.820   13.104    0.415    0.170  212.772   69.366
  444.070   13.992    0.399    0.170  212.798   66.459
  444.320   15.177    0.395    0.173  212.337   66.192
  444.570   17.944    0.396    0.177  212.390   64.747
  444.820   21.898    0.392    0.190  211.903   62.716
  445.070   24.072    0.393    0.196  211.442   63.906
  445.320   26.443    0.398    0.197  211.469   65.386
  445.570   27.628    0.401    0.171  212.497   65.694
  445.820   29.802    0.387    0.154  213.022   64.542
  446.070   34.943    0.361    0.116  213.548   61.344
  446.320   37.709    0.320    0.056  214.077   56.685
  446.570   39.587    0.270    0.026  212.630   53.196
  446.820   39.090    0.268    0.031  211.662   54.091
  447.070   33.946    0.298    0.051  210.698   56.741
  447.320   24.154    0.325    0.067  211.719   60.268
  447.570   18.613    0.363    0.096  215.220   64.965
  447.820   16.436    0.392    0.127  217.733   69.376
  448.070   14.753    0.400    0.160  217.764   68.519
  448.320   13.663    0.396    0.161  217.299   68.240
  448.570   12.969    0.395    0.154  216.830   68.550
  448.820   12.571    0.414    0.145  216.861   68.573
  449.070   12.372    0.415    0.149  217.390   70.051
  449.320   12.372    0.409    0.152  217.424   74.745
  449.570   12.269    0.413    0.155  217.451   82.368
  449.820   12.069    0.404    0.154  217.481   84.728
  450.070   12.265    0.404    0.152  219.005   83.576
  450.320   13.055    0.431    0.149  220.517   75.991
  450.570   15.129    0.434    0.135  216.594   70.745
  450.820   20.764    0.409    0.118  215.131   64.915
  451.070   25.509    0.382    0.109  215.165   61.723
  451.320   28.969    0.372    0.110  214.205   61.736
  451.570   27.780    0.355    0.109  215.725   63.801
  451.820   25.306    0.350    0.115  217.740   67.623
  452.070   22.337    0.362    0.134  218.265   71.148
  452.320   20.258    0.350    0.130  217.804   78.478
  452.570   18.377    0.366    0.135  218.330   81.423
  452.820   17.090    0.351    0.140  218.855   83.778
  453.070   16.198    0.363    0.141  219.872   80.584
  453.320   15.405    0.381    0.149  220.402   80.602
  453.570   14.612    0.380    0.149  220.935   82.664
  453.820   14.214    0.384    0.145  221.952   88.243
  454.070   14.707    0.404    0.140  223.471   88.844
  454.320   15.595    0.418    0.139  223.494   85.352
  454.570   16.582    0.421    0.134  222.047   78.352
  454.820   18.064    0.395    0.114  218.615   73.399
  455.070   19.941    0.374    0.122  217.647   70.789
  455.320   19.840    0.331    0.142  218.668   71.390
  455.570   19.344    0.367    0.156  220.195   75.209
  455.820   18.550    0.414    0.162  217.753   75.819
  456.070   17.658    0.403    0.172  215.796   75.832
  456.320   17.360    0.403    0.166  214.340   76.437
  456.570   17.061    0.394    0.164  214.371   76.163
