~VERSION INFORMATION
 VERS.                 2.0:   CWLS LOG ASCII STANDARD -VERSION 2.0
 WRAP.                  NO:   ONE LINE PER DEPTH STEP
~WELL INFORMATION BLOCK
#MNEM.UNIT           DATA                    DESCRIPTION OF MNEMONIC
#---------    -------------------            -------------------------------
# Generated from Intellog Unique Number	CW_70_72/WELL/2902
NULL.         -999.25                        : NULL_VALUE
WELL.         CHEVRON GAMBLER                : Well_name    - WELL              
LOC .         06-33-070-21W4                 : Location     - LOCATION          
UWI .         00/06-33-070-21W4/0            : Uwi          - UNIQUE WELL ID    
ENTR.         MAX                            : Entered      - ENTERED BY        
SRVC.         SCHLUMBERGER                   : Scn          - SERVICE COMPANY   
DATE.         01 FEB 76                      : Date         - LOG DATE
STRT.M        405.384                        : top_depth    - START DEPTH       
STOP.M        588.384                        : bot_depth    - STOP DEPTH        
STEP.M        0.25                           : increment    - STEP LENGTH       
~CURVE INFORMATION BLOCK
#MNEM UNIT       ERCB CURVE CODE    CURVE DESCRIPTION
#-----------   ------------------   ----------------------------------
DEPT.M        00 001 00 00         : DEPTH        - DEPTH                       
ILD .OHMM     00 120 00 00         : RESD         - DEEP RESISTIVITY (DIL)      
NPHI.V/V      00 330 00 00         : PHIN         - NEUTRON POROSITY (SANDSTONE)
DPHI.V/V      00 890 00 00         : PHID         - DENSITY POROSITY (SANDSTONE)
CALI.MM       00 280 01 00         : CAL          - CALIPER                     
GR  .API      00 310 00 00         : GR           - GAMMA RAY                   
~PARAMETER INFORMATION       
#MNEM.UNIT           DATA             DESCRIPTION OF MNEMONIC
#---------         -----------     ------------------------------
GL  .M        651.358              : gl           - GROUND LEVEL ELEVATION      
EREF.M        654.71               : kb           - ELEVATION OF DEPTH REFERENCE
DATM.M        651.358              : datum        - DATUM ELEVATION             
TDD .M        586.74               : tdd          - TOTAL DEPTH DRILLER         
RUN .         ONE                  : Run          - RUN NUMBER                  
ENG .         BILL                 : Engineer     - RECORDING ENGINEER          
WIT .         JIM                  : Witness      - WITNESSED BY                
MUD .         GEL                  : Mud_type     - MUD TYPE                    
MATR.         SANDSTONE            : Logunit      - NEUTRON MATRIX              
TMAX.C        23.8889              : BHT          - MAXIMUM RECORDED TEMPERATURE
BHTD.M        586.74               : BHTDEP       - MAXIMUM RECORDED TEMPERATURE
RMT .C        14.4444              : MDTP         - TEMPERATURE OF MUD          
MUDD.KG/M     9200                 : MWT          - MUD DENSITY                 
NEUT.         1                    : NEUTRON      - NEUTRON TYPE                
RESI.         0                    : RESIST       - RESISTIVITY TYPE            
RM  .OHMM     3.72                 : RM           - RESISTIVITY OF MUD          
RMC .OHMM     3.3                  : RMC          - RESISTIVITY OF MUD CAKE     
RMF .OHMM     6.4                  : RMF          - RESISTIVITY OF MUD FILTRATE 
SUFT.C        -20.5556             : SUFT         - SURFACE TEMPERATURE         
~A  DEPTH     RESD     PHIN     PHID      CAL       GR
# ...
  551.384    4.987    0.421    0.159  194.633  105.354
  551.634    4.933    0.403    0.139  193.495  100.619
  551.884    5.154    0.389    0.139  191.842   93.072
  552.134    5.734    0.418    0.107  190.719   83.012
  552.384    6.557    0.372    0.029  190.134   80.471
  552.634    7.496    0.330    0.058  188.995   74.484
  552.884    8.569    0.299    0.068  188.402   70.691
  553.134    9.887    0.268    0.057  187.809   64.709
  553.384   11.303    0.226    0.032  187.730   60.590
  553.634   13.518    0.248    0.033  187.675   64.004
  553.884   15.592    0.272    0.023  187.596   71.476
  554.134   16.432    0.319    0.029  187.541   78.949
  554.384   15.688    0.367    0.073  186.948   86.735
  554.634   12.614    0.396    0.118  186.885   91.695
  554.884   10.233    0.408    0.137  186.814   93.231
  555.134    8.379    0.417    0.146  186.735   95.072
  555.384    7.507    0.421    0.149  186.688   93.778
  555.634    6.202    0.427    0.145  186.617   92.172
  555.884    6.202    0.436    0.133  186.554   89.314
  556.134    5.855    0.453    0.123  186.491   88.338
  556.384    5.591    0.450    0.122  187.479   88.613
  556.634    5.591    0.434    0.160  189.006   89.515
  556.884    5.473    0.463    0.155  191.070   91.981
  557.134    5.516    0.520    0.158  191.513   92.569
  557.384    5.552    0.433    0.155  191.466   90.963
  557.634    5.702    0.388    0.149  191.395   89.048
  557.884    6.009    0.378    0.110  190.794   88.380
  558.134    6.277    0.368    0.100  190.739   90.529
  558.384    6.677    0.374    0.117  190.668   94.559
  558.634    7.231    0.368    0.120  190.605   98.908
  558.884    7.622    0.370    0.138  190.542  107.319
  559.134    7.407    0.376    0.159  189.411  117.921
  559.384    6.944    0.382    0.167  188.810  123.829
  559.634    6.686    0.374    0.146  188.739  129.420
  559.884    6.615    0.412    0.143  188.684  134.707
  560.134    6.667    0.409    0.148  189.151  136.547
  560.384    7.026    0.381    0.123  189.610  127.743
  560.634    7.275    0.371    0.093  189.539  116.123
  560.884    7.598    0.354    0.065  189.483  110.767
  561.134    7.938    0.347    0.023  189.413  100.086
  561.384    7.996    0.358    0.068  189.413   97.227
  561.634    7.842    0.384    0.107  189.271   98.129
  561.884    7.554    0.494    0.115  188.693   97.779
  562.134    7.209    0.436    0.121  188.614   93.977
  562.384    6.943    0.387    0.128  189.081   91.749
  562.634    6.507    0.376    0.136  189.018   89.517
  562.884    5.626    0.382    0.170  188.425   90.736
  563.134    4.605    0.384    0.184  187.302  101.338
  563.384    4.016    0.404    0.166  186.709  114.443
  563.634    3.599    0.495    0.198  186.638  121.598
  563.884    3.195    0.533    0.190  186.559  113.112
  564.134    3.191    0.532    0.165  186.512  101.497
  564.384    3.303    0.501    0.127  186.512   96.449
  564.634    3.545    0.463    0.105  186.339   91.092
  564.884    4.355    0.435    0.134  186.845   85.730
  565.134    4.550    0.406    0.112  187.826   84.437
  565.384    5.491    0.387    0.108  188.822   85.025
  565.634    6.278    0.415    0.136  189.811   87.491
  565.884    6.738    0.409    0.144  190.286   96.529
  566.134    6.432    0.426    0.141  190.223  102.750
  566.384    5.762    0.449    0.123  189.622  102.712
  566.634    5.210    0.543    0.137  189.013  104.553
  566.884    5.017    0.451    0.135  189.480  101.382
  567.134    5.384    0.438    0.097  189.425   96.025
  567.384    5.677    0.413    0.028  189.362   84.718
  567.634    6.727    0.391    0.003  188.753   72.785
  567.884    7.420    0.366    0.091  188.705   66.485
  568.134    9.800    0.322    0.097  188.105   64.252
  568.384   10.235    0.337    0.103  188.034   70.791
  568.634   10.036    0.388    0.118  187.971   78.890
  568.884    8.675    0.425    0.147  187.907   91.995
  569.134    6.788    0.422    0.153  187.844   93.518
  569.384    6.788    0.399    0.114  187.765   87.222
  569.634    6.069    0.391    0.078  187.710   84.368
  569.884    5.798    0.392    0.093  187.647   83.701
  570.134    5.533    0.418    0.144  187.584   86.162
  570.384    5.677    0.420    0.130  187.584   91.762
  570.634    5.772    0.450    0.118  187.450   94.854
  570.884    5.507    0.553    0.145  187.909   97.946
  571.134    5.258    0.529    0.165  187.909  100.407
  571.384    5.258    0.473    0.162  187.751  100.678
  571.634    5.009    0.484    0.159  188.249  103.462
  571.884    4.529    0.487    0.167  188.178  108.744
  572.134    4.362    0.485    0.162  188.100  110.262
  572.384    4.279    0.468    0.152  188.044  107.726
  572.634    4.272    0.439    0.152  187.965  101.113
  572.884    4.304    0.451    0.153  188.448  101.389
  573.134    4.416    0.443    0.162  188.377  101.039
  573.384    4.655    0.427    0.161  188.314   99.432
  573.634    4.862    0.413    0.162  188.243   98.138
  573.884    5.033    0.429    0.141  188.164   96.532
  574.134    5.072    0.432    0.127  188.117   93.996
  574.384    5.063    0.419    0.140  188.046   91.759
  574.634    4.877    0.408    0.172  187.983   92.661
  574.884    4.528    0.400    0.168  188.434   95.444
  575.134    4.403    0.412    0.169  188.908  104.482
  575.384    4.090    0.459    0.152  189.905  107.886
  575.634    3.868    0.569    0.155  191.946  107.844
  575.884    3.726    0.555    0.159  191.360  107.807
  576.134    3.588    0.490    0.154  191.297  108.699
  576.384    3.615    0.480    0.158  191.234  111.801
  576.634    3.710    0.489    0.159  192.745  116.144
  576.884    3.910    0.473    0.159  193.757  117.975
  577.134    4.120    0.468    0.159  193.149  116.686
  577.384    4.343    0.481    0.164  190.966  118.839
  577.634    4.620    0.486    0.157  188.261  124.752
  577.884    4.826    0.487    0.141  186.071  130.343
  578.134    5.087    0.457    0.142  186.008  129.367
  578.384    5.362    0.447    0.139  186.459   72.365
  578.634    5.807    0.475    0.139  185.344   65.756
  578.884    6.404    0.480    0.148  183.153   63.827
  579.134    6.934    0.468    0.174  182.031   64.425
  579.384    7.307    0.442    0.184  180.370   65.640
  579.634    7.430    0.382    0.239  179.255   67.784
  579.884    7.353    0.390    0.247  178.109   71.184
  580.134    7.146    0.434    0.233  178.061   72.090
  580.384    6.944    0.584    0.212  177.959   72.370
  580.634    6.810    0.558    0.180  178.987   72.949
  580.884    6.738    0.504    0.205  181.565   75.098
  581.134    6.738    0.475    0.223  183.092   76.322
  581.384    6.657    0.466    0.239  181.961   74.710
  581.634    6.588    0.462    0.239  181.898   74.678
  581.884    6.580    0.462    0.255  181.835   78.395
  582.134    6.336    0.474    0.244  181.234   83.365
  582.384    6.048    0.475    0.215  180.602   88.960
  582.634    5.773    0.476    0.204  180.578   89.227
  582.884    5.609    0.476    0.197  180.515   87.942
  583.134    5.602    0.474    0.179  180.444   87.900
  583.384    5.745    0.472    0.168  179.851   89.110
  583.634    5.949    0.471    0.173  179.788   92.519
  583.884    5.885    0.466    0.185  179.717   98.736
  584.134    5.721    0.463    0.191  179.662   89.937
  584.384    5.361    0.464    0.195  179.061   80.508
  584.634    5.212    0.469    0.157  178.990   82.343
  584.884    5.064    0.495    0.137  178.919   89.190
  585.134    5.147    0.477    0.221  178.318   98.232
  585.384    5.331    0.471    0.266  178.271  110.711
  585.634    5.669    0.482    0.274  178.192  142.914
  585.884    5.761    0.505    0.284  178.121  148.187
  586.134    5.756    0.491    0.284  178.065  148.187
  586.384    5.747    0.478    0.285  177.994  149.042
  586.634    5.789    0.456    0.273  177.939  147.454
  586.884    5.780    0.443    0.266  177.338  129.263
  587.134    5.772    0.410    0.266  176.738  115.140
  587.384    5.711    0.398    0.263  176.667   50.310
  587.634    5.653    0.393    0.257  177.149   44.636
