~VERSION INFORMATION
 VERS.                 2.0:   CWLS LOG ASCII STANDARD -VERSION 2.0
 WRAP.                  NO:   ONE LINE PER DEPTH STEP
~WELL INFORMATION BLOCK
#MNEM.UNIT           DATA                    DESCRIPTION OF MNEMONIC
#---------    -------------------            -------------------------------
# Generated from Intellog Unique Number	CW_70_72/WELL/901
NULL.         -999.25                        : NULL_VALUE
WELL.         HOME ALMX MITSUE 07-15         : Well_name    - WELL              
LOC .         07-15-071-04W5                 : Location     - LOCATION          
UWI .         00/07-15-071-04W5/0            : Uwi          - UNIQUE WELL ID    
ENTR.         JAYE                           : Entered      - ENTERED BY        
SRVC.         SCHLUMBERGER                   : Scn          - SERVICE COMPANY   
DATE.         4 MAR 74                       : Date         - LOG DATE          
STRT.M        502.92                         : top_depth    - START DEPTH       
STOP.M        716.17                         : bot_depth    - STOP DEPTH        
STEP.M        0.25                           : increment    - STEP LENGTH       
~CURVE INFORMATION BLOCK
#MNEM UNIT       ERCB CURVE CODE    CURVE DESCRIPTION
#-----------   ------------------   ----------------------------------
DEPT.M        00 001 00 00         : DEPTH        - DEPTH                       
DPHI.V/V      00 890 00 00         : PHID         - DENSITY POROSITY (SANDSTONE)
NPHI.V/V      00 330 00 00         : PHIN         - NEUTRON POROSITY (SANDSTONE)
GR  .API      00 310 00 00         : GR           - GAMMA RAY                   
CALI.MM       00 280 01 00         : CAL          - CALIPER                     
ILD .OHMM     00 120 00 00         : RESD         - DEEP RESISTIVITY (DIL)      
~PARAMETER INFORMATION       
#MNEM.UNIT           DATA             DESCRIPTION OF MNEMONIC
#---------         -----------     ------------------------------
GL  .M        667.36               : gl           - GROUND LEVEL ELEVATION      
EREF.M        671.474              : kb           - ELEVATION OF DEPTH REFERENCE
DATM.M        667.36               : datum        - DATUM ELEVATION             
TDD .M        759.866              : tdd          - TOTAL DEPTH DRILLER         
RUN .         ONE                  : Run          - RUN NUMBER                  
ENG .         SIROIS               : Engineer     - RECORDING ENGINEER          
WIT .         HOLAN                : Witness      - WITNESSED BY                
BASE.         EDM                  : Branch       - HOME BASE OF LOGGING UNIT   
MUD .         GEL CHEM             : Mud_type     - MUD TYPE                    
MATR.         SANDSTONE            : Logunit      - NEUTRON MATRIX              
TMAX.C        28.3333              : BHT          - MAXIMUM RECORDED TEMPERATURE
BHTD.M        758.952              : BHTDEP       - MAXIMUM RECORDED TEMPERATURE
RMT .C        13.8889              : MDTP         - TEMPERATURE OF MUD          
MUDD.KG/M     1080                 : MWT          - MUD DENSITY                 
NEUT.         1                    : NEUTRON      - NEUTRON TYPE                
RESI.         0                    : RESIST       - RESISTIVITY TYPE            
RM  .OHMM     6.28                 : RM           - RESISTIVITY OF MUD          
RMC .OHMM     3.8                  : RMC          - RESISTIVITY OF MUD CAKE     
RMF .OHMM     7.5                  : RMF          - RESISTIVITY OF MUD FILTRATE 
SUFT.C        -17.7778             : SUFT         - SURFACE TEMPERATURE         
~A  DEPTH     PHID     PHIN       GR      CAL     RESD
# ...
  612.420    0.257    0.454   62.341  161.221    3.214
  612.670    0.259    0.461   62.222  161.432    3.229
  612.920    0.267    0.426   60.573  161.644    3.287
  613.170    0.267    0.411   55.133  161.855    3.406
  613.420    0.241    0.389   52.812  162.171    3.602
  613.670    0.239    0.382   52.754  162.278    3.789
  613.920    0.254    0.396   54.102  162.593    3.941
  614.170    0.251    0.406   55.939  162.805    4.130
  614.420    0.239    0.390   58.448  163.120    4.281
  614.670    0.210    0.369   60.652  163.434    4.238
  614.920    0.188    0.341   61.817  163.646    4.121
  615.170    0.165    0.333   61.942  163.961    3.971
  615.420    0.176    0.353   61.272  164.172    3.866
  615.670    0.203    0.386   60.357  164.384    3.684
  615.920    0.243    0.389   60.359  164.596    3.485
  616.170    0.255    0.380   61.096  164.704    3.431
  616.420    0.251    0.378   62.077  164.708    3.391
  616.670    0.244    0.392   63.058  164.608    3.327
  616.920    0.248    0.408   64.345  164.821    3.170
  617.170    0.255    0.414   65.753  164.928    3.060
  617.420    0.265    0.418   66.796  165.036    2.889
  617.670    0.270    0.417   67.104  165.248    2.658
  617.920    0.274    0.408   66.984  165.253    2.482
  618.170    0.278    0.410   66.253  165.257    2.272
  618.420    0.281    0.415   65.033  165.157    2.095
  618.670    0.271    0.407   63.140  165.161    1.946
  618.920    0.287    0.408   62.347  165.063    1.878
  619.170    0.299    0.430   62.839  165.067    1.833
  619.420    0.278    0.464   64.248  165.278    1.828
  619.670    0.271    0.486   62.233  165.282    1.826
  619.920    0.270    0.479   60.646  165.184    1.811
  620.170    0.272    0.467   60.036  165.084    1.804
  620.420    0.275    0.479   61.323  164.984    1.805
  620.670    0.278    0.502   64.628  164.679    1.794
  620.920    0.276    0.492   67.688  164.684    1.799
  621.170    0.266    0.502   69.769  164.687    1.798
  621.420    0.262    0.483   67.449  164.691    1.819
  621.670    0.267    0.486   66.656  164.799    1.989
  621.920    0.272    0.449   67.270  165.012    2.296
  622.170    0.259    0.461   69.413  165.119    2.660
  622.420    0.222    0.461   71.862  165.123    3.000
  622.670    0.202    0.449   75.350  165.128    3.451
  622.920    0.179    0.439   81.222  165.132    3.765
  623.170    0.159    0.431   78.535  165.240    3.866
  623.420    0.175    0.438   78.109  165.452    3.545
  623.670    0.203    0.434   78.295  165.456    3.233
  623.920    0.180    0.432   78.848  165.357    2.975
  624.170    0.176    0.430   78.973  165.050    2.773
  624.420    0.188    0.444   75.979  161.432    2.662
  624.670    0.208    0.465   74.759  161.021    2.555
  624.920    0.191    0.475   75.740  160.302    2.484
  625.170    0.199    0.454   75.987  159.890    2.441
  625.420    0.220    0.454   74.277  159.689    2.426
  625.670    0.225    0.465   74.769  159.899    2.411
  625.920    0.201    0.467   74.711  160.318    2.414
  626.170    0.197    0.469   71.044  160.322    2.420
  626.420    0.219    0.473   70.130  160.535    2.432
  626.670    0.235    0.485   72.639  160.643    2.435
  626.920    0.222    0.465   74.721  160.646    2.406
  627.170    0.229    0.441   73.133  160.651    2.365
  627.420    0.236    0.452   71.974  160.655    2.320
  627.670    0.227    0.472   70.693  160.349    2.281
  627.920    0.251    0.474   68.188  160.043    2.238
  628.170    0.247    0.456   67.763  159.529    2.204
  628.420    0.245    0.475   69.356  159.326    2.186
  628.670    0.241    0.492   71.009  159.123    2.160
  628.920    0.259    0.471   69.910  159.024    2.139
  629.170    0.243    0.457   69.424  158.512    2.122
  629.420    0.235    0.448   71.934  157.894    2.109
  629.670    0.233    0.437   75.666  157.173    2.095
  629.920    0.249    0.425   73.651  157.178    2.086
  630.170    0.247    0.452   73.287  157.286    2.092
  630.420    0.238    0.471   74.818  157.497    2.129
  630.670    0.226    0.460   76.288  157.813    2.207
  630.920    0.199    0.437   72.500  158.127    2.497
  631.170    0.162    0.397   68.222  158.339    2.800
  631.420    0.190    0.322   66.023  158.550    3.105
  631.670    0.158    0.282   66.148  158.968    3.314
  631.920    0.115    0.284   67.863  159.076    3.435
  632.170    0.130    0.327   71.901  159.392    3.464
  632.420    0.169    0.442   75.634  159.500    3.246
  632.670    0.190    0.465   80.039  159.816    2.886
  632.920    0.173    0.426   81.693  160.129    2.800
  633.170    0.162    0.415   82.368  160.859    2.839
  633.420    0.140    0.428   83.104  161.795    2.970
  633.670    0.151    0.437   84.513  162.835    3.199
  633.920    0.167    0.428   86.167  163.564    3.389
  634.170    0.161    0.416   87.698  163.879    3.512
  634.420    0.150    0.404   91.615  164.194    3.608
  634.670    0.153    0.406   91.495  164.302    3.699
  634.920    0.147    0.403   88.318  164.410    3.764
  635.170    0.135    0.400   88.381  164.414    3.866
  635.420    0.123    0.412   88.017  164.626    3.912
  635.670    0.144    0.401   88.019  164.733    3.974
  635.920    0.141    0.400   90.101  164.945    4.044
  636.170    0.127    0.404   95.057  164.949    4.027
  636.420    0.140    0.414   95.916  164.953    3.958
  636.670    0.158    0.430   90.781  165.166    3.764
  636.920    0.151    0.447   91.457  164.962    3.567
  637.170    0.162    0.447   92.682  164.553    3.399
  637.420    0.156    0.434   87.915  164.039    3.403
  637.670    0.140    0.432   87.184  163.836    3.514
  637.920    0.131    0.441   89.999  162.909    3.641
  638.170    0.151    0.408   92.081  162.292    3.740
  638.420    0.160    0.390   86.825  162.090    3.792
  638.670    0.143    0.389   81.874  162.301    3.824
  638.920    0.159    0.401   82.978  162.616    3.843
  639.170    0.165    0.408   85.977  163.034    3.832
  639.420    0.157    0.403   89.526  163.556    3.850
  639.670    0.147    0.420   93.992  164.183    3.868
  639.920    0.134    0.433   97.847  164.601    3.894
  640.170    0.139    0.423   97.850  165.123    3.920
  640.420    0.124    0.400   89.169  165.438    3.924
  640.670    0.119    0.411   89.539  165.338    3.935
  640.920    0.110    0.422   89.113  164.515    3.983
  641.170    0.128    0.430   89.055  163.588    4.031
  641.420    0.151    0.440   91.320  162.764    4.080
  641.670    0.173    0.432   85.819  162.147    4.106
  641.920    0.193    0.421   78.850  161.633    3.849
  642.170    0.208    0.412   84.846  161.326    3.654
  642.420    0.198    0.421   89.985  161.020    3.513
  642.670    0.141    0.388   97.753  161.025    3.324
  642.920    0.108    0.402  102.036  161.236    3.161
  643.170    0.096    0.425   92.439  164.140    2.946
  643.420    0.098    0.444   86.510  166.940    2.792
  643.670    0.104    0.481   90.609  170.361    2.651
  643.920    0.129    0.468   86.209  170.676    2.507
  644.170    0.158    0.425   79.913  166.642    2.286
  644.420    0.201    0.444   74.168  164.783    1.966
  644.670    0.245    0.467   68.667  164.580    1.735
  644.920    0.268    0.484   67.630  164.999    1.687
  645.170    0.245    0.487   67.510  165.521    1.736
  645.420    0.207    0.410   66.840  166.354    1.805
  645.670    0.173    0.366   65.253  166.566    1.951
  645.920    0.095    0.340   62.259  165.949    2.110
  646.170    0.062    0.283   61.834  164.606    2.195
  646.420    0.062    0.322   63.487  162.747    2.250
  646.670    0.208    0.389   65.875  162.026    2.289
  646.920    0.234    0.432   66.183  162.032    2.343
  647.170    0.190    0.389   66.430  162.242    2.397
  647.420    0.122    0.315   66.555  162.558    2.440
  647.670    0.058    0.291   59.892  162.769    2.415
  647.920    0.089    0.351   57.510  163.187    2.223
  648.170    0.150    0.399   62.649  163.503    2.031
  648.420    0.255    0.422   71.579  163.714    1.855
  648.670    0.258    0.434   69.197  164.029    1.739
