~VERSION INFORMATION
 VERS.                 2.0:   CWLS LOG ASCII STANDARD -VERSION 2.0
 WRAP.                  NO:   ONE LINE PER DEPTH STEP
~WELL INFORMATION BLOCK
#MNEM.UNIT           DATA                    DESCRIPTION OF MNEMONIC
#---------    -------------------            -------------------------------
# Generated from Intellog Unique Number	CW_73_75/WELL/877
WELL.         CDN SUP ER AL FRANCIS 07-35    : Well_name    - WELL
LOC .         00/07-35-074-21W4/0            : Location     - LOCATION
UWI .         00/07-35-074-21W4/0            : Uwi          - UNIQUE WELL ID
ENTR.         JAYE                           : Entered      - ENTERED BY
SRVC.         SCHLUMBERGER                   : Scn          - SERVICE COMPANY
DATE.         11 MAR 75                      : Date         - LOG DATE
STRT.M        387.096                        : top_depth    - START DEPTH
STOP.M        606.596                        : bot_depth    - STOP DEPTH
STEP.M        0.25                           : increment    - STEP LENGTH
 NULL. -999.2500:NULL Value
~CURVE INFORMATION BLOCK
#MNEM UNIT       ERCB CURVE CODE    CURVE DESCRIPTION
#-----------   ------------------   ----------------------------------
DEPT.M        00 001 00 00         : DEPTH        - DEPTH
ILD .OHMM     00 120 00 00         : RESD         - DEEP RESISTIVITY (DIL)
DPHI.V/V      00 890 00 00         : PHID         - DENSITY POROSITY (SANDSTONE)
NPHI.V/V      00 330 00 00         : PHIN         - NEUTRON POROSITY (SANDSTONE)
GR  .API      00 310 00 00         : GR           - GAMMA RAY
CALI.IN       00 280 01 00         : CAL          - CALIPER
~PARAMETER INFORMATION
#MNEM.UNIT           DATA             DESCRIPTION OF MNEMONIC
#---------         -----------     ------------------------------
GL  .M        691.896              : gl           - GROUND LEVEL ELEVATION
EREF.M        695.615              : kb           - ELEVATION OF DEPTH REFERENCE
DATM.M        691.896              : datum        - DATUM ELEVATION
TDD .M        669.036              : tdd          - TOTAL DEPTH DRILLER
RUN .         ONE                  : Run          - RUN NUMBER
BASE.         EDM                  : Branch       - HOME BASE OF LOGGING UNIT
MATR.         SANDSTONE            : Logunit      - NEUTRON MATRIX
TMAX.C        28.8889              : BHT          - MAXIMUM RECORDED TEMPERATURE
BHTD.M        669.036              : BHTDEP       - MAXIMUM RECORDED TEMPERATURE
RMT .C        15.5556              : MDTP         - TEMPERATURE OF MUD
MUDD.KG/M     0                    : MWT          - MUD DENSITY
NEUT.         1                    : NEUTRON      - NEUTRON TYPE
RESI.         0                    : RESIST       - RESISTIVITY TYPE
RM  .OHMM     2.8                  : RM           - RESISTIVITY OF MUD
RMC .OHMM     0                    : RMC          - RESISTIVITY OF MUD CAKE
RMF .OHMM     3.83                 : RMF          - RESISTIVITY OF MUD FILTRATE
SUFT.C        -17.7778             : SUFT         - SURFACE TEMPERATURE
~A  DEPTH     RESD     PHID     PHIN       GR      CAL
# ...
  496.596    4.591    0.331    0.472   59.559    8.227
  496.846    4.579    0.326    0.465   59.540    8.242
  497.096    4.559    0.321    0.464   60.389    8.256
  497.346    4.581    0.322    0.466   60.069    8.256
  497.596    4.628    0.318    0.469   59.454    8.265
  497.846    4.668    0.312    0.473   59.140    8.280
  498.096    4.690    0.301    0.479   58.531    8.280
  498.346    4.687    0.305    0.487   57.913    8.272
  498.596    4.683    0.338    0.484   57.314    8.286
  498.846    4.655    0.349    0.477   56.990    8.300
  499.096    4.651    0.349    0.471   56.382    8.296
  499.346    4.640    0.345    0.469   55.776    8.291
  499.596    4.602    0.345    0.468   55.747    8.283
  499.846    4.574    0.349    0.464   56.305    8.301
  500.096    4.579    0.351    0.455   58.023    8.296
  500.346    4.660    0.348    0.457   59.167    8.311
  500.596    4.803    0.344    0.460   60.019    8.345
  500.846    4.960    0.337    0.466   61.445    8.379
  501.096    5.066    0.326    0.466   62.877    8.394
  501.346    5.044    0.329    0.461   64.018    8.408
  501.596    4.994    0.329    0.455   64.579    8.423
  501.846    4.910    0.314    0.458   67.174    8.418
  502.096    4.800    0.304    0.462   69.478    8.414
  502.346    4.710    0.308    0.489   69.456    8.409
  502.596    4.673    0.312    0.499   68.264    8.404
  502.846    4.678    0.296    0.498   67.358    8.400
  503.096    4.744    0.291    0.482   67.620    8.400
  503.346    4.810    0.288    0.476   68.181    8.369
  503.596    4.842    0.287    0.463   69.027    8.365
  503.846    4.892    0.293    0.457   71.043    8.380
  504.096    4.915    0.296    0.447   73.347    8.376
  504.346    4.911    0.295    0.452   74.199    8.409
  504.596    4.864    0.292    0.485   75.048    8.424
  504.846    4.627    0.297    0.483   75.603    8.459
  505.096    4.123    0.296    0.496   75.872    8.551
  505.346    3.660    0.288    0.532   76.135    8.684
  505.596    3.220    0.336    0.565   76.984    8.798
  505.846    2.901    0.378    0.584   77.830    8.990
  506.096    2.846    0.374    0.598   79.262    9.339
  506.346    2.923    0.363    0.590   80.112    9.511
  506.596    3.085    0.338    0.586   80.378    9.664
  506.846    3.297    0.344    0.573   80.932    9.737
  507.096    3.544    0.344    0.536   81.781    9.614
  507.346    3.943    0.315    0.492   82.627    9.491
  507.596    4.355    0.247    0.481   83.188    9.349
  507.846    4.664    0.226    0.492   84.031    9.167
  508.096    4.807    0.222    0.507   84.303    9.044
  508.346    4.946    0.219    0.490   83.986    9.039
  508.596    4.988    0.218    0.495   83.368    9.035
  508.846    4.841    0.222    0.507   84.509    9.049
  509.096    4.673    0.225    0.515   85.944    9.040
  509.346    4.398    0.217    0.511   87.960    9.038
  509.596    4.154    0.218    0.499   88.517    9.034
  509.846    3.995    0.232    0.488   88.492    9.034
  510.096    3.906    0.222    0.481   87.883    9.021
  510.346    3.882    0.230    0.484   87.268    9.020
  510.596    3.922    0.202    0.490   86.951    9.015
  510.846    3.991    0.204    0.484   86.634    9.010
  511.096    4.128    0.243    0.489   86.314    9.005
  511.346    4.302    0.233    0.492   86.291    9.001
  511.596    4.491    0.228    0.486   86.266    8.976
  511.846    4.748    0.221    0.481   86.532    8.931
  512.096    5.011    0.222    0.485   84.171    8.907
  512.346    5.279    0.226    0.480   81.521    8.882
  512.596    5.726    0.232    0.475   78.281    8.858
  512.846    5.891    0.235    0.459   79.425    8.852
  513.096    5.941    0.229    0.433   84.059    8.829
  513.346    5.926    0.223    0.437   85.494    8.823
  513.596    5.900    0.222    0.455   86.055    8.818
  513.846    5.896    0.224    0.465   86.023    8.814
  514.096    6.033    0.219    0.460   85.998    8.809
  514.346    6.029    0.225    0.450   86.264    8.803
  514.596    5.959    0.237    0.449   86.235    8.799
  514.846    5.955    0.234    0.452   86.210    8.814
  515.096    5.972    0.229    0.457   86.184    8.809
  515.346    6.067    0.219    0.466   85.284    8.804
  515.596    6.140    0.225    0.472   84.383    8.799
  515.846    6.214    0.227    0.467   83.188    8.794
  516.096    6.301    0.222    0.463   82.583    8.789
  516.346    6.378    0.217    0.460   82.551    8.784
  516.596    6.373    0.192    0.459   82.528    8.779
  516.846    6.334    0.187    0.464   83.371    8.755
  517.096    6.249    0.194    0.466   83.637    8.731
  517.346    6.177    0.200    0.462   83.323    8.725
  517.596    6.106    0.210    0.458   83.298    8.721
  517.846    6.068    0.209    0.448   84.144    8.716
  518.096    6.031    0.209    0.445   84.702    8.710
  518.346    6.027    0.205    0.451   85.542    8.699
  518.596    6.012    0.208    0.443   86.075    8.777
  518.846    5.986    0.214    0.436   87.780    8.855
  519.096    5.927    0.220    0.435   88.027    8.914
  519.346    5.858    0.221    0.435   87.684    9.051
  519.596    5.823    0.205    0.458   86.768    9.149
  519.846    5.756    0.198    0.488   84.090    9.168
  520.096    5.596    0.208    0.475   83.164    9.149
  520.346    5.522    0.204    0.474   86.042    8.992
  520.596    5.712    0.173    0.477   90.077    8.816
  520.846    6.651    0.167    0.470   87.697    8.679
  521.096    8.797    0.188    0.449   78.890    8.601
  521.346    9.559    0.148    0.394   73.007    8.523
  521.596    9.397    0.114    0.324   60.103    8.483
  521.846    8.542    0.163    0.358   62.101    8.444
  522.096    7.233    0.200    0.399   60.304    8.405
  522.346    6.125    0.252    0.423   57.334    8.366
  522.596    5.827    0.291    0.418   54.364    8.346
  522.846    6.195    0.284    0.404   54.325    8.346
  523.096    7.386    0.260    0.386   54.273    8.346
  523.346    9.116    0.247    0.363   54.817    8.366
  523.596   11.689    0.223    0.336   55.058    8.405
  523.846   14.245    0.105    0.273   54.721    8.366
  524.096   16.436    0.057    0.223   54.383    8.307
  524.346   18.691    0.060    0.190   53.456    8.307
  524.596   21.063    0.057    0.178   50.784    8.288
  524.846   22.678    0.069    0.194   49.274    8.288
  525.096   23.418    0.057    0.177   48.645    8.288
  525.346   22.523    0.045    0.173   49.475    8.307
  525.596   19.707    0.061    0.195   54.099    8.307
  525.846   13.560    0.093    0.225   57.556    8.327
  526.096   10.145    0.111    0.265   59.553    8.346
  526.346    7.345    0.167    0.327   61.545    8.346
  526.596    6.357    0.228    0.375   62.369    8.346
  526.846    5.928    0.248    0.426   62.329    8.346
  527.096    5.660    0.254    0.447   62.273    8.346
  527.346    5.575    0.255    0.447   61.929    8.405
  527.596    5.490    0.258    0.438   61.598    8.405
  527.846    5.436    0.266    0.425   62.130    8.425
  528.096    5.453    0.270    0.416   62.966    8.483
  528.346    5.498    0.267    0.420   64.077    8.523
  528.596    5.535    0.262    0.442   64.329    8.562
  528.846    5.521    0.264    0.434   66.893    8.562
  529.096    5.467    0.261    0.438   69.188    8.640
  529.346    5.316    0.263    0.446   70.899    8.777
  529.596    5.188    0.265    0.443   73.194    8.894
  529.846    5.026    0.267    0.428   75.484    8.953
  530.096    4.941    0.270    0.421   78.345    8.992
  530.346    4.779    0.254    0.436   78.889    9.070
  530.596    4.538    0.261    0.456   80.875    9.168
  530.846    4.278    0.244    0.475   82.878    9.286
  531.096    4.115    0.230    0.506   83.125    9.423
  531.346    4.023    0.232    0.502   82.490    9.658
  531.596    4.013    0.237    0.509   83.606    9.775
  531.846    4.054    0.254    0.516   85.031    9.795
  532.096    4.118    0.273    0.524   85.861    9.814
  532.346    4.145    0.269    0.531   85.518    9.775
  532.596    4.203    0.269    0.532   84.889    9.736
  532.846    4.309    0.269    0.519   83.379    9.775
