~VERSION INFORMATION
 VERS.                 2.0:   CWLS LOG ASCII STANDARD -VERSION 2.0
 WRAP.                  NO:   ONE LINE PER DEPTH STEP
~WELL INFORMATION BLOCK
#MNEM.UNIT           DATA                    DESCRIPTION OF MNEMONIC
#---------    -------------------            -------------------------------
# Generated from Intellog Unique Number	CS_77_79/WELL/919
WELL.         NOVALTA WINEFRED               : Well_name    - WELL
LOC .         00/08-17-078-03W4/0            : Location     - LOCATION
UWI .         00/08-17-078-03W4/0            : Uwi          - UNIQUE WELL ID
ENTR.         JHS                            : Entered      - ENTERED BY
SRVC.         SCHLUMBERGER                   : Scn          - SERVICE COMPANY
STRT.M        150                            : top_depth    - START DEPTH
STOP.M        430                            : bot_depth    - STOP DEPTH
STEP.M        0.25                           : increment    - STEP LENGTH
 NULL. -999.2500:NULL Value
~CURVE INFORMATION BLOCK
#MNEM UNIT       ERCB CURVE CODE    CURVE DESCRIPTION
#-----------   ------------------   ----------------------------------
DEPT.M        00 001 00 00         : DEPTH        - DEPTH
DPHI.V/V      00 890 00 00         : PHID         - DENSITY POROSITY (LIMESTONE)
NPHI.V/V      00 330 00 00         : PHIN         - NEUTRON POROSITY (LIMESTONE)
GR  .API      00 310 00 00         : GR           - GAMMA RAY
ILD .OHMM     00 120 00 00         : RESD         - DEEP RESISTIVITY (DIL)
RHOB.KG/M3    00 350 00 00         : DENS         - BULK DENSITY
~PARAMETER INFORMATION
#MNEM.UNIT           DATA             DESCRIPTION OF MNEMONIC
#---------         -----------     ------------------------------
GL  .M        567                  : gl           - GROUND LEVEL ELEVATION
EREF.M        570                  : kb           - ELEVATION OF DEPTH REFERENCE
DATM.M        570                  : datum        - DATUM ELEVATION
TDD .M        428                  : tdd          - TOTAL DEPTH DRILLER
RUN .         ONE                  : Run          - RUN NUMBER
ENG .         BILL                 : Engineer     - RECORDING ENGINEER
WIT .         JIM                  : Witness      - WITNESSED BY
MUD .         GEL                  : Mud_type     - MUD TYPE
MATR.         LIMESTONE            : Logunit      - NEUTRON MATRIX
TMAX.C        25                   : BHT          - MAXIMUM RECORDED TEMPERATURE
BHTD.M        428                  : BHTDEP       - MAXIMUM RECORDED TEMPERATURE
MATR.         1                    : LOGUNIT      - NEUTRON MATRIX
RMT .C        25                   : MDTP         - TEMPERATURE OF MUD
NEUT.         1                    : NEUTRON      - NEUTRON TYPE
RESI.         0                    : RESIST       - RESISTIVITY TYPE
RMC .OHMM     0.25                 : RMC          - RESISTIVITY OF MUD CAKE
RMF .OHMM     0.25                 : RMF          - RESISTIVITY OF MUD FILTRATE
SUFT.C        15                   : SUFT         - SURFACE TEMPERATURE
~A  DEPTH     PHID     PHIN       GR     RESD     DENS
# ...
  186.500    0.305    0.404  101.635   24.863    0.000
  186.750    0.269    0.387  102.831   21.993    0.000
  187.000    0.206    0.374  104.030   16.512    0.000
  187.250    0.191    0.365  109.476   14.608    0.000
  187.500    0.185    0.417  117.350   12.408    0.000
  187.750    0.174    0.446  120.364   11.441    0.000
  188.000    0.156    0.455  116.703   10.992    0.000
  188.250    0.143    0.428  112.436   11.005    0.000
  188.500    0.123    0.410  108.165   10.570    0.000
  188.750    0.144    0.422  114.825    9.744    0.000
  189.000    0.190    0.450  122.697    8.449    0.000
  189.250    0.180    0.463  125.713    7.632    0.000
  189.500    0.164    0.466  126.303    7.182    0.000
  189.750    0.180    0.458  127.496    6.758    0.000
  190.000    0.189    0.455  130.517    6.362    0.000
  190.250    0.189    0.474  132.926    6.111    0.000
  190.500    0.197    0.496  128.050    5.871    0.000
  190.750    0.212    0.486  124.996    5.756    0.000
  191.000    0.224    0.475  124.976    5.530    0.000
  191.250    0.237    0.490  121.314    5.537    0.000
  191.500    0.250    0.490  106.722    6.533    0.000
  191.750    0.226    0.448   96.988    8.198    0.000
  192.000    0.212    0.345  101.218   10.724    0.000
  192.250    0.208    0.349  106.665   12.141    0.000
  192.500    0.208    0.377  106.037   14.930    0.000
  192.750    0.202    0.402  110.266   15.897    0.000
  193.000    0.202    0.414  115.106   14.359    0.000
  193.250    0.238    0.441  116.905   12.967    0.000
  193.500    0.294    0.495  110.816   11.956    0.000
  193.750    0.301    0.510   97.442   12.218    0.000
  194.000    0.260    0.378   87.707   13.276    0.000
  194.250    0.236    0.351   89.508   16.327    0.000
  194.500    0.243    0.368   87.667   18.485    0.000
  194.750    0.260    0.375   80.968   21.372    0.000
  195.000    0.280    0.370   77.307   24.204    0.000
  195.250    0.294    0.383   74.253   25.765    0.000
  195.500    0.307    0.409   72.409   27.438    0.000
  195.750    0.311    0.405   72.393   27.460    0.000
  196.000    0.303    0.395   74.799   28.070    0.000
  196.250    0.297    0.385   77.819   27.526    0.000
  196.500    0.298    0.383   75.975   26.991    0.000
  196.750    0.302    0.387   74.742   26.462    0.000
  197.000    0.288    0.373   75.941   25.959    0.000
  197.250    0.284    0.363   81.382   25.465    0.000
  197.500    0.287    0.381   78.328   25.478    0.000
  197.750    0.286    0.399   74.666   26.042    0.000
  198.000    0.280    0.399   73.433   26.602    0.000
  198.250    0.284    0.392   77.665   27.188    0.000
  198.500    0.295    0.387   82.498   27.780    0.000
  198.750    0.295    0.399   81.267   28.397    0.000
  199.000    0.287    0.413   78.213   28.410    0.000
  199.250    0.295    0.424   77.581   28.437    0.000
  199.500    0.304    0.402   78.177   28.466    0.000
  199.750    0.306    0.374   82.407   28.493    0.000
  200.000    0.294    0.362   88.461   29.124    0.000
  200.250    0.282    0.361   96.333   29.153    0.000
  200.500    0.285    0.367   93.278   29.177    0.000
  200.750    0.290    0.370   89.619   29.212    0.000
  201.000    0.261    0.368   94.454   27.490    0.000
  201.250    0.223    0.374  101.116   26.955    0.000
  201.500    0.240    0.381   93.202   28.124    0.000
  201.750    0.276    0.355   81.041   29.326    0.000
  202.000    0.302    0.346   69.485   33.219    0.000
  202.250    0.313    0.347   57.930   34.638    0.000
  202.500    0.320    0.341   50.013   37.647    0.000
  202.750    0.328    0.353   49.993   38.468    0.000
  203.000    0.334    0.382   51.193   39.311    0.000
  203.250    0.331    0.395   51.780   38.566    0.000
  203.500    0.322    0.378   51.154   38.589    0.000
  203.750    0.313    0.372   54.776   37.847    0.000
  204.000    0.328    0.383   55.969   37.885    0.000
  204.250    0.342    0.372   55.954   37.929    0.000
  204.500    0.332    0.362   58.365   37.962    0.000
  204.750    0.313    0.357   60.166   37.999    0.000
  205.000    0.320    0.369   61.357   38.831    0.000
  205.250    0.316    0.358   67.414   38.084    0.000
  205.500    0.302    0.359   73.464   36.576    0.000
  205.750    0.317    0.368   73.448   35.151    0.000
  206.000    0.327    0.362   70.997   35.909    0.000
  206.250    0.281    0.334   68.552   38.238    0.000
  206.500    0.235    0.319   64.280   39.876    0.000
  206.750    0.245    0.316   58.797   39.930    0.000
  207.000    0.290    0.333   67.279   39.155    0.000
  207.250    0.308    0.367   78.190   38.397    0.000
  207.500    0.315    0.384   82.421   36.891    0.000
  207.750    0.325    0.393   75.112   36.180    0.000
  208.000    0.328    0.367   71.453   34.758    0.000
  208.250    0.327    0.351   70.213   33.391    0.000
  208.500    0.320    0.360   72.630   32.083    0.000
  208.750    0.320    0.382   76.860   31.448    0.000
  209.000    0.327    0.400   77.448   30.224    0.000
  209.250    0.335    0.379   77.422   29.628    0.000
  209.500    0.321    0.378   81.659   28.470    0.000
  209.750    0.305    0.400   87.104   26.794    0.000
  210.000    0.301    0.399   93.765   24.702    0.000
  210.250    0.290    0.381  101.641   22.315    0.000
  210.500    0.275    0.366  107.694   20.570    0.000
  210.750    0.255    0.364  114.962   18.580    0.000
  211.000    0.238    0.378  124.050   17.135    0.000
  211.250    0.224    0.404  131.312   16.124    0.000
  211.500    0.220    0.419  127.650   15.174    0.000
  211.750    0.227    0.412  125.208   15.194    0.000
  212.000    0.228    0.404  124.581   15.524    0.000
  212.250    0.227    0.419  126.987   15.223    0.000
  212.500    0.228    0.423  130.006   14.926    0.000
  212.750    0.233    0.431  126.344   14.053    0.000
  213.000    0.238    0.458  117.822   14.358    0.000
  213.250    0.236    0.442  117.197   14.668    0.000
  213.500    0.239    0.430  118.393   15.621    0.000
  213.750    0.247    0.424  109.873   16.631    0.000
  214.000    0.269    0.412  100.139   17.704    0.000
  214.250    0.305    0.398   98.297   19.248    0.000
  214.500    0.297    0.391  102.524   19.665    0.000
  214.750    0.287    0.382  100.690   20.089    0.000
  215.000    0.288    0.385   95.204   20.533    0.000
  215.250    0.290    0.402   94.579   20.556    0.000
  215.500    0.280    0.409  105.486   20.571    0.000
  215.750    0.263    0.407  115.185   20.174    0.000
  216.000    0.245    0.396  124.272   19.385    0.000
  216.250    0.226    0.395  127.894   19.402    0.000
  216.500    0.204    0.410  128.486   19.421    0.000
  216.750    0.207    0.416  121.181   19.439    0.000
  217.000    0.233    0.418  112.053   18.675    0.000
  217.250    0.238    0.434  104.142   18.322    0.000
  217.500    0.239    0.434  100.479   18.339    0.000
  217.750    0.241    0.414   96.815   18.352    0.000
  218.000    0.245    0.402   94.973   19.149    0.000
  218.250    0.253    0.394   96.771   19.562    0.000
  218.500    0.274    0.389   98.576   19.990    0.000
  218.750    0.291    0.386   98.560   20.847    0.000
  219.000    0.313    0.388   94.291   22.205    0.000
  219.250    0.341    0.390   93.057   22.683    0.000
  219.500    0.342    0.387   92.429   23.662    0.000
  219.750    0.329    0.377   91.196   24.182    0.000
  220.000    0.320    0.367   86.925   24.714    0.000
  220.250    0.317    0.366   88.121   24.229    0.000
  220.500    0.316    0.373   92.354   24.761    0.000
  220.750    0.316    0.381   88.083   24.275    0.000
  221.000    0.315    0.388   84.423   24.308    0.000
  221.250    0.311    0.402   86.224   23.832    0.000
  221.500    0.300    0.422   95.310   22.893    0.000
  221.750    0.276    0.424   95.294   22.448    0.000
  222.000    0.254    0.413   92.234   21.567    0.000
  222.250    0.257    0.397   93.436   21.162    0.000
  222.500    0.256    0.393   93.412   21.174    0.000
  222.750    0.253    0.412   85.501   22.086    0.000
