~VERSION INFORMATION
 VERS.                 2.0:   CWLS LOG ASCII STANDARD -VERSION 2.0
 WRAP.                  NO:   ONE LINE PER DEPTH STEP
~WELL INFORMATION BLOCK
#MNEM.UNIT           DATA                    DESCRIPTION OF MNEMONIC
#---------    -------------------            -------------------------------
# Generated from Intellog Unique Number	CS_73_76/WELL/2167
WELL.         BOW VALLEY INDUSTRIES LTD.     : Well_name    - WELL
LOC .         00/06-23-074-17W4/0            : Location     - LOCATION
UWI .         00/06-23-074-17W4/0            : Uwi          - UNIQUE WELL ID
ENTR.         SP                             : Entered      - ENTERED BY
SRVC.         SCHLUMBERGER                   : Scn          - SERVICE COMPANY
STRT.M        240.792                        : top_depth    - START DEPTH
STOP.M        426.542                        : bot_depth    - STOP DEPTH
STEP.M        0.25                           : increment    - STEP LENGTH
 NULL. -999.2500:NULL Value
~CURVE INFORMATION BLOCK
#MNEM UNIT       ERCB CURVE CODE    CURVE DESCRIPTION
#-----------   ------------------   ----------------------------------
DEPT.M        00 001 00 00         : DEPTH        - DEPTH
GR  .API      00 310 00 00         : GR           - GAMMA RAY
DPHI.V/V      00 890 00 00         : PHID         - DENSITY POROSITY (SANDSTONE)
NPHI.V/V      00 330 00 00         : PHIN         - NEUTRON POROSITY (SANDSTONE)
ILD .OHMM     00 120 00 00         : RESD         - DEEP RESISTIVITY (DIL)
~PARAMETER INFORMATION
#MNEM.UNIT           DATA             DESCRIPTION OF MNEMONIC
#---------         -----------     ------------------------------
GL  .M        590.398              : gl           - GROUND LEVEL ELEVATION
EREF.M        592.836              : kb           - ELEVATION OF DEPTH REFERENCE
DATM.M        590.398              : datum        - DATUM ELEVATION
TDD .M        429.768              : tdd          - TOTAL DEPTH DRILLER
RUN .         ONE                  : Run          - RUN NUMBER
ENG .         BILL                 : Engineer     - RECORDING ENGINEER
WIT .         JIM                  : Witness      - WITNESSED BY
MUD .         GEL                  : Mud_type     - MUD TYPE
MATR.         SANDSTONE            : Logunit      - NEUTRON MATRIX
TMAX.C        20.5556              : BHT          - MAXIMUM RECORDED TEMPERATURE
BHTD.M        429.158              : BHTDEP       - MAXIMUM RECORDED TEMPERATURE
MATR.         1                    : LOGUNIT      - NEUTRON MATRIX
RMT .C        25                   : MDTP         - TEMPERATURE OF MUD
NEUT.         1                    : NEUTRON      - NEUTRON TYPE
RESI.         0                    : RESIST       - RESISTIVITY TYPE
RMC .OHMM     0.25                 : RMC          - RESISTIVITY OF MUD CAKE
RMF .OHMM     0.25                 : RMF          - RESISTIVITY OF MUD FILTRATE
SUFT.C        15                   : SUFT         - SURFACE TEMPERATURE
~A  DEPTH       GR     PHID     PHIN     RESD
  240.792  108.603    0.251    0.588    2.805
  241.042  108.478    0.235    0.601    2.724
  241.292  106.222    0.239    0.613    2.660
  241.542  102.739    0.244    0.598    2.749
  241.792  101.029    0.253    0.603    2.827
  242.042   98.898    0.242    0.592    2.977
  242.292   88.096    0.184    0.589    3.071
  242.542   79.408    0.159    0.579    3.010
  242.792   88.711    0.063    0.478    3.016
  243.042   96.693    0.002    0.501    3.011
  243.292  103.789    0.020    0.543    3.078
  243.542  103.322    0.136    0.562    3.071
  243.792  105.322    0.240    0.582    3.064
  244.042  107.280    0.229    0.561    3.129
  244.292  109.277    0.236    0.542    3.184
  244.542  110.423    0.221    0.559    3.221
  244.792  107.922    0.212    0.570    3.251
  245.042  105.612    0.197    0.564    3.362
  245.292  107.340    0.185    0.556    3.402
  245.542  107.486    0.201    0.551    3.357
  245.792  108.948    0.238    0.542    3.365
  246.042  111.918    0.246    0.531    3.386
  246.292  114.073    0.224    0.542    3.496
  246.542  110.407    0.219    0.531    3.764
  246.792  107.824    0.230    0.537    4.106
  247.042  106.976    0.246    0.531    4.270
  247.292  106.490    0.205    0.505    4.368
  247.542  109.127    0.188    0.524    4.159
  247.792  113.487    0.212    0.542    4.044
  248.042  115.500    0.224    0.561    3.916
  248.292  116.136    0.213    0.563    3.892
  248.542  117.709    0.207    0.562    3.890
  248.792  116.172    0.214    0.562    3.895
  249.042  112.215    0.231    0.551    3.807
  249.292  107.982    0.229    0.537    3.746
  249.542  102.554    0.231    0.530    3.753
  249.792  100.440    0.238    0.519    3.676
  250.042  100.502    0.197    0.524    3.684
  250.292  105.989    0.234    0.543    3.584
  250.542  108.225    0.229    0.566    3.543
  250.792  110.165    0.238    0.540    3.658
  251.042  109.799    0.239    0.524    3.686
  251.292  106.659    0.214    0.529    3.858
  251.542  104.389    0.203    0.529    4.491
  251.792   97.544    0.226    0.514    5.610
  252.042   90.213    0.250    0.466    7.364
  252.292   82.715    0.259    0.444    9.448
  252.542   73.071    0.274    0.436   11.421
  252.792   65.749    0.326    0.514   12.203
  253.042   56.481    0.387    0.576   11.804
  253.292   56.868    0.516    0.622   10.873
  253.542   72.455    0.447    0.725   10.318
  253.792   86.108    0.326    0.639   10.932
  254.042   87.438    0.278    0.589   12.996
  254.292   64.083    0.249    0.451   14.845
  254.542   53.135    0.278    0.409   15.754
  254.792   48.761    0.313    0.350   14.286
  255.042   46.868    0.333    0.330   12.607
  255.292   46.635    0.343    0.366   11.155
  255.542   46.597    0.341    0.388   10.183
  255.792   47.703    0.336    0.410   10.055
  256.042   49.719    0.333    0.419    9.732
  256.292   52.015    0.327    0.424    9.927
  256.542   55.583    0.327    0.422    9.970
  256.792   57.448    0.334    0.437   10.088
  257.042   63.116    0.337    0.449   10.271
  257.292   67.838    0.332    0.452   10.487
  257.542   74.216    0.324    0.434   10.454
  257.792   77.889    0.321    0.422   10.783
  258.042   86.524    0.302    0.425   10.850
  258.292   96.423    0.287    0.441   10.840
  258.542  103.540    0.273    0.453   11.169
  258.792  107.542    0.252    0.458   11.261
  259.042  107.455    0.236    0.457   11.786
  259.292  103.302    0.261    0.449   12.106
  259.542   98.873    0.275    0.459   12.339
  259.792   95.644    0.276    0.462   12.330
  260.042   98.680    0.265    0.435   12.350
  260.292  104.220    0.253    0.418   12.105
  260.542  107.247    0.234    0.413   12.360
  260.792  109.423    0.244    0.410   12.376
  261.042  108.766    0.250    0.421   12.543
  261.292  106.323    0.254    0.426   13.528
  261.542  101.694    0.272    0.430   15.396
  261.792   82.872    0.279    0.418   18.981
  262.042   64.023    0.280    0.389   25.134
  262.292   53.103    0.336    0.296   31.190
  262.542   49.633    0.374    0.261   35.240
  262.792   53.726    0.382    0.245   37.623
  263.042   66.593    0.373    0.261   32.103
  263.292   76.660    0.339    0.308   26.087
  263.542   80.099    0.286    0.363   22.608
  263.792   78.860    0.275    0.389   19.982
  264.042   76.852    0.290    0.397   17.513
  264.292   80.714    0.310    0.403   15.772
  264.542   84.625    0.289    0.407   13.007
  264.792   90.460    0.229    0.410   11.835
  265.042   94.803    0.205    0.414   10.540
  265.292  101.209    0.200    0.426    9.205
  265.542  109.799    0.197    0.444    8.057
  265.792  115.445    0.181    0.476    7.313
  266.042  117.277    0.169    0.487    6.584
  266.292  117.932    0.162    0.502    5.770
  266.542  124.817    0.154    0.519    5.571
  266.792  126.424    0.125    0.526    5.071
  267.042  126.994    0.173    0.529    4.853
  267.292  129.634    0.183    0.536    4.637
  267.542  129.725    0.182    0.545    4.366
  267.792  130.639    0.178    0.552    4.214
  268.042  132.707    0.181    0.552    4.217
  268.292  133.273    0.189    0.556    4.216
  268.542  132.230    0.192    0.562    4.215
  268.792  132.508    0.201    0.568    4.221
  269.042  130.674    0.167    0.557    4.108
  269.292  127.432    0.181    0.553    3.987
  269.542  125.856    0.187    0.563    3.858
  269.792  125.046    0.169    0.565    3.959
  270.042  131.164    0.151    0.545    4.500
  270.292  138.936    0.115    0.558    5.600
  270.542  136.039    0.184    0.516    7.196
  270.792  128.201    0.205    0.489    7.926
  271.042  120.579    0.233    0.451    8.990
  271.292  122.281    0.246    0.453    9.487
  271.542  124.764    0.212    0.458    9.336
  271.792  125.002    0.213    0.472    9.078
  272.042  125.722    0.205    0.480    8.452
  272.292  123.510    0.226    0.494    7.854
  272.542  120.441    0.238    0.503    7.302
  272.792  116.220    0.244    0.489    7.044
  273.042  113.447    0.248    0.484    7.027
  273.292  108.171    0.225    0.496    7.675
  273.542  102.247    0.209    0.505    8.555
  273.792   93.398    0.216    0.446    9.386
  274.042   84.523    0.241    0.394   10.024
  274.292   84.630    0.265    0.421   10.336
  274.542   95.161    0.269    0.437   10.369
  274.792   97.594    0.277    0.464   10.151
  275.042   96.645    0.284    0.480    9.706
  275.292   95.564    0.286    0.490    9.320
  275.542   99.443    0.278    0.499    8.930
  275.792  105.252    0.272    0.509    8.496
  276.042  109.744    0.269    0.527    8.282
  276.292  113.062    0.257    0.526    8.295
  276.542  118.469    0.287    0.489    8.292
  276.792  120.877    0.266    0.465    8.278
  277.042  124.398    0.234    0.470    7.885
  277.292  126.837    0.222    0.479    7.704
  277.542  125.936    0.233    0.469    7.535
  277.792  106.027    0.262    0.469    7.500
  278.042   91.490    0.250    0.497    8.206
  278.292   82.564    0.263    0.494    8.615
  278.542   79.714    0.302    0.441    9.200
  278.792   80.895    0.290    0.439    9.621
  279.042   82.700    0.275    0.453    9.771
  279.292   85.468    0.269    0.445    9.654
  279.542   87.965    0.257    0.431    9.591
  279.792   90.317    0.245    0.445    9.747
  280.042   90.246    0.237    0.467    9.963
  280.292   81.850    0.236    0.480    9.950
  280.542   73.348    0.298    0.486    9.950
  280.792   67.738    0.300    0.486   10.531
  281.042   64.613    0.266    0.485   12.039
  281.292   63.315    0.223    0.472   12.541
  281.542   63.445    0.159    0.431   11.516
  281.792   70.252    0.104    0.365    9.914
  282.042   76.908    0.082    0.434    8.371
  282.292   80.720    0.231    0.496    7.566
  282.542   84.497    0.269    0.520    6.873
  282.792   86.154    0.287    0.533    6.553
  283.042   82.513    0.275    0.558    6.935
  283.292   78.263    0.293    0.543    7.612
  283.542   77.585    0.294    0.504    7.878
  283.792   80.997    0.287    0.482    8.132
  284.042   85.807    0.298    0.475    8.262
