~VERSION INFORMATION
 VERS.                 2.0:   CWLS LOG ASCII STANDARD -VERSION 2.0
 WRAP.                  NO:   ONE LINE PER DEPTH STEP
~WELL INFORMATION BLOCK
#MNEM.UNIT           DATA                    DESCRIPTION OF MNEMONIC
#---------    -------------------            -------------------------------
# Generated from Intellog Unique Number	CC_80_83/WELL/1046
LOC .         00/03-03-081-10W4/0            : Location     - LOCATION
UWI .         00/03-03-081-10W400            : Uwi          - UNIQUE WELL ID
ENTR.         DW                             : Entered      - ENTERED BY
SRVC.         SCHLUMBERGER                   : Scn          - SERVICE COMPANY
STRT.M        250                            : top_depth    - START DEPTH
STOP.M        484.75                         : bot_depth    - STOP DEPTH
STEP.M        0.25                           : increment    - STEP LENGTH
 NULL. -999.2500:NULL Value
~CURVE INFORMATION BLOCK
#MNEM UNIT       ERCB CURVE CODE    CURVE DESCRIPTION
#-----------   ------------------   ----------------------------------
DEPT.M        00 001 00 00         : DEPTH        - DEPTH
GR  .API      00 310 00 00         : GR           - GAMMA RAY
DPHI.V/V      00 890 00 00         : PHID         - DENSITY POROSITY (SANDSTONE)
NPHI.V/V      00 330 00 00         : PHIN         - NEUTRON POROSITY (SANDSTONE)
ILD .OHMM     00 120 00 00         : RESD         - DEEP RESISTIVITY (DIL)
~PARAMETER INFORMATION
#MNEM.UNIT           DATA             DESCRIPTION OF MNEMONIC
#---------         -----------     ------------------------------
GL  .M        695                  : gl           - GROUND LEVEL ELEVATION
EREF.M        698.2                : kb           - ELEVATION OF DEPTH REFERENCE
DATM.M        698.2                : datum        - DATUM ELEVATION
TDD .M        492                  : tdd          - TOTAL DEPTH DRILLER
RUN .         ONE                  : Run          - RUN NUMBER
ENG .         BILL                 : Engineer     - RECORDING ENGINEER
WIT .         JIM                  : Witness      - WITNESSED BY
MUD .         GEL                  : Mud_type     - MUD TYPE
MATR.         SANDSTONE            : Logunit      - NEUTRON MATRIX
TMAX.C        27                   : BHT          - MAXIMUM RECORDED TEMPERATURE
BHTD.M        492                  : BHTDEP       - MAXIMUM RECORDED TEMPERATURE
MATR.         1                    : LOGUNIT      - NEUTRON MATRIX
RMT .C        25                   : MDTP         - TEMPERATURE OF MUD
NEUT.         1                    : NEUTRON      - NEUTRON TYPE
RESI.         0                    : RESIST       - RESISTIVITY TYPE
RMC .OHMM     0.25                 : RMC          - RESISTIVITY OF MUD CAKE
RMF .OHMM     0.25                 : RMF          - RESISTIVITY OF MUD FILTRATE
SUFT.C        15                   : SUFT         - SURFACE TEMPERATURE
~A  DEPTH       GR     PHID     PHIN     RESD
# ...
  424.000   72.488    0.321    0.337   25.980
  424.250   73.531    0.316    0.359   22.870
  424.500   74.492    0.313    0.379   20.033
  424.750   76.615    0.306    0.390   17.574
  425.000   79.030    0.292    0.393   15.733
  425.250   80.399    0.280    0.399   15.123
  425.500   80.679    0.286    0.409   15.796
  425.750   76.757    0.297    0.418   17.693
  426.000   69.455    0.308    0.434   19.587
  426.250   66.030    0.306    0.406   21.389
  426.500   66.203    0.218    0.365   21.688
  426.750   70.408    0.132    0.351   19.700
  427.000   82.317    0.191    0.354   16.610
  427.250   92.613    0.211    0.388   13.191
  427.500   91.717    0.216    0.411   11.550
  427.750   83.060    0.202    0.415   11.248
  428.000   75.482    0.183    0.374   12.148
  428.250   69.389    0.199    0.324   13.434
  428.500   62.088    0.236    0.331   13.790
  428.750   62.136    0.234    0.334   14.513
  429.000   67.629    0.227    0.339   14.658
  429.250   72.880    0.226    0.356   14.538
  429.500   79.628    0.223    0.370   13.969
  429.750   86.817    0.219    0.383   13.131
  430.000   87.541    0.216    0.394   12.741
  430.250   85.531    0.207    0.365   11.793
  430.500   89.638    0.193    0.348   10.607
  430.750   95.131    0.189    0.360   10.151
  431.000   96.439    0.190    0.382   10.011
  431.250   94.805    0.182    0.401    9.674
  431.500   94.594    0.168    0.401    9.548
  431.750   97.735    0.165    0.356    9.543
  432.000  100.736    0.172    0.342    9.645
  432.250  102.492    0.180    0.369    9.995
  432.500  102.347    0.183    0.395   10.609
  432.750   93.760    0.189    0.398   11.306
  433.000   78.362    0.205    0.386   11.832
  433.250   76.960    0.223    0.353   12.191
  433.500   77.960    0.217    0.327   12.973
  433.750   78.326    0.209    0.331   13.632
  434.000   80.333    0.211    0.339   13.871
  434.250   82.839    0.214    0.334   13.730
  434.500   83.675    0.211    0.338   13.274
  434.750   82.856    0.188    0.356   13.043
  435.000   78.884    0.186    0.366   13.034
  435.250   75.448    0.187    0.355   13.040
  435.500   72.951    0.170    0.344   13.742
  435.750   70.489    0.172    0.339   14.795
  436.000   68.965    0.214    0.324   14.927
  436.250   68.430    0.223    0.314   14.919
  436.500   74.573    0.214    0.315   14.985
  436.750   76.948    0.197    0.323   14.659
  437.000   74.168    0.194    0.331   14.221
  437.250   73.721    0.215    0.345   14.071
  437.500   76.011    0.226    0.360   14.100
  437.750   76.559    0.220    0.339   14.349
  438.000   76.638    0.233    0.331   14.350
  438.250   73.184    0.268    0.349   14.598
  438.500   68.574    0.276    0.351   15.238
  438.750   65.757    0.258    0.334   16.032
  439.000   62.481    0.261    0.342   16.802
  439.250   59.551    0.269    0.365   17.319
  439.500   60.888    0.261    0.365   18.386
  439.750   66.260    0.251    0.355   19.537
  440.000   71.399    0.249    0.348   20.201
  440.250   74.780    0.244    0.347   20.393
  440.500   78.537    0.231    0.351   20.380
  440.750   79.047    0.229    0.349   20.384
  441.000   66.613    0.255    0.352   20.369
  441.250   61.656    0.273    0.352   20.446
  441.500   66.364    0.274    0.349   20.187
  441.750   66.094    0.290    0.355   19.437
  442.000   58.403    0.323    0.370   18.472
  442.250   52.217    0.321    0.370   16.626
  442.500   57.576    0.306    0.357   13.526
  442.750   57.362    0.313    0.363   11.752
  443.000   48.062    0.332    0.379   11.092
  443.250   40.045    0.346    0.389   10.506
  443.500   37.719    0.356    0.396   10.794
  443.750   41.366    0.355    0.390   11.527
  444.000   45.026    0.347    0.383   12.117
  444.250   47.175    0.327    0.383   12.834
  444.500   49.894    0.320    0.385   13.712
  444.750   56.044    0.331    0.378   14.640
  445.000   65.248    0.312    0.371   15.274
  445.250   68.647    0.258    0.384   15.738
  445.500   55.461    0.299    0.415   20.296
  445.750   50.064    0.341    0.416   23.864
  446.000   56.562    0.310    0.390   28.350
  446.250   66.656    0.270    0.378   33.973
  446.500   79.185    0.284    0.386   35.887
  446.750   80.525    0.304    0.389   40.653
  447.000   70.607    0.321    0.385   48.487
  447.250   53.849    0.334    0.387   57.564
  447.500   39.196    0.346    0.393   69.995
  447.750   32.000    0.352    0.393   80.669
  448.000   29.931    0.352    0.389   84.102
  448.250   30.484    0.351    0.388   92.672
  448.500   30.517    0.353    0.390  101.808
  448.750   31.037    0.355    0.393  114.683
  449.000   30.700    0.356    0.396  123.729
  449.250   28.930    0.355    0.405  131.663
  449.500   27.970    0.354    0.411  144.486
  449.750   26.935    0.356    0.395  150.307
  450.000   26.076    0.357    0.413  208.090
  450.250   29.645    0.355    0.416  235.927
  450.500   33.458    0.349    0.397  233.243
  450.750   34.762    0.350    0.389  242.952
  451.000   35.523    0.357    0.388  240.752
  451.250   31.501    0.343    0.386  225.082
  451.500   32.573    0.328    0.402  220.385
  451.750   34.498    0.329    0.418  231.068
  452.000   33.902    0.345    0.421  248.922
  452.250   31.722    0.360    0.417  271.388
  452.500   28.520    0.363    0.411  318.456
  452.750   26.890    0.364    0.409  419.774
  453.000   25.729    0.369    0.408  538.410
  453.250   25.248    0.379    0.434  630.661
  453.500   25.731    0.384    0.449  673.395
  453.750   27.105    0.381    0.427  693.827
  454.000   29.314    0.374    0.413  729.543
  454.250   31.514    0.363    0.409  773.587
  454.500   32.422    0.356    0.401  887.878
  454.750   32.138    0.361    0.400 1015.410
  455.000   31.541    0.366    0.405 1171.650
  455.250   31.010    0.365    0.405 1333.240
  455.500   30.498    0.366    0.408 1441.390
  455.750   30.055    0.366    0.420 1616.160
  456.000   28.053    0.361    0.417 1769.320
  456.250   23.770    0.355    0.428 1878.470
  456.500   21.005    0.349    0.435 1943.160
  456.750   24.258    0.346    0.421 1959.740
  457.000   30.637    0.348    0.408 1958.740
  457.250   31.340    0.355    0.396 1963.020
  457.500   30.465    0.358    0.384 1902.840
  457.750   31.262    0.351    0.379 1882.780
  458.000   33.394    0.346    0.379 1963.370
  458.250   35.314    0.344    0.383 2042.550
  458.500   36.247    0.341    0.388 2032.340
  458.750   36.751    0.338    0.388 2003.620
  459.000   37.687    0.335    0.388 1890.500
  459.250   38.712    0.335    0.386 1608.440
  459.500   36.561    0.335    0.399 1255.170
  459.750   32.278    0.343    0.421  935.062
  460.000   30.466    0.360    0.423  677.122
  460.250   29.326    0.357    0.410  587.504
  460.500   29.474    0.350    0.396  588.638
  460.750   30.735    0.347    0.382  604.758
  461.000   30.915    0.348    0.379  603.225
  461.250   29.561    0.353    0.393  574.554
  461.500   28.579    0.360    0.412  527.895
  461.750   28.443    0.355    0.422  486.618
  462.000   30.017    0.350    0.418  448.748
  462.250   30.521    0.349    0.399  414.020
  462.500   29.183    0.351    0.381  379.384
  462.750   27.696    0.354    0.371  319.518
  463.000   29.411    0.353    0.369  212.068
  463.250   37.465    0.346    0.402  100.213
  463.500   42.903    0.338    0.413   68.100
  463.750   45.033    0.332    0.413   65.305
  464.000   48.043    0.328    0.413   55.856
  464.250   52.417    0.324    0.408   46.892
  464.500   56.054    0.317    0.406   37.980
  464.750   59.056    0.319    0.409   35.355
  465.000   56.858    0.327    0.415   35.551
  465.250   52.824    0.329    0.415   37.278
  465.500   47.642    0.334    0.414   40.237
  465.750   43.434    0.344    0.428   42.200
  466.000   44.556    0.341    0.450   41.999
  466.250   46.617    0.331    0.444   41.075
  466.500   50.009    0.317    0.429   33.864
  466.750   57.508    0.305    0.392   23.876
  467.000   70.469    0.272    0.395   16.712
  467.250   84.091    0.211    0.431   13.206
