~VERSION INFORMATION
 VERS.                 2.0:   CWLS LOG ASCII STANDARD -VERSION 2.0
 WRAP.                  NO:   ONE LINE PER DEPTH STEP
~WELL INFORMATION BLOCK
#MNEM.UNIT           DATA                    DESCRIPTION OF MNEMONIC
#---------    -------------------            -------------------------------
# Generated from Intellog Unique Number	CS_77_79/WELL/868
WELL.         CAVALIER ET AL PORTAGE         : Well_name    - WELL
LOC .         00/06-10-078-15W4/0            : Location     - LOCATION
UWI .         00/06-10-078-15W4/0            : Uwi          - UNIQUE WELL ID
ENTR.         JHS                            : Entered      - ENTERED BY
SRVC.         SCHLUMBERGER                   : Scn          - SERVICE COMPANY
STRT.M        225                            : top_depth    - START DEPTH
STOP.M        453                            : bot_depth    - STOP DEPTH
STEP.M        0.25                           : increment    - STEP LENGTH
 NULL. -999.2500:NULL Value
~CURVE INFORMATION BLOCK
#MNEM UNIT       ERCB CURVE CODE    CURVE DESCRIPTION
#-----------   ------------------   ----------------------------------
DEPT.M        00 001 00 00         : DEPTH        - DEPTH
DPHI.V/V      00 890 00 00         : PHID         - DENSITY POROSITY (LIMESTONE)
NPHI.V/V      00 330 00 00         : PHIN         - NEUTRON POROSITY (LIMESTONE)
GR  .API      00 310 00 00         : GR           - GAMMA RAY
ILD .OHMM     00 120 00 00         : RESD         - DEEP RESISTIVITY (DIL)
~PARAMETER INFORMATION
#MNEM.UNIT           DATA             DESCRIPTION OF MNEMONIC
#---------         -----------     ------------------------------
GL  .M        631.2                : gl           - GROUND LEVEL ELEVATION
EREF.M        635.2                : kb           - ELEVATION OF DEPTH REFERENCE
DATM.M        635.2                : datum        - DATUM ELEVATION
TDD .M        453.7                : tdd          - TOTAL DEPTH DRILLER
RUN .         ONE                  : Run          - RUN NUMBER
ENG .         BILL                 : Engineer     - RECORDING ENGINEER
WIT .         JIM                  : Witness      - WITNESSED BY
MUD .         GEL                  : Mud_type     - MUD TYPE
MATR.         LIMESTONE            : Logunit      - NEUTRON MATRIX
TMAX.C        21                   : BHT          - MAXIMUM RECORDED TEMPERATURE
BHTD.M        453.7                : BHTDEP       - MAXIMUM RECORDED TEMPERATURE
MATR.         1                    : LOGUNIT      - NEUTRON MATRIX
RMT .C        25                   : MDTP         - TEMPERATURE OF MUD
NEUT.         1                    : NEUTRON      - NEUTRON TYPE
RESI.         0                    : RESIST       - RESISTIVITY TYPE
RMC .OHMM     0.25                 : RMC          - RESISTIVITY OF MUD CAKE
RMF .OHMM     0.25                 : RMF          - RESISTIVITY OF MUD FILTRATE
SUFT.C        15                   : SUFT         - SURFACE TEMPERATURE
~A  DEPTH     PHID     PHIN       GR     RESD
# ...
  312.000    0.375    0.451   59.865   13.225
  312.250    0.363    0.439   61.706   13.735
  312.500    0.314    0.421   61.712   14.264
  312.750    0.215    0.277   58.655   16.272
  313.000    0.206    0.219   54.374   17.220
  313.250    0.205    0.166   51.316   17.551
  313.500    0.216    0.172   49.485   16.596
  313.750    0.275    0.237   51.327   15.399
  314.000    0.315    0.324   55.617   13.763
  314.250    0.332    0.365   59.908   12.301
  314.500    0.346    0.402   62.361   11.416
  314.750    0.347    0.415   62.980   11.418
  315.000    0.340    0.423   62.984   11.421
  315.250    0.338    0.423   63.601   11.641
  315.500    0.348    0.429   66.055   11.867
  315.750    0.337    0.434   64.836   11.870
  316.000    0.335    0.437   63.616   12.097
  316.250    0.347    0.427   59.947   12.331
  316.500    0.359    0.424   59.340   12.808
  316.750    0.359    0.425   61.182   13.300
  317.000    0.343    0.430   61.799   14.342
  317.250    0.337    0.414   61.804   15.177
  317.500    0.333    0.398   61.197   16.062
  317.750    0.327    0.390   60.589   15.768
  318.000    0.316    0.392   59.981   14.908
  318.250    0.335    0.397   59.373   13.834
  318.500    0.325    0.405   58.766   13.079
  318.750    0.321    0.409   59.383   12.367
  319.000    0.322    0.405   60.001   12.142
  319.250    0.331    0.408   59.393   11.920
  319.500    0.339    0.410   58.174   11.923
  319.750    0.344    0.411   58.790   11.926
  320.000    0.348    0.421   60.021   11.929
  320.250    0.342    0.436   60.638   12.160
  320.500    0.338    0.452   60.642   12.164
  320.750    0.333    0.455   60.035   11.941
  321.000    0.336    0.436   58.815   11.722
  321.250    0.319    0.409   58.207   11.507
  321.500    0.300    0.391   60.663   11.086
  321.750    0.295    0.382   61.891   10.483
  322.000    0.289    0.393   63.120    9.728
  322.250    0.266    0.398   61.290    8.859
  322.500    0.260    0.400   60.681    7.918
  322.750    0.257    0.416   70.483    7.486
  323.000    0.251    0.436   75.997    7.349
  323.250    0.243    0.453   88.247    7.351
  323.500    0.253    0.431   95.599    7.493
  323.750    0.256    0.424   91.320    7.637
  324.000    0.254    0.424   91.324    7.640
  324.250    0.249    0.439   90.103    7.361
  324.500    0.246    0.455   84.598    7.226
  324.750    0.230    0.465   85.828    7.093
  325.000    0.224    0.450   85.221    7.095
  325.250    0.213    0.449   88.287    7.097
  325.500    0.196    0.447   93.802    7.235
  325.750    0.188    0.446   95.031    7.236
  326.000    0.190    0.452   93.199    7.375
  326.250    0.188    0.459   88.918    7.660
  326.500    0.195    0.464   84.638    7.807
  326.750    0.197    0.454   89.540    7.809
  327.000    0.195    0.447   94.444    7.812
  327.250    0.196    0.439   96.897    7.814
  327.500    0.201    0.439   99.963    7.671
  327.750    0.199    0.439  100.582    7.391
  328.000    0.208    0.442  100.585    7.256
  328.250    0.214    0.450   99.366    6.990
  328.500    0.202    0.463   98.145    6.735
  328.750    0.202    0.467   99.377    6.488
  329.000    0.208    0.475  101.218    6.135
  329.250    0.214    0.489  102.447    5.693
  329.500    0.208    0.497  101.227    5.485
  329.750    0.225    0.492  101.844    5.384
  330.000    0.235    0.477  103.686    5.188
  330.250    0.239    0.478  104.915    4.906
  330.500    0.251    0.499  105.532    4.815
  330.750    0.262    0.491   98.802    4.639
  331.000    0.255    0.472   95.133    4.641
  331.250    0.244    0.461   94.527    4.730
  331.500    0.261    0.456   92.083    5.197
  331.750    0.258    0.460   90.863    5.818
  332.000    0.267    0.472   90.256    6.274
  332.250    0.284    0.462   90.260    6.516
  332.500    0.285    0.464   89.040    6.277
  332.750    0.272    0.458   87.821    4.920
  333.000    0.263    0.456   83.540    3.929
  333.250    0.255    0.476   90.892    3.446
  333.500    0.249    0.491   97.631    3.080
  333.750    0.245    0.519  104.984    2.912
  334.000    0.242    0.549  108.050    2.554
  334.250    0.256    0.577  109.892    2.326
  334.500    0.266    0.593  109.284    2.327
  334.750    0.271    0.603  109.290    2.416
  335.000    0.279    0.613  111.131    2.463
  335.250    0.286    0.616  111.135    2.464
  335.500    0.277    0.613  108.691    2.419
  335.750    0.266    0.603  107.472    2.512
  336.000    0.267    0.567  106.864    2.709
  336.250    0.263    0.545  101.974    2.976
  336.500    0.251    0.542  101.365    3.209
  336.750    0.239    0.563  102.594    3.593
  337.000    0.228    0.553  102.598    3.802
  337.250    0.201    0.566  104.440    4.100
  337.500    0.201    0.544  102.608    4.258
  337.750    0.201    0.532   98.939    4.506
  338.000    0.206    0.527  100.781    4.680
  338.250    0.231    0.520  104.459    4.860
  338.500    0.246    0.514  111.811    5.241
  338.750    0.253    0.509  116.102    5.651
  339.000    0.268    0.492  108.147    6.209
  339.250    0.300    0.476   92.845    6.822
  339.500    0.313    0.444   78.156    7.495
  339.750    0.327    0.397   72.650    8.392
  340.000    0.325    0.382   68.982    8.880
  340.250    0.322    0.375   67.763    9.223
  340.500    0.317    0.373   68.379    9.401
  340.750    0.316    0.379   69.609    9.057
  341.000    0.318    0.377   67.777    9.060
  341.250    0.314    0.391   70.232    8.894
  341.500    0.328    0.394   70.236    8.898
  341.750    0.324    0.397   67.791    8.899
  342.000    0.329    0.405   67.796    8.737
  342.250    0.327    0.401   65.965    8.739
  342.500    0.330    0.397   65.970    8.742
  342.750    0.330    0.397   67.812    8.744
  343.000    0.326    0.395   67.816    8.747
  343.250    0.329    0.392   67.209    8.750
  343.500    0.328    0.391   68.439    8.752
  343.750    0.322    0.388   67.219    8.755
  344.000    0.314    0.384   68.447    8.923
  344.250    0.318    0.380   69.678    8.926
  344.500    0.309    0.380   69.682    8.762
  344.750    0.296    0.391   71.524    8.765
  345.000    0.292    0.401   70.304    8.768
  345.250    0.296    0.397   69.084    8.608
  345.500    0.302    0.396   69.702    8.610
  345.750    0.318    0.399   67.871    8.613
  346.000    0.324    0.409   69.099    8.615
  346.250    0.323    0.422   70.330    8.457
  346.500    0.315    0.436   72.783    8.460
  346.750    0.317    0.444   77.074    8.151
  347.000    0.304    0.435   80.752    8.002
  347.250    0.301    0.427   83.818    7.855
  347.500    0.292    0.420   85.047    7.711
  347.750    0.306    0.424   80.154    7.570
  348.000    0.293    0.433   79.547    7.293
  348.250    0.285    0.431   82.001    7.160
  348.500    0.273    0.434   79.556    6.898
  348.750    0.262    0.431   78.337    6.646
  349.000    0.260    0.430   77.729    6.284
  349.250    0.271    0.445   80.184    6.054
  349.500    0.274    0.441   84.474    6.171
  349.750    0.282    0.434   88.153    6.290
  350.000    0.289    0.458   93.296    6.660
  350.250    0.279    0.458   93.916    6.665
  350.500    0.267    0.459   92.097    6.548
  350.750    0.266    0.440   84.791    6.433
  351.000    0.257    0.428   84.194    6.318
  351.250    0.245    0.425   86.031    6.443
  351.500    0.236    0.421   89.700    6.698
  351.750    0.246    0.414   89.101    7.090
  352.000    0.239    0.400   87.281    7.651
  352.250    0.229    0.389   83.024    8.100
  352.500    0.237    0.388   80.596    8.418
  352.750    0.246    0.390   76.947    8.585
  353.000    0.245    0.397   76.956    8.594
  353.250    0.248    0.404   80.627    8.285
  353.500    0.247    0.414   84.908    7.986
  353.750    0.258    0.422   87.353    7.557
  354.000    0.251    0.437   88.583    7.148
  354.250    0.236    0.448   89.813    6.764
  354.500    0.238    0.463   94.701    6.521
  354.750    0.236    0.470   98.981    6.404
  355.000    0.234    0.475  101.430    6.174
  355.250    0.230    0.456   99.611    5.952
