~VERSION INFORMATION
 VERS.                 2.0:   CWLS LOG ASCII STANDARD -VERSION 2.0
 WRAP.                  NO:   ONE LINE PER DEPTH STEP
~WELL INFORMATION BLOCK
#MNEM.UNIT           DATA                    DESCRIPTION OF MNEMONIC
#---------    -------------------            -------------------------------
# Generated from Intellog Unique Number	CS_77_79/WELL/894
WELL.         AMOCO LEISMER                  : Well_name    - WELL
LOC .         00/07-11-078-09W4/0            : Location     - LOCATION
UWI .         00/07-11-078-09W4/0            : Uwi          - UNIQUE WELL ID
ENTR.         JHS                            : Entered      - ENTERED BY
SRVC.         SCHLUMBERGER                   : Scn          - SERVICE COMPANY
STRT.M        167.640                        : top_depth    - START DEPTH
STOP.M        399.140                        : bot_depth    - STOP DEPTH
STEP.M        0.25                           : increment    - STEP LENGTH
 NULL. -999.2500:NULL Value
~CURVE INFORMATION BLOCK
#MNEM UNIT       ERCB CURVE CODE    CURVE DESCRIPTION
#-----------   ------------------   ----------------------------------
DEPT.M        00 001 00 00         : DEPTH        - DEPTH
RHOB.KG/M3    00 350 00 00         : DENS         - BULK DENSITY
GR  .API      00 310 00 00         : GR           - GAMMA RAY
DPHI.V/V      00 890 00 00         : PHID         - DENSITY POROSITY (SANDSTONE)
NPHI.V/V      00 330 00 00         : PHIN         - NEUTRON POROSITY (SANDSTONE)
ILD .OHMM     00 120 00 00         : RESD         - DEEP RESISTIVITY (DIL)
~PARAMETER INFORMATION
#MNEM.UNIT           DATA             DESCRIPTION OF MNEMONIC
#---------         -----------     ------------------------------
GL  .M        597.164              : gl           - GROUND LEVEL ELEVATION
EREF.M        600.669              : kb           - ELEVATION OF DEPTH REFERENCE
DATM.M        600.669              : datum        - DATUM ELEVATION
TDD .M        405.384              : tdd          - TOTAL DEPTH DRILLER
RUN .         ONE                  : Run          - RUN NUMBER
ENG .         BILL                 : Engineer     - RECORDING ENGINEER
WIT .         JIM                  : Witness      - WITNESSED BY
MUD .         GEL                  : Mud_type     - MUD TYPE
MATR.         SANDSTONE            : Logunit      - NEUTRON MATRIX
TMAX.C        21.1111              : BHT          - MAXIMUM RECORDED TEMPERATURE
BHTD.M        405.384              : BHTDEP       - MAXIMUM RECORDED TEMPERATURE
MATR.         1                    : LOGUNIT      - NEUTRON MATRIX
RMT .C        25                   : MDTP         - TEMPERATURE OF MUD
NEUT.         1                    : NEUTRON      - NEUTRON TYPE
RESI.         0                    : RESIST       - RESISTIVITY TYPE
RMC .OHMM     0.25                 : RMC          - RESISTIVITY OF MUD CAKE
RMF .OHMM     0.25                 : RMF          - RESISTIVITY OF MUD FILTRATE
SUFT.C        15                   : SUFT         - SURFACE TEMPERATURE
~A  DEPTH     DENS       GR     PHID     PHIN     RESD
  167.640    0.000  106.975    0.283    0.545    2.866
  167.890    0.000  107.043    0.266    0.535    2.860
  168.140    0.000  106.211    0.255    0.536    2.924
  168.390    0.000  105.284    0.271    0.553    2.971
  168.640    0.000  103.332    0.289    0.575    3.030
  168.890    0.000   97.622    0.264    0.566    3.095
  169.140    0.000  100.621    0.257    0.521    3.090
  169.390    0.000  101.855    0.268    0.502    3.091
  169.640    0.000   98.953    0.285    0.529    3.089
  169.890    0.000   95.252    0.292    0.545    2.993
  170.140    0.000   98.476    0.274    0.546    2.885
  170.390    0.000  102.933    0.286    0.569    2.768
  170.640    0.000  101.027    0.295    0.573    2.598
  170.890    0.000   97.139    0.268    0.529    2.498
  171.140    0.000   98.136    0.240    0.529    2.437
  171.390    0.000   98.857    0.231    0.563    2.434
  171.640    0.000   98.070    0.266    0.568    2.499
  171.890    0.000   96.113    0.279    0.546    2.529
  172.140    0.000   92.188    0.270    0.552    2.581
  172.390    0.000   94.627    0.257    0.575    2.639
  172.640    0.000   98.304    0.231    0.564    2.676
  172.890    0.000   97.266    0.237    0.536    2.753
  173.140    0.000   98.421    0.265    0.531    2.838
  173.390    0.000   98.295    0.267    0.552    2.883
  173.640    0.000   95.290    0.258    0.553    2.942
  173.890    0.000   92.928    0.243    0.531    2.997
  174.140    0.000   97.413    0.239    0.521    2.997
  174.390    0.000   96.807    0.240    0.516    3.010
  174.640    0.000   94.792    0.243    0.509    3.108
  174.890    0.000   96.644    0.246    0.533    3.198
  175.140    0.000   99.685    0.252    0.528    3.371
  175.390    0.000   98.668    0.235    0.516    3.470
  175.640    0.000   95.607    0.209    0.534    3.585
  175.890    0.000   94.154    0.179    0.532    3.619
  176.140    0.000   93.378    0.124    0.512    3.685
  176.390    0.000   91.693    0.088    0.481    3.680
  176.640    0.000   93.850    0.058    0.447    3.679
  176.890    0.000  100.353    0.205    0.467    3.507
  177.140    0.000  102.345    0.224    0.489    3.332
  177.390    0.000   98.559    0.225    0.495    3.241
  177.640    0.000   95.563    0.224    0.492    3.170
  177.890    0.000   96.506    0.224    0.526    3.240
  178.140    0.000   98.963    0.218    0.546    3.355
  178.390    0.000  100.331    0.242    0.529    3.391
  178.640    0.000  100.953    0.224    0.515    3.506
  178.890    0.000  101.344    0.208    0.520    3.561
  179.140    0.000  103.290    0.212    0.510    3.536
  179.390    0.000  105.265    0.210    0.502    3.426
  179.640    0.000  106.296    0.217    0.539    3.368
  179.890    0.000  108.078    0.223    0.529    3.367
  180.140    0.000  108.727    0.237    0.515    3.437
  180.390    0.000  105.387    0.235    0.505    3.540
  180.640    0.000  101.295    0.213    0.511    3.763
  180.890    0.000   97.007    0.200    0.496    4.054
  181.140    0.000   89.928    0.192    0.473    4.141
  181.390    0.000   81.187    0.151    0.455    4.128
  181.640    0.000   81.274    0.137    0.448    4.000
  181.890    0.000   89.142    0.201    0.497    3.880
  182.140    0.000   95.357    0.219    0.487    3.864
  182.390    0.000   95.573    0.200    0.479    4.369
  182.640    0.000   92.246    0.192    0.479    5.323
  182.890    0.000   74.145    0.223    0.449    6.869
  183.140    0.000   71.188    0.253    0.411    7.428
  183.390    0.000   72.024    0.266    0.435    7.457
  183.640    0.000   73.629    0.275    0.447    7.097
  183.890    0.000   74.623    0.267    0.432    6.394
  184.140    0.000   82.486    0.242    0.432    5.946
  184.390    0.000   87.948    0.242    0.479    5.791
  184.640    0.000   88.776    0.245    0.489    5.877
  184.890    0.000   87.244    0.227    0.488    6.571
  185.140    0.000   87.414    0.223    0.478    7.295
  185.390    0.000   86.674    0.241    0.501    8.263
  185.640    0.000   82.739    0.239    0.486    9.830
  185.890    0.000   74.268    0.236    0.472   10.845
  186.140    0.000   66.465    0.246    0.452   13.090
  186.390    0.000   60.517    0.259    0.450   14.107
  186.640    0.000   55.451    0.276    0.442   15.431
  186.890    0.000   51.945    0.314    0.428   17.297
  187.140    0.000   51.145    0.368    0.450   18.581
  187.390    0.000   50.575    0.363    0.474   19.192
  187.640    0.000   54.787    0.332    0.453   19.324
  187.890    0.000   57.620    0.311    0.436   19.022
  188.140    0.000   57.226    0.318    0.432   18.448
  188.390    0.000   59.123    0.311    0.432   17.872
  188.640    0.000   62.912    0.323    0.413   17.023
  188.890    0.000   67.865    0.312    0.418   16.982
  189.140    0.000   70.408    0.297    0.423   17.349
  189.390    0.000   71.647    0.290    0.434   17.850
  189.640    0.000   70.809    0.298    0.428   18.844
  189.890    0.000   68.575    0.312    0.428   19.015
  190.140    0.000   68.460    0.295    0.417   18.823
  190.390    0.000   66.996    0.285    0.411   18.245
  190.640    0.000   53.758    0.275    0.425   17.711
  190.890    0.000   49.622    0.290    0.435   17.370
  191.140    0.000   50.545    0.304    0.447   17.021
  191.390    0.000   57.176    0.287    0.439   17.030
  191.640    0.000   62.683    0.307    0.428   17.409
  191.890    0.000   65.028    0.325    0.426   17.383
  192.140    0.000   66.239    0.298    0.421   17.382
  192.390    0.000   70.466    0.286    0.421   17.363
  192.640    0.000   69.259    0.294    0.416   17.727
  192.890    0.000   71.614    0.309    0.400   17.879
  193.140    0.000   71.879    0.323    0.406   18.785
  193.390    0.000   67.656    0.312    0.417   19.080
  193.640    0.000   63.568    0.304    0.445   19.714
  193.890    0.000   64.101    0.324    0.473   19.894
  194.140    0.000   66.069    0.321    0.461   20.212
  194.390    0.000   70.677    0.308    0.468   20.215
  194.640    0.000   74.550    0.311    0.460   20.229
  194.890    0.000   78.395    0.330    0.443   19.914
  195.140    0.000   83.960    0.325    0.461   19.890
  195.390    0.000   83.574    0.326    0.470   19.463
  195.640    0.000   80.256    0.302    0.450   19.194
  195.890    0.000   83.226    0.314    0.429   18.290
  196.140    0.000   88.571    0.296    0.417   17.797
  196.390    0.000   91.710    0.280    0.437   17.304
  196.640    0.000   95.326    0.272    0.435   16.426
  196.890    0.000   98.584    0.291    0.434   15.955
  197.140    0.000  101.175    0.282    0.461   15.785
  197.390    0.000   96.394    0.267    0.470   15.659
  197.640    0.000   77.836    0.269    0.461   15.907
  197.890    0.000   57.261    0.266    0.438   16.503
  198.140    0.000   48.494    0.265    0.413   17.971
  198.390    0.000   40.820    0.262    0.365   19.432
  198.640    0.000   37.477    0.274    0.344   19.952
  198.890    0.000   47.478    0.243    0.340   19.928
  199.140    0.000   65.107    0.230    0.357   18.792
  199.390    0.000   75.018    0.222    0.381   16.785
  199.640    0.000   85.490    0.208    0.410   14.899
  199.890    0.000   98.375    0.226    0.437   12.873
  200.140    0.000  106.269    0.251    0.443   10.357
  200.390    0.000  108.681    0.242    0.434    8.840
  200.640    0.000  113.646    0.212    0.455    6.745
  200.890    0.000  117.625    0.218    0.486    5.148
  201.140    0.000  114.458    0.227    0.544    3.779
  201.390    0.000  109.845    0.212    0.567    3.317
  201.640    0.000  101.331    0.182    0.575    3.476
  201.890    0.000   91.739    0.199    0.570    4.201
  202.140    0.000   82.168    0.215    0.525    6.176
  202.390    0.000   63.564    0.188    0.448    9.962
  202.640    0.000   45.238    0.164    0.414   14.608
  202.890    0.000   43.341    0.177    0.394   19.049
  203.140    0.000   43.353    0.309    0.386   21.917
  203.390    0.000   50.002    0.306    0.392   23.552
  203.640    0.000   53.826    0.286    0.406   24.156
  203.890    0.000   54.317    0.265    0.416   24.201
