~VERSION INFORMATION
 VERS.                 2.0:   CWLS LOG ASCII STANDARD -VERSION 2.0
 WRAP.                  NO:   ONE LINE PER DEPTH STEP
~WELL INFORMATION BLOCK
#MNEM.UNIT           DATA                    DESCRIPTION OF MNEMONIC
#---------    -------------------            -------------------------------
# Generated from Intellog Unique Number	CC_84_87/WELL/1167
NULL.         -999.25                        : NULL_VALUE
WELL.         HB GORDON LK EV                : Well_name    - WELL
LOC .         07-24-086-03W4                 : Location     - LOCATION          
UWI .         00/07-24-086-03W400            : Uwi          - UNIQUE WELL ID    
ENTR.         DW                             : Entered      - ENTERED BY        
SRVC.         SCHLUMBERGER                   : Scn          - SERVICE COMPANY   
DATE.         13 MAR 76                      : Date         - LOG DATE
STRT.M        33.528                         : top_depth    - START DEPTH       
STOP.M        195.071                        : bot_depth    - STOP DEPTH        
STEP.M        0.3048                         : increment    - STEP LENGTH       
~CURVE INFORMATION BLOCK
#MNEM UNIT       ERCB CURVE CODE    CURVE DESCRIPTION
#-----------   ------------------   ----------------------------------
DEPT.M        00 001 00 00         : DEPTH        - DEPTH                       
DPHI.V/V      00 890 00 00         : PHID         - DENSITY POROSITY (LIMESTONE)
NPHI.V/V      00 330 00 00         : PHIN         - NEUTRON POROSITY (LIMESTONE)
GR  .API      00 310 00 00         : GR           - GAMMA RAY                   
ILD .OHMM     00 120 00 00         : RESD         - DEEP RESISTIVITY (DIL)      
~PARAMETER INFORMATION       
#MNEM.UNIT           DATA             DESCRIPTION OF MNEMONIC
#---------         -----------     ------------------------------
GL  .M        474.878              : gl           - GROUND LEVEL ELEVATION      
EREF.M        476.707              : kb           - ELEVATION OF DEPTH REFERENCE
DATM.M        476.707              : datum        - DATUM ELEVATION             
TDD .M        199.034              : tdd          - TOTAL DEPTH DRILLER         
RUN .         ONE                  : Run          - RUN NUMBER                  
ENG .         BILL                 : Engineer     - RECORDING ENGINEER          
WIT .         JIM                  : Witness      - WITNESSED BY                
MUD .         GEL                  : Mud_type     - MUD TYPE                    
MATR.         LIMESTONE            : Logunit      - NEUTRON MATRIX              
TMAX.C        20.5556              : BHT          - MAXIMUM RECORDED TEMPERATURE
BHTD.M        199.034              : BHTDEP       - MAXIMUM RECORDED TEMPERATURE
MATR.         1                    : LOGUNIT      - NEUTRON MATRIX              
RMT .C        25                   : MDTP         - TEMPERATURE OF MUD          
NEUT.         1                    : NEUTRON      - NEUTRON TYPE                
RESI.         0                    : RESIST       - RESISTIVITY TYPE            
RMC .OHMM     0.25                 : RMC          - RESISTIVITY OF MUD CAKE     
RMF .OHMM     0.25                 : RMF          - RESISTIVITY OF MUD FILTRATE 
SUFT.C        15                   : SUFT         - SURFACE TEMPERATURE         
~A  DEPTH     PHID     PHIN       GR     RESD
# ...
   86.563    0.494    0.585   94.355    6.650
   86.868    0.435    0.580   93.750    5.527
   87.173    0.413    0.576   99.798    4.857
   87.478    0.402    0.596  107.661    4.682
   87.782    0.383    0.602  108.871    4.596
   88.087    0.378    0.583  106.452    4.597
   88.392    0.392    0.614  102.823    4.685
   88.697    0.410    0.620   97.984    4.863
   89.002    0.433    0.615   94.355    5.238
   89.306    0.393    0.625   93.750    5.747
   89.611    0.373    0.597   93.145    6.667
   89.916    0.313    0.545   94.960    6.792
   90.221    0.320    0.504   96.774    6.921
   90.526    0.377    0.537   97.984    6.924
   90.830    0.360    0.591   99.194    7.186
   91.135    0.362    0.576   96.169    8.182
   91.440    0.336    0.489   97.984    9.490
   91.745    0.300    0.480   95.564   13.005
   92.050    0.307    0.495   88.306   14.270
   92.354    0.321    0.501   93.145   13.754
   92.659    0.316    0.507   98.589   12.313
   92.964    0.311    0.515  100.403   12.315
   93.269    0.315    0.526   96.169   12.548
   93.574    0.337    0.498   87.702   14.288
   93.878    0.327    0.498   80.444   16.269
   94.183    0.337    0.475   71.976   18.185
   94.488    0.336    0.461   73.186   20.327
   94.793    0.326    0.461   71.976   21.097
   95.098    0.331    0.475   76.210   21.900
   95.402    0.327    0.485   78.024   21.904
   95.707    0.321    0.427   75.605   20.726
   96.012    0.314    0.429   72.581   18.211
   96.317    0.305    0.435   71.976   15.419
   96.622    0.321    0.447   75.000   12.582
   96.926    0.282    0.467   84.677   11.473
   97.231    0.283    0.490   86.492   11.264
   97.536    0.305    0.522   75.000   11.693
   97.841    0.324    0.512   75.605   12.136
   98.146    0.326    0.457   84.073   13.317
   98.450    0.331    0.478   86.492   15.446
   98.755    0.325    0.492   82.258   17.266
   99.060    0.307    0.471   80.444   19.301
   99.365    0.302    0.451   78.629   20.033
   99.670    0.297    0.451   76.814   20.411
   99.974    0.303    0.471   74.395   19.675
  100.279    0.311    0.457   74.395   17.940
  100.584    0.313    0.460   75.000   15.475
  100.889    0.303    0.474   86.492   14.915
  101.194    0.291    0.460   88.306   13.854
  101.498    0.293    0.469   87.702   13.857
  101.803    0.305    0.463   92.540   12.872
  102.108    0.281    0.433  101.008   11.310
  102.413    0.260    0.438  100.403    9.755
  102.718    0.263    0.467   94.355    9.061
  103.022    0.265    0.443   99.194    8.733
  103.327    0.262    0.444   98.589    8.737
  103.632    0.281    0.471   97.984    9.237
  103.937    0.287    0.494  101.613    9.412
  104.242    0.267    0.501  102.823    9.590
  104.546    0.260    0.508  105.242    9.771
  104.851    0.271    0.511  106.452    9.958
  105.156    0.281    0.512  107.056   10.145
  105.461    0.287    0.471   97.379    9.962
  105.766    0.274    0.474   99.194    9.965
  106.070    0.270    0.484  101.008    9.784
  106.375    0.275    0.491   99.798    9.607
  106.680    0.268    0.501   99.798    9.090
  106.985    0.271    0.482  101.613    8.137
  107.290    0.287    0.486  104.032    7.018
  107.594    0.296    0.509  107.056    6.282
  107.899    0.302    0.553  106.452    5.944
  108.204    0.288    0.603  107.661    5.320
  108.509    0.276    0.594  108.266    5.034
  108.814    0.274    0.541  110.081    4.590
  109.118    0.287    0.526  112.500    4.424
  109.423    0.298    0.570  114.315    4.265
  109.728    0.303    0.603  113.710    4.111
  110.033    0.312    0.587  114.919    3.818
  110.338    0.316    0.586  120.363    3.613
  110.643    0.325    0.609  122.782    3.418
  110.947    0.332    0.629  123.387    3.234
  111.252    0.321    0.630  119.153    3.176
  111.557    0.321    0.625  114.919    3.119
  111.862    0.304    0.635  111.290    3.178
  112.167    0.312    0.610  110.685    3.298
  112.471    0.313    0.603  116.734    3.553
  112.776    0.307    0.602  122.782    3.756
  113.081    0.303    0.613  119.758    4.277
  113.386    0.302    0.601  113.105    4.961
  113.691    0.293    0.563  109.476    6.431
  113.995    0.281    0.546  108.871    6.800
  114.300    0.303    0.530  108.871    6.801
  114.605    0.285    0.519  111.290    6.557
  114.910    0.284    0.523  107.661    6.558
  115.215    0.285    0.554  101.613    6.559
  115.519    0.320    0.574  100.403    6.808
  115.824    0.314    0.501   95.564    7.471
  116.129    0.314    0.499   94.960    8.351
  116.434    0.326    0.511   97.984    8.667
  116.739    0.312    0.517   99.194    8.997
  117.043    0.312    0.520   97.984    8.999
  117.348    0.313    0.522   88.911    9.170
  117.653    0.307    0.506   89.516   10.061
  117.958    0.219    0.479   86.492   11.040
  118.263    0.123    0.435   73.790   11.459
  118.567    0.145    0.285   70.161   11.464
  118.872    0.212    0.371   90.726   11.049
  119.177    0.302    0.448  105.242   10.649
  119.482    0.296    0.514  111.895   10.264
  119.787    0.274    0.514  110.081    9.893
  120.091    0.263    0.484  108.871    9.191
  120.396    0.284    0.493  106.452    8.697
  120.701    0.284    0.491  105.242    8.382
  121.006    0.267    0.485  105.242    8.079
  121.311    0.261    0.477  110.685    7.933
  121.615    0.270    0.472  114.919    7.934
  121.920    0.279    0.519  111.895    7.649
  122.225    0.295    0.541  108.266    7.372
  122.530    0.270    0.530  106.452    6.975
  122.835    0.263    0.506  110.081    6.724
  123.139    0.267    0.499  110.081    6.130
  123.444    0.287    0.521  108.266    5.288
  123.749    0.291    0.569  108.871    4.734
  124.054    0.299    0.592  111.290    4.648
  124.359    0.279    0.564  111.895    4.480
  124.663    0.281    0.557  111.895    4.564
  124.968    0.313    0.557  113.105    4.738
  125.273    0.352    0.587  111.895    4.827
  125.578    0.375    0.593  101.613    5.297
  125.883    0.417    0.570   94.355    5.498
  126.187    0.403    0.568   96.169    5.300
  126.492    0.313    0.604  104.637    4.743
  126.797    0.276    0.581  113.710    4.325
  127.102    0.321    0.599  114.315    4.407
  127.407    0.319    0.591  110.081    4.926
  127.711    0.287    0.568  110.685    5.609
  128.016    0.236    0.522  113.710    6.628
  128.321    0.269    0.517  111.290    7.688
  128.626    0.274    0.538  107.661    8.593
  128.931    0.251    0.490  104.637    9.256
  129.235    0.248    0.479   98.589    9.972
  129.540    0.286    0.505   96.169    9.974
  129.845    0.298    0.502   90.726   10.162
  130.150    0.303    0.483   89.516   10.354
  130.455    0.307    0.497   86.492   10.356
  130.759    0.286    0.494   85.282   10.751
  131.064    0.268    0.473   87.097   10.753
  131.369    0.259    0.470   89.516   10.956
  131.674    0.298    0.480   90.726   10.959
  131.979    0.321    0.485   89.516   10.760
  132.283    0.326    0.495   84.073   10.182
  132.588    0.327    0.499   85.887    9.814
  132.893    0.342    0.501   93.750    8.949
  133.198    0.337    0.500  100.403    8.468
  133.503    0.268    0.499  103.427    8.162
  133.807    0.279    0.499   99.194    8.163
  134.112    0.283    0.506   97.984    8.475
  134.417    0.280    0.511  102.218    8.635
  134.722    0.272    0.522  103.427    8.636
  135.026    0.266    0.512   97.379    8.638
  135.331    0.278    0.481   97.379    8.482
  135.636    0.292    0.473  101.613    8.642
  135.941    0.276    0.490  105.847    8.971
  136.246    0.297    0.498  102.218    9.141
  136.550    0.319    0.523   91.936    9.142
  136.855    0.312    0.471   97.984    8.184
  137.160    0.319    0.487  101.613    6.929
  137.465    0.309    0.516  101.008    5.250
  137.770    0.337    0.542   94.355    3.978
  138.074    0.331    0.580   88.911    3.561
  138.379    0.345    0.603   88.306    3.129
  138.684    0.355    0.587   91.331    2.960
  138.989    0.341    0.586   94.355    3.016
  139.294    0.325    0.619   99.194    3.310
