~VERSION INFORMATION
 VERS.                 2.0:   CWLS LOG ASCII STANDARD -VERSION 2.0
 WRAP.                  NO:   ONE LINE PER DEPTH STEP
~WELL INFORMATION BLOCK
#MNEM.UNIT           DATA                    DESCRIPTION OF MNEMONIC
#---------    -------------------            -------------------------------
# Generated from Intellog Unique Number	CS_77_79/WELL/916
WELL.         PCI PCEJ CHARD                 : Well_name    - WELL
LOC .         00/08-04-079-06W4/0            : Location     - LOCATION
UWI .         00/08-04-079-06W4/0            : Uwi          - UNIQUE WELL ID
ENTR.         JHS                            : Entered      - ENTERED BY
SRVC.         SCHLUMBERGER                   : Scn          - SERVICE COMPANY
STRT.M        80                             : top_depth    - START DEPTH
STOP.M        325                            : bot_depth    - STOP DEPTH
STEP.M        0.25                           : increment    - STEP LENGTH
 NULL. -999.2500:NULL Value
~CURVE INFORMATION BLOCK
#MNEM UNIT       ERCB CURVE CODE    CURVE DESCRIPTION
#-----------   ------------------   ----------------------------------
DEPT.M        00 001 00 00         : DEPTH        - DEPTH
DPHI.V/V      00 890 00 00         : PHID         - DENSITY POROSITY (LIMESTONE)
NPHI.V/V      00 330 00 00         : PHIN         - NEUTRON POROSITY (LIMESTONE)
GR  .API      00 310 00 00         : GR           - GAMMA RAY
ILD .OHMM     00 120 00 00         : RESD         - DEEP RESISTIVITY (DIL)
RHOB.KG/M3    00 350 00 00         : DENS         - BULK DENSITY
~PARAMETER INFORMATION
#MNEM.UNIT           DATA             DESCRIPTION OF MNEMONIC
#---------         -----------     ------------------------------
GL  .M        509.4                : gl           - GROUND LEVEL ELEVATION
EREF.M        512.4                : kb           - ELEVATION OF DEPTH REFERENCE
DATM.M        512.4                : datum        - DATUM ELEVATION
TDD .M        331                  : tdd          - TOTAL DEPTH DRILLER
RUN .         ONE                  : Run          - RUN NUMBER
ENG .         BILL                 : Engineer     - RECORDING ENGINEER
WIT .         JIM                  : Witness      - WITNESSED BY
MUD .         GEL                  : Mud_type     - MUD TYPE
MATR.         LIMESTONE            : Logunit      - NEUTRON MATRIX
TMAX.C        22                   : BHT          - MAXIMUM RECORDED TEMPERATURE
BHTD.M        331                  : BHTDEP       - MAXIMUM RECORDED TEMPERATURE
MATR.         1                    : LOGUNIT      - NEUTRON MATRIX
RMT .C        25                   : MDTP         - TEMPERATURE OF MUD
NEUT.         1                    : NEUTRON      - NEUTRON TYPE
RESI.         0                    : RESIST       - RESISTIVITY TYPE
RMC .OHMM     0.25                 : RMC          - RESISTIVITY OF MUD CAKE
RMF .OHMM     0.25                 : RMF          - RESISTIVITY OF MUD FILTRATE
SUFT.C        15                   : SUFT         - SURFACE TEMPERATURE
~A  DEPTH     PHID     PHIN       GR     RESD     DENS
   80.000    0.377    0.590   87.196    2.462    0.000
   80.250    0.360    0.593   90.247    2.463    0.000
   80.500    0.357    0.602   92.078    2.464    0.000
   80.750    0.350    0.584   89.031    2.466    0.000
   81.000    0.341    0.564   89.642    2.467    0.000
   81.250    0.356    0.575   96.351    2.468    0.000
   81.500    0.362    0.595   99.402    2.469    0.000
   81.750    0.358    0.580   98.184    2.470    0.000
   82.000    0.357    0.550   89.649    2.471    0.000
   82.250    0.362    0.551   88.431    2.472    0.000
   82.500    0.364    0.574   91.483    2.473    0.000
   82.750    0.375    0.572   94.533    2.521    0.000
   83.000    0.369    0.579   94.535    2.522    0.000
   83.250    0.350    0.589   92.707    2.620    0.000
   83.500    0.348    0.596   90.270    2.671    0.000
   83.750    0.353    0.599   89.662    2.723    0.000
   84.000    0.357    0.594   94.542    2.724    0.000
   84.250    0.356    0.582   96.982    2.725    0.000
   84.500    0.351    0.574   94.545    2.675    0.000
   84.750    0.347    0.568   92.718    2.676    0.000
   85.000    0.340    0.561   92.110    2.628    0.000
   85.250    0.334    0.564   88.453    2.581    0.000
   85.500    0.336    0.577   88.455    2.582    0.000
   85.750    0.351    0.551   89.066    2.535    0.000
   86.000    0.361    0.532   84.190    2.584    0.000
   86.250    0.363    0.578   84.802    2.684    0.000
   86.500    0.346    0.607   89.682    2.788    0.000
   86.750    0.342    0.588   89.074    2.896    0.000
   87.000    0.346    0.568   88.466    2.897    0.000
   87.250    0.340    0.588   89.687    2.898    0.000
   87.500    0.335    0.580   91.519    2.900    0.000
   87.750    0.334    0.605   91.520    2.901    0.000
   88.000    0.334    0.579   92.131    2.902    0.000
   88.250    0.329    0.558   94.572    3.015    0.000
   88.500    0.325    0.574   94.574    3.131    0.000
   88.750    0.326    0.596   90.917    3.252    0.000
   89.000    0.332    0.611   88.480    3.442    0.000
   89.250    0.335    0.608   91.531    3.712    0.000
   89.500    0.330    0.597   90.313    3.785    0.000
   89.750    0.305    0.577   89.705    3.716    0.000
   90.000    0.292    0.551   90.317    3.648    0.000
   90.250    0.285    0.532   91.538    3.582    0.000
   90.500    0.294    0.537   93.978    3.517    0.000
   90.750    0.315    0.565   97.029    3.585    0.000
   91.000    0.326    0.569   96.421    3.724    0.000
   91.250    0.326    0.559   93.984    4.248    0.000
   91.500    0.309    0.524   90.327    4.668    0.000
   91.750    0.311    0.509   78.743    5.130    0.000
   92.000    0.338    0.516   65.330    5.853    0.000
   92.250    0.359    0.482   55.576    6.804    0.000
   92.500    0.240    0.430   49.480    7.763    0.000
   92.750    0.296    0.435   53.141    8.531    0.000
   93.000    0.341    0.417   51.923    8.068    0.000
   93.250    0.372    0.408   50.705    6.690    0.000
   93.500    0.407    0.435   70.829    5.547    0.000
   93.750    0.352    0.462   83.026    4.959    0.000
   94.000    0.313    0.489   94.614    4.602    0.000
   94.250    0.309    0.519   94.615    4.352    0.000
   94.500    0.284    0.473   92.178    4.520    0.000
   94.750    0.278    0.477   92.789    4.875    0.000
   95.000    0.289    0.477   97.059    5.160    0.000
   95.250    0.283    0.472   99.500    5.359    0.000
   95.500    0.281    0.495   97.063    5.672    0.000
   95.750    0.299    0.509   84.870    6.977    0.000
   96.000    0.307    0.510   77.554    8.264    0.000
   96.250    0.297    0.476   71.459   11.164    0.000
   96.500    0.299    0.453   64.753   14.802    0.000
   96.750    0.325    0.437   56.218   17.534    0.000
   97.000    0.357    0.429   61.098   18.212    0.000
   97.250    0.354    0.414   67.197   18.565    0.000
   97.500    0.322    0.389   69.638   17.557    0.000
   97.750    0.305    0.368   62.932   15.992    0.000
   98.000    0.314    0.422   63.544   15.123    0.000
   98.250    0.340    0.424   73.302   14.034    0.000
   98.500    0.331    0.421   84.889   13.523    0.000
   98.750    0.294    0.433   92.208   13.277    0.000
   99.000    0.278    0.421   94.040   14.053    0.000
   99.250    0.268    0.430   83.675   15.444    0.000
   99.500    0.291    0.438   70.872   16.969    0.000
   99.750    0.331    0.425   64.776   19.363    0.000
  100.000    0.343    0.435   67.217   20.110    0.000
  100.250    0.351    0.465   66.609   19.380    0.000
  100.500    0.352    0.461   70.269   17.323    0.000
  100.750    0.336    0.429   78.808   13.076    0.000
  101.000    0.308    0.406   86.736    9.508    0.000
  101.250    0.294    0.444   92.836    7.885    0.000
  101.500    0.279    0.473   93.448    7.741    0.000
  101.750    0.271    0.492   96.498    8.194    0.000
  102.000    0.277    0.476   96.500    9.348    0.000
  102.250    0.299    0.473   92.233   11.283    0.000
  102.500    0.321    0.468   81.869   12.635    0.000
  102.750    0.338    0.463   75.164   13.123    0.000
  103.000    0.349    0.475   79.434   12.411    0.000
  103.250    0.341    0.492   88.582   12.417    0.000
  103.500    0.316    0.500   91.632   12.656    0.000
  103.750    0.308    0.504   81.268   13.650    0.000
  104.000    0.327    0.457   62.977   14.720    0.000
  104.250    0.412    0.428   49.564   16.795    0.000
  104.500    0.474    0.503   69.078   18.805    0.000
  104.750    0.546    0.589   88.593   21.454    0.000
  105.000    0.607    0.623   78.838   23.139    0.000
  105.250    0.620    0.634   49.572   24.490    0.000
  105.500    0.632    0.638   26.402   27.423    0.000
  105.750    0.638    0.638   15.428   29.021    0.000
  106.000    0.643    0.627   13.601   33.744    0.000
  106.250    0.620    0.603   15.432   35.710    0.000
  106.500    0.578    0.560   18.483   39.242    0.000
  106.750    0.428    0.443   20.314   41.536    0.000
  107.000    0.365    0.381   19.706   43.139    0.000
  107.250    0.352    0.355   19.098   43.984    0.000
  107.500    0.353    0.341   20.320   43.995    0.000
  107.750    0.358    0.349   21.540   43.201    0.000
  108.000    0.352    0.363   23.372   41.629    0.000
  108.250    0.353    0.360   25.813   40.871    0.000
  108.500    0.359    0.375   28.863   40.131    0.000
  108.750    0.351    0.381   33.133   40.142    0.000
  109.000    0.346    0.391   39.842   39.414    0.000
  109.250    0.353    0.413   43.503   39.437    0.000
  109.500    0.363    0.418   44.724   38.721    0.000
  109.750    0.366    0.401   43.506   38.737    0.000
  110.000    0.370    0.397   38.630   38.028    0.000
  110.250    0.375    0.427   35.583   37.337    0.000
  110.500    0.381    0.443   41.072   37.356    0.000
  110.750    0.376    0.446   45.953   36.678    0.000
  111.000    0.371    0.444   45.954   36.015    0.000
  111.250    0.377    0.449   44.737   35.362    0.000
  111.500    0.384    0.452   44.739   34.712    0.000
  111.750    0.368    0.439   45.959   33.449    0.000
  112.000    0.357    0.422   50.230   32.236    0.000
  112.250    0.359    0.408   51.451   31.652    0.000
  112.500    0.371    0.397   50.233   31.664    0.000
  112.750    0.375    0.415   50.235   31.091    0.000
  113.000    0.369    0.447   52.066   31.097    0.000
  113.250    0.371    0.473   50.848   31.112    0.000
  113.500    0.382    0.467   50.850   31.716    0.000
  113.750    0.384    0.444   55.730   32.332    0.000
  114.000    0.379    0.430   56.951   32.958    0.000
  114.250    0.366    0.414   53.904   32.973    0.000
  114.500    0.355    0.387   50.248   32.986    0.000
  114.750    0.336    0.373   45.981   31.196    0.000
  115.000    0.337    0.380   52.080   30.059    0.000
  115.250    0.365    0.398   67.936   28.431    0.000
  115.500    0.372    0.403   75.255   28.436    0.000
  115.750    0.368    0.414   76.476   27.401    0.000
  116.000    0.355    0.441   72.210   25.913    0.000
  116.250    0.348    0.457   67.333   23.602    0.000
