~VERSION INFORMATION
 VERS.                 2.0:   CWLS LOG ASCII STANDARD -VERSION 2.0
 WRAP.                  NO:   ONE LINE PER DEPTH STEP
~WELL INFORMATION BLOCK
#MNEM.UNIT           DATA                    DESCRIPTION OF MNEMONIC
#---------    -------------------            -------------------------------
# Generated from Intellog Unique Number	CS_67_68/WELL/2177
WELL.         07-23-067-06W4                 : Well_name    - WELL
LOC .         00/07-23-067-06W4/0            : Location     - LOCATION
UWI .         00/07-23-067-06W4/0            : Uwi          - UNIQUE WELL ID
ENTR.         SP                             : Entered      - ENTERED BY
SRVC.         SCHLUMBERGER                   : Scn          - SERVICE COMPANY
STRT.M        325                            : top_depth    - START DEPTH
STOP.M        536                            : bot_depth    - STOP DEPTH
STEP.M        0.25                           : increment    - STEP LENGTH
 NULL. -999.2500:NULL Value
~CURVE INFORMATION BLOCK
#MNEM UNIT       ERCB CURVE CODE    CURVE DESCRIPTION
#-----------   ------------------   ----------------------------------
DEPT.M        00 001 00 00         : DEPTH        - DEPTH
ILD .OHMM     00 120 00 00         : RESD         - DEEP RESISTIVITY (DIL)
DPHI.V/V      00 890 00 00         : PHID         - DENSITY POROSITY (LIMESTONE)
NPHI.V/V      00 330 00 00         : PHIN         - NEUTRON POROSITY (LIMESTONE)
GR  .API      00 310 00 00         : GR           - GAMMA RAY
CALI.MM       00 280 01 00         : CAL          - CALIPER
~PARAMETER INFORMATION
#MNEM.UNIT           DATA             DESCRIPTION OF MNEMONIC
#---------         -----------     ------------------------------
GL  .M        653.7                : gl           - GROUND LEVEL ELEVATION
EREF.M        657                  : kb           - ELEVATION OF DEPTH REFERENCE
DATM.M        657                  : datum        - DATUM ELEVATION
TDD .M        545                  : tdd          - TOTAL DEPTH DRILLER
RUN .         ONE                  : Run          - RUN NUMBER
ENG .         BILL                 : Engineer     - RECORDING ENGINEER
WIT .         JIM                  : Witness      - WITNESSED BY
MUD .         GEL                  : Mud_type     - MUD TYPE
MATR.         LIMESTONE            : Logunit      - NEUTRON MATRIX
TMAX.C        23                   : BHT          - MAXIMUM RECORDED TEMPERATURE
BHTD.M        545                  : BHTDEP       - MAXIMUM RECORDED TEMPERATURE
MATR.         1                    : LOGUNIT      - NEUTRON MATRIX
RMT .C        25                   : MDTP         - TEMPERATURE OF MUD
NEUT.         1                    : NEUTRON      - NEUTRON TYPE
RESI.         0                    : RESIST       - RESISTIVITY TYPE
RMC .OHMM     0.25                 : RMC          - RESISTIVITY OF MUD CAKE
RMF .OHMM     0.25                 : RMF          - RESISTIVITY OF MUD FILTRATE
SUFT.C        15                   : SUFT         - SURFACE TEMPERATURE
~A  DEPTH     RESD     PHID     PHIN       GR      CAL
# ...
  398.000    5.054    0.314    0.417   60.999  160.773
  398.250    5.072    0.320    0.409   63.443  161.073
  398.500    5.051    0.302    0.395   65.459  161.371
  398.750    5.021    0.291    0.398   66.863  161.468
  399.000    4.973    0.282    0.410   67.349  161.769
  399.250    4.925    0.281    0.411   65.387  162.069
  399.500    4.932    0.290    0.410   61.956  162.063
  399.750    5.015    0.296    0.406   60.851  162.159
  400.000    5.080    0.303    0.402   66.355  162.049
  400.250    5.098    0.286    0.398   70.942  162.147
  400.500    5.086    0.279    0.409   74.243  162.141
  400.750    5.066    0.279    0.417   75.586  162.440
  401.000    5.035    0.281    0.403   71.665  162.230
  401.250    5.025    0.291    0.392   69.275  162.225
  401.500    4.967    0.282    0.385   72.086  162.320
  401.750    4.900    0.275    0.385   72.328  162.212
  402.000    4.844    0.272    0.414   71.406  162.105
  402.250    4.770    0.279    0.425   69.689  161.385
  402.500    4.697    0.289    0.408   67.237  160.970
  402.750    4.634    0.296    0.418   64.785  160.964
  403.000    4.606    0.298    0.432   63.129  161.264
  403.250    4.596    0.301    0.432   62.208  161.360
  403.500    4.603    0.306    0.422   61.592  161.558
  403.750    4.663    0.311    0.413   61.527  161.654
  404.000    4.733    0.313    0.406   62.319  161.852
  404.250    4.803    0.312    0.402   63.234  162.152
  404.500    4.865    0.306    0.402   63.658  162.554
  404.750    4.966    0.298    0.405   63.532  162.956
  405.000    5.078    0.299    0.408   63.100  163.460
  405.250    5.222    0.298    0.403   64.443  163.963
  405.500    5.319    0.293    0.399   66.153  163.855
  405.750    5.338    0.288    0.391   68.536  163.646
  406.000    5.316    0.284    0.398   69.389  163.232
  406.250    5.225    0.287    0.417   69.814  162.919
  406.500    5.175    0.295    0.419   69.566  162.812
  406.750    5.086    0.301    0.406   68.032  162.704
  407.000    5.046    0.302    0.398   67.171  162.290
  407.250    5.007    0.295    0.397   68.576  161.876
  407.500    5.005    0.287    0.406   68.756  161.972
  407.750    4.976    0.280    0.410   67.773  161.762
  408.000    4.890    0.276    0.412   67.463  161.653
  408.250    4.816    0.281    0.406   68.072  161.953
  408.500    4.787    0.288    0.400   69.291  162.253
  408.750    4.786    0.294    0.402   70.390  161.636
  409.000    4.802    0.297    0.411   72.406  161.221
  409.250    4.828    0.303    0.415   72.464  160.705
  409.500    4.881    0.300    0.433   68.910  160.393
  409.750    4.935    0.302    0.442   66.581  160.183
  410.000    4.971    0.309    0.426   64.313  160.075
  410.250    5.045    0.315    0.407   65.595  160.069
  410.500    5.140    0.278    0.396   76.546  160.879
  410.750    5.256    0.235    0.394   88.048  163.218
  411.000    5.324    0.210    0.415   97.102  165.151
  411.250    5.373    0.218    0.431  102.729  168.817
  411.500    5.422    0.226    0.439  106.519  170.239
  411.750    5.431    0.216    0.439  109.147  168.091
  412.000    5.460    0.205    0.439  109.756  166.045
  412.250    5.489    0.199    0.443  107.365  165.732
  412.500    5.570    0.205    0.456  105.220  166.848
  412.750    5.675    0.215    0.467  106.930  168.474
  413.000    5.792    0.215    0.477  107.599  169.693
  413.250    5.912    0.206    0.473  107.290  169.177
  413.500    6.033    0.215    0.468  103.614  167.538
  413.750    6.112    0.232    0.456   98.408  165.391
  414.000    6.191    0.226    0.440   98.037  163.345
  414.250    6.259    0.224    0.428   99.564  162.318
  414.500    6.281    0.231    0.442   99.927  162.109
  414.750    6.279    0.223    0.454   99.863  162.816
  415.000    6.242    0.215    0.462   98.390  162.913
  415.250    6.193    0.219    0.450   97.285  162.499
  415.500    6.133    0.219    0.443   97.404  161.779
  415.750    6.097    0.218    0.442   99.664  161.364
  416.000    6.049    0.217    0.442  100.640  161.154
  416.250    6.002    0.215    0.435   98.311  161.250
  416.500    5.977    0.212    0.437   97.451  161.856
  416.750    5.964    0.200    0.447   98.120  162.870
  417.000    5.963    0.214    0.460   97.811  163.781
  417.250    5.927    0.221    0.452   97.439  164.490
  417.500    5.771    0.223    0.442   98.231  165.402
  417.750    5.421    0.212    0.437   99.635  166.109
  418.000    5.141    0.209    0.442  102.019  166.715
  418.250    4.885    0.213    0.448  102.627  167.118
  418.500    4.588    0.218    0.447  102.562  167.214
  418.750    4.319    0.210    0.450  101.335  167.514
  419.000    4.057    0.206    0.462   99.433  168.528
  419.250    3.965    0.221    0.469   99.186  170.358
  419.500    3.994    0.251    0.467  101.813  171.372
  419.750    4.061    0.239    0.467  104.136  171.162
  420.000    4.083    0.222    0.473  106.335  168.912
  420.250    4.081    0.227    0.486  106.393  164.622
  420.500    4.080    0.252    0.466  103.084  163.289
  420.750    4.064    0.276    0.427   97.634  162.671
  421.000    3.905    0.254    0.409   92.428  161.135
  421.250    3.710    0.253    0.418   88.814  160.823
  421.500    3.605    0.237    0.410   93.093  162.041
  421.750    3.694    0.230    0.422   95.171  164.483
  422.000    3.885    0.230    0.433   97.065  166.211
  422.250    4.141    0.225    0.442   98.040  167.328
  422.500    4.307    0.236    0.462   97.975  168.035
  422.750    4.556    0.257    0.486   93.198  166.703
  423.000    4.730    0.286    0.496   89.094  163.433
  423.250    4.891    0.309    0.493   84.440  160.163
  423.500    4.946    0.318    0.465   86.272  159.137
  423.750    4.898    0.322    0.441   90.124  158.723
  424.000    4.823    0.322    0.429   92.691  158.614
  424.250    4.767    0.309    0.442   92.871  158.506
  424.500    4.703    0.304    0.455   84.666  158.399
  424.750    4.702    0.308    0.465   79.093  158.291
  425.000    4.763    0.323    0.459   74.683  158.081
  425.250    4.879    0.328    0.448   71.987  157.666
  425.500    4.980    0.331    0.441   71.066  157.354
  425.750    5.083    0.332    0.443   70.205  156.940
  426.000    5.120    0.333    0.443   69.712  156.833
  426.250    5.138    0.335    0.438   69.525  156.723
  426.500    4.983    0.340    0.440   69.766  156.616
  426.750    4.880    0.347    0.442   69.395  156.610
  427.000    4.832    0.343    0.441   69.085  156.400
  427.250    4.840    0.327    0.451   68.715  156.598
  427.500    4.884    0.329    0.454   68.221  156.797
  427.750    4.948    0.333    0.454   68.523  157.097
  428.000    5.003    0.327    0.459   68.826  157.498
  428.250    5.030    0.321    0.463   69.251  157.594
  428.500    5.037    0.321    0.462   69.736  157.588
  428.750    5.026    0.327    0.466   70.039  157.582
  429.000    4.997    0.326    0.475   70.586  157.678
  429.250    4.902    0.318    0.465   71.256  158.182
  429.500    4.746    0.312    0.455   72.599  158.584
  429.750    4.629    0.309    0.447   74.859  159.293
  430.000    4.689    0.326    0.443   70.082  160.714
  430.250    4.868    0.338    0.437   66.835  161.830
  430.500    5.130    0.346    0.436   69.830  162.844
  430.750    5.376    0.339    0.449   73.009  163.347
  431.000    5.571    0.331    0.446   73.250  163.546
  431.250    5.882    0.322    0.431   68.963  163.743
  431.500    6.199    0.314    0.415   67.001  163.636
  431.750    6.447    0.317    0.418   68.282  163.630
  432.000    6.568    0.311    0.426   68.768  163.216
  432.250    6.603    0.315    0.406   68.029  163.108
  432.500    6.514    0.315    0.391   67.475  162.796
  432.750    6.342    0.305    0.385   67.717  162.484
  433.000    6.129    0.300    0.383   68.937  162.376
  433.250    5.845    0.303    0.385   69.668  162.064
  433.500    5.606    0.307    0.402   70.093  162.057
  433.750    5.347    0.306    0.404   69.966  161.950
  434.000    5.108    0.303    0.398   71.004  161.841
  434.250    4.993    0.303    0.413   74.427  161.733
