~VERSION INFORMATION
 VERS.                 2.0:   CWLS LOG ASCII STANDARD -VERSION 2.0
 WRAP.                  NO:   ONE LINE PER DEPTH STEP
~WELL INFORMATION BLOCK
#MNEM.UNIT           DATA                    DESCRIPTION OF MNEMONIC
#---------    -------------------            -------------------------------
# Generated from Intellog Unique Number	CS_71_72/WELL/812
WELL.         BVX ET AL NIXON                : Well_name    - WELL
LOC .         00/07-15-072-15W4/0            : Location     - LOCATION
UWI .         00/07-15-072-15W4/0            : Uwi          - UNIQUE WELL ID
ENTR.         SP                             : Entered      - ENTERED BY
SRVC.         SCHLUMBERGER                   : Scn          - SERVICE COMPANY
STRT.M        280                            : top_depth    - START DEPTH
STOP.M        466                            : bot_depth    - STOP DEPTH
STEP.M        0.25                           : increment    - STEP LENGTH
 NULL. -999.2500:NULL Value
~CURVE INFORMATION BLOCK
#MNEM UNIT       ERCB CURVE CODE    CURVE DESCRIPTION
#-----------   ------------------   ----------------------------------
DEPT.M        00 001 00 00         : DEPTH        - DEPTH
ILD .OHMM     00 120 00 00         : RESD         - DEEP RESISTIVITY (DIL)
DPHI.V/V      00 890 00 00         : PHID         - DENSITY POROSITY (LIMESTONE)
NPHI.V/V      00 330 00 00         : PHIN         - NEUTRON POROSITY (LIMESTONE)
GR  .API      00 310 00 00         : GR           - GAMMA RAY
~PARAMETER INFORMATION
#MNEM.UNIT           DATA             DESCRIPTION OF MNEMONIC
#---------         -----------     ------------------------------
GL  .M        603.39               : gl           - GROUND LEVEL ELEVATION
EREF.M        606.89               : kb           - ELEVATION OF DEPTH REFERENCE
DATM.M        603.39               : datum        - DATUM ELEVATION
TDD .M        471.95               : tdd          - TOTAL DEPTH DRILLER
RUN .         ONE                  : Run          - RUN NUMBER
ENG .         BILL                 : Engineer     - RECORDING ENGINEER
WIT .         JIM                  : Witness      - WITNESSED BY
MUD .         GEL                  : Mud_type     - MUD TYPE
MATR.         LIMESTONE            : Logunit      - NEUTRON MATRIX
TMAX.C        21                   : BHT          - MAXIMUM RECORDED TEMPERATURE
BHTD.M        471.95               : BHTDEP       - MAXIMUM RECORDED TEMPERATURE
MATR.         1                    : LOGUNIT      - NEUTRON MATRIX
RMT .C        25                   : MDTP         - TEMPERATURE OF MUD
NEUT.         1                    : NEUTRON      - NEUTRON TYPE
RESI.         0                    : RESIST       - RESISTIVITY TYPE
RMC .OHMM     0.25                 : RMC          - RESISTIVITY OF MUD CAKE
RMF .OHMM     0.25                 : RMF          - RESISTIVITY OF MUD FILTRATE
SUFT.C        15                   : SUFT         - SURFACE TEMPERATURE
~A  DEPTH     RESD     PHID     PHIN       GR
# ...
  410.500    3.087    0.244    0.432   88.493
  410.750    3.086    0.259    0.442   89.092
  411.000    3.143    0.254    0.436   88.487
  411.250    3.261    0.229    0.433   87.280
  411.500    3.384    0.215    0.433   87.278
  411.750    3.577    0.217    0.436   88.480
  412.000    3.781    0.236    0.438   89.080
  412.250    3.997    0.242    0.443   89.076
  412.500    4.071    0.236    0.433   89.075
  412.750    4.224    0.242    0.416   88.470
  413.000    4.302    0.219    0.419   89.070
  413.250    4.301    0.208    0.424   89.671
  413.500    4.381    0.212    0.419   89.066
  413.750    4.380    0.213    0.415   87.256
  414.000    4.379    0.217    0.424   86.048
  414.250    4.378    0.232    0.441   87.251
  414.500    4.296    0.222    0.449   87.850
  414.750    4.139    0.218    0.438   87.848
  415.000    3.987    0.222    0.431   88.449
  415.250    3.986    0.235    0.427   89.651
  415.500    3.912    0.241    0.441   90.251
  415.750    3.839    0.259    0.447   89.044
  416.000    3.698    0.262    0.442   88.439
  416.250    3.629    0.259    0.426   88.437
  416.500    3.562    0.269    0.433   88.434
  416.750    3.628    0.269    0.445   87.227
  417.000    3.835    0.255    0.409   79.393
  417.250    4.286    0.220    0.399   73.969
  417.500    4.615    0.188    0.390   69.749
  417.750    5.353    0.193    0.384   70.953
  418.000    5.765    0.213    0.373   74.564
  418.250    6.686    0.236    0.369   72.153
  418.500    7.068    0.206    0.343   64.920
  418.750    7.611    0.083    0.305   63.111
  419.000    8.350    0.092    0.274   64.313
  419.250    8.827    0.143    0.235   66.721
  419.500    9.863    0.067    0.218   63.706
  419.750   10.047    0.090    0.224   60.089
  420.000    8.658    0.133    0.292   63.099
  420.250    7.601    0.194    0.357   69.121
  420.500    6.798    0.240    0.391   74.540
  420.750    6.194    0.236    0.395   76.345
  421.000    5.857    0.219    0.385   78.752
  421.250    5.748    0.198    0.379   78.750
  421.500    5.435    0.182    0.379   76.940
  421.750    5.334    0.152    0.339   75.130
  422.000    5.333    0.075    0.328   73.922
  422.250    5.432    0.159    0.297   74.522
  422.500    5.742    0.185    0.364   76.930
  422.750    5.958    0.205    0.404   79.939
  423.000    5.739    0.201    0.409   80.540
  423.250    5.529    0.179    0.369   76.321
  423.500    5.426    0.137    0.346   68.487
  423.750    5.226    0.106    0.332   62.461
  424.000    5.225    0.161    0.360   69.687
  424.250    5.128    0.300    0.378   80.527
  424.500    5.033    0.230    0.390   86.549
  424.750    4.585    0.193    0.396   90.162
  425.000    4.500    0.171    0.406   91.363
  425.250    4.417    0.161    0.413   91.362
  425.500    4.498    0.156    0.398   90.756
  425.750    4.667    0.124    0.384   91.356
  426.000    4.754    0.086    0.373   91.957
  426.250    5.025    0.148    0.357   93.159
  426.500    5.118    0.175    0.373   94.361
  426.750    5.117    0.179    0.384   93.756
  427.000    5.115    0.181    0.401   93.152
  427.250    5.115    0.195    0.408   92.546
  427.500    4.836    0.209    0.400   92.544
  427.750    4.926    0.198    0.396   93.747
  428.000    4.924    0.177    0.395   94.949
  428.250    4.924    0.167    0.386   91.934
  428.500    5.015    0.170    0.377   92.534
  428.750    5.014    0.177    0.382   90.725
  429.000    5.107    0.149    0.377   85.903
  429.250    5.105    0.094    0.360   84.094
  429.500    5.104    0.129    0.361   86.501
  429.750    4.917    0.153    0.375   90.113
  430.000    4.650    0.175    0.390   87.700
  430.250    4.397    0.180    0.398   88.301
  430.500    3.932    0.182    0.407   89.503
  430.750    3.517    0.193    0.411   90.705
  431.000    3.265    0.217    0.421   91.305
  431.250    2.761    0.239    0.453   88.893
  431.500    2.611    0.255    0.467   88.288
  431.750    2.423    0.253    0.463   88.286
  432.000    2.379    0.263    0.471   92.500
  432.250    2.291    0.265    0.483   94.305
  432.500    2.291    0.264    0.492   93.701
  432.750    2.377    0.240    0.474   88.276
  433.000    2.656    0.212    0.455   86.467
  433.250    2.808    0.197    0.440   87.067
  433.500    3.257    0.209    0.403   88.871
  433.750    3.708    0.216    0.394   88.870
  434.000    3.920    0.193    0.402   83.445
  434.250    4.300    0.074    0.391   78.624
  434.500    4.631    0.070    0.357   72.597
  434.750    4.717    0.091    0.342   72.594
  435.000    4.986    0.142    0.371   83.435
  435.250    5.173    0.186    0.386   90.662
  435.500    5.468    0.195    0.378   87.647
  435.750    5.998    0.157    0.354   83.428
  436.000    6.224    0.105    0.327   76.799
  436.250    6.702    0.070    0.298   70.171
  436.500    6.827    0.103    0.305   73.180
  436.750    7.083    0.119    0.313   77.997
  437.000    7.082    0.143    0.330   80.404
  437.250    6.951    0.142    0.348   81.606
  437.500    6.572    0.142    0.358   85.217
  437.750    5.988    0.163    0.365   87.022
  438.000    5.558    0.194    0.388   90.033
  438.250    5.065    0.201    0.406   94.247
  438.500    4.446    0.199    0.419   96.655
  438.750    4.051    0.183    0.436   98.460
  439.000    3.831    0.172    0.442   93.638
  439.250    3.490    0.176    0.434   96.044
  439.500    3.362    0.160    0.430   97.247
  439.750    3.300    0.153    0.431   97.245
  440.000    3.238    0.170    0.441   99.652
  440.250    3.178    0.186    0.446  102.059
  440.500    3.177    0.185    0.451  101.454
  440.750    3.176    0.176    0.456   97.234
  441.000    3.235    0.159    0.452   96.028
  441.250    3.295    0.097    0.436   93.615
  441.500    3.419    0.134    0.430   96.023
  441.750    3.482    0.157    0.428   97.828
  442.000    3.481    0.181    0.442   95.415
  442.250    3.546    0.185    0.451   93.606
  442.500    3.612    0.176    0.446   92.398
  442.750    3.679    0.159    0.441   92.999
  443.000    3.746    0.145    0.434   94.803
  443.250    3.746    0.163    0.425   96.006
  443.500    3.815    0.170    0.417   98.413
  443.750    3.886    0.174    0.411   99.616
  444.000    3.957    0.173    0.417   94.794
  444.250    3.957    0.134    0.405   89.369
  444.500    3.883    0.118    0.401   90.573
  444.750    3.811    0.135    0.401   94.184
  445.000    3.740    0.150    0.415   97.194
  445.250    3.536    0.162    0.429  102.612
  445.500    3.407    0.168    0.440  104.418
  445.750    3.282    0.174    0.451  105.620
  446.000    3.281    0.185    0.458  105.617
  446.250    3.469    0.175    0.470  105.013
  446.500    3.805    0.161    0.421   97.179
  446.750    4.580    0.127    0.378   91.755
  447.000    5.313    0.092    0.344   86.330
  447.250    6.515    0.087    0.338   83.919
  447.500    7.557    0.113    0.326   79.700
  447.750    8.765    0.139    0.307   70.661
  448.000    9.979    0.102    0.308   63.430
  448.250   10.747    0.139    0.330   61.018
  448.500   11.359    0.173    0.343   61.617
  448.750   11.570    0.204    0.360   62.217
  449.000   11.567    0.211    0.367   66.431
  449.250   11.564    0.226    0.371   68.840
  449.500   11.349    0.233    0.358   61.006
  449.750   11.559    0.221    0.343   57.389
  450.000   12.219    0.209    0.340   61.001
  450.250   12.916    0.186    0.337   65.818
  450.500   13.401    0.174    0.328   70.634
  450.750   13.399    0.164    0.341   76.655
  451.000   12.208    0.207    0.359   82.075
  451.250   10.717    0.175    0.372   86.290
  451.500   10.135    0.157    0.367   92.311
  451.750    8.573    0.162    0.363   93.514
  452.000    7.668    0.171    0.357   94.114
  452.250    6.986    0.153    0.366  100.738
  452.500    6.606    0.150    0.370  104.953
  452.750    6.364    0.151    0.387  104.950
  453.000    6.482    0.150    0.394  100.128
  453.250    6.726    0.165    0.394   98.319
  453.500    7.657    0.172    0.388   97.112
  453.750    8.718    0.174    0.377   89.278
