~VERSION INFORMATION
 VERS.                 2.0:   CWLS LOG ASCII STANDARD -VERSION 2.0
 WRAP.                  NO:   ONE LINE PER DEPTH STEP
~WELL INFORMATION BLOCK
#MNEM.UNIT           DATA                    DESCRIPTION OF MNEMONIC
#---------    -------------------            -------------------------------
# Generated from Intellog Unique Number	CX_WELLS/WELL/2722
WELL.         MAYNARD CLAREN                 : Well_name    - WELL
LOC .         00/06-06-080-12W4/0            : Location     - LOCATION
UWI .         00/06-06-080-12W4/0            : Uwi          - UNIQUE WELL ID
ENTR.         T                              : Entered      - ENTERED BY
SRVC.         SCHLUMBERGER                   : Scn          - SERVICE COMPANY
STRT.M        265                            : top_depth    - START DEPTH
STOP.M        488                            : bot_depth    - STOP DEPTH
STEP.M        0.25                           : increment    - STEP LENGTH
 NULL. -999.2500:NULL Value
~CURVE INFORMATION BLOCK
#MNEM UNIT       ERCB CURVE CODE    CURVE DESCRIPTION
#-----------   ------------------   ----------------------------------
DEPT.M        00 001 00 00         : DEPTH        - DEPTH
GR  .API      00 310 00 00         : GR           - GAMMA RAY
NPHI.V/V      00 330 00 00         : PHIN         - NEUTRON POROSITY (SANDSTONE)
DPHI.V/V      00 890 00 00         : PHID         - DENSITY POROSITY (SANDSTONE)
ILD .OHMM     00 120 00 00         : RESD         - DEEP RESISTIVITY (DIL)
~PARAMETER INFORMATION
#MNEM.UNIT           DATA             DESCRIPTION OF MNEMONIC
#---------         -----------     ------------------------------
GL  .M        683.5                : gl           - GROUND LEVEL ELEVATION
EREF.M        686.8                : kb           - ELEVATION OF DEPTH REFERENCE
DATM.M        686.8                : datum        - DATUM ELEVATION
TDD .M        497                  : tdd          - TOTAL DEPTH DRILLER
RUN .         ONE                  : Run          - RUN NUMBER
ENG .         BILL                 : Engineer     - RECORDING ENGINEER
WIT .         JIM                  : Witness      - WITNESSED BY
MUD .         GEL                  : Mud_type     - MUD TYPE
MATR.         SANDSTONE            : Logunit      - NEUTRON MATRIX
TMAX.C        20                   : BHT          - MAXIMUM RECORDED TEMPERATURE
BHTD.M        497                  : BHTDEP       - MAXIMUM RECORDED TEMPERATURE
MATR.         1                    : LOGUNIT      - NEUTRON MATRIX
RMT .C        20                   : MDTP         - TEMPERATURE OF MUD
NEUT.         1                    : NEUTRON      - NEUTRON TYPE
RESI.         5.13                 : RESIST       - RESISTIVITY TYPE
RMC .OHMM     3.4                  : RMC          - RESISTIVITY OF MUD CAKE
RMF .OHMM     4.4                  : RMF          - RESISTIVITY OF MUD FILTRATE
SUFT.C        3                    : SUFT         - SURFACE TEMPERATURE
~A  DEPTH       GR     PHIN     PHID     RESD
  265.000   76.916    0.398    0.201    3.662
  265.250   77.526    0.387    0.191    3.661
  265.500   78.775    0.379    0.188    3.660
  265.750   81.907    0.374    0.195    3.659
  266.000   85.043    0.376    0.230    3.579
  266.250   87.553    0.379    0.277    3.577
  266.500   85.015    0.379    0.286    3.577
  266.750   83.738    0.373    0.302    3.655
  267.000   83.722    0.353    0.300    3.813
  267.250   83.075    0.341    0.297    3.892
  267.500   79.906    0.334    0.290    4.130
  267.750   74.843    0.328    0.294    4.288
  268.000   72.939    0.319    0.312    4.685
  268.250   71.658    0.307    0.337    4.923
  268.500   70.385    0.289    0.367    5.400
  268.750   66.582    0.283    0.360    5.638
  269.000   64.678    0.300    0.349    6.114
  269.250   70.967    0.334    0.333    6.591
  269.500   79.147    0.361    0.310    6.829
  269.750   86.065    0.401    0.294    7.226
  270.000   94.876    0.418    0.278    7.703
  270.250  102.425    0.430    0.265    8.418
  270.500   99.257    0.437    0.254    8.895
  270.750   96.088    0.439    0.253   10.248
  271.000   82.832    0.438    0.258   10.406
  271.250   79.660    0.433    0.281   10.962
  271.500   65.143    0.428    0.309   11.439
  271.750   60.079    0.422    0.332   12.791
  272.000   54.393    0.416    0.347   13.268
  272.250   48.703    0.410    0.358   14.621
  272.500   45.530    0.402    0.358   15.018
  272.750   46.775    0.391    0.352   16.211
  273.000   50.545    0.380    0.348   17.086
  273.250   54.942    0.375    0.340   18.279
  273.500   61.223    0.373    0.331   18.596
  273.750   62.475    0.369    0.321   16.685
  274.000   63.716    0.363    0.313   16.206
  274.250   63.074    0.362    0.305   14.215
  274.500   61.792    0.362    0.303   11.189
  274.750   61.150    0.362    0.309   10.551
  275.000   60.499    0.365    0.325    9.117
  275.250   63.635    0.378    0.348    7.125
  275.500   67.406    0.401    0.340    6.488
  275.750   73.694    0.408    0.305    6.407
  276.000   79.983    0.414    0.276    8.317
  276.250   86.267    0.418    0.254    9.749
  276.500   88.146    0.417    0.215   11.340
  276.750   90.017    0.416    0.217   12.852
  277.000   91.262    0.413    0.223   14.682
  277.250   91.246    0.412    0.228   16.194
  277.500   91.230    0.411    0.234   17.626
  277.750   91.210    0.410    0.228   18.501
  278.000   91.824    0.408    0.224   18.818
  278.250   91.808    0.406    0.222   18.976
  278.500   91.800    0.402    0.226   19.214
  278.750   91.145    0.395    0.257   19.452
  279.000   90.506    0.388    0.269   19.053
  279.250   89.225    0.386    0.298   17.221
  279.500   87.310    0.388    0.322   16.901
  279.750   86.667    0.392    0.343   15.149
  280.000   84.759    0.398    0.352   13.556
  280.250   82.225    0.404    0.350   12.918
  280.500   79.687    0.414    0.347   12.041
  280.750   78.406    0.420    0.342   11.085
  281.000   78.394    0.421    0.340   10.129
  281.250   78.374    0.420    0.340    9.093
  281.500   79.615    0.419    0.341    8.852
  281.750   80.233    0.417    0.340    8.931
  282.000   81.478    0.418    0.337    9.010
  282.250   83.353    0.418    0.337    9.248
  282.500   85.859    0.418    0.337    9.804
  282.750   88.991    0.420    0.337   10.361
  283.000   90.243    0.421    0.337   11.554
  283.250   91.484    0.421    0.335   11.872
  283.500   92.102    0.421    0.334   13.303
  283.750   91.448    0.421    0.330   14.656
  284.000   90.809    0.420    0.329   15.372
  284.250   88.898    0.418    0.327   17.680
  284.500   87.621    0.415    0.325   18.315
  284.750   86.974    0.412    0.322   18.155
  285.000   88.219    0.409    0.318   17.756
  285.250   91.985    0.406    0.316   17.675
  285.500   95.756    0.402    0.316   17.435
  285.750  100.153    0.397    0.317   17.355
  286.000  101.393    0.385    0.321   17.195
  286.250   96.968    0.373    0.324   17.114
  286.500   93.169    0.359    0.318   16.954
  286.750   87.475    0.345    0.288   16.953
  287.000   83.046    0.339    0.261   16.793
  287.250   77.351    0.334    0.266   16.792
  287.500   74.187    0.337    0.274   16.791
  287.750   72.910    0.351    0.282   16.870
  288.000   74.154    0.376    0.291   17.028
  288.250   78.547    0.394    0.299   17.027
  288.500   83.579    0.400    0.252   17.026
  288.750   90.498    0.409    0.221   16.945
  289.000   97.417    0.418    0.209   16.785
  289.250  104.962    0.429    0.200   16.545
  289.500  108.102    0.442    0.201   16.306
  289.750  113.129    0.448    0.205   15.907
  290.000  116.892    0.451    0.208   15.110
  290.250  118.141    0.456    0.209   12.880
  290.500  120.012    0.458    0.211   11.047
  290.750  121.261    0.458    0.213    9.136
  291.000  121.875    0.458    0.213    8.498
  291.250  121.859    0.448    0.212    7.542
  291.500  118.056    0.443    0.208    6.744
  291.750  116.152    0.441    0.201    6.504
  292.000  119.915    0.443    0.194    6.424
  292.250  122.425    0.446    0.187    6.423
  292.500  126.822    0.449    0.182    6.343
  292.750  130.580    0.458    0.193    6.102
  293.000  130.572    0.468    0.205    5.863
  293.250  129.291    0.475    0.215    5.543
  293.500  128.018    0.476    0.223    5.145
  293.750  126.110    0.468    0.233    4.746
  294.000  124.833    0.450    0.243    4.267
  294.250  122.291    0.433    0.250    4.107
  294.500  120.384    0.423    0.253    3.946
  294.750  119.106    0.412    0.249    4.025
  295.000  118.460    0.407    0.247    4.184
  295.250  117.813    0.402    0.242    4.899
  295.500  117.171    0.401    0.242    6.570
  295.750  114.629    0.401    0.249    7.922
  296.000  112.090    0.399    0.255    8.956
  296.250  108.918    0.399    0.263   10.548
  296.500  107.014    0.403    0.286   11.502
  296.750  107.629    0.410    0.288   11.899
  297.000  115.178    0.421    0.288   12.057
  297.250  120.836    0.442    0.253   12.056
  297.500  123.338    0.445    0.230   11.896
  297.750  122.695    0.444    0.220   11.577
  298.000  119.527    0.440    0.226   10.939
  298.250  115.724    0.437    0.251    9.425
  298.500  111.921    0.431    0.273    8.867
  298.750  110.021    0.428    0.278    8.229
  299.000  103.070    0.424    0.284    8.149
  299.250   97.380    0.416    0.295    8.625
  299.500   94.207    0.407    0.306    9.182
  299.750   94.825    0.403    0.304   10.136
  300.000   97.327    0.402    0.290   10.613
  300.250   99.833    0.402    0.267   11.010
  300.500  101.081    0.402    0.260   11.248
  300.750  102.326    0.401    0.267   11.406
  301.000   97.897    0.400    0.278   11.485
  301.250   91.572    0.390    0.291   11.723
  301.500   85.251    0.351    0.307   12.359
  301.750   79.561    0.330    0.325   14.030
  302.000   75.132    0.315    0.341   14.347
  302.250   69.437    0.310    0.350   14.744
  302.500   69.417    0.306    0.360   15.460
  302.750   71.300    0.309    0.373   17.528
  303.000   75.063    0.316    0.352   18.244
  303.250   76.942    0.322    0.322   18.960
  303.500   80.074    0.329    0.286   19.516
  303.750   81.953    0.337    0.256   19.037
  304.000   84.459    0.344    0.237   17.524
  304.250   86.334    0.356    0.238   16.169
  304.500   85.057    0.367    0.247   16.089
  304.750   86.932    0.381    0.252   14.495
  305.000   89.430    0.410    0.263   14.017
  305.250   90.683    0.428    0.261   12.742
  305.500   92.550    0.428    0.252   12.104
  305.750   92.538    0.420    0.249   12.103
  306.000   92.522    0.415    0.254   12.182
  306.250   91.244    0.414    0.258   12.261
  306.500   90.602    0.412    0.262   12.259
  306.750   91.216    0.412    0.256   12.179
  307.000   92.457    0.414    0.248   12.018
  307.250   93.075    0.417    0.247   11.938
  307.500   94.320    0.420    0.246   11.698
  307.750   94.934    0.424    0.250   11.618
  308.000   96.175    0.428    0.255   11.457
  308.250   96.793    0.431    0.267   11.377
