~VERSION INFORMATION
 VERS.                 2.0:   CWLS LOG ASCII STANDARD -VERSION 2.0
 WRAP.                  NO:   ONE LINE PER DEPTH STEP
~WELL INFORMATION BLOCK
#MNEM.UNIT           DATA                    DESCRIPTION OF MNEMONIC
#---------    -------------------            -------------------------------
# Generated from Intellog Unique Number	CW_70_72/WELL/2904
NULL.         -999.25                        : NULL_VALUE
COMP .        CALMARK RESOURCES LTD          :  COMPANY
WELL.         CALMARK ET AL MISTAHAE         : Well_name    - WELL              
LOC .         09-25-079-01W5                 : Location     - LOCATION          
UWI .         00/09-25-079-01W5/0            : Uwi          - UNIQUE WELL ID    
ENTR.         MAX                            : Entered      - ENTERED BY        
SRVC.         COMPUTALOG                     : Scn          - SERVICE COMPANY   
DATE.         25 FEB 89                      : Date         - LOG DATE
STRT.M        245                            : top_depth    - START DEPTH       
STOP.M        500                            : bot_depth    - STOP DEPTH        
STEP.M        0.25                           : increment    - STEP LENGTH       
~CURVE INFORMATION BLOCK
#MNEM UNIT       ERCB CURVE CODE    CURVE DESCRIPTION
#-----------   ------------------   ----------------------------------
DEPT.M        00 001 00 00         : DEPTH        - DEPTH                       
ILD .OHMM     00 120 00 00         : RESD         - DEEP RESISTIVITY (DIL)      
NPHI.V/V      00 330 00 00         : PHIN         - NEUTRON POROSITY (SANDSTONE)
DPHI.V/V      00 890 00 00         : PHID         - DENSITY POROSITY (SANDSTONE)
CALI.MM       00 280 01 00         : CAL          - CALIPER                     
GR  .API      00 310 00 00         : GR           - GAMMA RAY                   
~PARAMETER INFORMATION       
#MNEM.UNIT           DATA             DESCRIPTION OF MNEMONIC
#---------         -----------     ------------------------------
GL  .M        570.5                : gl           - GROUND LEVEL ELEVATION      
EREF.M        574.14               : kb           - ELEVATION OF DEPTH REFERENCE
DATM.M        570.5                : datum        - DATUM ELEVATION             
TDD .M        521                  : tdd          - TOTAL DEPTH DRILLER         
RUN .         ONE                  : Run          - RUN NUMBER                  
ENG .         BILL                 : Engineer     - RECORDING ENGINEER          
WIT .         JIM                  : Witness      - WITNESSED BY                
MUD .         GEL                  : Mud_type     - MUD TYPE                    
MATR.         SANDSTONE            : Logunit      - NEUTRON MATRIX              
TMAX.C        21                   : BHT          - MAXIMUM RECORDED TEMPERATURE
BHTD.M        521                  : BHTDEP       - MAXIMUM RECORDED TEMPERATURE
RMT .C        14.4                 : MDTP         - TEMPERATURE OF MUD          
MUDD.KG/M     950                  : MWT          - MUD DENSITY                 
NEUT.         1                    : NEUTRON      - NEUTRON TYPE                
RESI.         0                    : RESIST       - RESISTIVITY TYPE            
RM  .OHMM     2.2                  : RM           - RESISTIVITY OF MUD          
RMC .OHMM     1.9                  : RMC          - RESISTIVITY OF MUD CAKE     
RMF .OHMM     2                    : RMF          - RESISTIVITY OF MUD FILTRATE 
SUFT.C        -20                  : SUFT         - SURFACE TEMPERATURE         
~A  DEPTH     RESD     PHIN     PHID      CAL       GR
# ...
  427.500   12.800    0.384    0.184  168.748   88.461
  427.750   14.543    0.374    0.198  168.230   85.512
  428.000   16.370    0.374    0.207  167.716   82.265
  428.250   17.768    0.374    0.210  167.691   78.433
  428.500   20.002    0.378    0.208  166.674   76.657
  428.750   22.933    0.353    0.185  166.163   75.755
  429.000   25.817    0.324    0.054  165.156   72.219
  429.250   29.329    0.303    0.045  164.635   64.572
  429.500   32.423    0.302    0.051  164.606   63.675
  429.750   37.172    0.311    0.082  165.063   63.362
  430.000   39.253    0.305    0.077  166.009   63.934
  430.250   39.951    0.288    0.054  165.494   63.910
  430.500   38.496    0.288    0.030  164.484   63.015
  430.750   35.436    0.294    0.033  163.966   62.117
  431.000   32.923    0.310    0.080  163.937   62.983
  431.250   29.485    0.340    0.113  164.890   67.660
  431.500   26.404    0.356    0.141  165.354   72.044
  431.750   23.220    0.366    0.155  166.300   77.309
  432.000   19.151    0.382    0.177  167.253   84.921
  432.250   16.086    0.402    0.191  168.199   90.186
  432.500   14.016    0.396    0.177  169.148   90.462
  432.750   13.021    0.391    0.176  169.609   88.682
  433.000   12.319    0.393    0.175  170.069   86.613
  433.250   12.090    0.392    0.157  170.040   81.603
  433.500   11.757    0.386    0.138  170.004   80.999
  433.750   11.433    0.379    0.122  169.976   83.331
  434.000   11.322    0.376    0.139  169.954   86.831
  434.250   11.213    0.385    0.131  169.954   86.525
  434.500   11.004    0.388    0.132  170.860   85.623
  434.750   10.899    0.380    0.138  172.306   86.194
  435.000   10.696    0.397    0.152  173.744   90.285
  435.250   10.498    0.421    0.150  174.694   92.615
  435.500   10.023    0.418    0.148  175.158   95.828
  435.750    9.747    0.395    0.148  175.618  100.212
  436.000    9.392    0.379    0.146  175.589  104.890
  436.250    9.216    0.366    0.139  175.561  105.164
  436.500    9.216    0.351    0.131  176.010   93.410
  436.750    9.208    0.338    0.118  175.982   89.871
  437.000    9.811    0.348    0.107  175.464   86.624
  437.250   11.147    0.374    0.104  175.435   85.138
  437.500   12.209    0.378    0.107  175.899   85.998
  437.750   12.542    0.377    0.116  175.870   88.624
  438.000   12.537    0.357    0.130  175.842   94.771
  438.250   12.303    0.358    0.139  176.305  103.557
  438.500   12.075    0.358    0.146  176.273  109.406
  438.750   11.527    0.370    0.145  176.733  109.978
  439.000   11.007    0.396    0.134  177.187  112.306
  439.250   10.898    0.389    0.151  177.161  116.106
  439.500   10.602    0.387    0.163  177.133  117.556
  439.750   10.123    0.386    0.150  176.122  107.562
  440.000   10.117    0.381    0.126  173.159   99.326
  440.250   10.205    0.370    0.104  171.178   91.384
  440.500   10.388    0.371    0.128  170.653   91.660
  440.750   10.575    0.386    0.143  170.139   95.162
  441.000   10.765    0.381    0.143  169.625   94.562
  441.250   10.959    0.382    0.128  168.611   88.968
  441.500   11.465    0.383    0.099  168.589   86.016
  441.750   11.997    0.368    0.089  168.560   84.236
  442.000   13.021    0.336    0.223  168.528   74.538
  442.250   14.793    0.314    0.272  167.032   65.715
  442.500   17.593    0.297    0.302  164.555   30.482
  442.750   24.669    0.304    0.301  163.059   25.478
  443.000   32.743    0.316    0.296  163.030   22.814
  443.250   49.853    0.323    0.295  163.001   22.803
  443.500   62.069    0.329    0.299  162.969   23.372
  443.750   75.181    0.337    0.299  162.940   23.058
  444.000   85.408    0.336    0.296  163.401   23.040
  444.250   91.854    0.333    0.296  163.857   23.317
  444.500   97.876    0.336    0.289  164.321   23.595
  444.750  100.550    0.337    0.285  164.782   24.165
  445.000  103.298    0.332    0.301  164.753   24.439
  445.250  105.147    0.336    0.308  165.217   24.128
  445.500  106.055    0.341    0.310  166.163   23.819
  445.750  106.016    0.346    0.305  166.163   24.387
  446.000  104.986    0.347    0.297  166.580   24.661
  446.250  103.991    0.347    0.296  167.544   24.939
  446.500  101.120    0.347    0.297  168.978   25.507
  446.750   99.237    0.348    0.295  167.964   26.661
  447.000   95.618    0.349    0.291  165.498   27.235
  447.250   92.995    0.346    0.290  164.005   27.800
  447.500   88.787    0.341    0.293  162.509   27.492
  447.750   84.770    0.340    0.294  162.470   27.770
  448.000   82.440    0.346    0.289  162.445   27.751
  448.250   81.649    0.347    0.278  163.398   28.905
  448.500   80.129    0.347    0.274  164.836   31.238
  448.750   78.637    0.354    0.278  164.315   34.739
  449.000   75.084    0.357    0.283  164.282   35.898
  449.250   70.387    0.352    0.285  164.257   35.877
  449.500   65.988    0.353    0.283  165.207   37.035
  449.750   60.742    0.358    0.276  164.685   39.659
  450.000   54.899    0.362    0.275  163.679   44.339
  450.250   48.721    0.367    0.276  162.186   47.840
  450.500   44.035    0.372    0.275  161.668   49.880
  450.750   39.797    0.380    0.271  161.633   52.794
  451.000   36.299    0.389    0.269  161.633   55.712
  451.250   32.806    0.398    0.267  161.572   55.986
  451.500   30.755    0.396    0.262  161.550   56.849
  451.750   29.910    0.370    0.250  161.521   52.725
  452.000   29.623    0.355    0.218  161.471   49.183
  452.250   30.430    0.338    0.134  160.971   47.700
  452.500   32.132    0.332    0.115  160.942   47.390
  452.750   31.825    0.339    0.142  160.942   48.251
  453.000   30.947    0.359    0.210  160.874   50.288
  453.250   29.277    0.368    0.250  160.853   51.151
  453.500   27.701    0.369    0.263  160.828   49.375
  453.750   25.034    0.385    0.273  160.795   45.832
  454.000   20.273    0.390    0.273  161.259   45.526
  454.250   19.717    0.387    0.258  161.230   46.682
  454.500   17.497    0.391    0.231  162.665   49.893
  454.750   15.107    0.405    0.199  163.618   58.679
  455.000   12.574    0.414    0.186  166.524   69.519
  455.250   11.364    0.437    0.180  168.940   89.161
  455.500    9.992    0.447    0.180  169.879  103.520
  455.750    8.707    0.435    0.175  169.361  110.548
  456.000    7.586    0.411    0.158  167.865  108.476
  456.250    7.244    0.389    0.144  165.388   96.135
  456.500    7.442    0.363    0.092  164.392   73.228
  456.750    8.076    0.336    0.037  164.845   64.701
  457.000    9.009    0.330    0.013  165.802   77.008
  457.250   10.617    0.345    0.153  164.791   85.500
  457.500   11.844    0.345    0.212  162.806   76.973
  457.750   12.736    0.334    0.217  160.821   65.801
  458.000   12.731    0.331    0.202  160.300   60.211
  458.250   12.608    0.360    0.221  160.300   62.539
  458.500   12.834    0.370    0.238  160.232   71.912
  458.750   13.677    0.374    0.244  159.725   74.831
  459.000   15.256    0.378    0.241  159.692   78.628
  459.250   16.863    0.381    0.234  159.664   78.022
  459.500   18.136    0.386    0.237  159.638   77.713
  459.750   20.047    0.396    0.239  159.638   80.924
  460.000   21.361    0.398    0.225  159.567   85.013
  460.250   20.211    0.393    0.221  160.527   89.104
  460.500   16.669    0.397    0.221  161.965   90.553
  460.750   14.002    0.415    0.215  163.893   95.229
  461.000   11.134    0.443    0.223  165.331   96.388
  461.250    9.790    0.454    0.235  166.770   99.598
  461.500    8.149    0.458    0.240  167.230  102.809
  461.750    6.479    0.456    0.222  166.223  104.846
  462.000    5.856    0.423    0.213  165.213   95.732
  462.250    5.853    0.388    0.149  164.206   82.215
  462.500    6.068    0.354    0.056  162.714   55.199
  462.750    7.283    0.305    0.032  160.721   49.020
  463.000    8.124    0.337    0.058  161.182   62.205
  463.250    9.401    0.393    0.183  163.602   73.343
  463.500   10.486    0.408    0.268  162.592   80.661
  463.750   10.104    0.385    0.244  161.099   88.273
