~VERSION INFORMATION
 VERS.                 2.0:   CWLS LOG ASCII STANDARD -VERSION 2.0
 WRAP.                  NO:   ONE LINE PER DEPTH STEP
~WELL INFORMATION BLOCK
#MNEM.UNIT           DATA                    DESCRIPTION OF MNEMONIC
#---------    -------------------            -------------------------------
# Generated from Intellog Unique Number	CW_70_72/WELL/532
NULL.         -999.25                        : NULL_VALUE
WELL.         MIKAS CALLING LAKE 06-02       : Well_name    - WELL              
LOC .         06-02-072-20W4                 : Location     - LOCATION          
UWI .         00/06-02-072-20W4/0            : Uwi          - UNIQUE WELL ID    
ENTR.         JAYE                           : Entered      - ENTERED BY        
SRVC.         SCHLUMBERGER                   : Scn          - SERVICE COMPANY   
DATE.         15 FEB 72                      : Date         - LOG DATE          
STRT.M        316.992                        : top_depth    - START DEPTH       
STOP.M        508.992                        : bot_depth    - STOP DEPTH        
STEP.M        0.25                           : increment    - STEP LENGTH       
~CURVE INFORMATION BLOCK
#MNEM UNIT       ERCB CURVE CODE    CURVE DESCRIPTION
#-----------   ------------------   ----------------------------------
DEPT.M        00 001 00 00         : DEPTH        - DEPTH                       
DPHI.V/V      00 890 00 00         : PHID         - DENSITY POROSITY (SANDSTONE)
NPHI.V/V      00 330 00 00         : PHIN         - NEUTRON POROSITY (SANDSTONE)
GR  .API      00 310 00 00         : GR           - GAMMA RAY                   
CALI.MM       00 280 01 00         : CAL          - CALIPER                     
ILD .OHMM     00 120 00 00         : RESD         - DEEP RESISTIVITY (DIL)      
~PARAMETER INFORMATION       
#MNEM.UNIT           DATA             DESCRIPTION OF MNEMONIC
#---------         -----------     ------------------------------
GL  .M        589.483              : gl           - GROUND LEVEL ELEVATION      
EREF.M        593.446              : kb           - ELEVATION OF DEPTH REFERENCE
DATM.M        589.483              : datum        - DATUM ELEVATION             
TDD .M        534.619              : tdd          - TOTAL DEPTH DRILLER         
RUN .         ONE                  : Run          - RUN NUMBER                  
ENG .         COVENY               : Engineer     - RECORDING ENGINEER          
WIT .         ANDERSON             : Witness      - WITNESSED BY                
BASE.         EDM                  : Branch       - HOME BASE OF LOGGING UNIT   
MUD .         GEL                  : Mud_type     - MUD TYPE                    
MATR.         SANDSTONE            : Logunit      - NEUTRON MATRIX              
TMAX.C        23.8889              : BHT          - MAXIMUM RECORDED TEMPERATURE
BHTD.M        535.534              : BHTDEP       - MAXIMUM RECORDED TEMPERATURE
RMT .C        1.66667              : MDTP         - TEMPERATURE OF MUD          
MUDD.KG/M     1164                 : MWT          - MUD DENSITY                 
NEUT.         1                    : NEUTRON      - NEUTRON TYPE                
RESI.         0                    : RESIST       - RESISTIVITY TYPE            
RM  .OHMM     1.97                 : RM           - RESISTIVITY OF MUD          
RMC .OHMM     0                    : RMC          - RESISTIVITY OF MUD CAKE     
RMF .OHMM     1.69                 : RMF          - RESISTIVITY OF MUD FILTRATE 
SUFT.C        -17.7778             : SUFT         - SURFACE TEMPERATURE         
~A  DEPTH     PHID     PHIN       GR      CAL     RESD
# ...
  462.992    0.134    0.346  102.829  173.820    5.956
  463.242    0.171    0.335  104.414  174.041    5.954
  463.492    0.174    0.326  106.181  173.852    6.016
  463.742    0.168    0.329  109.404  173.970    6.103
  463.992    0.167    0.342  110.019  171.726    6.156
  464.242    0.164    0.341  106.331  170.305    6.244
  464.492    0.158    0.331  106.158  171.245    6.558
  464.742    0.155    0.316  104.531  171.570    7.057
  464.992    0.137    0.308  102.114  171.587    7.372
  465.242    0.117    0.302   99.031  171.806    7.465
  465.492    0.157    0.304  102.133  171.923    7.284
  465.742    0.186    0.323  106.265  172.249    7.172
  465.992    0.175    0.334  109.911  172.057    6.871
  466.242    0.183    0.330  113.013  172.176    6.706
  466.492    0.170    0.313  113.629  171.781    6.690
  466.742    0.157    0.301  111.698  171.796    6.685
  466.992    0.144    0.295  105.159  171.811    6.832
  467.242    0.116    0.288   94.861  172.135    7.020
  467.492    0.084    0.276   87.170  172.665    7.159
  467.742    0.123    0.262   82.330  172.783    7.302
  467.992    0.148    0.285   88.220  173.108    7.365
  468.242    0.123    0.334   93.990  173.123    7.375
  468.492    0.102    0.313   96.181  172.830    7.223
  468.742    0.088    0.291   98.009  172.848    6.512
  468.992    0.172    0.294  100.322  172.758    5.647
  469.242    0.196    0.329  104.333  172.571    4.834
  469.492    0.203    0.355  109.738  172.584    3.831
  469.742    0.210    0.366  116.173  172.500    3.138
  469.992    0.225    0.387  123.337  172.515    2.691
  470.242    0.225    0.408  119.466  172.636    2.602
  470.492    0.195    0.430  113.837  172.648    2.932
  470.742    0.177    0.444  110.936  172.869    3.371
  470.992    0.161    0.365  107.065  172.677    4.210
  471.242    0.140    0.324  101.739  172.902    6.277
  471.492    0.116    0.294   93.321  173.223    7.599
  471.742    0.087    0.272   89.389  173.549    7.853
  471.992    0.066    0.250   92.916  173.973    7.426
  472.242    0.062    0.264   97.411  175.940    6.756
  472.492    0.130    0.307  105.665  177.906    6.067
  472.742    0.144    0.328  110.222  177.818    5.449
  472.992    0.150    0.339  111.626  176.090    6.050
  473.242    0.131    0.344  109.997  174.976    6.704
  473.492    0.099    0.338   95.941  174.170    8.191
  473.742    0.063    0.245   87.099  173.673    9.575
  473.992    0.037    0.198   80.196  173.585   10.022
  474.242    0.057    0.182   84.875  173.501    9.834
  474.492    0.094    0.209   89.006  173.411    8.964
  474.742    0.123    0.280   94.653  173.324    7.411
  474.992    0.153    0.331   97.695  173.441    6.570
  475.242    0.139    0.354   98.249  173.663    6.156
  475.492    0.120    0.361   99.835  173.783    5.953
  475.742    0.144    0.363  102.693  172.464    5.895
  475.992    0.154    0.363  105.977  171.451    5.827
  476.242    0.146    0.357  107.928  170.748    5.738
  476.492    0.144    0.343  106.420  170.251    5.620
  476.742    0.141    0.344  107.217  170.061    5.515
  476.992    0.118    0.381  110.136  170.076    5.342
  477.242    0.092    0.392  105.174  170.402    5.174
  477.492    0.070    0.354  100.879  170.724    4.975
  477.742    0.099    0.377  104.526  171.048    4.846
  477.992    0.154    0.386  109.082  171.165    4.799
  478.242    0.165    0.387  108.909  171.288    4.769
  478.492    0.179    0.398  108.192  171.402    4.749
  478.742    0.169    0.420  108.868  171.523    4.783
  478.992    0.157    0.397  110.635  171.639    4.824
  479.242    0.144    0.382  111.493  171.861    4.902
  479.492    0.146    0.381  111.746  171.875    5.102
  479.742    0.125    0.386  112.784  172.101    5.291
  479.992    0.108    0.370  108.428  172.116    5.558
  480.242    0.079    0.356  103.406  172.130    5.607
  480.492    0.085    0.365  104.931  172.143    5.511
  480.742    0.146    0.348  109.245  171.956    5.349
  480.992    0.143    0.333  110.890  171.970    5.086
  481.242    0.127    0.325  110.900  170.958    4.854
  481.492    0.146    0.327  114.123  171.795    4.711
  481.742    0.165    0.338  118.437  172.737    4.657
  481.992    0.172    0.367  122.509  172.651    4.688
  482.242    0.175    0.375  119.243  172.357    4.836
  482.492    0.179    0.371  112.704  172.477    4.996
  482.742    0.184    0.389  112.774  172.798    5.229
  482.992    0.182    0.406  115.633  173.327    5.667
  483.242    0.172    0.401  119.401  174.266    6.338
  483.492    0.159    0.390  122.564  175.103    7.341
  483.742    0.146    0.363  122.694  174.915    8.455
  483.992    0.135    0.293  117.489  171.644    9.182
  484.242    0.115    0.233  102.523  166.220    8.605
  484.492    0.101    0.206   93.074  163.875    8.167
  484.742    0.180    0.216   86.171  162.556    7.954
  484.992    0.211    0.230   79.695  161.240    8.128
  485.242    0.234    0.229   73.822  160.841    8.168
  485.492    0.250    0.223   68.194  160.755    9.153
  485.742    0.247    0.213   64.747  160.974   10.525
  485.992    0.283    0.199   61.482  161.404   11.407
  486.242    0.303    0.189   56.337  161.827   12.523
  486.492    0.325    0.180   52.891  161.947   13.473
  486.742    0.330    0.171   53.385  161.965   12.168
  486.992    0.330    0.165   51.393  162.082   11.277
  487.242    0.346    0.171   48.371  162.402   10.746
  487.492    0.333    0.186   52.019  162.727   10.370
  487.742    0.309    0.228   58.697  163.051   10.100
  487.992    0.264    0.250   64.466  163.065   10.076
  488.242    0.290    0.266   68.355  163.594   10.353
  488.492    0.297    0.258   71.153  165.665   10.895
  488.742    0.282    0.229   73.224  166.810   11.340
  488.992    0.269    0.250   74.810  167.030   11.438
  489.242    0.316    0.270   73.061  166.534   11.162
  489.492    0.288    0.293   73.798  165.728   10.692
  489.742    0.269    0.305   76.778  165.334    9.429
  489.992    0.251    0.287   80.182  165.038    8.222
  490.242    0.238    0.275   84.677  164.646    7.317
  490.492    0.219    0.265   91.962  164.660    6.658
  490.742    0.203    0.283  100.035  164.368    6.308
  490.992    0.196    0.290  103.682  164.178    6.043
  491.242    0.209    0.280  106.057  165.220    5.801
  491.492    0.204    0.265  108.975  166.981    5.692
  491.742    0.196    0.277  114.137  168.126    5.625
  491.992    0.190    0.295  122.331  168.245    5.540
  492.242    0.181    0.317  129.192  167.643    5.456
  492.492    0.186    0.332  135.567  165.401    5.413
  492.742    0.182    0.304  125.694  164.492    5.440
  492.992    0.159    0.261  120.429  167.280    5.580
  493.242    0.150    0.239  122.500  173.147    5.764
  493.492    0.141    0.236  125.297  179.322    6.435
  493.742    0.129    0.255  126.095  174.925    7.317
  493.992    0.083    0.275  120.345  170.731    9.022
  494.242    0.044    0.278  111.441  168.796   11.607
  494.492    0.011    0.180   84.349  167.889   14.446
  494.742   -0.002    0.129   78.782  167.391   16.887
  494.992    0.025    0.121   81.276  167.407   18.817
  495.242    0.030    0.126   86.439  168.551   16.901
  495.492    0.035    0.143   91.662  170.003   13.566
  495.742    0.048    0.163   99.734  172.380   11.444
  495.992    0.065    0.179  107.747  176.399    9.356
  496.242    0.080    0.200  116.668  182.883    8.159
  496.492    0.098    0.233  125.105  185.157    7.977
  496.742    0.112    0.277  114.384  181.785    8.241
  496.992    0.089    0.249  104.025  176.667    8.546
  497.242    0.062    0.206  103.792  173.706    8.863
  497.492    0.058    0.208  111.076  176.187    9.362
  497.742    0.082    0.232  118.057  177.228    9.924
  497.992    0.088    0.263  103.577  174.369   10.580
  498.242    0.066    0.250   91.339  170.895   11.237
  498.492    0.014    0.181   95.593  172.143   12.002
  498.742    0.022    0.170  100.998  173.288   12.889
  498.992    0.029    0.176  108.161  174.022   12.416
  499.242    0.047    0.189  117.931  174.037   10.787
