~VERSION INFORMATION
 VERS.                 2.0:   CWLS LOG ASCII STANDARD -VERSION 2.0
 WRAP.                  NO:   ONE LINE PER DEPTH STEP
~WELL INFORMATION BLOCK
#MNEM.UNIT           DATA                    DESCRIPTION OF MNEMONIC
#---------    -------------------            -------------------------------
# Generated from Intellog Unique Number	CS_71_72/WELL/769
WELL.         PEX PHILLIPS AEC GRIST         : Well_name    - WELL
LOC .         00/06-12-072-08W4/0            : Location     - LOCATION
UWI .         00/06-12-072-08W4/0            : Uwi          - UNIQUE WELL ID
ENTR.         SP                             : Entered      - ENTERED BY
SRVC.         SCHLUMBERGER                   : Scn          - SERVICE COMPANY
STRT.M        310                            : top_depth    - START DEPTH
STOP.M        535                            : bot_depth    - STOP DEPTH
STEP.M        0.25                           : increment    - STEP LENGTH
 NULL. -999.2500:NULL Value
~CURVE INFORMATION BLOCK
#MNEM UNIT       ERCB CURVE CODE    CURVE DESCRIPTION
#-----------   ------------------   ----------------------------------
DEPT.M        00 001 00 00         : DEPTH        - DEPTH
ILD .OHMM     00 120 00 00         : RESD         - DEEP RESISTIVITY (DIL)
DPHI.V/V      00 890 00 00         : PHID         - DENSITY POROSITY (LIMESTONE)
NPHI.V/V      00 330 00 00         : PHIN         - NEUTRON POROSITY (LIMESTONE)
GR  .API      00 310 00 00         : GR           - GAMMA RAY
~PARAMETER INFORMATION
#MNEM.UNIT           DATA             DESCRIPTION OF MNEMONIC
#---------         -----------     ------------------------------
GL  .M        675.8                : gl           - GROUND LEVEL ELEVATION
EREF.M        679.3                : kb           - ELEVATION OF DEPTH REFERENCE
DATM.M        675.8                : datum        - DATUM ELEVATION
TDD .M        544                  : tdd          - TOTAL DEPTH DRILLER
RUN .         ONE                  : Run          - RUN NUMBER
ENG .         BILL                 : Engineer     - RECORDING ENGINEER
WIT .         JIM                  : Witness      - WITNESSED BY
MUD .         GEL                  : Mud_type     - MUD TYPE
MATR.         LIMESTONE            : Logunit      - NEUTRON MATRIX
TMAX.C        22.5                 : BHT          - MAXIMUM RECORDED TEMPERATURE
BHTD.M        544                  : BHTDEP       - MAXIMUM RECORDED TEMPERATURE
MATR.         1                    : LOGUNIT      - NEUTRON MATRIX
RMT .C        25                   : MDTP         - TEMPERATURE OF MUD
NEUT.         1                    : NEUTRON      - NEUTRON TYPE
RESI.         0                    : RESIST       - RESISTIVITY TYPE
RMC .OHMM     0.25                 : RMC          - RESISTIVITY OF MUD CAKE
RMF .OHMM     0.25                 : RMF          - RESISTIVITY OF MUD FILTRATE
SUFT.C        15                   : SUFT         - SURFACE TEMPERATURE
~A  DEPTH     RESD     PHID     PHIN       GR
# ...
  440.500    2.635    0.293    0.594   86.300
  440.750    2.540    0.288    0.602   85.704
  441.000    2.449    0.318    0.583   84.489
  441.250    2.450    0.319    0.590   82.061
  441.500    2.499    0.297    0.620   80.850
  441.750    2.646    0.280    0.582   79.641
  442.000    3.195    0.269    0.545   79.037
  442.250    3.511    0.271    0.510   76.001
  442.500    4.161    0.269    0.494   74.788
  442.750    4.574    0.278    0.501   73.574
  443.000    4.936    0.291    0.487   72.364
  443.250    5.032    0.287    0.480   75.421
  443.500    5.328    0.261    0.477   79.091
  443.750    6.082    0.239    0.471   77.879
  444.000    6.812    0.220    0.505   72.401
  444.250    7.490    0.195    0.519   65.701
  444.500    7.930    0.140    0.354   55.955
  444.750    8.239    0.046    0.251   49.863
  445.000    8.092   -0.001    0.221   55.361
  445.250    7.655    0.038    0.386   65.127
  445.500    6.847    0.095    0.423   70.013
  445.750    6.239    0.130    0.462   75.509
  446.000    5.902    0.172    0.481   77.347
  446.250    5.689    0.234    0.488   78.577
  446.500    5.692    0.234    0.470   79.805
  446.750    5.698    0.225    0.463   81.642
  447.000    5.701    0.229    0.458   82.260
  447.250    5.602    0.243    0.448   78.000
  447.500    5.607    0.250    0.486   81.668
  447.750    5.610    0.243    0.501   85.335
  448.000    5.719    0.244    0.497   81.686
  448.250    5.724    0.241    0.481   77.427
  448.500    5.839    0.236    0.481   76.216
  448.750    6.182    0.234    0.469   76.224
  449.000    7.055    0.244    0.463   76.843
  449.250    8.052    0.252    0.465   72.584
  449.500    8.687    0.253    0.481   68.325
  449.750    8.372    0.239    0.438   64.674
  450.000    7.212    0.044    0.296   64.682
  450.250    6.213    0.082    0.334   86.034
  450.500    5.876    0.241    0.382   99.458
  450.750    5.258    0.257    0.438   92.761
  451.000    5.067    0.252    0.469   84.231
  451.250    4.975    0.218    0.488   76.923
  451.500    4.706    0.203    0.476   74.492
  451.750    4.622    0.237    0.487   72.672
  452.000    4.455    0.256    0.458   73.900
  452.250    3.697    0.239    0.458   72.081
  452.500    3.431    0.242    0.474   71.478
  452.750    2.901    0.283    0.490   75.756
  453.000    2.693    0.303    0.505   80.036
  453.250    2.500    0.306    0.526   76.994
  453.500    2.455    0.298    0.558   73.952
  453.750    2.458    0.301    0.579   72.136
  454.000    2.506    0.286    0.562   75.803
  454.250    2.654    0.284    0.568   78.249
  454.500    2.864    0.290    0.573   82.528
  454.750    3.031    0.306    0.547   83.753
  455.000    3.460    0.295    0.547   84.373
  455.250    3.876    0.282    0.510   84.992
  455.500    4.104    0.266    0.465   80.733
  455.750    4.265    0.236    0.443   77.690
  456.000    4.267    0.216    0.462   73.431
  456.250    4.038    0.238    0.487   77.708
  456.500    3.965    0.244    0.493   81.986
  456.750    3.967    0.250    0.492   83.824
  457.000    3.971    0.244    0.501   80.173
  457.250    3.974    0.265    0.510   75.305
  457.500    4.131    0.272    0.499   74.093
  457.750    4.212    0.255    0.461   75.322
  458.000    4.630    0.232    0.436   76.553
  458.250    4.994    0.217    0.441   75.339
  458.500    5.594    0.252    0.456   71.689
  458.750    6.508    0.294    0.473   65.603
  459.000    7.152    0.319    0.465   63.172
  459.250    8.319    0.335    0.445   61.350
  459.500    9.143    0.334    0.458   57.703
  459.750   10.436    0.222    0.430   56.489
  460.000   11.688    0.074    0.351   53.450
  460.250   13.593    0.047    0.226   51.018
  460.500   15.516    0.030    0.209   47.370
  460.750   12.874    0.090    0.201   46.159
  461.000   11.086    0.188    0.239   49.825
  461.250    8.859    0.287    0.331   53.494
  461.500    7.349    0.300    0.377   53.502
  461.750    6.212    0.306    0.403   54.730
  462.000    5.767    0.322    0.415   58.400
  462.250    5.256    0.336    0.429   59.625
  462.500    4.971    0.343    0.421   59.025
  462.750    4.616    0.330    0.442   58.424
  463.000    4.449    0.325    0.457   59.043
  463.250    4.369    0.326    0.451   59.662
  463.500    4.372    0.319    0.439   60.892
  463.750    4.296    0.319    0.436   60.898
  464.000    4.298    0.326    0.441   59.081
  464.250    4.302    0.321    0.442   57.867
  464.500    4.226    0.312    0.449   57.266
  464.750    4.229    0.311    0.457   57.276
  465.000    4.312    0.317    0.460   57.893
  465.250    4.315    0.321    0.447   61.560
  465.500    4.318    0.312    0.443   64.620
  465.750    4.406    0.307    0.452   65.846
  466.000    4.409    0.306    0.457   66.466
  466.250    4.412    0.309    0.427   65.865
  466.500    4.415    0.311    0.422   67.093
  466.750    4.502    0.306    0.437   67.710
  467.000    4.506    0.304    0.453   65.890
  467.250    4.595    0.300    0.455   62.849
  467.500    4.601    0.310    0.443   64.080
  467.750    4.691    0.311    0.438   65.919
  468.000    4.693    0.294    0.428   67.148
  468.250    4.698    0.288    0.424   66.546
  468.500    4.702    0.281    0.426   65.944
  468.750    4.705    0.275    0.423   67.172
  469.000    4.800    0.270    0.421   70.233
  469.250    4.803    0.257    0.423   70.239
  469.500    4.897    0.242    0.419   70.858
  469.750    5.091    0.237    0.423   71.475
  470.000    5.290    0.229    0.417   73.314
  470.250    5.497    0.230    0.405   76.375
  470.500    5.710    0.231    0.404   77.603
  470.750    5.934    0.211    0.447   78.218
  471.000    6.164    0.218    0.461   69.692
  471.250    6.779    0.251    0.434   64.213
  471.500    7.042    0.259    0.420   61.171
  471.750    7.456    0.247    0.407   59.961
  472.000    7.745    0.241    0.400   58.140
  472.250    8.356    0.247    0.405   56.928
  472.500    8.847    0.253    0.422   55.717
  472.750    9.547    0.260    0.400   57.555
  473.000   10.107    0.085    0.378   58.176
  473.250   10.502    0.079    0.357   55.743
  473.500   10.513    0.139    0.341   54.533
  473.750    9.942    0.195    0.367   63.083
  474.000    8.247    0.237    0.404   64.916
  474.250    6.468    0.254    0.421   67.365
  474.500    5.365    0.255    0.402   71.035
  474.750    4.708    0.238    0.397   74.704
  475.000    4.455    0.242    0.408   75.931
  475.250    4.897    0.249    0.499   77.156
  475.500    5.802    0.250    0.498   78.384
  475.750    7.138    0.241    0.473   79.614
  476.000    8.459    0.244    0.445   80.231
  476.250    9.838    0.255    0.412   83.289
  476.500   11.229    0.259    0.379   86.957
  476.750   12.581    0.265    0.390   90.016
  477.000   13.071    0.273    0.396   90.023
  477.250   13.837    0.276    0.406   79.666
  477.500   14.655    0.278    0.409   63.821
  477.750   14.939    0.277    0.400   59.560
  478.000   14.956    0.275    0.381   60.791
  478.250   14.686    0.269    0.375   63.238
  478.500   13.893    0.264    0.369   71.176
  478.750   12.194    0.255    0.385   74.841
  479.000   10.505    0.249    0.396   79.120
  479.250   10.123    0.237    0.393   84.618
  479.500    9.400    0.228    0.380   85.843
  479.750    9.230    0.235    0.404   87.681
  480.000    9.239    0.251    0.417   85.250
  480.250    9.601    0.262    0.419   80.990
  480.500    9.980    0.270    0.401   79.170
  480.750   10.175    0.272    0.393   78.572
  481.000   10.573    0.270    0.408   77.359
  481.250   10.781    0.276    0.420   77.979
  481.500   10.788    0.283    0.404   82.867
  481.750   11.001    0.284    0.407   87.144
  482.000   11.433    0.303    0.432   84.102
  482.250   12.103    0.305    0.464   72.526
  482.500   13.305    0.289    0.430   60.948
  482.750   13.568    0.287    0.411   54.250
  483.000   12.599    0.283    0.402   57.306
  483.250   10.853    0.274    0.399   64.632
  483.500    9.886    0.268    0.386   71.350
  483.750    8.517    0.258    0.376   76.846
