~VERSION INFORMATION
 VERS.                 2.0:   CWLS LOG ASCII STANDARD -VERSION 2.0
 WRAP.                  NO:   ONE LINE PER DEPTH STEP
~WELL INFORMATION BLOCK
#MNEM.UNIT           DATA                    DESCRIPTION OF MNEMONIC
#---------    -------------------            -------------------------------
# Generated from Intellog Unique Number	CW_73_75/WELL/2733
WELL.         ANADARKO ER AL FRANCIS 07-32   : Well_name    - WELL
LOC .         00/07-32-073-21W4/0            : Location     - LOCATION
UWI .         00/07-32-073-21W4/0            : Uwi          - UNIQUE WELL ID
ENTR.         JAYE                           : Entered      - ENTERED BY
SRVC.         SCHLUMBERGER                   : Scn          - SERVICE COMPANY
DATE.         18 FEB 79                      : Date         - LOG DATE
STRT.M        325                            : top_depth    - START DEPTH
STOP.M        575                            : bot_depth    - STOP DEPTH
STEP.M        0.25                           : increment    - STEP LENGTH
 NULL. -999.2500:NULL Value
~CURVE INFORMATION BLOCK
#MNEM UNIT       ERCB CURVE CODE    CURVE DESCRIPTION
#-----------   ------------------   ----------------------------------
DEPT.M        00 001 00 00         : DEPTH        - DEPTH
ILD .OHMM     00 120 00 00         : RESD         - DEEP RESISTIVITY (DIL)
NPHI.V/V      00 330 00 00         : PHIN         - NEUTRON POROSITY (SANDSTONE)
DPHI.V/V      00 890 00 00         : PHID         - DENSITY POROSITY (SANDSTONE)
GR  .API      00 310 00 00         : GR           - GAMMA RAY
CALI.MM       00 280 01 00         : CAL          - CALIPER
~PARAMETER INFORMATION
#MNEM.UNIT           DATA             DESCRIPTION OF MNEMONIC
#---------         -----------     ------------------------------
GL  .M        674                  : gl           - GROUND LEVEL ELEVATION
EREF.M        677.8                : kb           - ELEVATION OF DEPTH REFERENCE
DATM.M        674                  : datum        - DATUM ELEVATION
TDD .M        600                  : tdd          - TOTAL DEPTH DRILLER
RUN .         ONE                  : Run          - RUN NUMBER
ENG .         WESOIOWSKY           : Engineer     - RECORDING ENGINEER
WIT .         ROGERS               : Witness      - WITNESSED BY
BASE.         EDM                  : Branch       - HOME BASE OF LOGGING UNIT
MUD .         GEL CHEM             : Mud_type     - MUD TYPE
MATR.         SANDSTONE            : Logunit      - NEUTRON MATRIX
TMAX.C        24                   : BHT          - MAXIMUM RECORDED TEMPERATURE
BHTD.M        601                  : BHTDEP       - MAXIMUM RECORDED TEMPERATURE
RMT .C        18                   : MDTP         - TEMPERATURE OF MUD
MUDD.KG/M     1090                 : MWT          - MUD DENSITY
NEUT.         1                    : NEUTRON      - NEUTRON TYPE
RESI.         0                    : RESIST       - RESISTIVITY TYPE
RM  .OHMM     5.8                  : RM           - RESISTIVITY OF MUD
RMC .OHMM     0                    : RMC          - RESISTIVITY OF MUD CAKE
RMF .OHMM     5.1                  : RMF          - RESISTIVITY OF MUD FILTRATE
SUFT.C        0                    : SUFT         - SURFACE TEMPERATURE
~A  DEPTH     RESD     PHIN     PHID       GR      CAL
  325.000    3.369    0.490    0.192  124.547  206.381
  325.250    3.337    0.475    0.199  126.495  203.849
  325.500    3.337    0.491    0.195  123.676  200.280
  325.750    3.350    0.492    0.200  126.247  197.952
  326.000    3.363    0.499    0.178  131.479  196.968
  326.250    3.382    0.475    0.166  131.569  196.815
  326.500    3.402    0.463    0.179  132.778  195.940
  326.750    3.460    0.468    0.189  132.683  195.360
  327.000    3.520    0.464    0.197  130.048  194.891
  327.250    3.621    0.483    0.191  126.729  194.214
  327.500    3.690    0.477    0.190  121.242  193.549
  327.750    3.847    0.463    0.194  114.704  193.402
  328.000    3.957    0.466    0.194  115.544  193.332
  328.250    4.056    0.469    0.182  118.540  193.172
  328.500    4.056    0.447    0.202  121.609  192.914
  328.750    3.988    0.416    0.194  116.866  192.549
  329.000    3.848    0.436    0.175  117.577  191.870
  329.250    3.769    0.459    0.187  122.127  191.298
  329.500    3.720    0.472    0.199  124.263  190.732
  329.750    3.665    0.465    0.201  125.162  190.468
  330.000    3.576    0.445    0.194  127.234  190.307
  330.250    3.464    0.468    0.201  131.848  189.956
  330.500    3.380    0.502    0.193  128.657  189.483
  330.750    3.274    0.501    0.199  129.675  189.008
  331.000    3.207    0.504    0.200  134.786  188.650
  331.250    3.141    0.511    0.209  135.495  188.278
  331.500    3.083    0.496    0.228  133.045  188.122
  331.750    3.071    0.515    0.215  125.887  187.757
  332.000    3.101    0.506    0.202  121.517  187.393
  332.250    3.172    0.513    0.193  126.998  186.920
  332.500    3.275    0.496    0.191  124.613  185.939
  332.750    3.382    0.473    0.204  119.063  184.861
  333.000    3.506    0.450    0.216  120.579  184.386
  333.250    3.745    0.435    0.213  122.347  183.913
  333.500    4.070    0.454    0.199  118.842  183.856
  333.750    4.364    0.470    0.210  110.442  183.492
  334.000    4.584    0.443    0.220  103.844  182.717
  334.250    4.769    0.367    0.199  102.200  177.082
  334.500    4.906    0.418    0.159  110.779  175.482
  334.750    5.019    0.446    0.206  121.527  179.968
  335.000    5.202    0.419    0.202  121.679  184.249
  335.250    5.739    0.419    0.209  108.202  183.266
  335.500    6.524    0.446    0.231   91.872  180.013
  335.750    7.306    0.418    0.231   80.375  175.723
  336.000    8.691    0.318    0.229   64.603  170.502
  336.250    8.245    0.263    0.231   34.394  164.353
  336.500    7.661    0.314    0.221   55.861  166.989
  336.750    7.589    0.339    0.227   73.178  173.542
  337.000    7.912    0.501    0.253   86.096  176.688
  337.250    8.532    0.486    0.269   71.687  175.392
  337.500    9.922    0.277    0.276   28.653  168.934
  337.750   11.736    0.290    0.221   20.192  161.965
  338.000   14.524    0.295    0.192   23.570  160.161
  338.250   18.631    0.276    0.170   19.197  159.576
  338.500   21.302    0.289    0.212   18.297  159.314
  338.750   19.718    0.302    0.238   22.477  159.891
  339.000   17.379    0.303    0.275   30.995  160.137
  339.250   14.502    0.314    0.257   45.648  161.218
  339.500   11.786    0.348    0.238   60.920  162.711
  339.750    9.579    0.387    0.253   63.427  165.344
  340.000    7.639    0.367    0.244   62.776  168.074
  340.250    6.327    0.391    0.236   68.442  167.506
  340.500    5.715    0.415    0.257   68.534  165.389
  340.750    5.901    0.384    0.255   63.049  163.778
  341.000    6.210    0.365    0.242   66.610  162.384
  341.250    6.672    0.405    0.253   69.673  161.913
  341.500    7.263    0.390    0.288   61.772  162.270
  341.750    7.997    0.363    0.295   53.189  163.043
  342.000    8.706    0.350    0.280   50.308  164.342
  342.250    9.265    0.341    0.263   53.741  165.100
  342.500    9.371    0.358    0.275   58.545  166.403
  342.750    8.790    0.361    0.261   61.855  166.953
  343.000    7.880    0.375    0.247   64.613  167.623
  343.250    6.932    0.375    0.242   68.918  168.396
  343.500    5.995    0.377    0.252   74.028  167.200
  343.750    5.156    0.403    0.253   78.889  167.568
  344.000    4.640    0.455    0.236   86.353  168.333
  344.250    4.128    0.437    0.211   93.693  169.109
  344.500    3.729    0.440    0.210  105.554  169.365
  344.750    3.330    0.450    0.214  119.960  170.026
  345.000    3.031    0.481    0.222  116.890  171.523
  345.250    2.891    0.489    0.205   98.206  173.116
  345.500    2.853    0.476    0.200  101.028  175.436
  345.750    2.897    0.454    0.200  109.171  178.274
  346.000    2.947    0.495    0.204  109.818  181.006
  346.250    3.066    0.523    0.222   92.311  174.452
  346.500    3.269    0.481    0.242   80.815  168.402
  346.750    3.519    0.400    0.218   88.591  168.559
  347.000    3.875    0.438    0.207   90.354  172.324
  347.250    4.226    0.462    0.190   81.400  169.683
  347.500    4.575    0.379    0.214   77.341  165.707
  347.750    4.796    0.396    0.233   77.740  164.823
  348.000    4.962    0.400    0.228   81.609  164.566
  348.250    5.047    0.392    0.233   77.985  165.125
  348.500    5.115    0.395    0.226   75.162  165.590
  348.750    5.144    0.389    0.226   76.120  166.572
  349.000    5.144    0.383    0.233   75.405  167.444
  349.250    5.116    0.394    0.234   74.876  168.317
  349.500    5.087    0.415    0.256   82.650  169.498
  349.750    5.059    0.436    0.263   88.195  173.159
  350.000    5.040    0.433    0.231   83.577  178.371
  350.250    4.928    0.397    0.243   77.287  175.838
  350.500    4.755    0.405    0.231   80.165  181.570
  350.750    4.553    0.397    0.193   94.073  182.958
  351.000    4.311    0.427    0.198   97.886  176.398
  351.250    3.923    0.439    0.208   98.657  177.999
  351.500    3.564    0.452    0.234  101.781  178.662
  351.750    3.400    0.465    0.220  100.695  179.750
  352.000    3.465    0.476    0.215  106.425  180.622
  352.250    3.808    0.409    0.213   95.983  181.704
  352.500    4.091    0.384    0.212   76.556  182.990
  352.750    4.428    0.387    0.216   72.681  184.584
  353.000    4.785    0.395    0.220   70.107  190.518
  353.250    5.064    0.392    0.231   71.006  181.068
  353.500    5.209    0.377    0.221   77.231  177.192
  353.750    5.269    0.372    0.198   79.613  177.240
  354.000    5.289    0.382    0.206   77.846  178.323
  354.250    5.340    0.387    0.191   74.590  180.126
  354.500    5.380    0.394    0.165   76.665  183.578
  354.750    5.391    0.352    0.165   81.465  181.872
  355.000    5.381    0.359    0.195   82.856  199.580
  355.250    5.281    0.363    0.218   83.320  197.769
  355.500    5.124    0.355    0.204   87.129  187.077
  355.750    4.926    0.379    0.190   92.427  190.227
  356.000    4.735    0.396    0.168   93.629  194.611
  356.250    4.399    0.418    0.203   97.255  193.420
  356.500    4.111    0.423    0.200   97.963  190.897
  356.750    3.798    0.433    0.208  100.470  190.524
  357.000    3.569    0.433    0.196  107.006  190.466
  357.250    3.367    0.442    0.208  106.356  190.208
  357.500    3.164    0.454    0.219  107.931  189.641
  357.750    3.018    0.486    0.221  110.871  189.168
  358.000    2.863    0.511    0.224  109.356  188.189
  358.250    2.763    0.486    0.219  108.638  187.199
  358.500    2.666    0.469    0.205  114.676  186.320
  358.750    2.592    0.464    0.219  112.479  185.958
  359.000    2.539    0.484    0.235  110.087  186.002
  359.250    2.487    0.503    0.219  106.463  186.462
  359.500    2.440    0.499    0.226  106.491  186.821
  359.750    2.404    0.488    0.219  111.041  187.604
  360.000    2.350    0.534    0.255  109.027  187.962
  360.250    2.311    0.566    0.269  113.145  188.004
  360.500    2.285    0.546    0.259  111.129  187.941
  360.750    2.264    0.555    0.247  105.271  187.794
  361.000    2.247    0.551    0.233  108.771  187.732
  361.250    2.226    0.540    0.227  114.128  187.155
