~VERSION INFORMATION
 VERS.                 2.0:   CWLS LOG ASCII STANDARD -VERSION 2.0
 WRAP.                  NO:   ONE LINE PER DEPTH STEP
~WELL INFORMATION BLOCK
#MNEM.UNIT           DATA                    DESCRIPTION OF MNEMONIC
#---------    -------------------            -------------------------------
# Generated from Intellog Unique Number	CS_67_68/WELL/2176
WELL.         07-08-067-02W4                 : Well_name    - WELL
LOC .         00/07-08-067-02W4/0            : Location     - LOCATION
UWI .         00/07-08-067-02W4/0            : Uwi          - UNIQUE WELL ID
ENTR.         SP                             : Entered      - ENTERED BY
SRVC.         SCHLUMBERGER                   : Scn          - SERVICE COMPANY
STRT.M        345                            : top_depth    - START DEPTH
STOP.M        606                            : bot_depth    - STOP DEPTH
STEP.M        0.25                           : increment    - STEP LENGTH
 NULL. -999.2500:NULL Value
~CURVE INFORMATION BLOCK
#MNEM UNIT       ERCB CURVE CODE    CURVE DESCRIPTION
#-----------   ------------------   ----------------------------------
DEPT.M        00 001 00 00         : DEPTH        - DEPTH
ILD .OHMM     00 120 00 00         : RESD         - DEEP RESISTIVITY (DIL)
DPHI.V/V      00 890 00 00         : PHID         - DENSITY POROSITY (LIMESTONE)
NPHI.V/V      00 330 00 00         : PHIN         - NEUTRON POROSITY (LIMESTONE)
GR  .API      00 310 00 00         : GR           - GAMMA RAY
CALI.MM       00 280 01 00         : CAL          - CALIPER
~PARAMETER INFORMATION
#MNEM.UNIT           DATA             DESCRIPTION OF MNEMONIC
#---------         -----------     ------------------------------
GL  .M        644.3                : gl           - GROUND LEVEL ELEVATION
EREF.M        648.1                : kb           - ELEVATION OF DEPTH REFERENCE
DATM.M        648.1                : datum        - DATUM ELEVATION
TDD .M        613.8                : tdd          - TOTAL DEPTH DRILLER
RUN .         ONE                  : Run          - RUN NUMBER
ENG .         BILL                 : Engineer     - RECORDING ENGINEER
WIT .         JIM                  : Witness      - WITNESSED BY
MUD .         GEL                  : Mud_type     - MUD TYPE
MATR.         LIMESTONE            : Logunit      - NEUTRON MATRIX
TMAX.C        25.5                 : BHT          - MAXIMUM RECORDED TEMPERATURE
BHTD.M        618.3                : BHTDEP       - MAXIMUM RECORDED TEMPERATURE
MATR.         1                    : LOGUNIT      - NEUTRON MATRIX
RMT .C        25                   : MDTP         - TEMPERATURE OF MUD
NEUT.         1                    : NEUTRON      - NEUTRON TYPE
RESI.         0                    : RESIST       - RESISTIVITY TYPE
RMC .OHMM     0.25                 : RMC          - RESISTIVITY OF MUD CAKE
RMF .OHMM     0.25                 : RMF          - RESISTIVITY OF MUD FILTRATE
SUFT.C        15                   : SUFT         - SURFACE TEMPERATURE
~A  DEPTH     RESD     PHID     PHIN       GR      CAL
# ...
  381.500    7.161    0.252    0.454   92.654  159.303
  381.750    7.027    0.242    0.476   98.219  160.710
  382.000    7.012    0.267    0.503   96.837  161.106
  382.250    7.292    0.295    0.478   80.769  159.479
  382.500    7.596    0.325    0.454   73.100  156.335
  382.750    7.913    0.328    0.438   68.574  154.505
  383.000    8.229    0.323    0.425   66.707  154.093
  383.250    8.398    0.318    0.412   72.758  154.284
  383.500    8.444    0.319    0.403   72.524  154.984
  383.750    8.332    0.325    0.418   75.492  155.278
  384.000    7.995    0.332    0.408   79.730  155.372
  384.250    7.744    0.274    0.396   83.787  156.473
  384.500    7.431    0.258    0.405   86.936  157.074
  384.750    7.278    0.251    0.412   82.532  157.770
  385.000    7.236    0.284    0.423   79.335  157.864
  385.250    7.181    0.294    0.433   84.540  158.158
  385.500    7.046    0.283    0.417   89.079  158.453
  385.750    6.954    0.278    0.406   90.598  158.443
  386.000    6.849    0.276    0.405   92.297  158.638
  386.250    6.810    0.275    0.417   92.969  158.730
  386.500    6.758    0.272    0.426   87.898  159.226
  386.750    6.782    0.266    0.414   87.906  159.926
  387.000    7.026    0.262    0.426   92.325  160.523
  387.250    7.184    0.264    0.438   95.353  160.616
  387.500    7.359    0.272    0.448   93.849  159.797
  387.750    7.624    0.276    0.445   89.928  158.677
  388.000    7.883    0.265    0.395   82.502  157.049
  388.250    8.305    0.256    0.400   79.729  155.828
  388.500    8.571    0.266    0.411   85.719  154.403
  388.750    8.748    0.273    0.421   88.809  153.687
  389.000    8.697    0.275    0.424   88.453  153.272
  389.250    8.345    0.269    0.436   90.817  153.262
  389.500    7.993    0.260    0.451   94.632  153.559
  389.750    7.858    0.274    0.466   96.150  153.752
  390.000    7.871    0.289    0.459   90.476  152.530
  390.250    7.914    0.298    0.439   87.039  151.510
  390.500    7.957    0.302    0.423   84.869  151.498
  390.750    7.985    0.299    0.443   89.650  151.794
  391.000    7.969    0.301    0.455   94.251  151.886
  391.250    7.953    0.298    0.452   98.489  152.383
  391.500    7.907    0.290    0.448  100.187  152.877
  391.750    7.861    0.288    0.442   94.393  153.578
  392.000    7.830    0.301    0.447   85.999  154.176
  392.250    7.800    0.309    0.441   78.875  154.674
  392.500    7.683    0.310    0.434   80.151  155.575
  392.750    7.610    0.297    0.436   86.626  156.477
  393.000    7.482    0.283    0.425   91.104  157.175
  393.250    7.564    0.273    0.419   95.825  158.178
  393.500    7.735    0.264    0.427   99.942  158.979
  393.750    7.894    0.273    0.424  101.218  159.272
  394.000    8.041    0.277    0.420  100.440  158.961
  394.250    8.176    0.267    0.416  100.930  158.143
  394.500    8.298    0.267    0.412  102.992  157.122
  394.750    8.374    0.282    0.423   95.928  156.203
  395.000    8.419    0.296    0.439   90.979  155.789
  395.250    8.418    0.294    0.433   87.179  155.781
  395.500    8.369    0.291    0.422   83.620  155.974
  395.750    8.228    0.289    0.412   90.577  156.269
  396.000    8.014    0.279    0.406   98.261  156.966
  396.250    7.576    0.269    0.421  101.349  157.566
  396.500    7.229    0.271    0.435  100.632  158.365
  396.750    6.950    0.263    0.446   99.913  159.066
  397.000    6.794    0.247    0.435  104.092  160.573
  397.250    6.895    0.239    0.437  106.394  161.678
  397.500    7.011    0.236    0.451  103.922  162.074
  397.750    7.304    0.245    0.459   94.804  161.660
  398.000    7.623    0.251    0.461   90.279  159.527
  398.250    7.971    0.251    0.467   87.626  157.495
  398.500    8.135    0.240    0.476   88.481  156.475
  398.750    8.287    0.243    0.482   89.515  155.757
  399.000    8.458    0.258    0.473   89.340  155.444
  399.250    8.567    0.270    0.460   87.473  155.537
  399.500    8.630    0.270    0.439   89.234  155.629
  399.750    8.693    0.279    0.420   88.756  155.925
  400.000    8.855    0.281    0.434   85.621  156.423
  400.250    8.887    0.306    0.504   84.056  157.626
  400.500    8.885    0.331    0.516   82.975  159.641
  400.750    8.834    0.308    0.478   80.203  160.846
  401.000    8.751    0.227    0.450   82.808  160.026
  401.250    8.555    0.213    0.398   79.552  157.691
  401.500    8.255    0.233    0.400   73.939  155.357
  401.750    8.131    0.257    0.410   68.991  152.617
  402.000    8.160    0.279    0.418   65.552  151.194
  402.250    8.266    0.303    0.423   62.296  150.273
  402.500    8.373    0.329    0.427   62.605  149.961
  402.750    8.466    0.332    0.421   64.729  150.051
  403.000    8.496    0.332    0.414   66.064  150.245
  403.250    8.542    0.327    0.413   68.005  150.237
  403.500    8.493    0.328    0.427   69.826  150.431
  403.750    8.428    0.333    0.436   71.766  150.422
  404.000    8.426    0.339    0.429   73.586  150.616
  404.250    8.425    0.338    0.429   75.347  150.609
  404.500    8.471    0.333    0.437   76.441  150.802
  404.750    8.501    0.332    0.427   76.206  150.690
  405.000    8.547    0.331    0.433   76.213  150.985
  405.250    8.594    0.331    0.435   78.276  151.078
  405.500    8.640    0.336    0.405   79.370  150.867
  405.750    8.655    0.335    0.387   79.982  150.960
  406.000    8.751    0.316    0.386   80.291  151.051
  406.250    8.798    0.303    0.397   81.507  151.246
  406.500    8.913    0.318    0.409   83.870  151.336
  406.750    9.062    0.327    0.414   79.345  151.528
  407.000    9.231    0.326    0.413   76.028  151.924
  407.250    9.351    0.312    0.389   73.859  152.322
  407.500    9.419    0.292    0.371   78.098  152.919
  407.750    9.435    0.281    0.385   82.518  153.720
  408.000    9.434    0.274    0.393   86.090  154.519
  408.250    9.292    0.269    0.382   89.360  155.320
  408.500    9.135    0.252    0.385   91.602  155.919
  408.750    8.881    0.230    0.387   92.697  156.415
  409.000    8.618    0.217    0.388   91.436  156.912
  409.250    8.536    0.230    0.399   90.536  157.712
  409.500    8.439    0.248    0.415   86.434  158.612
  409.750    8.391    0.266    0.423   81.847  159.413
  410.000    8.405    0.260    0.432   78.470  160.111
  410.250    8.451    0.261    0.432   75.334  160.812
  410.500    8.576    0.273    0.409   80.358  160.904
  410.750    8.688    0.281    0.393   83.749  160.490
  411.000    8.833    0.261    0.389   87.201  160.179
  411.250    8.898    0.239    0.381   88.840  159.966
  411.500    8.946    0.228    0.395   89.451  160.060
  411.750    8.944    0.243    0.409   84.261  160.049
  412.000    8.926    0.270    0.384   76.472  160.243
  412.250    8.925    0.275    0.386   75.028  160.437
  412.500    8.957    0.270    0.387   73.584  160.731
  412.750    8.955    0.265    0.369   72.685  161.026
  413.000    8.987    0.255    0.358   72.209  161.017
  413.250    9.036    0.250    0.352   71.490  161.009
  413.500    9.068    0.252    0.365   75.428  161.000
  413.750    9.066    0.248    0.375   77.972  160.991
  414.000    8.980    0.234    0.372   77.072  160.881
  414.250    8.845    0.228    0.366   72.365  160.670
  414.500    8.761    0.247    0.361   69.170  160.154
  414.750    8.743    0.239    0.370   67.302  159.540
  415.000    8.758    0.254    0.380   62.052  158.115
  415.250    8.724    0.298    0.387   56.922  156.388
  415.500    8.738    0.318    0.390   52.698  154.658
  415.750    8.688    0.334    0.389   50.771  153.535
  416.000    8.670    0.342    0.389   53.559  153.125
  416.250    8.653    0.350    0.400   59.428  152.609
  416.500    8.586    0.354    0.408   72.127  151.689
  416.750    8.568    0.354    0.419   77.694  151.278
  417.000    8.567    0.351    0.427   82.173  150.662
  417.250    8.565    0.347    0.435   80.487  150.248
  417.500    8.532    0.343    0.434   74.995  150.034
  417.750    8.531    0.339    0.424   70.953  149.924
