~VERSION INFORMATION
 VERS.                 2.0:   CWLS LOG ASCII STANDARD -VERSION 2.0
 WRAP.                  NO:   ONE LINE PER DEPTH STEP
~WELL INFORMATION BLOCK
#MNEM.UNIT           DATA                    DESCRIPTION OF MNEMONIC
#---------    -------------------            -------------------------------
# Generated from Intellog Unique Number	CW_79_81/WELL/2451
WELL.         06-15-080-22W4                 : Well_name    - WELL
LOC .         00/06-15-080-22W4/0            : Location     - LOCATION
UWI .         00/06-15-080-22W4/0            : Uwi          - UNIQUE WELL ID
ENTR.         MAX                            : Entered      - ENTERED BY
SRVC.         SCHLUMBERGER                   : Scn          - SERVICE COMPANY
STRT.M        215                            : top_depth    - START DEPTH
STOP.M        434.75                         : bot_depth    - STOP DEPTH
STEP.M        0.25                           : increment    - STEP LENGTH
 NULL. -999.2500:NULL Value
~CURVE INFORMATION BLOCK
#MNEM UNIT       ERCB CURVE CODE    CURVE DESCRIPTION
#-----------   ------------------   ----------------------------------
DEPT.M        00 001 00 00         : DEPTH        - DEPTH
ILD .OHMM     00 120 00 00         : RESD         - DEEP RESISTIVITY (DIL)
NPHI.V/V      00 330 00 00         : PHIN         - NEUTRON POROSITY (SANDSTONE)
DPHI.V/V      00 890 00 00         : PHID         - DENSITY POROSITY (SANDSTONE)
GR  .API      00 310 00 00         : GR           - GAMMA RAY
CALI.MM       00 280 01 00         : CAL          - CALIPER
~PARAMETER INFORMATION
#MNEM.UNIT           DATA             DESCRIPTION OF MNEMONIC
#---------         -----------     ------------------------------
GL  .M        586                  : gl           - GROUND LEVEL ELEVATION
EREF.M        590.5                : kb           - ELEVATION OF DEPTH REFERENCE
DATM.M        586                  : datum        - DATUM ELEVATION
TDD .M        440                  : tdd          - TOTAL DEPTH DRILLER
RUN .         ONE                  : Run          - RUN NUMBER
ENG .         BILL                 : Engineer     - RECORDING ENGINEER
WIT .         JIM                  : Witness      - WITNESSED BY
MUD .         GEL                  : Mud_type     - MUD TYPE
MATR.         SANDSTONE            : Logunit      - NEUTRON MATRIX
TMAX.C        28                   : BHT          - MAXIMUM RECORDED TEMPERATURE
BHTD.M        440                  : BHTDEP       - MAXIMUM RECORDED TEMPERATURE
MATR.         1                    : LOGUNIT      - NEUTRON MATRIX
RMT .C        17                   : MDTP         - TEMPERATURE OF MUD
NEUT.         1                    : NEUTRON      - NEUTRON TYPE
RESI.         0                    : RESIST       - RESISTIVITY TYPE
RMC .OHMM     7.25                 : RMC          - RESISTIVITY OF MUD CAKE
RMF .OHMM     6.53                 : RMF          - RESISTIVITY OF MUD FILTRATE
SUFT.C        -20.5556             : SUFT         - SURFACE TEMPERATURE
~A  DEPTH     RESD     PHIN     PHID       GR      CAL
# ...
  324.500    6.536    0.437    0.244   88.249  229.356
  324.750    6.357    0.453    0.255   85.384  229.743
  325.000    6.471    0.454    0.263   83.948  230.132
  325.250    6.754    0.458    0.265   80.842  230.324
  325.500    7.112    0.467    0.261   76.783  230.514
  325.750    7.461    0.464    0.241   76.647  231.464
  326.000    7.508    0.462    0.218   78.381  232.284
  326.250    7.353    0.455    0.224   79.805  232.672
  326.500    7.164    0.446    0.238   81.052  232.763
  326.750    6.922    0.438    0.245   82.359  232.755
  327.000    6.622    0.437    0.242   83.130  232.846
  327.250    6.227    0.458    0.235   81.782  233.232
  327.500    6.010    0.471    0.236   81.030  233.221
  327.750    5.926    0.490    0.231   82.695  234.008
  328.000    5.843    0.491    0.226   84.896  234.795
  328.250    5.780    0.488    0.227   87.037  235.582
  328.500    5.786    0.482    0.235   88.104  236.069
  328.750    5.980    0.468    0.241   85.873  235.495
  329.000    6.191    0.460    0.228   81.893  234.660
  329.250    6.656    0.480    0.223   79.265  233.459
  329.500    7.229    0.489    0.214   76.994  231.362
  329.750    7.909    0.480    0.189   75.081  229.764
  330.000    8.580    0.446    0.162   74.420  228.962
  330.250    8.916    0.380    0.189   77.841  228.321
  330.500    8.848    0.402    0.253   83.052  229.139
  330.750    8.319    0.428    0.239   87.340  229.530
  331.000    7.743    0.446    0.236   87.514  229.919
  331.250    7.439    0.450    0.236   84.766  230.307
  331.500    7.446    0.444    0.237   81.541  230.894
  331.750    7.686    0.447    0.235   81.933  232.158
  332.000    7.900    0.463    0.236   83.913  232.564
  332.250    8.001    0.479    0.236   84.385  232.158
  332.500    7.982    0.477    0.234   84.858  231.453
  332.750    7.923    0.468    0.229   85.569  231.045
  333.000    7.866    0.461    0.221   86.338  231.335
  333.250    7.784    0.465    0.216   86.272  233.014
  333.500    7.672    0.462    0.222   84.775  235.490
  333.750    7.513    0.456    0.221   85.725  235.481
  334.000    7.396    0.456    0.222   86.495  235.175
  334.250    7.268    0.453    0.224   87.801  234.769
  334.500    7.154    0.444    0.226   89.107  234.560
  334.750    7.198    0.439    0.231   88.078  234.947
  335.000    7.450    0.432    0.236   85.340  234.941
  335.250    7.959    0.430    0.243   79.612  234.533
  335.500    8.670    0.433    0.251   74.956  232.933
  335.750    9.430    0.437    0.259   70.539  231.136
  336.000   10.320    0.437    0.267   66.241  229.639
  336.250   12.197    0.429    0.258   62.111  228.518
  336.500   13.361    0.423    0.168   59.374  228.924
  336.750   14.943    0.373    0.104   54.838  231.301
  337.000   16.967    0.259    0.078   54.593  233.379
  337.250   18.923    0.208    0.107   57.927  233.568
  337.500   19.512    0.254    0.177   64.480  232.167
  337.750   16.795    0.351    0.248   75.493  231.528
  338.000   14.230    0.404    0.252   81.698  232.346
  338.250   11.898    0.391    0.239   86.939  233.133
  338.500   10.460    0.391    0.227   91.644  233.323
  338.750    9.357    0.398    0.222   94.620  233.314
  339.000    8.451    0.411    0.228   94.972  233.305
  339.250    7.756    0.434    0.240   91.260  233.296
  339.500    7.805    0.448    0.227   87.031  233.287
  339.750    8.227    0.441    0.213   83.450  231.690
  340.000    8.718    0.429    0.212   82.728  231.282
  340.250    9.076    0.424    0.208   82.961  231.670
  340.500    9.163    0.426    0.201   83.492  232.059
  340.750    8.896    0.419    0.201   85.266  231.089
  341.000    8.526    0.423    0.202   86.999  230.253
  341.250    8.406    0.435    0.192   88.184  230.640
  341.500    8.372    0.445    0.190   88.656  231.625
  341.750    8.367    0.453    0.192   88.413  232.610
  342.000    8.404    0.453    0.198   87.396  233.296
  342.250    8.628    0.440    0.216   84.786  233.601
  342.500    8.931    0.427    0.237   81.302  233.179
  342.750    9.540    0.412    0.234   84.636  231.182
  343.000    9.897    0.417    0.226   86.002  230.081
  343.250    9.991    0.430    0.223   86.473  229.477
  343.500    9.883    0.442    0.223   86.706  229.269
  343.750    9.611    0.446    0.212   86.789  229.739
  344.000    9.275    0.443    0.205   86.040  230.145
  344.250    8.840    0.436    0.208   84.365  230.136
  344.500    8.643    0.442    0.210   84.121  230.126
  344.750    8.493    0.450    0.212   86.143  230.117
  345.000    8.320    0.451    0.216   88.879  230.109
  345.250    8.137    0.445    0.219   88.546  230.016
  345.500    8.076    0.448    0.217   89.286  229.593
  345.750    8.179    0.458    0.204   88.565  229.584
  346.000    8.284    0.457    0.203   85.161  228.980
  346.250    8.558    0.444    0.212   83.606  228.176
  346.500    9.125    0.426    0.221   85.985  227.967
  346.750   10.390    0.423    0.206   92.091  229.712
  347.000   12.139    0.448    0.211   92.830  230.531
  347.250   14.116    0.437    0.219   85.433  230.126
  347.500   16.135    0.367    0.146   71.417  230.316
  347.750   17.529    0.313    0.104   63.542  231.499
  348.000   18.178    0.317    0.123   64.372  233.280
  348.250   19.198    0.379    0.141   65.528  234.545
  348.500   20.013    0.332    0.103   61.796  234.949
  348.750   20.818    0.269    0.105   62.984  234.544
  349.000   21.658    0.274    0.105   63.813  234.136
  349.250   21.943    0.289    0.101   65.597  233.729
  349.500   21.105    0.300    0.100   70.301  233.424
  349.750   17.313    0.357    0.132   80.246  233.022
  350.000   12.051    0.450    0.195   78.719  231.048
  350.250   11.661    0.414    0.172   71.411  230.314
  350.500   12.105    0.362    0.125   63.397  229.579
  350.750   13.081    0.322    0.090   60.116  229.234
  351.000   14.172    0.319    0.094   62.512  229.380
  351.250   14.410    0.386    0.157   68.130  229.763
  351.500   13.636    0.425    0.190   73.589  229.403
  351.750   13.194    0.407    0.183   77.175  229.852
  352.000   13.030    0.391    0.177   77.917  230.593
  352.250   13.260    0.383    0.168   76.289  231.042
  352.500   14.041    0.378    0.156   73.244  230.903
  352.750   16.077    0.343    0.137   69.818  230.180
  353.000   18.425    0.280    0.117   67.876  230.237
  353.250   19.201    0.250    0.084   65.542  229.891
  353.500   19.026    0.258    0.090   67.996  229.258
  353.750   17.826    0.308    0.128   73.114  228.718
  354.000   15.918    0.371    0.178   77.171  228.074
  354.250   13.534    0.390    0.210   74.892  226.479
  354.500   12.462    0.387    0.215   75.169  226.119
  354.750   12.472    0.376    0.204   77.569  226.573
  355.000   12.611    0.375    0.196   76.598  227.020
  355.250   12.621    0.384    0.195   74.617  227.269
  355.500   12.354    0.401    0.201   73.936  227.419
  355.750   11.680    0.419    0.210   77.656  227.869
  356.000   11.132    0.423    0.206   81.879  227.925
  356.250   11.068    0.415    0.211   85.465  227.991
  356.500   11.171    0.406    0.214   87.631  228.632
  356.750   11.445    0.400    0.208   89.678  229.467
  357.000   11.830    0.403    0.199   91.306  230.208
  357.250   12.186    0.429    0.199   89.297  230.423
  357.500   12.282    0.437    0.194   82.671  229.252
  357.750   12.210    0.423    0.188   77.970  228.512
  358.000   12.015    0.412    0.191   78.414  228.660
  358.250   11.583    0.422    0.197   80.930  228.717
  358.500   11.026    0.447    0.204   83.448  228.186
  358.750   10.555    0.459    0.215   84.612  227.139
  359.000   10.343    0.437    0.215   83.163  227.607
  359.250   10.354    0.403    0.207   82.492  229.234
  359.500   10.364    0.400    0.205   83.939  229.973
  359.750   10.372    0.400    0.200   86.454  230.225
  360.000   10.380    0.392    0.191   88.796  230.087
  360.250   10.376    0.387    0.188   89.445  229.361
  360.500   10.314    0.402    0.190   88.989  229.407
  360.750   10.253    0.431    0.189   90.198  230.645
