~VERSION INFORMATION
 VERS.                 2.0:   CWLS LOG ASCII STANDARD -VERSION 2.0
 WRAP.                  NO:   ONE LINE PER DEPTH STEP
~WELL INFORMATION BLOCK
#MNEM.UNIT           DATA                    DESCRIPTION OF MNEMONIC
#---------    -------------------            -------------------------------
# Generated from Intellog Unique Number	CS_77_79/WELL/920
WELL.         CANADIAN WORLDWIDE ENERGY      : Well_name    - WELL
LOC .         00/08-20-077-05W4/0            : Location     - LOCATION
UWI .         00/08-20-077-05W4/0            : Uwi          - UNIQUE WELL ID
ENTR.         SP                             : Entered      - ENTERED BY
SRVC.         SCHLUMBERGER                   : Scn          - SERVICE COMPANY
STRT.M        155.250                        : top_depth    - START DEPTH
STOP.M        408.000                        : bot_depth    - STOP DEPTH
STEP.M        0.25                           : increment    - STEP LENGTH
 NULL. -999.2500:NULL Value
~CURVE INFORMATION BLOCK
#MNEM UNIT       ERCB CURVE CODE    CURVE DESCRIPTION
#-----------   ------------------   ----------------------------------
DEPT.M        00 001 00 00         : DEPTH        - DEPTH
ILD .OHMM     00 120 00 00         : RESD         - DEEP RESISTIVITY (DIL)
DPHI.V/V      00 890 00 00         : PHID         - DENSITY POROSITY (SANDSTONE)
NPHI.V/V      00 330 00 00         : PHIN         - NEUTRON POROSITY (SANDSTONE)
GR  .API      00 310 00 00         : GR           - GAMMA RAY
~PARAMETER INFORMATION
#MNEM.UNIT           DATA             DESCRIPTION OF MNEMONIC
#---------         -----------     ------------------------------
GL  .M        570.1                : gl           - GROUND LEVEL ELEVATION
EREF.M        574                  : kb           - ELEVATION OF DEPTH REFERENCE
DATM.M        570.1                : datum        - DATUM ELEVATION
TDD .M        415                  : tdd          - TOTAL DEPTH DRILLER
RUN .         ONE                  : Run          - RUN NUMBER
ENG .         BILL                 : Engineer     - RECORDING ENGINEER
WIT .         JIM                  : Witness      - WITNESSED BY
MUD .         GEL                  : Mud_type     - MUD TYPE
MATR.         SANDSTONE            : Logunit      - NEUTRON MATRIX
TMAX.C        20                   : BHT          - MAXIMUM RECORDED TEMPERATURE
BHTD.M        415                  : BHTDEP       - MAXIMUM RECORDED TEMPERATURE
MATR.         1                    : LOGUNIT      - NEUTRON MATRIX
RMT .C        25                   : MDTP         - TEMPERATURE OF MUD
NEUT.         1                    : NEUTRON      - NEUTRON TYPE
RESI.         0                    : RESIST       - RESISTIVITY TYPE
RMC .OHMM     0.25                 : RMC          - RESISTIVITY OF MUD CAKE
RMF .OHMM     0.25                 : RMF          - RESISTIVITY OF MUD FILTRATE
SUFT.C        15                   : SUFT         - SURFACE TEMPERATURE
~A  DEPTH     RESD     PHID     PHIN       GR
# ...
  329.250   14.598    0.297    0.283   87.140
  329.500   12.345    0.263    0.304   94.510
  329.750   11.901    0.234    0.317   95.140
  330.000   11.470    0.216    0.312   89.653
  330.250   11.061    0.238    0.309   82.327
  330.500   10.466    0.265    0.293   76.231
  330.750   10.086    0.245    0.286   75.029
  331.000    9.371    0.222    0.292   82.399
  331.250    9.203    0.187    0.313   90.987
  331.500    9.038    0.156    0.328  101.420
  331.750    8.879    0.144    0.331  104.502
  332.000    8.724    0.154    0.329  102.092
  332.250    8.729    0.155    0.328  100.888
  332.500    8.574    0.159    0.328  100.297
  332.750    8.427    0.160    0.329   99.695
  333.000    8.275    0.161    0.330   97.883
  333.250    7.979    0.161    0.332   96.071
  333.500    7.693    0.160    0.338   94.865
  333.750    7.554    0.157    0.334   96.722
  334.000    7.287    0.144    0.346  101.030
  334.250    7.156    0.137    0.361  104.731
  334.500    7.028    0.158    0.365  107.196
  334.750    6.905    0.171    0.368  109.055
  335.000    6.784    0.168    0.372  107.238
  335.250    6.917    0.168    0.372  104.213
  335.500    6.925    0.168    0.365  104.840
  335.750    6.930    0.168    0.361  104.863
  336.000    6.935    0.169    0.355  104.274
  336.250    7.077    0.173    0.353  102.456
  336.500    7.217    0.186    0.353   99.416
  336.750    7.499    0.191    0.350   96.378
  337.000    7.648    0.175    0.340   93.952
  337.250    7.947    0.162    0.331   92.134
  337.500    7.954    0.159    0.331   90.325
  337.750    8.116    0.182    0.333   89.731
  338.000    8.121    0.190    0.335   90.364
  338.250    8.281    0.185    0.339   91.613
  338.500    8.135    0.181    0.348   96.540
  338.750    7.996    0.170    0.357   99.002
  339.000    7.854    0.162    0.363  103.318
  339.250    7.860    0.165    0.365  104.555
  339.500    7.721    0.170    0.366  104.583
  339.750    7.583    0.172    0.368  103.378
  340.000    7.589    0.173    0.364   99.117
  340.250    7.743    0.173    0.359   96.686
  340.500    7.603    0.177    0.366   95.487
  340.750    7.611    0.173    0.376   96.733
  341.000    7.340    0.168    0.376  101.039
  341.250    7.346    0.172    0.372  104.129
  341.500    7.216    0.174    0.370  104.153
  341.750    7.359    0.179    0.362  102.336
  342.000    7.365    0.187    0.356  101.127
  342.250    7.657    0.192    0.365   95.639
  342.500    7.662    0.192    0.368   90.770
  342.750    7.817    0.188    0.365   92.630
  343.000    7.971    0.180    0.357   95.707
  343.250    7.831    0.177    0.364   97.572
  343.500    7.838    0.182    0.367   98.211
  343.750    7.699    0.181    0.363   98.233
  344.000    7.563    0.178    0.361   98.857
  344.250    7.568    0.175    0.366   95.823
  344.500    7.577    0.171    0.373   99.516
  344.750    7.584    0.168    0.369  103.828
  345.000    7.737    0.165    0.364  100.173
  345.250    7.742    0.170    0.369   97.135
  345.500    7.747    0.173    0.371   95.946
  345.750    7.759    0.175    0.373   95.961
  346.000    7.765    0.177    0.374   95.977
  346.250    7.772    0.181    0.370  100.282
  346.500    7.776    0.177    0.349  105.818
  346.750    7.787    0.174    0.360  108.907
  347.000    7.940    0.169    0.364  111.987
  347.250    8.102    0.166    0.356  114.452
  347.500    8.108    0.165    0.350  107.742
  347.750    8.267    0.167    0.340   96.131
  348.000    8.434    0.175    0.331   88.807
  348.250    8.599    0.182    0.328   85.157
  348.500    8.775    0.186    0.326   85.795
  348.750    8.781    0.186    0.328   87.661
  349.000    8.787    0.184    0.326   88.287
  349.250    8.793    0.184    0.331   91.386
  349.500    8.804    0.186    0.339   92.013
  349.750    8.646    0.187    0.340   93.251
  350.000    8.341    0.188    0.340   93.276
  350.250    8.194    0.188    0.342   94.518
  350.500    8.050    0.188    0.361   99.447
  350.750    8.056    0.187    0.361  100.685
  351.000    7.913    0.185    0.359  101.317
  351.250    7.919    0.182    0.359   99.501
  351.500    7.924    0.178    0.357   92.181
  351.750    8.083    0.186    0.365   90.366
  352.000    8.094    0.188    0.367   97.121
  352.250    7.949    0.181    0.374  105.717
  352.500    7.957    0.179    0.394  109.408
  352.750    7.816    0.178    0.405  111.270
  353.000    7.822    0.173    0.397  109.454
  353.250    7.829    0.163    0.385  102.746
  353.500    7.839    0.153    0.382   96.034
  353.750    7.843    0.165    0.380   89.935
  354.000    7.998    0.169    0.374   85.670
  354.250    8.313    0.181    0.349   83.853
  354.500    8.807    0.191    0.343   82.650
  354.750    8.815    0.202    0.334   88.794
  355.000    8.988    0.203    0.334   90.654
  355.250    8.995    0.192    0.339   90.065
  355.500    8.835    0.186    0.339   91.923
  355.750    8.680    0.173    0.336   96.850
  356.000    8.687    0.163    0.330   99.320
  356.250    8.701    0.149    0.332   99.950
  356.500    8.874    0.166    0.340   99.364
  356.750    9.050    0.182    0.347  101.831
  357.000    9.227    0.191    0.352  104.912
  357.250    9.408    0.193    0.362  100.039
  357.500    9.964    0.176    0.369   74.961
  357.750   10.550    0.263    0.369   49.882
  358.000   11.821    0.301    0.358   41.947
  358.250   12.995    0.294    0.340   56.047
  358.500   14.555    0.267    0.331   75.048
  358.750   15.416    0.240    0.321   76.906
  359.000   14.586    0.207    0.333   72.031
  359.250   13.296    0.233    0.338   68.381
  359.500   12.575    0.202    0.337   84.322
  359.750   10.832    0.188    0.337  100.258
  360.000   10.056    0.162    0.348  105.180
  360.250    9.341    0.170    0.363  101.530
  360.500    9.002    0.171    0.364  104.001
  360.750    8.681    0.168    0.359  108.922
  361.000    8.687    0.164    0.355  110.778
  361.250    9.028    0.211    0.346   99.785
  361.500   10.116    0.235    0.338   91.846
  361.750   11.121    0.248    0.330   76.564
  362.000   11.998    0.243    0.323   63.727
  362.250   12.240    0.217    0.312   59.466
  362.500   12.247    0.200    0.314   68.671
  362.750   11.806    0.185    0.316   76.041
  363.000   11.820    0.172    0.309   79.734
  363.250   12.515    0.177    0.305   79.143
  363.500   13.505    0.186    0.311   77.330
  363.750   15.420    0.214    0.315   74.294
  364.000   16.631    0.236    0.316   63.910
  364.250   19.348    0.247    0.309   55.976
  364.500   21.270    0.224    0.298   48.645
  364.750   23.825    0.205    0.284   70.096
  365.000   29.320    0.186    0.306   71.341
  365.250   37.451    0.245    0.330   50.550
  365.500   46.085    0.294    0.332   40.776
  365.750   53.608    0.320    0.331   35.292
  366.000   58.932    0.320    0.328   34.093
  366.250   64.801    0.325    0.326   35.333
  366.500   67.335    0.324    0.322   37.805
  366.750   63.711    0.314    0.313   39.056
  367.000   58.061    0.301    0.303   39.689
  367.250   51.915    0.309    0.311   40.323
  367.500   37.067    0.322    0.322   40.956
  367.750   27.999    0.330    0.327   41.593
  368.000   15.666    0.333    0.320   42.838
  368.250   14.818    0.189    0.315   66.121
  368.500   13.762    0.175    0.312   83.897
  368.750   12.776    0.169    0.336   91.264
  369.000   12.316    0.164    0.352   94.963
  369.250   12.328    0.170    0.352   96.207
  369.500   15.751    0.205    0.355   99.902
  369.750   19.745    0.237    0.380   84.013
  370.000   27.712    0.274    0.387   76.684
  370.250   32.233    0.313    0.384   46.097
  370.500   36.109    0.346    0.378   41.221
  370.750   41.221    0.339    0.379   42.467
  371.000   45.324    0.340    0.381   36.369
  371.250   48.895    0.348    0.378   32.722
  371.500   52.762    0.349    0.366   33.354
  371.750   52.823    0.350    0.362   32.768
  372.000   52.865    0.350    0.370   33.399
  372.250   51.921    0.351    0.367   34.035
  372.500   51.002    0.351    0.357   35.276
