~VERSION INFORMATION
 VERS.                 2.0:   CWLS LOG ASCII STANDARD -VERSION 2.0
 WRAP.                  NO:   ONE LINE PER DEPTH STEP
~WELL INFORMATION BLOCK
#MNEM.UNIT           DATA                    DESCRIPTION OF MNEMONIC
#---------    -------------------            -------------------------------
# Generated from Intellog Unique Number	CW_82_90/WELL/3065
WELL.         KISSINGER CHIEFCO TEPEE 07-22  : Well_name    - WELL
LOC .         00/07-22-086-25W4/0            : Location     - LOCATION
UWI .         00/07-22-086-25W4/0            : Uwi          - UNIQUE WELL ID
ENTR.         JJ                             : Entered      - ENTERED BY
SRVC.         WESTERN ATLAS                  : Scn          - SERVICE COMPANY
DATE.         18 MAR 78                      : Date         - LOG DATE
STRT.M        281.026                        : top_depth    - START DEPTH
STOP.M        409.026                        : bot_depth    - STOP DEPTH
STEP.M        0.25                           : increment    - STEP LENGTH
 NULL. -999.2500:NULL Value
~CURVE INFORMATION BLOCK
#MNEM UNIT       ERCB CURVE CODE    CURVE DESCRIPTION
#-----------   ------------------   ----------------------------------
DEPT.M        00 001 00 00         : DEPTH        - DEPTH
DELT.US/F     00 520 00 00         : DELT         - SONIC TRAVEL TIME
GR  .API      00 310 00 00         : GR           - GAMMA RAY
ILD .OHMM     00 120 00 00         : RESD         - DEEP RESISTIVITY (DIL)
~PARAMETER INFORMATION
#MNEM.UNIT           DATA             DESCRIPTION OF MNEMONIC
#---------         -----------     ------------------------------
GL  .M        576.682              : gl           - GROUND LEVEL ELEVATION
EREF.M        579.12               : kb           - ELEVATION OF DEPTH REFERENCE
DATM.M        579.12               : datum        - DATUM ELEVATION
TDD .M        411.48               : tdd          - TOTAL DEPTH DRILLER
RUN .         ONE                  : Run          - RUN NUMBER
ENG .         HALL                 : Engineer     - RECORDING ENGINEER
WIT .         DEAN                 : Witness      - WITNESSED BY
BASE.         RED DEER             : Branch       - HOME BASE OF LOGGING UNIT
MUD .         GEL CHEM             : Mud_type     - MUD TYPE
MATR.         SANDSTONE            : Logunit      - NEUTRON MATRIX
TMAX.C        30.5556              : BHT          - MAXIMUM RECORDED TEMPERATURE
BHTD.M        410.566              : BHTDEP       - MAXIMUM RECORDED TEMPERATURE
RMT .C        17.7778              : MDTP         - TEMPERATURE OF MUD
MUDD.KG/M     1176                 : MWT          - MUD DENSITY
NEUT.         1                    : NEUTRON      - NEUTRON TYPE
RESI.         0                    : RESIST       - RESISTIVITY TYPE
RM  .OHMM     4.9                  : RM           - RESISTIVITY OF MUD
RMC .OHMM     0                    : RMC          - RESISTIVITY OF MUD CAKE
RMF .OHMM     6.21                 : RMF          - RESISTIVITY OF MUD FILTRATE
SUFT.C        5                    : SUFT         - SURFACE TEMPERATURE
~A  DEPTH     DELT       GR     RESD
# ...
  335.276  353.684   85.529   10.410
  335.526  365.524   76.826    9.797
  335.776  369.374   74.754   10.624
  336.026  307.791   75.320   11.774
  336.276  280.398   68.645   13.183
  336.526  259.815   67.369   14.099
  336.776  240.481   67.199   15.193
  337.026  251.403   68.073   14.984
  337.276  249.555   69.441   14.548
  337.526  234.803   71.174   13.984
  337.776  239.635   74.139   13.362
  338.026  241.717   76.670   13.016
  338.276  235.479   79.815   12.621
  338.526  359.846   81.181   12.161
  338.776  303.568   79.416   12.640
  339.026  286.328   76.239   13.289
  339.276  273.672   73.366   13.792
  339.526  292.389   71.294   14.692
  339.776  310.387   72.108   14.815
  340.026  305.656   73.720   14.913
  340.276  280.424   73.734   15.181
  340.526  274.252   72.828   15.660
  340.776  268.866   71.615   16.204
  341.026  264.727   71.199   16.497
  341.276  333.222   75.452   15.891
  341.526  359.405   80.992   13.425
  341.776  353.694   89.111   11.566
  342.026  352.826   91.459   11.066
  342.276  351.567   87.484   11.642
  342.526  325.355   83.878   12.283
  342.776  287.023   80.760   13.012
  343.026  291.004   78.319   13.694
  343.276  301.534   77.413   13.946
  343.526  286.980   78.105   13.575
  343.776  328.490   81.128   12.590
  344.026  348.256   85.626   12.098
  344.276  359.246   90.306   11.104
  344.526  362.112   94.066   10.782
  344.776  355.221   95.862   10.921
  345.026  360.839   97.718   11.360
  345.276  355.192  101.052   11.660
  345.526  343.843   99.160   11.986
  345.776  335.903   91.255   12.230
  346.026  329.537   86.788   12.514
  346.276  326.706   86.680   12.718
  346.526  333.176   87.738   12.630
  346.776  329.231   86.588   12.163
  347.026  343.757   85.314   11.784
  347.276  358.938   86.311   11.495
  347.526  364.359   88.167   11.440
  347.776  349.017   91.193   11.465
  348.026  342.912   91.206   11.628
  348.276  344.927   87.539   11.857
  348.526  346.354   88.841   12.012
  348.776  347.976   90.883   12.030
  349.026  345.343   91.328   12.015
  349.276  347.554   91.466   11.976
  349.526  345.113   96.269   11.953
  349.776  342.022   94.196   12.011
  350.026  335.589   90.589   11.980
  350.276  374.874   90.420   11.755
  350.526  360.580   94.978   11.417
  350.776  344.060   95.424   11.144
  351.026  385.440   92.736   10.838
  351.276  378.876   89.620   10.685
  351.526  337.662   90.864   11.010
  351.776  379.305   88.299   11.481
  352.026  360.492   89.360   11.936
  352.276  319.474   88.698   12.633
  352.526  268.111   82.204   13.541
  352.776  292.526   81.544   14.343
  353.026  353.491   88.745   13.722
  353.276  376.728   92.075   12.089
  353.526  388.306   96.018   11.233
  353.776  333.666   97.138   11.194
  354.026  255.970   91.322   12.053
  354.276  258.117   86.608   12.184
  354.526  323.208   90.185   11.619
  354.776  375.395   95.233   10.528
  355.026  378.589   99.855    9.907
  355.276  375.233  100.972   10.175
  355.526  364.478   99.638   10.557
  355.776  318.091   94.311   10.980
  356.026  375.256   91.624   11.167
  356.276  371.181   96.797   10.991
  356.526  339.071   94.112   10.402
  356.776  362.701   89.890   10.468
  357.026  372.445   87.325   11.076
  357.276  331.036   86.606   11.134
  357.526  312.093   87.785   10.998
  357.776  365.001   90.380   11.404
  358.026  367.208   93.343   11.260
  358.276  316.698   94.276   10.550
  358.526  341.312   90.853   10.681
  358.776  351.447   93.815   10.982
  359.026  354.710   95.856   10.676
  359.276  327.775   97.161   10.394
  359.526  357.497  100.799    9.959
  359.776  351.193  101.796    9.620
  360.026  354.650  102.240    9.533
  360.276  363.081  101.519    9.680
  360.526  369.817  100.674   10.774
  360.776  258.651   97.987   11.471
  361.026  233.420   92.539   11.998
  361.276  336.827   88.993   12.510
  361.526  358.820   95.639   12.074
  361.776  352.582   98.846   11.380
  362.026  345.952  101.439   10.832
  362.276  347.312  100.596   10.534
  362.526  345.726   95.455   10.301
  362.776  294.558   91.907    9.970
  363.026  221.774   87.010    9.543
  363.276  208.267   83.832    9.399
  363.526  237.792   89.128    9.587
  363.776  345.259   96.267   10.130
  364.026  350.746  102.603   10.730
  364.276  357.018  106.979   10.513
  364.526  360.279  110.984    9.698
  364.776  350.572  107.130    9.999
  365.026  351.078  104.383   10.170
  365.276  352.442  101.388   10.164
  365.526  350.852  104.783   10.100
  365.776  352.804  106.946   10.142
  366.026  354.689  105.793   10.346
  366.276  309.351   97.703   10.809
  366.526  268.334   92.009   11.320
  366.776  296.746   86.497   11.847
  367.026  303.018   94.126   11.137
  367.276  338.569  103.658    9.545
  367.526  381.783  110.611    8.632
  367.776  388.842  116.215    7.841
  368.026  376.775  113.957    7.494
  368.276  375.058  114.525    7.318
  368.526  385.916  108.031    7.360
  368.776  386.817  111.055    7.491
  369.026  392.960  113.648    7.759
  369.276  359.083  109.119    8.060
  369.526  321.866  107.723    8.418
  369.776  329.318  105.037    8.929
  370.026  355.370  102.656    9.618
  370.276  354.700  100.953   10.315
  370.526  356.978   99.680   10.632
  370.776  359.061   97.236   10.488
  371.026  357.474   92.955   11.113
  371.276  318.816   90.021   11.616
  371.526  335.175   86.353   11.326
  371.776  355.989   88.333   11.020
  372.026  375.624   95.655   11.127
  372.276  354.125   98.986   11.784
  372.526  294.441   96.359   12.756
  372.776  225.457   80.349   13.308
  373.026  334.301   81.776   13.730
  373.276  343.586   91.738   13.206
  373.526  347.895   98.140   11.201
  373.776  361.569  101.532   10.320
  374.026  359.000  103.081    9.707
  374.276  357.675  101.992    9.506
  374.526  364.276   98.812    9.524
  374.776  359.476   99.750    9.598
  375.026  361.431  101.543    9.867
  375.276  361.676  102.296   10.378
  375.526  360.222  102.003   11.148
  375.776  292.940   97.969   11.449
  376.026  326.985   97.429   10.819
  376.276  360.702  105.242    9.769
  376.526  372.668  109.492    9.172
  376.776  371.937  112.949    8.720
  377.026  376.312  115.604    8.261
  377.276  385.400  120.222    7.987
  377.526  382.374  122.017    8.304
  377.776  369.456  122.584    8.662
  378.026  322.610  118.547    9.084
  378.276  323.315  110.212    9.377
  378.526  321.270  105.254    9.726
  378.776  362.847  105.269   10.140
  379.026  345.541  106.759    9.470
  379.276  336.618  104.992    9.173
  379.526  346.363  105.684    9.368
  379.776  360.299  107.724   10.114
  380.026  346.399  109.825   11.353
  380.276  232.548  107.446   12.690
  380.526  206.400   95.611   13.630
  380.776  312.754   86.233   14.125
  381.026  334.813   93.062   13.908
  381.276  346.783  101.551   11.927
  381.526  348.538  106.539   10.351
  381.776  343.477  103.300    9.730
  382.026  340.714  104.116   10.281
  382.276  339.846  104.742   11.383
  382.526  248.265   99.109   12.259
  382.776  319.513   91.756   12.673
  383.026  334.826   96.928   12.537
  383.276  346.208   96.084   11.519
  383.526  322.220   96.959   11.245
  383.776  220.094   94.704   11.376
  384.026  295.140   90.725   12.179
  384.276  315.757   81.653   12.989
  384.526  309.193   73.072   15.143
  384.776  206.085   87.700   16.115
  385.026  340.799   94.224   16.473
  385.276  260.287   94.300   15.876
  385.526  233.484   89.096   14.073
  385.776  266.087   93.349   12.262
  386.026  330.391   98.028   10.646
  386.276  344.654   99.948    9.692
  386.526  344.444  100.210    9.346
  386.776  342.465   99.363    9.445
  387.026  348.803   97.906    9.406
  387.276  355.534   98.535    9.294
  387.526  362.134  103.462    9.118
  387.776  358.322  106.366    8.812
  388.026  348.022  108.712    8.546
  388.276  350.957  110.383    8.054
  388.526  360.896  108.678    7.433
  388.776  358.131  109.371    7.248
  389.026  354.972  110.550    7.250
  389.276  349.979  106.145    7.243
