~VERSION INFORMATION
 VERS.                 2.0:   CWLS LOG ASCII STANDARD -VERSION 2.0
 WRAP.                  NO:   ONE LINE PER DEPTH STEP
~WELL INFORMATION BLOCK
#MNEM.UNIT           DATA                    DESCRIPTION OF MNEMONIC
#---------    -------------------            -------------------------------
# Generated from Intellog Unique Number	CN_94_101/WELL/3210
WELL.         PARAMOUNT RESOURCES LTD.       : Well_name    - WELL
LOC .         00/04-05-095-17W4/0            : Location     - LOCATION
UWI .         00/04-05-095-17W400            : Uwi          - UNIQUE WELL ID
ENTR.         JOETTE                         : Entered      - ENTERED BY
SRVC.         COMPUTALOG                     : Scn          - SERVICE COMPANY
DATE.         07/20/92                       : Date         - LOG DATE
STRT.M        175                            : top_depth    - START DEPTH
STOP.M        290                            : bot_depth    - STOP DEPTH
STEP.M        0.25                           : increment    - STEP LENGTH
 NULL. -999.2500:NULL Value
~CURVE INFORMATION BLOCK
#MNEM UNIT       ERCB CURVE CODE    CURVE DESCRIPTION
#-----------   ------------------   ----------------------------------
DEPT.M        00 001 00 00         : DEPTH        - DEPTH
GR  .API      00 310 00 00         : GR           - GAMMA RAY
NPHI.V/V      00 330 00 00         : PHIN         - NEUTRON POROSITY (SANDSTONE)
DPHI.V/V      00 890 00 00         : PHID         - DENSITY POROSITY (SANDSTONE)
ILD .OHMM     00 120 00 00         : RESD         - DEEP RESISTIVITY (DIL)
~PARAMETER INFORMATION
#MNEM.UNIT           DATA             DESCRIPTION OF MNEMONIC
#---------         -----------     ------------------------------
GL  .M        556.2                : gl           - GROUND LEVEL ELEVATION
EREF.M        557.6                : kb           - ELEVATION OF DEPTH REFERENCE
DATM.M        557.6                : datum        - DATUM ELEVATION
TDD .M        300                  : tdd          - TOTAL DEPTH DRILLER
RUN .         ONE                  : Run          - RUN NUMBER
ENG .         JO                   : Engineer     - RECORDING ENGINEER
WIT .         TIM                  : Witness      - WITNESSED BY
MUD .         GEL                  : Mud_type     - MUD TYPE
MATR.         SANDSTONE            : Logunit      - NEUTRON MATRIX
TMAX.C        30                   : BHT          - MAXIMUM RECORDED TEMPERATURE
BHTD.M        300                  : BHTDEP       - MAXIMUM RECORDED TEMPERATURE
RMT .C        15                   : MDTP         - TEMPERATURE OF MUD
MUDD.KG/M     1090                 : MWT          - MUD DENSITY
NEUT.         1                    : NEUTRON      - NEUTRON TYPE
RESI.         0                    : RESIST       - RESISTIVITY TYPE
RM  .OHMM     3.9                  : RM           - RESISTIVITY OF MUD
RMC .OHMM     3.9                  : RMC          - RESISTIVITY OF MUD CAKE
RMF .OHMM     6                    : RMF          - RESISTIVITY OF MUD FILTRATE
SUFT.C        4                    : SUFT         - SURFACE TEMPERATURE
~A  DEPTH       GR     PHIN     PHID     RESD
# ...
  262.000   57.216    0.213    0.263   62.641
  262.250   54.802    0.219    0.330   68.858
  262.500   53.590    0.227    0.370   68.853
  262.750   49.929    0.240    0.374   68.841
  263.000   47.504    0.253    0.363   63.795
  263.250   46.336    0.262    0.359   56.917
  263.500   46.359    0.266    0.357   54.793
  263.750   47.650    0.275    0.353   50.774
  264.000   49.547    0.290    0.342   49.816
  264.250   50.815    0.306    0.330   50.761
  264.500   53.330    0.343    0.314   55.802
  264.750   55.238    0.380    0.291   63.719
  265.000   53.431    0.364    0.281   74.156
  265.250   49.759    0.330    0.301   83.085
  265.500   42.405    0.327    0.341   86.284
  265.750   37.499    0.345    0.326   91.320
  266.000   33.221    0.368    0.322   96.649
  266.250   31.413    0.380    0.324   94.820
  266.500   30.840    0.388    0.326   86.214
  266.750   31.514    0.389    0.316   84.586
  267.000   32.794    0.389    0.315   81.419
  267.250   34.691    0.389    0.312   82.968
  267.500   34.735    0.389    0.310   84.543
  267.750   34.791    0.389    0.317   87.795
  268.000   34.230    0.390    0.322   86.130
  268.250   33.635    0.392    0.327   76.847
  268.500   33.679    0.394    0.329   67.279
  268.750   33.129    0.394    0.324   52.561
  269.000   33.162    0.391    0.321   32.085
  269.250   32.601    0.388    0.314   28.089
  269.500   32.006    0.387    0.309   23.230
  269.750   30.209    0.384    0.309   18.494
  270.000   27.784    0.381    0.308   17.469
  270.250   25.359    0.371    0.304   17.465
  270.500   23.551    0.357    0.304   17.462
  270.750   21.743    0.339    0.306   17.458
  271.000   20.553    0.324    0.316   17.791
  271.250   18.745    0.325    0.319   19.932
  271.500   17.555    0.327    0.314   21.914
  271.750   16.993    0.331    0.314   24.552
  272.000   17.015    0.332    0.315   27.507
  272.250   18.318    0.334    0.319   29.113
  272.500   18.969    0.334    0.320   29.109
  272.750   20.248    0.337    0.321   29.663
  273.000   21.528    0.344    0.323   30.224
  273.250   22.808    0.355    0.323   31.387
  273.500   24.705    0.371    0.323   32.598
  273.750   28.466    0.373    0.323   35.837
  274.000   32.216    0.367    0.321   38.657
  274.250   35.348    0.360    0.319   44.139
  274.500   38.491    0.361    0.313   48.526
  274.750   39.131    0.367    0.307   59.778
  275.000   39.198    0.370    0.298   64.479
  275.250   38.625    0.372    0.283   64.468
  275.500   38.053    0.378    0.269   66.950
  275.750   39.321    0.383    0.292   69.528
  276.000   40.601    0.388    0.312   73.589
  276.250   40.028    0.383    0.319   74.989
  276.500   38.220    0.373    0.323   77.877
  276.750   35.795    0.366    0.319   79.355
  277.000   34.605    0.357    0.310   83.990
  277.250   33.426    0.347    0.310   90.598
  277.500   30.989    0.344    0.317  101.507
  277.750   26.712    0.350    0.323  120.392
  278.000   20.581    0.357    0.326  140.100
  278.250   21.244    0.361    0.326  154.018
  278.500   23.141    0.340    0.319  153.985
  278.750   23.185    0.326    0.309  153.966
  279.000   23.230    0.318    0.313  156.895
  279.250   23.892    0.319    0.315  159.867
  279.500   23.937    0.326    0.313  166.023
  279.750   22.747    0.331    0.309  153.860
  280.000   20.939    0.333    0.307  137.273
  280.250   18.525    0.335    0.309  127.216
  280.500   19.816    0.336    0.312  115.686
  280.750   21.073    0.336    0.312  107.211
  281.000   25.452    0.338    0.308  103.200
  281.250   29.841    0.341    0.301  101.243
  281.500   29.864    0.346    0.298   93.826
  281.750   29.919    0.353    0.293   85.318
  282.000   29.964    0.364    0.289   77.582
  282.250   30.626    0.371    0.292   66.642
  282.500   32.524    0.375    0.294   56.170
  282.750   35.645    0.377    0.288   36.297
  283.000   47.433    0.364    0.272   29.453
  283.250   59.210    0.360    0.247   19.033
  283.500   67.900    0.368    0.213   12.534
  283.750   80.306    0.398    0.187    8.738
  284.000   90.231    0.422    0.173    7.227
  284.250   92.128    0.441    0.177    5.976
  284.500   90.938    0.452    0.186    6.090
  284.750   84.807    0.444    0.198    6.823
  285.000   75.590    0.400    0.212    8.093
  285.250   74.399    0.381    0.217   10.355
  285.500   76.936    0.371    0.220   12.756
  285.750   78.811    0.375    0.226   11.822
  286.000   83.807    0.458    0.236   10.750
  286.250   86.939    0.493    0.290    8.723
  286.500   87.602    0.534    0.318    6.438
  286.750   88.264    0.562    0.330    4.935
  287.000   88.308    0.562    0.327    4.159
  287.250   88.353    0.560    0.316    4.158
  287.500   88.398    0.558    0.300    4.486
  287.750   89.060    0.563    0.277    4.658
  288.000   89.722    0.573    0.251    4.484
  288.250   89.778    0.582    0.089    3.570
  288.500   89.206    0.576    0.056    3.067
  288.750   88.633    0.572    0.062    2.897
  289.000   88.060    0.563    0.059    2.952
  289.250   87.487    0.553    0.047    3.065
  289.500   87.532    0.560    0.072    3.244
  289.750   87.577    0.573    0.095    3.306
  290.000   87.621    0.578    0.087    3.433
