~VERSION INFORMATION
 VERS.                 2.0:   CWLS LOG ASCII STANDARD -VERSION 2.0
 WRAP.                  NO:   ONE LINE PER DEPTH STEP
~WELL INFORMATION BLOCK
#MNEM.UNIT           DATA                    DESCRIPTION OF MNEMONIC
#---------    -------------------            -------------------------------
# Generated from Intellog Unique Number	CS_73_76/WELL/1032
WELL.         CANADIAN WORLDWIDE ENERGY      : Well_name    - WELL
LOC .         00/06-04-075-09W4/0            : Location     - LOCATION
UWI .         00/06-04-075-09W4/0            : Uwi          - UNIQUE WELL ID
ENTR.         SP                             : Entered      - ENTERED BY
SRVC.         SCHLUMBERGER                   : Scn          - SERVICE COMPANY
STRT.M        275                            : top_depth    - START DEPTH
STOP.M        494                            : bot_depth    - STOP DEPTH
STEP.M        0.25                           : increment    - STEP LENGTH
 NULL. -999.2500:NULL Value
~CURVE INFORMATION BLOCK
#MNEM UNIT       ERCB CURVE CODE    CURVE DESCRIPTION
#-----------   ------------------   ----------------------------------
DEPT.M        00 001 00 00         : DEPTH        - DEPTH
GR  .API      00 310 00 00         : GR           - GAMMA RAY
NPHI.V/V      00 330 00 00         : PHIN         - NEUTRON POROSITY (LIMESTONE)
DPHI.V/V      00 890 00 00         : PHID         - DENSITY POROSITY (LIMESTONE)
ILD .OHMM     00 120 00 00         : RESD         - DEEP RESISTIVITY (DIL)
~PARAMETER INFORMATION
#MNEM.UNIT           DATA             DESCRIPTION OF MNEMONIC
#---------         -----------     ------------------------------
GL  .M        662.5                : gl           - GROUND LEVEL ELEVATION
EREF.M        666                  : kb           - ELEVATION OF DEPTH REFERENCE
DATM.M        662.5                : datum        - DATUM ELEVATION
TDD .M        500                  : tdd          - TOTAL DEPTH DRILLER
RUN .         ONE                  : Run          - RUN NUMBER
ENG .         BILL                 : Engineer     - RECORDING ENGINEER
WIT .         JIM                  : Witness      - WITNESSED BY
MUD .         GEL                  : Mud_type     - MUD TYPE
MATR.         LIMESTONE            : Logunit      - NEUTRON MATRIX
TMAX.C        21                   : BHT          - MAXIMUM RECORDED TEMPERATURE
BHTD.M        500                  : BHTDEP       - MAXIMUM RECORDED TEMPERATURE
MATR.         1                    : LOGUNIT      - NEUTRON MATRIX
RMT .C        25                   : MDTP         - TEMPERATURE OF MUD
NEUT.         1                    : NEUTRON      - NEUTRON TYPE
RESI.         0                    : RESIST       - RESISTIVITY TYPE
RMC .OHMM     0.25                 : RMC          - RESISTIVITY OF MUD CAKE
RMF .OHMM     0.25                 : RMF          - RESISTIVITY OF MUD FILTRATE
SUFT.C        15                   : SUFT         - SURFACE TEMPERATURE
~A  DEPTH       GR     PHIN     PHID     RESD
# ...
  362.000   85.610    0.434    0.263    4.790
  362.250   83.796    0.445    0.252    5.364
  362.500   83.194    0.451    0.250    5.571
  362.750   81.987    0.461    0.243    6.007
  363.000   80.171    0.478    0.253    6.357
  363.250   75.928    0.460    0.273    6.728
  363.500   74.113    0.441    0.282    6.856
  363.750   75.942    0.433    0.277    6.856
  364.000   77.774    0.458    0.263    6.987
  364.250   78.385    0.461    0.273    7.120
  364.500   75.963    0.458    0.283    7.255
  364.750   73.542    0.469    0.288    7.394
  365.000   77.798    0.440    0.297    7.534
  365.250   90.561    0.413    0.275    7.534
  365.500   96.031    0.469    0.264    7.678
  365.750  100.896    0.566    0.260    7.678
  366.000   96.654    0.557    0.257    7.678
  366.250   99.698    0.553    0.253    7.534
  366.500  101.523    0.563    0.251    6.987
  366.750   96.674    0.561    0.247    5.571
  367.000   87.569    0.517    0.238    4.612
  367.250   89.398    0.488    0.228    3.748
  367.500   92.443    0.466    0.217    3.103
  367.750   96.095    0.478    0.225    2.878
  368.000   97.315    0.497    0.232    3.103
  368.250   92.464    0.481    0.246    3.410
  368.500   87.612    0.463    0.254    4.042
  368.750   82.759    0.455    0.257    4.881
  369.000   82.767    0.450    0.258    5.364
  369.250   82.774    0.464    0.263    5.677
  369.500   82.781    0.476    0.266    6.122
  369.750   82.180    0.458    0.268    6.239
  370.000   81.580    0.470    0.264    6.479
  370.250   80.979    0.483    0.255    6.728
  370.500   79.772    0.461    0.249    6.856
  370.750   81.600    0.447    0.236    6.987
  371.000   82.215    0.441    0.228    7.120
  371.250   80.399    0.451    0.238    7.255
  371.500   79.192    0.457    0.254    7.255
  371.750   83.453    0.452    0.263    7.255
  372.000   85.278    0.448    0.254    7.394
  372.250   87.108    0.471    0.252    7.394
  372.500   83.473    0.493    0.267    7.394
  372.750   81.655    0.486    0.274    7.394
  373.000   78.626    0.466    0.277    7.534
  373.250   79.240    0.457    0.258    7.534
  373.500   85.930    0.443    0.238    7.678
  373.750   88.972    0.440    0.228    7.534
  374.000   87.763    0.440    0.226    7.534
  374.250   84.128    0.441    0.229    7.534
  374.500   87.171    0.440    0.232    7.678
  374.750   92.038    0.457    0.222    8.125
  375.000   93.864    0.474    0.224    8.599
  375.250   92.050    0.463    0.226    9.099
  375.500   89.022    0.443    0.217    9.273
  375.750   87.812    0.457    0.216    8.929
  376.000   87.818    0.483    0.221    8.125
  376.250   90.256    0.498    0.214    7.534
  376.500   92.083    0.476    0.209    7.120
  376.750   94.520    0.446    0.221    6.728
  377.000   94.528    0.443    0.232    6.602
  377.250   95.749    0.444    0.219    6.479
  377.500   96.362    0.448    0.211    6.357
  377.750  100.621    0.486    0.200    6.357
  378.000  104.879    0.550    0.212    6.357
  378.250  101.243    0.587    0.240    6.357
  378.500   95.783    0.589    0.265    6.239
  378.750   90.324    0.571    0.277    6.239
  379.000   87.295    0.547    0.279    6.357
  379.250   86.087    0.538    0.286    6.122
  379.500   87.308    0.541    0.261    5.677
  379.750   87.924    0.534    0.246    4.974
  380.000   89.144    0.500    0.249    4.277
  380.250   88.544    0.477    0.257    3.609
  380.500   87.336    0.472    0.251    2.932
  380.750   86.129    0.472    0.249    2.383
  381.000   84.314    0.479    0.255    2.168
  381.250   78.857    0.471    0.267    2.251
  381.500   75.825    0.457    0.267    2.521
  381.750   69.153    0.468    0.278    2.719
  382.000   63.693    0.473    0.294    2.932
  382.250   58.843    0.442    0.319    3.748
  382.500   57.026    0.420    0.336    4.197
  382.750   55.820    0.417    0.326    4.700
  383.000   54.614    0.426    0.322    5.069
  383.250   53.406    0.432    0.320    5.677
  383.500   52.804    0.416    0.317    6.239
  383.750   54.028    0.404    0.334    6.357
  384.000   54.639    0.413    0.342    6.479
  384.250   54.645    0.422    0.344    6.602
  384.500   53.438    0.428    0.338    6.602
  384.750   53.445    0.418    0.337    6.602
  385.000   54.061    0.434    0.333    6.602
  385.250   54.066    0.438    0.334    6.602
  385.500   54.680    0.424    0.339    6.602
  385.750   56.510    0.418    0.342    6.602
  386.000   58.338    0.411    0.342    6.602
  386.250   58.953    0.408    0.342    6.602
  386.500   57.746    0.415    0.340    6.602
  386.750   58.359    0.429    0.340    6.602
  387.000   60.796    0.438    0.339    6.479
  387.250   63.842    0.450    0.339    6.602
  387.500   65.062    0.461    0.337    6.357
  387.750   67.499    0.451    0.332    6.357
  388.000   68.717    0.445    0.328    6.357
  388.250   71.155    0.449    0.322    6.239
  388.500   72.375    0.451    0.318    6.239
  388.750   71.775    0.446    0.315    6.239
  389.000   71.174    0.444    0.327    6.239
  389.250   71.184    0.442    0.339    6.122
  389.500   73.013    0.455    0.337    6.122
  389.750   73.624    0.455    0.324    6.122
  390.000   77.884    0.448    0.305    6.122
  390.250   80.926    0.451    0.281    6.007
  390.500   76.077    0.458    0.266    6.007
  390.750   73.046    0.448    0.301    6.007
  391.000   71.230    0.434    0.316    6.007
  391.250   71.240    0.430    0.338    5.895
  391.500   71.243    0.434    0.348    5.895
  391.750   68.215    0.451    0.341    5.895
  392.000   66.399    0.467    0.339    5.895
  392.250   65.798    0.465    0.338    5.895
  392.500   65.807    0.470    0.328    5.895
  392.750   67.029    0.497    0.316    5.895
  393.000   67.641    0.490    0.329    5.785
  393.250   65.826    0.481    0.336    5.677
  393.500   64.620    0.468    0.345    5.571
  393.750   65.841    0.458    0.336    5.466
  394.000   65.847    0.447    0.319    5.466
  394.250   64.033    0.451    0.309    5.466
  394.500   62.824    0.446    0.320    5.571
  394.750   62.835    0.451    0.330    5.571
  395.000   62.231    0.346    0.188    5.571
  395.250   59.810    0.257    0.103    5.677
  395.500   58.601    0.226    0.073    5.785
  395.750   58.001    0.221    0.063    5.785
  396.000   57.401    0.321    0.098    5.895
  396.250   58.016    0.371    0.162    6.007
  396.500   59.843    0.427    0.275    6.357
  396.750   62.886    0.442    0.317    6.987
  397.000   65.323    0.437    0.323    7.678
  397.250   64.723    0.442    0.318    8.599
  397.500   64.124    0.455    0.326    9.273
  397.750   64.738    0.465    0.331   10.000
  398.000   65.352    0.464    0.335   10.385
  398.250   66.576    0.470    0.336   10.191
  398.500   66.581    0.458    0.327    8.599
  398.750   66.586    0.458    0.323    7.255
  399.000   65.380    0.477    0.320    6.357
  399.250   65.385    0.485    0.316    5.895
  399.500   68.429    0.469    0.313    5.677
  399.750   70.865    0.460    0.316    5.571
  400.000   71.478    0.455    0.326    5.571
  400.250   65.414    0.453    0.337    5.571
  400.500   63.597    0.466    0.341    5.466
  400.750   62.998    0.470    0.334    5.466
  401.000   64.219    0.472    0.327    5.466
  401.250   65.441    0.466    0.326    5.466
  401.500   64.842    0.462    0.324    5.466
  401.750   63.637    0.449    0.319    5.466
  402.000   63.034    0.447    0.310    5.466
  402.250   61.827    0.459    0.301    5.466
  402.500   60.619    0.455    0.290    5.571
  402.750   58.194    0.408    0.068    5.571
  403.000   50.308    0.184    0.035    5.571
  403.250   47.277    0.328    0.156    5.785
  403.500   62.467    0.377    0.245    5.895
  403.750   66.726    0.422    0.292    6.007
  404.000   67.945    0.444    0.315    6.122
  404.250   67.954    0.450    0.327    7.255
  404.500   66.748    0.456    0.338    8.929
  404.750   66.754    0.462    0.337   11.412
  405.000   66.759    0.456    0.335   13.272
  405.250   66.767    0.448    0.333   12.077
