~VERSION INFORMATION
 VERS.                 2.0:   CWLS LOG ASCII STANDARD -VERSION 2.0
 WRAP.                  NO:   ONE LINE PER DEPTH STEP
~WELL INFORMATION BLOCK
#MNEM.UNIT           DATA                    DESCRIPTION OF MNEMONIC
#---------    -------------------            -------------------------------
# Generated from Intellog Unique Number	CS_71_72/WELL/641
WELL.         MAYUNARD ET AL BEHAN           : Well_name    - WELL
LOC .         00/04-21-072-11W4/0            : Location     - LOCATION
UWI .         00/04-21-072-11W4/0            : Uwi          - UNIQUE WELL ID
ENTR.         SP                             : Entered      - ENTERED BY
SRVC.         SCHLUMBERGER                   : Scn          - SERVICE COMPANY
STRT.M        300                            : top_depth    - START DEPTH
STOP.M        522.5                          : bot_depth    - STOP DEPTH
STEP.M        0.25                           : increment    - STEP LENGTH
 NULL. -999.2500:NULL Value
~CURVE INFORMATION BLOCK
#MNEM UNIT       ERCB CURVE CODE    CURVE DESCRIPTION
#-----------   ------------------   ----------------------------------
DEPT.M        00 001 00 00         : DEPTH        - DEPTH
ILD .OHMM     00 120 00 00         : RESD         - DEEP RESISTIVITY (DIL)
DPHI.V/V      00 890 00 00         : PHID         - DENSITY POROSITY (LIMESTONE)
NPHI.V/V      00 330 00 00         : PHIN         - NEUTRON POROSITY (LIMESTONE)
GR  .API      00 310 00 00         : GR           - GAMMA RAY
~PARAMETER INFORMATION
#MNEM.UNIT           DATA             DESCRIPTION OF MNEMONIC
#---------         -----------     ------------------------------
GL  .M        645.8                : gl           - GROUND LEVEL ELEVATION
EREF.M        649.15               : kb           - ELEVATION OF DEPTH REFERENCE
DATM.M        645.8                : datum        - DATUM ELEVATION
TDD .M        530                  : tdd          - TOTAL DEPTH DRILLER
RUN .         ONE                  : Run          - RUN NUMBER
ENG .         BILL                 : Engineer     - RECORDING ENGINEER
WIT .         JIM                  : Witness      - WITNESSED BY
MUD .         GEL                  : Mud_type     - MUD TYPE
MATR.         LIMESTONE            : Logunit      - NEUTRON MATRIX
TMAX.C        29                   : BHT          - MAXIMUM RECORDED TEMPERATURE
BHTD.M        530                  : BHTDEP       - MAXIMUM RECORDED TEMPERATURE
MATR.         1                    : LOGUNIT      - NEUTRON MATRIX
RMT .C        25                   : MDTP         - TEMPERATURE OF MUD
NEUT.         1                    : NEUTRON      - NEUTRON TYPE
RESI.         0                    : RESIST       - RESISTIVITY TYPE
RMC .OHMM     0.25                 : RMC          - RESISTIVITY OF MUD CAKE
RMF .OHMM     0.25                 : RMF          - RESISTIVITY OF MUD FILTRATE
SUFT.C        15                   : SUFT         - SURFACE TEMPERATURE
~A  DEPTH     RESD     PHID     PHIN       GR
# ...
  387.000   13.894    0.299    0.440   69.555
  387.250   13.658    0.296    0.439   67.757
  387.500   13.501    0.295    0.439   68.370
  387.750   13.343    0.307    0.440   70.789
  388.000   13.266    0.282    0.443   72.606
  388.250   13.030    0.277    0.449   73.217
  388.500   12.872    0.272    0.457   72.621
  388.750   12.554    0.286    0.461   72.634
  389.000   12.077    0.290    0.457   73.244
  389.250   11.599    0.291    0.453   75.062
  389.500   11.361    0.288    0.451   76.880
  389.750   10.803    0.284    0.450   78.094
  390.000   10.485    0.283    0.445   78.704
  390.250   10.168    0.278    0.439   79.317
  390.500   10.090    0.284    0.434   79.928
  390.750   10.736    0.272    0.422   81.145
  391.000   11.704    0.198    0.393   81.151
  391.250   13.555    0.136    0.246   78.149
  391.500   18.137    0.087    0.135   72.134
  391.750   20.711    0.070    0.116   65.514
  392.000   21.197    0.096    0.111   64.320
  392.250   18.149    0.180    0.252   70.354
  392.500   13.252    0.209    0.347   78.197
  392.750   11.569    0.246    0.382   82.423
  393.000   10.207    0.285    0.419   85.443
  393.250    9.327    0.301    0.443   86.658
  393.500    8.609    0.304    0.464   85.461
  393.750    8.130    0.307    0.476   85.472
  394.000    7.974    0.309    0.471   86.082
  394.250    7.738    0.313    0.472   86.696
  394.500    7.580    0.318    0.483   84.296
  394.750    7.504    0.313    0.491   84.909
  395.000    7.347    0.304    0.492   86.122
  395.250    7.191    0.296    0.489   87.337
  395.500    7.114    0.290    0.484   87.950
  395.750    6.957    0.281    0.478   88.558
  396.000    6.799    0.280    0.471   87.967
  396.250    6.642    0.276    0.470   87.374
  396.500    6.485    0.261    0.470   85.576
  396.750    6.408    0.248    0.471   85.584
  397.000    6.251    0.234    0.475   87.403
  397.250    6.176    0.230    0.479   89.822
  397.500    6.179    0.231    0.484   92.243
  397.750    6.181    0.242    0.477   93.456
  398.000    6.187    0.245    0.467   94.670
  398.250    6.189    0.240    0.455   94.075
  398.500    6.274    0.294    0.453   89.871
  398.750    6.277    0.299    0.473   87.471
  399.000    6.364    0.295    0.482   86.272
  399.250    6.367    0.291    0.481   85.679
  399.500    6.371    0.271    0.472   88.102
  399.750    6.452    0.255    0.466   89.915
  400.000    6.458    0.242    0.460   91.129
  400.250    6.460    0.228    0.454   91.740
  400.500    6.544    0.209    0.448   92.956
  400.750    6.548    0.205    0.444   93.567
  401.000    6.632    0.211    0.448   91.771
  401.250    6.636    0.213    0.459   92.382
  401.500    6.638    0.218    0.459   95.406
  401.750    6.723    0.212    0.456   96.617
  402.000    6.807    0.224    0.454   97.231
  402.250    6.891    0.237    0.452   97.239
  402.500    7.055    0.244    0.454   94.842
  402.750    7.138    0.231    0.456   93.644
  403.000    7.223    0.219    0.458   91.845
  403.250    7.307    0.220    0.466   89.448
  403.500    7.391    0.227    0.469   88.851
  403.750    7.314    0.230    0.477   91.270
  404.000    7.158    0.241    0.479   93.695
  404.250    7.000    0.260    0.484   94.305
  404.500    6.843    0.270    0.486   94.914
  404.750    6.686    0.255    0.493   96.129
  405.000    6.529    0.245    0.491   98.550
  405.250    6.372    0.241    0.485   99.760
  405.500    6.296    0.250    0.497  100.975
  405.750    6.219    0.238    0.499   99.180
  406.000    6.224    0.233    0.497   97.984
  406.250    6.227    0.231    0.486   97.389
  406.500    6.312    0.236    0.481   96.796
  406.750    6.315    0.236    0.480   97.411
  407.000    6.318    0.234    0.490   98.023
  407.250    6.321    0.240    0.497   99.238
  407.500    6.325    0.244    0.501   99.847
  407.750    6.328    0.239    0.505   99.255
  408.000    6.255    0.229    0.510   98.060
  408.250    6.258    0.214    0.499   96.864
  408.500    6.262    0.197    0.481   96.274
  408.750    6.265    0.196    0.470   96.280
  409.000    6.269    0.177    0.451   96.288
  409.250    6.352    0.166    0.424   88.468
  409.500    6.355    0.159    0.389   83.657
  409.750    6.358    0.166    0.373   80.051
  410.000    6.363    0.175    0.408   88.494
  410.250    6.366    0.204    0.431   99.348
  410.500    6.129    0.220    0.466  102.974
  410.750    5.971    0.221    0.489  104.791
  411.000    5.655    0.221    0.500  106.607
  411.250    5.498    0.229    0.503  107.217
  411.500    5.421    0.236    0.500  105.419
  411.750    5.344    0.241    0.489  103.623
  412.000    5.429    0.234    0.488  105.438
  412.250    5.512    0.229    0.505  108.460
  412.500    5.595    0.229    0.499  107.268
  412.750    5.599    0.235    0.489  103.664
  413.000    5.121    0.246    0.477  103.066
  413.250    4.161    0.258    0.493  109.101
  413.500    3.443    0.267    0.515  110.917
  413.750    2.964    0.263    0.562  110.325
  414.000    2.485    0.262    0.580  107.323
  414.250    2.169    0.262    0.577  105.523
  414.500    2.092    0.265    0.548  103.732
  414.750    2.094    0.241    0.545  103.138
  415.000    2.179    0.229    0.539  102.540
  415.250    2.344    0.227    0.518  101.343
  415.500    2.669    0.246    0.493  103.160
  415.750    3.155    0.240    0.476  104.976
  416.000    3.479    0.226    0.485  103.179
  416.250    3.803    0.234    0.485  100.780
  416.500    4.129    0.240    0.474   98.984
  416.750    4.373    0.245    0.467   97.186
  417.000    4.538    0.253    0.464   96.591
  417.250    4.542    0.257    0.477   95.997
  417.500    4.545    0.258    0.483   94.202
  417.750    4.629    0.251    0.496   92.406
  418.000    4.713    0.246    0.486   91.809
  418.250    4.799    0.246    0.479   91.217
  418.500    4.883    0.248    0.491   90.020
  418.750    4.965    0.267    0.497   89.432
  419.000    5.050    0.271    0.495   88.834
  419.250    5.053    0.264    0.485   92.461
  419.500    5.057    0.258    0.482   94.877
  419.750    5.060    0.255    0.489   97.899
  420.000    5.065    0.256    0.480   96.102
  420.250    5.149    0.256    0.465   92.495
  420.500    5.152    0.256    0.452   88.290
  420.750    5.399    0.262    0.448   85.890
  421.000    5.482    0.275    0.445   84.693
  421.250    5.485    0.283    0.446   84.708
  421.500    5.489    0.288    0.457   85.316
  421.750    5.412    0.296    0.462   87.130
  422.000    5.415    0.304    0.463   87.742
  422.250    5.340    0.305    0.464   84.137
  422.500    5.343    0.307    0.467   85.955
  422.750    5.266    0.297    0.474   88.981
  423.000    5.269    0.278    0.474   89.591
  423.250    5.193    0.263    0.464   89.597
  423.500    5.195    0.255    0.464   88.401
  423.750    5.120    0.243    0.475   90.221
  424.000    5.043    0.238    0.481   93.244
  424.250    4.888    0.243    0.487   93.852
  424.500    4.810    0.248    0.486   94.465
  424.750    4.733    0.254    0.487   95.078
  425.000    4.657    0.251    0.491   93.881
  425.250    4.579    0.248    0.492   92.083
  425.500    4.504    0.251    0.486   89.684
  425.750    4.427    0.258    0.481   87.283
  426.000    4.429    0.262    0.479   84.884
  426.250    4.514    0.267    0.473   83.086
  426.500    4.518    0.280    0.463   82.490
  426.750    4.601    0.285    0.458   83.105
  427.000    4.767    0.292    0.456   84.320
  427.250    4.851    0.296    0.460   84.928
  427.500    5.014    0.295    0.459   86.148
  427.750    5.099    0.291    0.457   86.152
  428.000    5.182    0.284    0.456   86.766
  428.250    5.265    0.296    0.459   85.570
  428.500    5.351    0.285    0.469   83.774
  428.750    5.436    0.275    0.478   83.180
  429.000    5.438    0.278    0.476   83.789
  429.250    5.523    0.273    0.472   84.401
  429.500    5.607    0.267    0.472   84.411
  429.750    5.610    0.264    0.480   82.613
  430.000    5.694    0.264    0.483   82.624
  430.250    5.778    0.267    0.477   83.838
