~VERSION INFORMATION
 VERS.                 2.0:   CWLS LOG ASCII STANDARD -VERSION 2.0
 WRAP.                  NO:   ONE LINE PER DEPTH STEP
~WELL INFORMATION BLOCK
#MNEM.UNIT           DATA                    DESCRIPTION OF MNEMONIC
#---------    -------------------            -------------------------------
# Generated from Intellog Unique Number	CC_80_83/WELL/2485
WELL.         UNEX ET AL BOHN                : Well_name    - WELL
LOC .         00/06-30-081-07W4/0            : Location     - LOCATION
UWI .         00/06-30-081-07W4/0            : Uwi          - UNIQUE WELL ID
ENTR.         TIM                            : Entered      - ENTERED BY
SRVC.         SCHLUMBERGER                   : Scn          - SERVICE COMPANY
STRT.M        250                            : top_depth    - START DEPTH
STOP.M        490                            : bot_depth    - STOP DEPTH
STEP.M        0.25                           : increment    - STEP LENGTH
 NULL. -999.2500:NULL Value
~CURVE INFORMATION BLOCK
#MNEM UNIT       ERCB CURVE CODE    CURVE DESCRIPTION
#-----------   ------------------   ----------------------------------
DEPT.M        00 001 00 00         : DEPTH        - DEPTH
NPHI.V/V      00 330 00 00         : PHIN         - NEUTRON POROSITY (SANDSTONE)
DPHI.V/V      00 890 00 00         : PHID         - DENSITY POROSITY (SANDSTONE)
ILD .OHMM     00 120 00 00         : RESD         - DEEP RESISTIVITY (DIL)
GR  .API      00 310 00 00         : GR           - GAMMA RAY
~PARAMETER INFORMATION
#MNEM.UNIT           DATA             DESCRIPTION OF MNEMONIC
#---------         -----------     ------------------------------
GL  .M        704                  : gl           - GROUND LEVEL ELEVATION
EREF.M        707.9                : kb           - ELEVATION OF DEPTH REFERENCE
DATM.M        707.9                : datum        - DATUM ELEVATION
TDD .M        498                  : tdd          - TOTAL DEPTH DRILLER
RUN .         ONE                  : Run          - RUN NUMBER
ENG .         BILL                 : Engineer     - RECORDING ENGINEER
WIT .         JIM                  : Witness      - WITNESSED BY
MUD .         GEL                  : Mud_type     - MUD TYPE
MATR.         SANDSTONE            : Logunit      - NEUTRON MATRIX
TMAX.C        29                   : BHT          - MAXIMUM RECORDED TEMPERATURE
BHTD.M        498                  : BHTDEP       - MAXIMUM RECORDED TEMPERATURE
MATR.         1                    : LOGUNIT      - NEUTRON MATRIX
RMT .C        25                   : MDTP         - TEMPERATURE OF MUD
NEUT.         1                    : NEUTRON      - NEUTRON TYPE
RESI.         4                    : RESIST       - RESISTIVITY TYPE
RMC .OHMM     3.5                  : RMC          - RESISTIVITY OF MUD CAKE
RMF .OHMM     4.4                  : RMF          - RESISTIVITY OF MUD FILTRATE
SUFT.C        15                   : SUFT         - SURFACE TEMPERATURE
~A  DEPTH     PHIN     PHID     RESD       GR
# ...
  424.000    0.401    0.153    7.215   91.772
  424.250    0.395    0.166    7.102   97.711
  424.500    0.383    0.165    7.253   94.232
  424.750    0.348    0.133    7.533   91.328
  425.000    0.341    0.124    8.125   85.496
  425.250    0.339    0.165    9.440   76.725
  425.500    0.339    0.192    9.819   75.021
  425.750    0.341    0.211    9.655   78.585
  426.000    0.346    0.218    8.509   82.749
  426.250    0.351    0.226    7.917   90.452
  426.500    0.370    0.231    7.370   89.336
  426.750    0.360    0.233    7.118   85.268
  427.000    0.348    0.241    7.400   81.201
  427.250    0.354    0.246    8.131   78.297
  427.500    0.366    0.248    9.441   76.581
  427.750    0.361    0.258   11.806   76.629
  428.000    0.237    0.272   14.488   60.790
  428.250    0.177    0.290   16.823   48.491
  428.500    0.203    0.349   21.828   36.192
  428.750    0.222    0.334   18.876   36.840
  429.000    0.260    0.345   15.156   38.652
  429.250    0.283    0.321   13.350   49.859
  429.500    0.309    0.295   11.978   74.025
  429.750    0.292    0.303   11.784   79.377
  430.000    0.243    0.320   12.251   65.302
  430.250    0.246    0.315   15.042   57.118
  430.500    0.282    0.297   20.239   57.166
  430.750    0.307    0.257   25.780   54.862
  431.000    0.322    0.244   26.803   67.269
  431.250    0.335    0.240   22.340   77.313
  431.500    0.346    0.235   18.976   85.004
  431.750    0.349    0.229   16.410   88.604
  432.000    0.352    0.224   14.990   90.992
  432.250    0.358    0.219   13.692   95.167
  432.500    0.369    0.213   12.513   99.319
  432.750    0.378    0.202   12.092  106.422
  433.000    0.386    0.188   12.129  113.538
  433.250    0.385    0.195   12.374  114.774
  433.500    0.377    0.206   13.104  115.998
  433.750    0.372    0.212   14.398  117.797
  434.000    0.367    0.218   15.819  120.785
  434.250    0.359    0.231   17.372  119.069
  434.500    0.338    0.271   19.462  107.946
  434.750    0.308    0.294   21.372  104.466
  435.000    0.278    0.302   25.278   93.343
  435.250    0.260    0.319   27.788   78.092
  435.500    0.273    0.329   25.868   64.629
  435.750    0.301    0.295   24.515   68.781
  436.000    0.320    0.239   22.821   73.533
  436.250    0.328    0.232   21.244   70.641
  436.500    0.335    0.225   20.143   66.573
  436.750    0.342    0.270   22.143   61.330
  437.000    0.344    0.274   22.602   54.922
  437.250    0.331    0.241   22.246   51.430
  437.500    0.324    0.222   21.094   65.025
  437.750    0.318    0.212   20.001   76.244
  438.000    0.321    0.205   19.317   79.220
  438.250    0.328    0.186   20.084   96.919
  438.500    0.343    0.172   22.055  108.138
  438.750    0.353    0.203   25.610   98.191
  439.000    0.365    0.208   32.622   85.892
  439.250    0.364    0.230   40.052   74.180
  439.500    0.362    0.244   47.396   63.045
  439.750    0.358    0.256   45.776   57.802
  440.000    0.343    0.273   41.856   53.146
  440.250    0.330    0.253   40.384   60.249
  440.500    0.332    0.226   34.923   70.317
  440.750    0.342    0.215   31.334   73.293
  441.000    0.350    0.203   28.621   80.396
  441.250    0.358    0.203   27.643   81.032
  441.500    0.357    0.188   27.194   78.740
  441.750    0.360    0.179   29.349   78.788
  442.000    0.387    0.253   33.457   74.120
  442.250    0.383    0.263   37.463   58.294
  442.500    0.365    0.279   38.929   50.122
  442.750    0.348    0.287   41.992   48.406
  443.000    0.348    0.294   50.615   45.502
  443.250    0.359    0.302   57.699   43.199
  443.500    0.356    0.314   68.243   46.786
  443.750    0.354    0.320   79.282   49.762
  444.000    0.356    0.326   87.110   51.574
  444.250    0.361    0.328   87.289   52.210
  444.500    0.367    0.328   85.918   47.554
  444.750    0.374    0.322   79.939   42.899
  445.000    0.382    0.316   70.450   42.947
  445.250    0.393    0.309   64.384   47.710
  445.500    0.394    0.306   59.904   52.462
  445.750    0.392    0.306   56.830   56.626
  446.000    0.390    0.306   55.879   60.201
  446.250    0.386    0.306   55.029   64.377
  446.500    0.383    0.302   54.081   69.141
  446.750    0.379    0.295   54.192   73.880
  447.000    0.379    0.288   52.367   79.220
  447.250    0.380    0.277   49.629   85.747
  447.500    0.380    0.249   30.807   89.323
  447.750    0.383    0.235   23.406   92.899
  448.000    0.387    0.211   18.460   96.486
  448.250    0.397    0.199   15.964   98.298
  448.500    0.395    0.182   13.805  100.710
  448.750    0.391    0.184   12.393  103.110
  449.000    0.388    0.187   11.963  106.098
  449.250    0.384    0.187   11.775  109.073
  449.500    0.378    0.186   12.018  112.661
  449.750    0.368    0.186   12.502  113.309
  450.000    0.361    0.193   12.984  112.181
  450.250    0.352    0.201   13.750  106.325
  450.500    0.343    0.215   15.396   95.202
  450.750    0.333    0.241   17.552   85.843
  451.000    0.329    0.256   19.653   80.599
  451.250    0.328    0.230   21.582   80.647
  451.500    0.323    0.220   24.616   80.707
  451.750    0.311    0.220   28.061   76.040
  452.000    0.287    0.334   31.988   70.208
  452.250    0.255    0.355   36.466   60.849
  452.500    0.234    0.347   41.591   52.653
  452.750    0.222    0.342   43.263   47.410
  453.000    0.223    0.350   41.784   46.294
  453.250    0.228    0.360   36.787   46.942
  453.500    0.248    0.354   29.537   46.990
  453.750    0.255    0.338   22.453   47.614
  454.000    0.284    0.313   19.092   47.674
  454.250    0.321    0.311   18.763   47.722
  454.500    0.344    0.318   17.791   47.782
  454.750    0.347    0.318   17.818   47.230
  455.000    0.347    0.318   18.187   45.514
  455.250    0.347    0.318   20.743   43.198
  455.500    0.348    0.317   24.086   42.658
  455.750    0.351    0.314   29.557   43.318
  456.000    0.355    0.313   39.789   43.342
  456.250    0.358    0.312   49.734   43.402
  456.500    0.360    0.313   62.164   43.450
  456.750    0.361    0.316   72.219   43.498
  457.000    0.363    0.319   73.714   42.382
  457.250    0.366    0.320   73.866   42.430
  457.500    0.371    0.316   68.761   41.878
  457.750    0.376    0.314   64.042   41.926
  458.000    0.381    0.310   59.616   43.162
  458.250    0.378    0.304   56.528   45.562
  458.500    0.376    0.292   55.582   47.950
  458.750    0.371    0.288   55.726   49.761
  459.000    0.363    0.292   55.812   46.870
  459.250    0.359    0.301   58.056   41.638
  459.500    0.355    0.313   60.328   41.086
  459.750    0.352    0.313   67.551   44.074
  460.000    0.351    0.312   81.380   48.249
  460.250    0.349    0.304   96.252   45.946
  460.500    0.347    0.297   88.010   42.478
  460.750    0.345    0.279   71.980   47.805
  461.000    0.344    0.265   54.716   59.025
  461.250    0.351    0.259   43.956   75.547
  461.500    0.361    0.256   40.151   82.651
  461.750    0.366    0.265   33.483   87.426
  462.000    0.367    0.271   30.584   86.286
  462.250    0.366    0.270   26.954   85.746
  462.500    0.363    0.268   25.091   88.146
  462.750    0.361    0.265   24.221   91.734
  463.000    0.359    0.260   22.978   88.842
  463.250    0.358    0.257   23.014   83.599
  463.500    0.357    0.258   22.664   82.459
  463.750    0.357    0.260   22.285   83.695
  464.000    0.357    0.262   22.354   84.318
  464.250    0.357    0.265   22.377   84.966
  464.500    0.355    0.268   22.423   86.214
  464.750    0.355    0.268   22.469   86.250
  465.000    0.355    0.267   22.527   87.462
  465.250    0.354    0.265   22.173   90.474
  465.500    0.353    0.265   22.196   92.262
  465.750    0.352    0.266   22.265   94.662
  466.000    0.354    0.271   22.299   93.534
  466.250    0.359    0.275   22.334   91.818
  466.500    0.359    0.274   21.983   92.454
  466.750    0.354    0.273   22.028   93.114
  467.000    0.352    0.263   21.286   91.398
  467.250    0.348    0.255   20.919   91.434
