~VERSION INFORMATION
 VERS.                 2.0:   CWLS LOG ASCII STANDARD -VERSION 2.0
 WRAP.                  NO:   ONE LINE PER DEPTH STEP
~WELL INFORMATION BLOCK
#MNEM.UNIT           DATA                    DESCRIPTION OF MNEMONIC
#---------    -------------------            -------------------------------
# Generated from Intellog Unique Number	CS_67_68/WELL/2179
WELL.         GLOBEL ARTIC ISLANDS           : Well_name    - WELL
LOC .         00/07-32-067-17W4/0            : Location     - LOCATION
UWI .         00/07-32-067-17W4/0            : Uwi          - UNIQUE WELL ID
ENTR.         SP                             : Entered      - ENTERED BY
SRVC.         SCHLUMBERGER                   : Scn          - SERVICE COMPANY
STRT.M        345                            : top_depth    - START DEPTH
STOP.M        550                            : bot_depth    - STOP DEPTH
STEP.M        0.25                           : increment    - STEP LENGTH
 NULL. -999.2500:NULL Value
~CURVE INFORMATION BLOCK
#MNEM UNIT       ERCB CURVE CODE    CURVE DESCRIPTION
#-----------   ------------------   ----------------------------------
DEPT.M        00 001 00 00         : DEPTH        - DEPTH
ILD .OHMM     00 120 00 00         : RESD         - DEEP RESISTIVITY (DIL)
DPHI.V/V      00 890 00 00         : PHID         - DENSITY POROSITY (LIMESTONE)
NPHI.V/V      00 330 00 00         : PHIN         - NEUTRON POROSITY (LIMESTONE)
GR  .API      00 310 00 00         : GR           - GAMMA RAY
CALI.MM       00 280 01 00         : CAL          - CALIPER
~PARAMETER INFORMATION
#MNEM.UNIT           DATA             DESCRIPTION OF MNEMONIC
#---------         -----------     ------------------------------
GL  .M        589.2                : gl           - GROUND LEVEL ELEVATION
EREF.M        593                  : kb           - ELEVATION OF DEPTH REFERENCE
DATM.M        593                  : datum        - DATUM ELEVATION
TDD .M        555                  : tdd          - TOTAL DEPTH DRILLER
RUN .         ONE                  : Run          - RUN NUMBER
ENG .         BILL                 : Engineer     - RECORDING ENGINEER
WIT .         JIM                  : Witness      - WITNESSED BY
MUD .         GEL                  : Mud_type     - MUD TYPE
MATR.         LIMESTONE            : Logunit      - NEUTRON MATRIX
TMAX.C        19                   : BHT          - MAXIMUM RECORDED TEMPERATURE
BHTD.M        553.5                : BHTDEP       - MAXIMUM RECORDED TEMPERATURE
MATR.         1                    : LOGUNIT      - NEUTRON MATRIX
RMT .C        25                   : MDTP         - TEMPERATURE OF MUD
NEUT.         1                    : NEUTRON      - NEUTRON TYPE
RESI.         0                    : RESIST       - RESISTIVITY TYPE
RMC .OHMM     0.25                 : RMC          - RESISTIVITY OF MUD CAKE
RMF .OHMM     0.25                 : RMF          - RESISTIVITY OF MUD FILTRATE
SUFT.C        15                   : SUFT         - SURFACE TEMPERATURE
~A  DEPTH     RESD     PHID     PHIN       GR      CAL
# ...
  381.500    2.654    0.223    0.432   96.367  160.957
  381.750    2.655    0.238    0.434   93.834  161.596
  382.000    2.717    0.257    0.448   92.514  161.222
  382.250    2.769    0.265    0.439   93.445  160.543
  382.500    2.843    0.250    0.446   95.349  162.705
  382.750    2.888    0.236    0.455   96.098  163.242
  383.000    2.863    0.237    0.461   96.606  159.930
  383.250    2.864    0.245    0.461   97.355  157.431
  383.500    2.861    0.272    0.463   97.919  156.753
  383.750    2.841    0.263    0.465   99.584  157.901
  384.000    2.801    0.264    0.472  100.089  160.973
  384.250    2.731    0.282    0.484   97.067  163.032
  384.500    2.628    0.264    0.476   91.370  160.633
  384.750    2.563    0.266    0.465   87.984  158.334
  385.000    2.484    0.265    0.456   87.092  157.352
  385.250    2.556    0.265    0.447   88.086  156.978
  385.500    2.704    0.273    0.447   88.957  156.608
  385.750    2.782    0.278    0.466   88.852  156.639
  386.000    2.851    0.273    0.457   88.629  156.772
  386.250    2.911    0.280    0.451   89.500  157.108
  386.500    2.946    0.285    0.458   89.337  156.838
  386.750    2.909    0.295    0.447   88.568  156.471
  387.000    2.759    0.290    0.438   86.822  156.500
  387.250    2.660    0.282    0.448   83.923  156.325
  387.500    2.574    0.278    0.455   82.787  155.953
  387.750    2.477    0.275    0.461   83.049  155.280
  388.000    2.393    0.278    0.450   83.251  154.806
  388.250    2.346    0.280    0.446   81.995  154.530
  388.500    2.313    0.288    0.439   77.938  154.866
  388.750    2.323    0.281    0.430   74.978  155.307
  389.000    2.448    0.276    0.425   72.872  155.947
  389.250    2.542    0.280    0.421   72.523  155.681
  389.500    2.699    0.277    0.428   73.699  155.403
  389.750    2.782    0.276    0.438   78.522  154.016
  390.000    2.926    0.244    0.429   85.839  152.934
  390.250    3.089    0.226    0.443   90.361  154.082
  390.500    3.202    0.223    0.462   92.020  155.129
  390.750    3.313    0.227    0.465   94.351  156.172
  391.000    3.358    0.208    0.455   98.139  157.015
  391.250    3.397    0.199    0.461  101.262  158.874
  391.500    3.443    0.201    0.468  102.921  162.255
  391.750    3.510    0.206    0.467  103.430  165.121
  392.000    3.571    0.207    0.457  103.203  167.179
  392.250    3.640    0.205    0.447  104.378  166.300
  392.500    3.696    0.216    0.459  105.433  165.523
  392.750    3.712    0.207    0.480  103.505  169.203
  393.000    3.680    0.225    0.492  101.823  171.362
  393.250    3.608    0.251    0.467  101.052  171.395
  393.500    3.537    0.233    0.464  102.591  170.009
  393.750    3.474    0.211    0.467  104.617  170.446
  394.000    3.406    0.195    0.466  106.523  171.187
  394.250    3.321    0.189    0.461  107.210  173.046
  394.500    3.256    0.201    0.456  107.292  174.901
  394.750    3.174    0.183    0.455  107.127  175.440
  395.000    3.123    0.206    0.483  108.059  174.667
  395.250    3.154    0.228    0.505  110.270  174.192
  395.500    3.276    0.237    0.527  111.444  174.627
  395.750    3.426    0.252    0.547  112.253  176.889
  396.000    3.571    0.263    0.542  112.333  179.352
  396.250    3.777    0.288    0.521  112.351  177.966
  396.500    3.951    0.279    0.507  112.737  167.155
  396.750    4.149    0.229    0.489  113.365  159.586
  397.000    4.292    0.206    0.472  114.175  160.734
  397.250    4.350    0.195    0.459  114.804  164.617
  397.500    4.353    0.190    0.449  114.943  168.198
  397.750    4.300    0.196    0.444  113.565  170.663
  398.000    4.192    0.213    0.439  110.968  172.930
  398.250    4.117    0.220    0.439  108.373  173.972
  398.500    4.044    0.212    0.450  107.237  174.004
  398.750    3.980    0.199    0.456  106.162  172.412
  399.000    3.923    0.202    0.458   98.641  168.597
  399.250    3.846    0.200    0.461  100.364  168.627
  399.500    3.806    0.221    0.462  102.817  170.081
  399.750    3.815    0.237    0.451  103.503  166.461
  400.000    3.512    0.224    0.429  100.361  162.138
  400.250    3.198    0.290    0.406   94.847  160.955
  400.500    3.009    0.321    0.384   87.386  160.078
  400.750    2.755    0.354    0.355   81.264  159.297
  401.000    2.508    0.353    0.349   79.643  158.929
  401.250    2.275    0.335    0.398   78.996  159.058
  401.500    2.086    0.323    0.434   77.857  159.087
  401.750    1.938    0.308    0.440   75.869  158.823
  402.000    1.804    0.293    0.432   77.286  158.444
  402.250    1.891    0.293    0.437   78.950  158.478
  402.500    1.978    0.289    0.440   78.603  158.304
  402.750    2.035    0.297    0.425   76.800  158.237
  403.000    2.074    0.310    0.421   75.115  158.474
  403.250    2.076    0.293    0.410   73.796  159.316
  403.500    2.069    0.275    0.413   72.964  160.158
  403.750    1.984    0.282    0.422   70.797  160.899
  404.000    1.847    0.293    0.422   67.287  161.438
  404.250    1.751    0.304    0.428   64.996  162.180
  404.500    1.658    0.312    0.441   63.920  164.140
  404.750    1.598    0.321    0.451   65.950  164.981
  405.000    1.564    0.326    0.453   67.669  164.609
  405.250    1.579    0.331    0.454   69.514  162.715
  405.500    1.595    0.336    0.455   70.505  161.436
  405.750    1.611    0.326    0.450   70.465  160.753
  406.000    1.615    0.316    0.441   69.025  160.687
  406.250    1.622    0.304    0.435   67.587  160.418
  406.500    1.629    0.304    0.434   66.632  160.547
  406.750    1.639    0.315    0.438   65.803  160.680
  407.000    1.655    0.318    0.445   65.393  160.715
  407.250    1.680    0.313    0.451   65.290  161.049
  407.500    1.710    0.309    0.447   65.250  161.288
  407.750    1.736    0.306    0.439   65.633  161.520
  408.000    1.816    0.302    0.434   66.747  161.755
  408.250    1.939    0.294    0.433   72.790  162.096
  408.500    2.121    0.295    0.441   76.941  162.329
  408.750    2.315    0.302    0.452   82.982  162.561
  409.000    2.527    0.298    0.451   88.840  163.000
  409.250    2.764    0.278    0.438   92.751  163.640
  409.500    2.978    0.258    0.435   96.175  164.584
  409.750    3.138    0.229    0.438   99.236  170.293
  410.000    3.241    0.206    0.439   96.519  172.757
  410.250    3.297    0.249    0.437   95.991  170.461
  410.500    3.305    0.246    0.439   98.262  169.073
  410.750    3.295    0.234    0.439  100.228  164.746
  411.000    3.248    0.212    0.440  101.095  162.144
  411.250    3.220    0.220    0.439   99.290  162.581
  411.500    3.234    0.252    0.436  101.498  164.846
  411.750    3.321    0.234    0.431  104.681  164.068
  412.000    3.403    0.224    0.445  107.499  165.720
  412.250    3.508    0.209    0.463  109.036  170.217
  412.500    3.663    0.208    0.454  110.031  172.477
  412.750    3.775    0.227    0.423  111.325  173.215
  413.000    3.778    0.241    0.420  114.263  168.282
  413.250    3.738    0.199    0.443  115.803  167.404
  413.500    3.699    0.184    0.460  112.177  170.880
  413.750    3.640    0.202    0.478  108.789  176.284
  414.000    3.581    0.226    0.487  104.550  175.910
  414.250    3.453    0.248    0.477  101.165  169.762
  414.500    3.330    0.268    0.469   99.788  164.220
  414.750    3.216    0.255    0.463   99.745  163.038
  415.000    3.107    0.236    0.473   99.949  165.299
  415.250    2.968    0.220    0.487   98.325  167.766
  415.500    2.835    0.214    0.498   93.844  171.039
  415.750    2.635    0.218    0.510   89.851  172.895
  416.000    2.554    0.233    0.487   86.950  169.990
  416.250    2.422    0.285    0.447   83.992  165.057
  416.500    2.331    0.298    0.429   85.106  161.846
  416.750    2.294    0.284    0.434   87.070  160.767
  417.000    2.321    0.273    0.436   87.942  160.391
  417.250    2.361    0.273    0.432   88.509  159.718
  417.500    2.411    0.269    0.421   88.588  159.544
  417.750    2.449    0.257    0.432   86.235  159.675
