~VERSION INFORMATION
 VERS.                 2.0:   CWLS LOG ASCII STANDARD -VERSION 2.0
 WRAP.                  NO:   ONE LINE PER DEPTH STEP
~WELL INFORMATION BLOCK
#MNEM.UNIT           DATA                    DESCRIPTION OF MNEMONIC
#---------    -------------------            -------------------------------
# Generated from Intellog Unique Number	CS_69_70/WELL/134
WELL.         AFC MEDLEY 6-7-69 2 W4M        : Well_name    - WELL
LOC .         00/06-07-069-02W4/0            : Location     - LOCATION
UWI .         00/06-07-069-02W4/0            : Uwi          - UNIQUE WELL ID
ENTR.         ANDERSEN                       : Entered      - ENTERED BY
SRVC.         SCHLUMBERGER                   : Scn          - SERVICE COMPANY
STRT.M        375                            : top_depth    - START DEPTH
STOP.M        625                            : bot_depth    - STOP DEPTH
STEP.M        0.25                           : increment    - STEP LENGTH
 NULL. -999.2500:NULL Value
~CURVE INFORMATION BLOCK
#MNEM UNIT       ERCB CURVE CODE    CURVE DESCRIPTION
#-----------   ------------------   ----------------------------------
DEPT.M        00 001 00 00         : DEPTH        - DEPTH
ILD .OHMM     00 120 00 00         : RESD         - DEEP RESISTIVITY (DIL)
DPHI.V/V      00 890 00 00         : PHID         - DENSITY POROSITY (SANDSTONE)
NPHI.V/V      00 330 00 00         : PHIN         - NEUTRON POROSITY (SANDSTONE)
CALI.MM       00 280 01 00         : CAL          - CALIPER
GR  .API      00 310 00 00         : GR           - GAMMA RAY
~PARAMETER INFORMATION
#MNEM.UNIT           DATA             DESCRIPTION OF MNEMONIC
#---------         -----------     ------------------------------
GL  .M        717.8                : gl           - GROUND LEVEL ELEVATION
EREF.M        721.4                : kb           - ELEVATION OF DEPTH REFERENCE
DATM.M        721.4                : datum        - DATUM ELEVATION
TDD .M        626                  : tdd          - TOTAL DEPTH DRILLER
RUN .         ONE                  : Run          - RUN NUMBER
ENG .         BILL                 : Engineer     - RECORDING ENGINEER
WIT .         JIM                  : Witness      - WITNESSED BY
MUD .         GEL                  : Mud_type     - MUD TYPE
MATR.         SANDSTONE            : Logunit      - NEUTRON MATRIX
TMAX.C        27                   : BHT          - MAXIMUM RECORDED TEMPERATURE
BHTD.M        626                  : BHTDEP       - MAXIMUM RECORDED TEMPERATURE
MATR.         1                    : LOGUNIT      - NEUTRON MATRIX
RMT .C        19                   : MDTP         - TEMPERATURE OF MUD
NEUT.         1                    : NEUTRON      - NEUTRON TYPE
RESI.         0                    : RESIST       - RESISTIVITY TYPE
RMC .OHMM     3.3                  : RMC          - RESISTIVITY OF MUD CAKE
RMF .OHMM     6.9                  : RMF          - RESISTIVITY OF MUD FILTRATE
SUFT.C        15                   : SUFT         - SURFACE TEMPERATURE
~A  DEPTH     RESD     PHID     PHIN      CAL       GR
# ...
  411.500    9.775    0.310    0.402  150.773   78.807
  411.750    9.262    0.290    0.395  151.713   82.823
  412.000    8.777    0.273    0.414  151.688   81.659
  412.250    8.469    0.285    0.409  151.668   81.650
  412.500    8.171    0.304    0.415  151.643   82.208
  412.750    8.029    0.301    0.421  151.634   82.199
  413.000    8.188    0.286    0.412  150.644   85.642
  413.250    8.500    0.284    0.429  150.629   83.903
  413.500    8.353    0.271    0.489  150.599   81.012
  413.750    8.207    0.220    0.500  150.589   76.393
  414.000    8.365    0.199    0.431  151.524   68.317
  414.250    8.843    0.119    0.366  152.469   65.426
  414.500    9.697    0.194    0.302  153.404   67.141
  414.750   10.443    0.230    0.308  153.384   73.463
  415.000   11.041    0.258    0.445  151.444   80.361
  415.250   11.254    0.267    0.451  150.465   85.532
  415.500   10.859    0.271    0.445  150.440   87.247
  415.750    9.568    0.278    0.446  150.420   86.084
  416.000    9.063    0.295    0.438  150.395   83.765
  416.250    8.587    0.316    0.423  150.385   81.450
  416.500    8.594    0.319    0.424  150.365   80.862
  416.750    8.758    0.315    0.419  150.340   81.426
  417.000    8.769    0.321    0.432  150.320   84.869
  417.250    8.938    0.324    0.443  149.336   89.464
  417.500    8.946    0.314    0.452  149.316   89.452
  417.750    8.791    0.305    0.458  149.301   85.982
  418.000    8.329    0.295    0.452  149.276   83.088
  418.250    7.892    0.293    0.444  149.256   83.076
  418.500    7.475    0.293    0.442  149.236   84.216
  418.750    7.213    0.300    0.440  151.126   85.355
  419.000    7.219    0.305    0.428  152.065   86.498
  419.250    7.496    0.305    0.411  152.055   87.638
  419.500    8.072    0.297    0.394  152.995   84.168
  419.750    8.382    0.299    0.398  152.975   81.853
  420.000    8.540    0.307    0.404  152.945   77.234
  420.250    8.865    0.313    0.397  152.926   72.616
  420.500    9.723    0.318    0.343  151.946   67.421
  420.750   10.860    0.315    0.331  151.931   60.497
  421.000   11.271    0.307    0.336  151.911   61.060
  421.250   12.365    0.297    0.343  151.891   66.807
  421.500   12.370    0.306    0.338  151.871   71.401
  421.750   12.380    0.298    0.378  151.841   78.299
  422.000   11.312    0.271    0.426  151.821   85.773
  422.250   10.521    0.289    0.434  149.882   83.458
  422.500    9.970    0.315    0.408  149.862   79.991
  422.750    9.621    0.308    0.418  149.842   88.616
  423.000    9.115    0.284    0.439  149.817   96.663
  423.250    8.176    0.285    0.450  149.797   90.892
  423.500    6.817    0.288    0.450  149.778   78.788
  423.750    5.895    0.292    0.451  149.758   73.018
  424.000    5.688    0.285    0.445  149.738   71.855
  424.250    6.354    0.268    0.440  149.718   73.570
  424.500    7.633    0.249    0.443  149.698   75.858
  424.750    8.525    0.268    0.446  149.673   76.422
  425.000    8.689    0.306    0.438  149.663   75.259
  425.250    8.696    0.328    0.423  149.633   70.064
  425.500    9.196    0.345    0.379  149.613   63.718
  425.750    9.899    0.359    0.333  149.593   57.373
  426.000   10.855    0.377    0.320  149.578   49.296
  426.250   12.348    0.403    0.297  149.558   45.826
  426.500   14.047    0.418    0.283  149.539   44.663
  426.750   15.125    0.425    0.270  149.514   46.378
  427.000   16.285    0.432    0.261  149.484   48.666
  427.250   17.216    0.433    0.255  149.469   50.964
  427.500   18.201    0.433    0.247  149.444   50.946
  427.750   18.556    0.437    0.240  150.389   50.934
  428.000   18.564    0.443    0.241  150.369   53.225
  428.250   18.251    0.439    0.248  150.349   57.247
  428.500   16.979    0.424    0.307  150.329   63.569
  428.750   16.380    0.406    0.334  150.304   65.282
  429.000   14.692    0.405    0.341  150.284   62.966
  429.250   12.708    0.403    0.350  149.299   57.772
  429.500   12.038    0.399    0.368  148.325   53.151
  429.750   11.199    0.403    0.390  148.310   51.990
  430.000   10.806    0.404    0.401  148.290   55.433
  430.250   10.239    0.404    0.378  148.270   59.452
  430.500    9.881    0.397    0.363  148.245   61.167
  430.750    9.533    0.387    0.369  148.220   64.610
  431.000    9.370    0.383    0.367  148.200   70.932
  431.250    9.212    0.376    0.400  149.135   78.406
  431.500    9.049    0.363    0.439  150.080   75.512
  431.750    9.057    0.356    0.454  150.065   71.466
  432.000    8.739    0.352    0.442  151.005   68.002
  432.250    8.592    0.352    0.436  151.940   61.081
  432.500    8.595    0.354    0.434  151.920   56.459
  432.750    8.294    0.355    0.435  152.854   61.054
  433.000    8.303    0.356    0.431  152.835   62.190
  433.250    8.159    0.356    0.444  151.855   63.330
  433.500    8.018    0.353    0.440  150.875   66.776
  433.750    7.880    0.340    0.428  149.896   70.213
  434.000    7.888    0.330    0.404  149.876   69.631
  434.250    7.894    0.322    0.404  150.816   69.616
  434.500    7.903    0.331    0.420  151.755   74.214
  434.750    7.764    0.328    0.427  151.735   74.199
  435.000    7.769    0.315    0.431  151.706   63.246
  435.250    7.637    0.340    0.439  151.691   53.443
  435.500    7.506    0.365    0.440  151.671   52.858
  435.750    7.375    0.358    0.433  150.691   52.270
  436.000    7.249    0.351    0.433  150.671   52.834
  436.250    7.255    0.342    0.437  149.687   53.968
  436.500    7.395    0.335    0.427  149.662   56.262
  436.750    7.403    0.331    0.427  149.652   60.856
  437.000    7.406    0.325    0.436  149.632   64.299
  437.250    7.412    0.309    0.431  149.602   68.318
  437.500    7.026    0.311    0.437  149.587   71.185
  437.750    6.657    0.313    0.450  149.562   72.322
  438.000    6.423    0.307    0.462  149.542   74.038
  438.250    5.974    0.307    0.465  149.527   76.905
  438.500    5.660    0.309    0.471  149.497   78.044
  438.750    5.363    0.306    0.474  149.487   78.608
  439.000    5.081    0.299    0.469  149.458   80.900
  439.250    4.903    0.288    0.460  149.438   87.222
  439.500    4.646    0.266    0.447  148.463   86.634
  439.750    4.565    0.247    0.442  147.478   80.288
  440.000    4.486    0.234    0.437  147.458   68.181
  440.250    4.491    0.292    0.428  147.434   58.956
  440.500    4.578    0.413    0.418  147.424   51.458
  440.750    4.752    0.551    0.486  148.353   40.506
  441.000    5.024    0.480    0.603  148.324   36.460
  441.250    5.715    0.359    0.466  149.268   36.448
  441.500    6.041    0.333    0.410  149.258   38.161
  441.750    6.273    0.336    0.389  149.238   38.724
  442.000    6.164    0.338    0.390  149.219   38.712
  442.250    5.842    0.341    0.386  149.199   39.852
  442.500    5.739    0.342    0.381  149.174   40.416
  442.750    5.540    0.349    0.399  149.149   40.980
  443.000    5.543    0.353    0.405  149.134   40.389
  443.250    5.449    0.350    0.405  148.149   38.650
  443.500    5.451    0.349    0.418  148.129   39.214
  443.750    5.357    0.355    0.432  148.109   40.929
  444.000    5.265    0.355    0.435  147.130   43.220
  444.250    5.272    0.353    0.421  147.105   43.209
  444.500    5.274    0.352    0.392  147.085   41.469
  444.750    5.183    0.355    0.378  148.015   40.881
  445.000    5.187    0.362    0.387  148.005   42.021
  445.250    5.192    0.369    0.425  147.980   43.161
  445.500    5.196    0.373    0.438  147.965   45.449
  445.750    5.200    0.367    0.443  148.900   45.437
  446.000    5.020    0.372    0.459  148.880   42.546
  446.250    4.933    0.377    0.463  148.860   43.683
  446.500    4.938    0.378    0.455  148.840   44.822
  446.750    4.852    0.371    0.443  148.820   44.810
  447.000    4.856    0.364    0.432  148.805   46.529
  447.250    4.860    0.366    0.431  148.775   47.669
  447.500    4.864    0.368    0.436  148.750   48.808
  447.750    4.868    0.365    0.444  147.776   47.642
