~VERSION INFORMATION
 VERS.                 2.0:   CWLS LOG ASCII STANDARD -VERSION 2.0
 WRAP.                  NO:   ONE LINE PER DEPTH STEP
~WELL INFORMATION BLOCK
#MNEM.UNIT           DATA                    DESCRIPTION OF MNEMONIC
#---------    -------------------            -------------------------------
# Generated from Intellog Unique Number	CW_76_78/WELL/2570
WELL.         ATCOR ET AL PELICAN            : Well_name    - WELL
LOC .         00/06-34-078-25W4/0            : Location     - LOCATION
UWI .         00/06-34-078-25W4/0            : Uwi          - UNIQUE WELL ID
ENTR.         MAX                            : Entered      - ENTERED BY
SRVC.         COMPUTALOG                     : Scn          - SERVICE COMPANY
STRT.M        270                            : top_depth    - START DEPTH
STOP.M        490                            : bot_depth    - STOP DEPTH
STEP.M        0.25                           : increment    - STEP LENGTH
 NULL. -999.2500:NULL Value
~CURVE INFORMATION BLOCK
#MNEM UNIT       ERCB CURVE CODE    CURVE DESCRIPTION
#-----------   ------------------   ----------------------------------
DEPT.M        00 001 00 00         : DEPTH        - DEPTH
ILD .OHMM     00 120 00 00         : RESD         - DEEP RESISTIVITY (DIL)
NPHI.V/V      00 330 00 00         : PHIN         - NEUTRON POROSITY (SANDSTONE)
DPHI.V/V      00 890 00 00         : PHID         - DENSITY POROSITY (SANDSTONE)
CALI.MM       00 280 01 00         : CAL          - CALIPER
GR  .API      00 310 00 00         : GR           - GAMMA RAY
~PARAMETER INFORMATION
#MNEM.UNIT           DATA             DESCRIPTION OF MNEMONIC
#---------         -----------     ------------------------------
GL  .M        581                  : gl           - GROUND LEVEL ELEVATION
EREF.M        584.7                : kb           - ELEVATION OF DEPTH REFERENCE
DATM.M        581                  : datum        - DATUM ELEVATION
TDD .M        491.9                : tdd          - TOTAL DEPTH DRILLER
RUN .         ONE                  : Run          - RUN NUMBER
ENG .         BILL                 : Engineer     - RECORDING ENGINEER
WIT .         JIM                  : Witness      - WITNESSED BY
MUD .         GEL                  : Mud_type     - MUD TYPE
MATR.         SANDSTONE            : Logunit      - NEUTRON MATRIX
TMAX.C        30                   : BHT          - MAXIMUM RECORDED TEMPERATURE
BHTD.M        491.9                : BHTDEP       - MAXIMUM RECORDED TEMPERATURE
RMT .C        19                   : MDTP         - TEMPERATURE OF MUD
MUDD.KG/M     1120                 : MWT          - MUD DENSITY
NEUT.         1                    : NEUTRON      - NEUTRON TYPE
RESI.         0                    : RESIST       - RESISTIVITY TYPE
RM  .OHMM     4.4                  : RM           - RESISTIVITY OF MUD
RMC .OHMM     0.25                 : RMC          - RESISTIVITY OF MUD CAKE
RMF .OHMM     4.1                  : RMF          - RESISTIVITY OF MUD FILTRATE
SUFT.C        -10                  : SUFT         - SURFACE TEMPERATURE
~A  DEPTH     RESD     PHIN     PHID      CAL       GR
  270.000    4.534    0.441    0.187  201.407   84.781
  270.250    4.255    0.450    0.191  201.001   81.857
  270.500    3.922    0.450    0.185  203.077   81.898
  270.750    3.646    0.443    0.173  203.181   83.158
  271.000    3.390    0.473    0.181  203.274   80.811
  271.250    3.153    0.487    0.198  203.378   76.682
  271.500    2.931    0.488    0.204  203.958   75.234
  271.750    2.752    0.482    0.216  206.058   75.595
  272.000    2.655    0.478    0.230  207.659   77.754
  272.250    2.660    0.480    0.239  207.728   76.298
  272.500    2.738    0.479    0.253  203.341   71.869
  272.750    2.980    0.462    0.263  201.437   69.523
  273.000    4.406    0.416    0.238  197.538   66.284
  273.250    6.393    0.377    0.185  191.143   59.154
  273.500    8.536    0.363    0.112  189.738   47.526
  273.750   10.979    0.354    0.115  193.312   38.898
  274.000   14.258    0.354    0.156  196.410   39.253
  274.250   16.558    0.360    0.197  198.998   41.404
  274.500   19.416    0.385    0.233  202.595   43.563
  274.750   19.993    0.406    0.244  203.685   44.217
  275.000   19.837    0.418    0.259  204.288   44.572
  275.250   19.501    0.413    0.267  203.382   45.226
  275.500   19.349    0.400    0.270  199.993   46.187
  275.750   19.378    0.392    0.268  198.090   44.752
  276.000   19.590    0.390    0.273  198.171   42.705
  276.250   20.557    0.399    0.277  198.274   42.760
  276.500   20.557    0.415    0.279  198.854   42.516
  276.750   21.206    0.413    0.283  199.446   42.565
  277.000   22.023    0.406    0.288  201.035   43.818
  277.250   22.265    0.406    0.290  201.638   44.472
  277.500   22.091    0.405    0.287  202.717   45.133
  277.750   21.521    0.397    0.280  203.320   45.189
  278.000   20.576    0.382    0.272  203.412   44.952
  278.250   19.137    0.385    0.271  203.516   45.000
  278.500   18.122    0.389    0.270  203.586   45.056
  278.750   17.166    0.392    0.267  202.692   46.309
  279.000   15.819    0.412    0.257  201.775   56.252
  279.250   14.979    0.430    0.252  200.370   64.412
  279.500   14.324    0.444    0.248  199.986   60.561
  279.750   14.229    0.446    0.244  200.566   52.526
  280.000   14.105    0.414    0.240  200.659   48.696
  280.250   14.126    0.405    0.242  200.751   48.751
  280.500   14.542    0.404    0.245  200.855   49.398
  280.750   14.841    0.406    0.252  200.959   50.958
  281.000   14.723    0.390    0.259  201.051   53.109
  281.250   14.338    0.381    0.264  200.123   54.063
  281.500   13.335    0.400    0.265  197.244   53.227
  281.750   12.518    0.420    0.251  195.329   51.785
  282.000   12.416    0.406    0.236  194.412   51.235
  282.250   12.208    0.400    0.235  195.026   52.801
  282.500   11.999    0.400    0.244  196.105   55.844
  282.750   11.368    0.391    0.247  197.695   57.097
  283.000   10.670    0.390    0.243  198.286   55.955
  283.250   10.390    0.397    0.228  197.392   54.228
  283.500   10.120    0.413    0.197  198.970   54.269
  283.750    9.500    0.418    0.206  200.060   55.536
  284.000    8.751    0.419    0.236  201.661   58.293
  284.250    7.843    0.408    0.239  203.750   59.533
  284.500    7.291    0.392    0.235  206.349   60.486
  284.750    6.718    0.377    0.223  207.428   60.549
  285.000    6.190    0.385    0.214  208.019   60.604
  285.250    5.703    0.402    0.225  207.624   61.558
  285.500    5.302    0.415    0.227  207.740   64.914
  285.750    4.841    0.422    0.220  208.807   69.460
  286.000    4.671    0.407    0.227  210.408   75.204
  286.250    4.549    0.393    0.233  210.500   77.955
  286.500    4.472    0.404    0.229  207.100   72.920
  286.750    4.521    0.416    0.223  200.693   63.986
  287.000    4.699    0.418    0.228  194.798   58.353
  287.250    5.069    0.402    0.226  190.909   59.014
  287.500    5.415    0.394    0.223  188.518   60.859
  287.750    6.007    0.387    0.207  188.089   65.420
  288.000    6.851    0.378    0.206  189.179   67.870
  288.250    7.251    0.380    0.222  190.792   64.925
  288.500    7.821    0.380    0.208  191.859   53.895
  288.750    8.435    0.363    0.194  192.450   44.369
  289.000    9.443    0.330    0.107  196.070   39.335
  289.250   10.375    0.328    0.150  197.637   40.289
  289.500   11.507    0.334    0.193  199.238   44.243
  289.750   12.413    0.362    0.228  200.328   47.293
  290.000   11.981    0.381    0.240  201.407   50.656
  290.250   11.036    0.382    0.246  203.008   52.494
  290.500    9.798    0.386    0.241  204.122   55.244
  290.750    9.023    0.393    0.232  204.191   59.797
  291.000    8.313    0.411    0.226  204.283   63.153
  291.250    7.875    0.424    0.216  205.374   63.807
  291.500    7.323    0.412    0.199  205.965   68.055
  291.750    6.937    0.395    0.203  207.079   75.602
  292.000    6.392    0.388    0.204  207.670   74.467
  292.250    6.112    0.415    0.201  208.250   73.032
  292.500    5.790    0.424    0.194  208.343   72.475
  292.750    5.535    0.429    0.188  207.936   74.933
  293.000    5.390    0.431    0.188  207.529   74.981
  293.250    5.204    0.428    0.191  207.645   74.744
  293.500    5.162    0.414    0.196  207.749   75.392
  293.750    5.076    0.403    0.203  207.319   77.550
  294.000    5.035    0.400    0.208  207.435   80.001
  294.250    4.951    0.397    0.201  207.516   79.464
  294.500    4.866    0.400    0.191  207.608   78.621
  294.750    4.740    0.411    0.192  208.188   80.773
  295.000    4.660    0.421    0.191  208.791   81.127
  295.250    4.624    0.448    0.191  209.893   78.481
  295.500    4.547    0.470    0.195  210.473   80.354
  295.750    4.468    0.467    0.199  211.064   82.498
  296.000    4.352    0.436    0.205  212.166   84.650
  296.250    4.161    0.440    0.212  213.756   85.917
  296.500    3.942    0.464    0.220  215.345   85.359
  296.750    3.734    0.480    0.225  215.437   82.727
  297.000    3.603    0.486    0.216  215.518   81.891
  297.250    3.543    0.487    0.221  215.123   81.640
  297.500    3.549    0.471    0.215  213.742   76.592
  297.750    3.689    0.453    0.199  212.813   72.456
  298.000    3.978    0.421    0.207  212.917   73.423
  298.250    4.172    0.392    0.217  211.524   75.275
  298.500    4.542    0.395    0.215  210.096   75.637
  298.750    4.899    0.395    0.204  206.707   78.680
  299.000    5.334    0.397    0.209  204.792   76.632
  299.250    5.647    0.403    0.238  201.902   66.807
  299.500    5.761    0.407    0.257  198.512   59.670
  299.750    5.987    0.392    0.305  195.100   56.432
  300.000    6.340    0.375    0.310  191.200   58.889
  300.250    6.837    0.373    0.311  187.800   62.844
  300.500    8.017    0.390    0.294  185.896   66.193
  300.750    8.975    0.406    0.284  186.975   67.446
  301.000    9.500    0.390    0.279  190.062   71.394
  301.250    9.786    0.401    0.271  194.645   74.743
  301.500    9.796    0.417    0.264  202.733   75.098
  301.750    9.722    0.405    0.252  207.839   74.255
  302.000    9.646    0.383    0.244  209.927   76.121
  302.250    9.485    0.374    0.237  211.006   78.272
  302.500    9.238    0.368    0.238  212.108   80.716
  302.750    8.996    0.354    0.239  213.199   83.473
  303.000    8.762    0.358    0.240  214.289   83.835
  303.250    8.149    0.387    0.245  213.883   81.488
  303.500    7.440    0.380    0.286  211.480   73.759
  303.750    6.916    0.389    0.292  206.582   66.023
  304.000    6.799    0.410    0.281  201.174   62.193
  304.250    6.872    0.412    0.293  199.781   61.343
  304.500    6.819    0.394    0.312  203.355   57.499
  304.750    6.704    0.387    0.310  204.956   57.568
  305.000    6.715    0.403    0.301  205.048   59.114
  305.250    7.043    0.424    0.305  204.642   57.081
  305.500    7.885    0.429    0.307  205.744   55.632
  305.750    8.990    0.414    0.305  206.834   54.490
  306.000   10.062    0.391    0.304  207.414   54.253
  306.250   11.161    0.389    0.307  207.518   55.798
