~VERSION INFORMATION
 VERS.                 2.0:   CWLS LOG ASCII STANDARD -VERSION 2.0
 WRAP.                  NO:   ONE LINE PER DEPTH STEP
~WELL INFORMATION BLOCK
#MNEM.UNIT           DATA                    DESCRIPTION OF MNEMONIC
#---------    -------------------            -------------------------------
# Generated from Intellog Unique Number	CW_79_81/WELL/642
WELL.         07-36-079-21W4                 : Well_name    - WELL
LOC .         00/07-36-079-21W4/0            : Location     - LOCATION
UWI .         00/07-36-079-21W4/0            : Uwi          - UNIQUE WELL ID
ENTR.         MAX                            : Entered      - ENTERED BY
SRVC.         SCHLUMBERGER                   : Scn          - SERVICE COMPANY
STRT.M        215                            : top_depth    - START DEPTH
STOP.M        417                            : bot_depth    - STOP DEPTH
STEP.M        0.25                           : increment    - STEP LENGTH
 NULL. -999.2500:NULL Value
~CURVE INFORMATION BLOCK
#MNEM UNIT       ERCB CURVE CODE    CURVE DESCRIPTION
#-----------   ------------------   ----------------------------------
DEPT.M        00 001 00 00         : DEPTH        - DEPTH
ILD .OHMM     00 120 00 00         : RESD         - DEEP RESISTIVITY (DIL)
NPHI.V/V      00 330 00 00         : PHIN         - NEUTRON POROSITY (SANDSTONE)
DPHI.V/V      00 890 00 00         : PHID         - DENSITY POROSITY (SANDSTONE)
CALI.MM       00 280 01 00         : CAL          - CALIPER
GR  .API      00 310 00 00         : GR           - GAMMA RAY
~PARAMETER INFORMATION
#MNEM.UNIT           DATA             DESCRIPTION OF MNEMONIC
#---------         -----------     ------------------------------
GL  .M        572.05               : gl           - GROUND LEVEL ELEVATION
EREF.M        575.35               : kb           - ELEVATION OF DEPTH REFERENCE
DATM.M        572.05               : datum        - DATUM ELEVATION
TDD .M        420                  : tdd          - TOTAL DEPTH DRILLER
RUN .         ONE                  : Run          - RUN NUMBER
ENG .         BILL                 : Engineer     - RECORDING ENGINEER
WIT .         JIM                  : Witness      - WITNESSED BY
MUD .         GEL                  : Mud_type     - MUD TYPE
MATR.         SANDSTONE            : Logunit      - NEUTRON MATRIX
TMAX.C        29.4                 : BHT          - MAXIMUM RECORDED TEMPERATURE
BHTD.M        420                  : BHTDEP       - MAXIMUM RECORDED TEMPERATURE
RMT .C        23                   : MDTP         - TEMPERATURE OF MUD
MUDD.KG/M     1130                 : MWT          - MUD DENSITY
NEUT.         1                    : NEUTRON      - NEUTRON TYPE
RESI.         0                    : RESIST       - RESISTIVITY TYPE
RM  .OHMM     6.08                 : RM           - RESISTIVITY OF MUD
RMC .OHMM     0.25                 : RMC          - RESISTIVITY OF MUD CAKE
RMF .OHMM     5.02                 : RMF          - RESISTIVITY OF MUD FILTRATE
SUFT.C        -10                  : SUFT         - SURFACE TEMPERATURE
~A  DEPTH     RESD     PHIN     PHID      CAL       GR
# ...
  361.000   15.416    0.314    0.071  158.750   82.516
  361.250   14.073    0.320    0.096  158.280   86.425
  361.500   12.613    0.395    0.171  158.314   89.439
  361.750   11.837    0.429    0.175  157.840   89.454
  362.000   11.745    0.429    0.214  157.877   89.771
  362.250   11.535    0.438    0.207  158.402   90.989
  362.500   11.652    0.432    0.204  157.936   91.906
  362.750   12.098    0.438    0.196  157.988   92.521
  363.000   12.915    0.444    0.189  157.497   94.634
  363.250   13.785    0.449    0.183  157.526   95.549
  363.500   15.128    0.456    0.157  158.055   91.077
  363.750   16.149    0.450    0.126  158.084   89.301
  364.000   17.560    0.427    0.091  158.110   89.917
  364.250   18.920    0.407    0.087  158.143   86.940
  364.500   19.286    0.380    0.066  156.672   86.059
  364.750   18.951    0.396    0.128  156.207   87.274
  365.000   18.965    0.421    0.121  157.234   85.498
  365.250   18.982    0.398    0.101  157.766   85.214
  365.500   19.002    0.371    0.090  157.796   86.130
  365.750   19.016    0.398    0.119  155.334   84.055
  366.000   19.386    0.418    0.170  153.863   81.079
  366.250   20.317    0.411    0.157  152.396   79.900
  366.500   22.090    0.419    0.141  151.927   76.624
  366.750   24.023    0.393    0.146  151.953   73.050
  367.000   23.824    0.314    0.071  152.984   69.476
  367.250   22.561    0.271    0.052  155.504   66.799
  367.500   20.034    0.266    0.065  159.033   69.811
  367.750   17.628    0.338    0.094  159.562   75.815
  368.000   14.543    0.418    0.179  159.588   78.230
  368.250   13.649    0.447    0.209  159.122   76.456
  368.500   13.913    0.445    0.226  159.155   75.269
  368.750   14.717    0.450    0.211  159.181   75.593
  369.000   15.280    0.436    0.198  159.214   75.606
  369.250   15.722    0.413    0.200  159.735   75.624
  369.500   15.593    0.380    0.193  159.768   74.445
  369.750   15.465    0.348    0.170  159.303   74.762
  370.000   15.621    0.435    0.185  159.329   78.374
  370.250   15.777    0.473    0.229  158.863   81.085
  370.500   15.505    0.477    0.197  158.394   79.903
  370.750   14.820    0.432    0.172  157.921   77.232
  371.000   14.561    0.394    0.144  157.455   76.349
  371.250   15.122    0.446    0.211  157.481   79.961
  371.500   16.747    0.432    0.185  157.510   78.779
  371.750   21.690    0.429    0.136  157.048   74.008
  372.000   28.352    0.401    0.079  157.078   68.039
  372.250   32.580    0.318    0.039  156.608   65.365
  372.500   32.906    0.262    0.017  156.642   64.784
  372.750   27.147    0.227    0.029  156.671   66.300
  373.000   25.011    0.246    0.058  156.202   69.007
  373.250   21.209    0.302    0.083  156.231   73.218
  373.500   19.365    0.350    0.161  156.257   73.837
  373.750   19.365    0.391    0.177  156.283   76.846
  374.000   18.704    0.421    0.196  156.313   78.364
  374.250   17.868    0.428    0.199  155.851   78.380
  374.500   16.925    0.413    0.168  155.876   78.695
  374.750   16.178    0.419    0.162  155.906   80.810
  375.000   15.183    0.437    0.211  155.935   83.220
  375.250   14.382    0.456    0.229  155.935   85.637
  375.500   13.872    0.459    0.220  156.009   85.653
  375.750   13.260    0.445    0.206  156.031   86.271
  376.000   13.260    0.439    0.200  156.054   87.187
  376.250   12.924    0.435    0.206  156.586   89.597
  376.500   12.349    0.428    0.176  157.114   93.207
  376.750   11.915    0.441    0.176  157.144   99.812
  377.000   11.709    0.447    0.168  157.672  101.030
  377.250   11.503    0.437    0.142  157.702  101.945
  377.500   11.407    0.439    0.148  158.237  104.355
  377.750   11.316    0.435    0.185  158.758  105.870
  378.000   11.222    0.454    0.192  158.788  104.393
  378.250   11.026    0.466    0.165  158.818  100.517
  378.500   10.539    0.459    0.140  158.851   98.739
  378.750   10.166    0.442    0.094  159.383   99.058
  379.000    9.718    0.437    0.029  159.915  107.460
  379.250    9.718    0.431    0.054  160.935  111.967
  379.500    9.558    0.459    0.175  162.967  111.686
  379.750    9.136    0.446    0.189  165.488  111.103
  380.000    9.228    0.437    0.181  167.014  115.311
  380.250    9.495    0.431    0.182  168.038  118.925
  380.500    9.590    0.419    0.186  168.566  118.043
  380.750    9.687    0.412    0.170  164.608  113.573
  381.000    9.968    0.440    0.154  162.143  113.291
  381.250   10.543    0.427    0.146  161.674  113.907
  381.500   11.257    0.413    0.156  162.705  113.925
  381.750   12.239    0.399    0.184  163.233  111.847
  382.000   14.190    0.396    0.174  162.760  109.169
  382.250   14.474    0.411    0.158  161.293  106.195
  382.500   15.444    0.427    0.131  159.331  101.422
  382.750   17.421    0.434    0.075  157.863   90.364
  383.000   19.834    0.400    0.011  157.394   86.792
  383.250   20.409    0.325    0.033  157.424   89.202
  383.500   20.056    0.324    0.052  157.461   90.118
  383.750   18.997    0.324    0.074  157.486   92.233
  384.000   17.500    0.345    0.094  158.011   95.843
  384.250   16.880    0.370    0.100  158.540  100.353
  384.500   16.740    0.367    0.109  159.068  102.770
  384.750   16.911    0.368    0.118  159.101  102.186
  385.000   17.559    0.383    0.117  159.134  101.900
  385.250   18.747    0.389    0.135  159.157  100.721
  385.500   20.010    0.379    0.096  159.190   98.947
  385.750   20.778    0.366    0.095  159.219   95.069
  386.000   20.796    0.340    0.059  158.754   91.197
  386.250   19.339    0.311    0.038  158.783   92.714
  386.500   17.980    0.334    0.081  158.809   98.117
  386.750   16.266    0.365    0.117  157.841  103.823
  387.000   15.835    0.389    0.181  154.378  102.942
  387.250   15.847    0.401    0.183  152.911  102.361
  387.500   16.009    0.405    0.164  152.940  105.372
  387.750   15.585    0.398    0.164  152.940  111.978
  388.000   15.174    0.403    0.150  152.504  116.186
  388.250   14.244    0.404    0.137  151.037  123.091
  388.500   13.612    0.413    0.126  149.574  129.095
  388.750   12.429    0.422    0.142  149.104  134.503
  389.000   11.556    0.419    0.175  149.130  133.321
  389.250   10.743    0.420    0.184  150.660  139.027
  389.500    9.990    0.429    0.161  154.178  139.044
  389.750    9.816    0.437    0.162  157.704  130.980
  390.000   10.382    0.445    0.178  158.232  126.208
  390.250   11.288    0.428    0.157  158.265  110.062
  390.500   13.963    0.415    0.147  158.291   92.419
  390.750   17.430    0.431    0.137  158.823   86.747
  391.000   21.167    0.436    0.149  159.348   73.897
  391.250   25.466    0.435    0.176  159.377   67.325
  391.500   30.083    0.451    0.224  158.912   60.458
  391.750   32.409    0.447    0.241  157.445   52.992
  392.000   38.281    0.438    0.258  155.977   46.126
  392.250   41.622    0.433    0.270  155.504   44.050
  392.500   44.841    0.422    0.263  156.535   43.467
  392.750   46.557    0.414    0.256  157.068   42.289
  393.000   45.757    0.409    0.258  157.592   41.407
  393.250   44.550    0.405    0.274  157.626   41.726
  393.500   42.977    0.404    0.283  157.655   43.243
  393.750   41.080    0.399    0.266  158.686   46.252
  394.000   43.056    0.392    0.250  158.686   48.066
  394.250   44.699    0.385    0.236  158.738   49.881
  394.500   46.844    0.392    0.241  158.771   49.602
  394.750   48.202    0.404    0.241  158.804   49.316
  395.000   48.695    0.408    0.247  159.329   49.932
  395.250   44.457    0.406    0.261  159.857   53.547
  395.500   39.470    0.407    0.233  159.887   59.549
  395.750   31.679    0.403    0.254  159.916   63.460
  396.000   26.617    0.397    0.241  159.451   70.066
  396.250   23.636    0.389    0.212  158.985   77.569
  396.500   19.860    0.375    0.164  159.011   81.174
  396.750   15.792    0.384    0.160  159.037   86.281
  397.000   12.675    0.388    0.164  159.070   91.686
  397.250   10.080    0.387    0.151  159.103   97.396
