~VERSION INFORMATION
 VERS.                 2.0:   CWLS LOG ASCII STANDARD -VERSION 2.0
 WRAP.                  NO:   ONE LINE PER DEPTH STEP
~WELL INFORMATION BLOCK
#MNEM.UNIT           DATA                    DESCRIPTION OF MNEMONIC
#---------    -------------------            -------------------------------
# Generated from Intellog Unique Number	CS_73_76/WELL/769
WELL.         BOW VALLEY INDUSTRIES          : Well_name    - WELL
LOC .         00/07-13-073-15W4/0            : Location     - LOCATION
UWI .         00/07-13-073-15W4/0            : Uwi          - UNIQUE WELL ID
ENTR.         SP                             : Entered      - ENTERED BY
SRVC.         SCHLUMBERGER                   : Scn          - SERVICE COMPANY
STRT.M        350                            : top_depth    - START DEPTH
STOP.M        517                            : bot_depth    - STOP DEPTH
STEP.M        0.25                           : increment    - STEP LENGTH
 NULL. -999.2500:NULL Value
~CURVE INFORMATION BLOCK
#MNEM UNIT       ERCB CURVE CODE    CURVE DESCRIPTION
#-----------   ------------------   ----------------------------------
DEPT.M        00 001 00 00         : DEPTH        - DEPTH
ILD .OHMM     00 120 00 00         : RESD         - DEEP RESISTIVITY (DIL)
DPHI.V/V      00 890 00 00         : PHID         - DENSITY POROSITY (LIMESTONE)
NPHI.V/V      00 330 00 00         : PHIN         - NEUTRON POROSITY (LIMESTONE)
GR  .API      00 310 00 00         : GR           - GAMMA RAY
~PARAMETER INFORMATION
#MNEM.UNIT           DATA             DESCRIPTION OF MNEMONIC
#---------         -----------     ------------------------------
GL  .M        644.71               : gl           - GROUND LEVEL ELEVATION
EREF.M        648                  : kb           - ELEVATION OF DEPTH REFERENCE
DATM.M        644.71               : datum        - DATUM ELEVATION
TDD .M        525                  : tdd          - TOTAL DEPTH DRILLER
RUN .         ONE                  : Run          - RUN NUMBER
ENG .         BILL                 : Engineer     - RECORDING ENGINEER
WIT .         JIM                  : Witness      - WITNESSED BY
MUD .         GEL                  : Mud_type     - MUD TYPE
MATR.         LIMESTONE            : Logunit      - NEUTRON MATRIX
TMAX.C        23                   : BHT          - MAXIMUM RECORDED TEMPERATURE
BHTD.M        525                  : BHTDEP       - MAXIMUM RECORDED TEMPERATURE
MATR.         1                    : LOGUNIT      - NEUTRON MATRIX
RMT .C        25                   : MDTP         - TEMPERATURE OF MUD
NEUT.         1                    : NEUTRON      - NEUTRON TYPE
RESI.         0                    : RESIST       - RESISTIVITY TYPE
RMC .OHMM     0.25                 : RMC          - RESISTIVITY OF MUD CAKE
RMF .OHMM     0.25                 : RMF          - RESISTIVITY OF MUD FILTRATE
SUFT.C        15                   : SUFT         - SURFACE TEMPERATURE
~A  DEPTH     RESD     PHID     PHIN       GR
  350.000    6.287    0.210    0.494  105.419
  350.250    6.059    0.217    0.483  105.416
  350.500    6.060    0.225    0.493  102.402
  350.750    6.175    0.241    0.503   99.387
  351.000    6.292    0.257    0.514   95.168
  351.250    6.531    0.275    0.505   90.345
  351.500    6.655    0.286    0.494   88.536
  351.750    6.781    0.292    0.497   86.124
  352.000    6.782    0.285    0.506   86.121
  352.250    6.784    0.277    0.503   89.732
  352.500    6.785    0.267    0.497   92.139
  352.750    6.539    0.254    0.510   95.751
  353.000    6.186    0.240    0.524   97.555
  353.250    5.961    0.245    0.534   99.962
  353.500    5.853    0.243    0.545  101.767
  353.750    5.746    0.243    0.539  100.560
  354.000    5.855    0.240    0.531   96.942
  354.250    6.192    0.239    0.524   95.735
  354.500    6.548    0.245    0.512   94.527
  354.750    6.924    0.239    0.500   92.717
  355.000    7.055    0.258    0.497   90.907
  355.250    7.324    0.267    0.502   86.688
  355.500    7.462    0.271    0.490   80.661
  355.750    7.463    0.284    0.484   75.237
  356.000    7.465    0.298    0.490   69.211
  356.250    7.467    0.313    0.467   63.786
  356.500    7.331    0.329    0.458   61.374
  356.750    7.197    0.326    0.453   63.781
  357.000    7.199    0.319    0.456   64.380
  357.250    7.200    0.316    0.463   64.376
  357.500    7.201    0.316    0.465   64.374
  357.750    7.203    0.316    0.463   63.770
  358.000    7.204    0.320    0.461   61.960
  358.250    7.341    0.329    0.460   61.355
  358.500    7.479    0.330    0.461   62.557
  358.750    7.482    0.324    0.460   61.953
  359.000    7.483    0.326    0.459   61.347
  359.250    7.625    0.326    0.457   61.345
  359.500    7.626    0.330    0.452   62.546
  359.750    7.770    0.335    0.451   63.748
  360.000    7.772    0.336    0.454   64.950
  360.250    7.773    0.333    0.461   65.550
  360.500    7.921    0.327    0.467   66.752
  360.750    7.922    0.325    0.457   67.352
  361.000    7.923    0.333    0.443   66.747
  361.250    7.925    0.329    0.445   64.937
  361.500    8.076    0.325    0.452   64.934
  361.750    8.077    0.331    0.459   65.534
  362.000    8.230    0.333    0.465   66.133
  362.250    8.231    0.333    0.467   65.529
  362.500    8.082    0.332    0.467   64.924
  362.750    8.083    0.329    0.467   64.319
  363.000    8.085    0.323    0.470   63.713
  363.250    8.086    0.319    0.471   64.313
  363.500    7.939    0.323    0.476   64.913
  363.750    7.941    0.332    0.478   64.308
  364.000    7.943    0.331    0.486   63.703
  364.250    7.944    0.324    0.488   64.302
  364.500    7.945    0.323    0.487   65.504
  364.750    7.801    0.330    0.483   66.706
  365.000    7.948    0.331    0.480   66.703
  365.250    7.804    0.327    0.472   66.099
  365.500    7.805    0.328    0.459   65.494
  365.750    7.806    0.328    0.454   65.491
  366.000    7.808    0.325    0.463   65.488
  366.250    7.809    0.321    0.469   66.088
  366.500    7.811    0.318    0.472   64.880
  366.750    7.669    0.317    0.472   63.673
  367.000    7.670    0.318    0.474   63.670
  367.250    7.672    0.322    0.475   64.270
  367.500    7.674    0.325    0.480   65.472
  367.750    7.675    0.324    0.481   65.470
  368.000    7.535    0.322    0.483   66.671
  368.250    7.537    0.319    0.489   66.668
  368.500    7.679    0.318    0.498   66.063
  368.750    7.681    0.320    0.506   66.061
  369.000    7.682    0.326    0.517   66.660
  369.250    7.543    0.331    0.509   67.260
  369.500    7.544    0.334    0.493   67.257
  369.750    7.545    0.336    0.489   66.050
  370.000    7.547    0.334    0.486   66.047
  370.250    7.409    0.330    0.482   66.647
  370.500    7.411    0.329    0.479   67.246
  370.750    7.412    0.330    0.474   67.846
  371.000    7.553    0.331    0.475   68.445
  371.250    7.554    0.335    0.476   68.444
  371.500    7.556    0.332    0.480   69.044
  371.750    7.557    0.329    0.482   68.438
  372.000    7.559    0.324    0.482   66.629
  372.250    7.561    0.316    0.482   66.023
  372.500    7.561    0.312    0.485   67.225
  372.750    7.563    0.313    0.489   69.631
  373.000    7.564    0.322    0.492   71.436
  373.250    7.566    0.326    0.494   72.036
  373.500    7.568    0.328    0.498   73.841
  373.750    7.569    0.329    0.495   73.839
  374.000    7.431    0.331    0.489   72.028
  374.250    7.296    0.329    0.487   70.821
  374.500    7.163    0.324    0.485   72.022
  374.750    7.032    0.319    0.481   74.429
  375.000    6.905    0.311    0.475   76.837
  375.250    6.778    0.304    0.471   79.846
  375.500    6.655    0.289    0.471   83.457
  375.750    6.534    0.276    0.479   86.467
  376.000    6.536    0.263    0.487   90.079
  376.250    6.537    0.252    0.492   93.088
  376.500    6.417    0.244    0.498   96.098
  376.750    6.419    0.236    0.503   99.709
  377.000    6.420    0.230    0.509  102.115
  377.250    6.421    0.237    0.510  103.921
  377.500    6.188    0.231    0.499  104.520
  377.750    5.746    0.220    0.493  103.312
  378.000    5.047    0.226    0.493  103.310
  378.250    4.351    0.246    0.499  106.319
  378.500    3.893    0.237    0.504  108.124
  378.750    3.419    0.235    0.535  106.916
  379.000    3.059    0.238    0.557  105.106
  379.250    2.841    0.234    0.569  103.899
  379.500    3.297    0.234    0.580  102.088
  379.750    3.686    0.230    0.563  101.484
  380.000    4.045    0.220    0.534  100.276
  380.250    4.439    0.217    0.521   99.672
  380.500    4.695    0.217    0.519  102.078
  380.750    4.965    0.217    0.523  105.087
  381.000    4.965    0.214    0.527  108.097
  381.250    4.876    0.213    0.534  109.299
  381.500    4.698    0.212    0.538  107.488
  381.750    4.528    0.214    0.549  106.884
  382.000    4.127    0.236    0.562  106.278
  382.250    3.625    0.252    0.575  106.879
  382.500    3.125    0.268    0.586  109.286
  382.750    2.745    0.257    0.591  108.078
  383.000    2.502    0.243    0.574  107.473
  383.250    2.040    0.231    0.538  108.675
  383.500    1.694    0.218    0.525  108.070
  383.750    1.695    0.214    0.515  106.862
  384.000    1.826    0.216    0.521  106.257
  384.250    1.931    0.210    0.528  105.652
  384.500    2.283    0.208    0.545  105.047
  384.750    2.698    0.210    0.555  104.441
  385.000    3.131    0.207    0.543  104.439
  385.250    3.501    0.202    0.530  104.435
  385.500    3.702    0.196    0.517  104.434
  385.750    3.772    0.189    0.525  106.239
  386.000    3.636    0.206    0.540  105.031
  386.250    3.504    0.213    0.554  103.823
  386.500    3.314    0.224    0.534  103.820
  386.750    3.194    0.229    0.543  103.215
  387.000    3.078    0.234    0.561  101.405
  387.250    2.967    0.246    0.577  100.198
  387.500    2.967    0.253    0.563  100.196
  387.750    3.257    0.248    0.519   99.590
  388.000    3.380    0.239    0.508   98.985
  388.250    3.710    0.234    0.515   97.778
  388.500    3.851    0.236    0.519   95.365
  388.750    3.924    0.240    0.510   93.556
  389.000    3.925    0.244    0.505   92.348
  389.250    4.074    0.264    0.526   90.538
  389.500    4.229    0.280    0.547   90.536
  389.750    4.556    0.288    0.565   89.931
  390.000    4.908    0.311    0.554   83.904
  390.250    5.191    0.323    0.491   76.070
  390.500    5.388    0.321    0.481   69.441
  390.750    5.698    0.312    0.477   72.450
  391.000    5.806    0.297    0.469   74.255
  391.250    5.807    0.291    0.464   76.058
  391.500    5.808    0.281    0.461   75.454
  391.750    5.702    0.282    0.484   76.053
  392.000    5.495    0.308    0.524   74.847
  392.250    5.497    0.328    0.502   69.422
  392.500    5.397    0.327    0.480   68.215
  392.750    5.397    0.324    0.492   73.030
  393.000    5.399    0.321    0.500   74.835
  393.250    5.400    0.317    0.508   76.640
