~VERSION INFORMATION
 VERS.                 2.0:   CWLS LOG ASCII STANDARD -VERSION 2.0
 WRAP.                  NO:   ONE LINE PER DEPTH STEP
~WELL INFORMATION BLOCK
#MNEM.UNIT           DATA                    DESCRIPTION OF MNEMONIC
#---------    -------------------            -------------------------------
# Generated from Intellog Unique Number	CS_73_76/WELL/644
WELL.         BOW VALLEY INDUSTRIES LTD      : Well_name    - WELL
LOC .         00/06-25-073-17W4/0            : Location     - LOCATION
UWI .         00/06-25-073-17W4/0            : Uwi          - UNIQUE WELL ID
ENTR.         SP                             : Entered      - ENTERED BY
SRVC.         SCHLUMBERGER                   : Scn          - SERVICE COMPANY
STRT.M        237.744                        : top_depth    - START DEPTH
STOP.M        444.744                        : bot_depth    - STOP DEPTH
STEP.M        0.25                           : increment    - STEP LENGTH
 NULL. -999.2500:NULL Value
~CURVE INFORMATION BLOCK
#MNEM UNIT       ERCB CURVE CODE    CURVE DESCRIPTION
#-----------   ------------------   ----------------------------------
DEPT.M        00 001 00 00         : DEPTH        - DEPTH
GR  .API      00 310 00 00         : GR           - GAMMA RAY
DPHI.V/V      00 890 00 00         : PHID         - DENSITY POROSITY (LIMESTONE)
NPHI.V/V      00 330 00 00         : PHIN         - NEUTRON POROSITY (LIMESTONE)
ILD .OHMM     00 120 00 00         : RESD         - DEEP RESISTIVITY (DIL)
~PARAMETER INFORMATION
#MNEM.UNIT           DATA             DESCRIPTION OF MNEMONIC
#---------         -----------     ------------------------------
GL  .M        574.853              : gl           - GROUND LEVEL ELEVATION
EREF.M        577.901              : kb           - ELEVATION OF DEPTH REFERENCE
DATM.M        574.853              : datum        - DATUM ELEVATION
TDD .M        448.361              : tdd          - TOTAL DEPTH DRILLER
RUN .         ONE                  : Run          - RUN NUMBER
ENG .         BILL                 : Engineer     - RECORDING ENGINEER
WIT .         JIM                  : Witness      - WITNESSED BY
MUD .         GEL                  : Mud_type     - MUD TYPE
MATR.         LIMESTONE            : Logunit      - NEUTRON MATRIX
TMAX.C        12.2222              : BHT          - MAXIMUM RECORDED TEMPERATURE
BHTD.M        448.361              : BHTDEP       - MAXIMUM RECORDED TEMPERATURE
MATR.         1                    : LOGUNIT      - NEUTRON MATRIX
RMT .C        25                   : MDTP         - TEMPERATURE OF MUD
NEUT.         1                    : NEUTRON      - NEUTRON TYPE
RESI.         0                    : RESIST       - RESISTIVITY TYPE
RMC .OHMM     0.25                 : RMC          - RESISTIVITY OF MUD CAKE
RMF .OHMM     0.25                 : RMF          - RESISTIVITY OF MUD FILTRATE
SUFT.C        15                   : SUFT         - SURFACE TEMPERATURE
~A  DEPTH       GR     PHID     PHIN     RESD
  237.744  125.187    0.227    0.560    2.783
  237.994  126.598    0.226    0.556    2.911
  238.244  129.077    0.220    0.545    2.950
  238.494  132.875    0.212    0.534    2.995
  238.744  132.090    0.220    0.534    3.025
  238.994  128.261    0.215    0.547    3.045
  239.244  125.935    0.203    0.554    3.094
  239.494  125.483    0.205    0.550    3.167
  239.744  126.598    0.196    0.539    3.166
  239.994  125.888    0.191    0.528    3.264
  240.244  122.095    0.190    0.517    3.345
  240.494  118.934    0.194    0.510    3.340
  240.744  124.823    0.206    0.513    3.345
  240.994  127.473    0.203    0.523    3.260
  241.244  127.770    0.193    0.514    3.162
  241.494  126.943    0.191    0.525    3.125
  241.744  124.587    0.198    0.532    3.093
  241.994  123.300    0.213    0.539    3.049
  242.244  120.171    0.212    0.523    2.987
  242.494  120.843    0.203    0.527    2.992
  242.744  122.252    0.203    0.527    2.992
  242.994  123.550    0.212    0.510    2.992
  243.244  122.370    0.206    0.503    2.991
  243.494  119.071    0.199    0.508    3.064
  243.744  118.382    0.205    0.511    3.347
  243.994  114.914    0.234    0.532    3.660
  244.244  110.620    0.279    0.551    4.133
  244.494  100.718    0.326    0.565    4.687
  244.744   91.746    0.367    0.602    5.159
  244.994   85.507    0.345    0.538    5.769
  245.244   81.133    0.314    0.487    5.963
  245.494   77.244    0.299    0.446    5.674
  245.744   77.987    0.306    0.445    5.621
  245.994   77.312    0.310    0.450    5.568
  246.244   79.487    0.321    0.445    5.641
  246.494   79.809    0.312    0.443    5.785
  246.744   80.859    0.305    0.450    5.778
  246.994   81.165    0.295    0.444    5.970
  247.244   82.867    0.286    0.455    6.021
  247.494   84.407    0.291    0.465    6.101
  247.744   84.857    0.304    0.451    6.101
  247.994   82.343    0.311    0.448    6.100
  248.244   86.405    0.305    0.449    6.101
  248.494   91.449    0.297    0.452    6.160
  248.744   99.528    0.296    0.441    6.205
  248.994  108.025    0.294    0.435    6.312
  249.244  110.908    0.282    0.435    6.379
  249.494  113.584    0.265    0.445    6.450
  249.744  115.639    0.256    0.455    6.556
  249.994  114.175    0.249    0.460    6.686
  250.244  111.128    0.269    0.463    6.807
  250.494  108.625    0.259    0.454    6.889
  250.744  116.665    0.262    0.447    6.929
  250.994  119.345    0.263    0.447    6.926
  251.244  122.580    0.252    0.461    7.056
  251.494  120.891    0.248    0.456    7.201
  251.744  116.508    0.245    0.439    7.188
  251.994  110.509    0.236    0.428    7.201
  252.244  106.697    0.246    0.426    7.049
  252.494  100.650    0.258    0.424    7.047
  252.744   94.219    0.255    0.420    7.202
  252.994   88.725    0.252    0.413    7.189
  253.244   82.889    0.249    0.401    7.091
  253.494   77.584    0.243    0.394    7.058
  253.744   73.669    0.233    0.396    7.058
  253.994   68.252    0.224    0.385    6.844
  254.244   65.881    0.221    0.380    6.620
  254.494   70.832    0.243    0.378    6.333
  254.744   79.366    0.255    0.381    6.158
  254.994   87.133    0.262    0.393    5.852
  255.244   96.806    0.262    0.416    5.598
  255.494  109.695    0.210    0.428    5.427
  255.744  116.696    0.199    0.426    5.151
  255.994  122.392    0.189    0.436    4.844
  256.244  126.100    0.178    0.468    4.671
  256.494  129.940    0.170    0.489    4.303
  256.744  136.479    0.167    0.503    4.134
  256.994  141.461    0.182    0.523    3.883
  257.244  145.203    0.172    0.531    3.726
  257.494  144.830    0.154    0.539    3.536
  257.744  145.430    0.146    0.519    3.511
  257.994  146.834    0.166    0.510    3.458
  258.244  148.751    0.175    0.531    3.489
  258.494  147.614    0.179    0.546    3.515
  258.744  146.582    0.144    0.537    3.412
  258.994  147.830    0.141    0.525    3.217
  259.244  150.832    0.129    0.506    3.096
  259.494  152.545    0.169    0.525    3.021
  259.744  152.309    0.176    0.540    3.355
  259.994  147.805    0.193    0.562    3.927
  260.244  141.990    0.222    0.473    4.725
  260.494  137.778    0.220    0.464    5.251
  260.744  133.793    0.221    0.452    6.060
  260.994  132.018    0.224    0.438    6.520
  261.244  133.642    0.215    0.432    6.821
  261.494  131.626    0.208    0.438    6.937
  261.744  128.203    0.206    0.437    6.773
  261.994  123.891    0.205    0.442    6.926
  262.244  116.650    0.198    0.456    7.103
  262.494  108.363    0.218    0.478    7.514
  262.744  102.345    0.229    0.475    7.734
  262.994  102.499    0.223    0.466    8.225
  263.244  106.371    0.217    0.463    8.472
  263.494  110.082    0.240    0.481    8.466
  263.744  112.121    0.237    0.467    8.122
  263.994  110.187    0.222    0.465    7.809
  264.244  102.710    0.214    0.462    7.460
  264.494   94.909    0.214    0.478    7.254
  264.744   87.051    0.247    0.500    8.175
  264.994   82.256    0.268    0.481    9.838
  265.244   82.467    0.286    0.446   10.828
  265.494   91.175    0.302    0.435   11.367
  265.744   98.090    0.289    0.427   11.634
  265.994  104.750    0.273    0.463   11.213
  266.244  109.770    0.262    0.490   10.537
  266.494  111.612    0.262    0.485   10.227
  266.744  109.512    0.265    0.475    9.921
  266.994  110.325    0.273    0.461    9.637
  267.244  113.851    0.254    0.443    9.097
  267.494  118.560    0.229    0.424    8.392
  267.744  124.701    0.223    0.412    7.690
  267.994  128.287    0.214    0.427    6.709
  268.244  132.496    0.228    0.441    6.295
  268.494  135.276    0.228    0.444    6.187
  268.744  139.323    0.222    0.442    6.327
  268.994  144.893    0.215    0.441    6.315
  269.244  147.327    0.207    0.437    6.317
  269.494  136.813    0.202    0.445    6.343
  269.744  124.997    0.194    0.454    6.547
  269.994  112.305    0.194    0.428    6.822
  270.244  104.732    0.226    0.413    7.066
  270.494  103.273    0.221    0.406    7.427
  270.744  108.016    0.226    0.400    7.570
  270.994  109.375    0.223    0.398    7.865
  271.244  113.572    0.215    0.399    7.883
  271.494  116.178    0.207    0.400    7.510
  271.744  119.208    0.198    0.409    7.150
  271.994  122.257    0.193    0.428    6.664
  272.244  122.901    0.195    0.449    5.950
  272.494  122.520    0.210    0.475    5.555
  272.744  112.103    0.230    0.483    5.729
  272.994  105.599    0.250    0.465    5.894
  273.244   99.692    0.258    0.476    6.183
  273.494   98.308    0.262    0.488    6.575
  273.744   98.234    0.264    0.476    6.815
  273.994   95.874    0.269    0.482    7.024
  274.244   89.756    0.273    0.477    7.185
  274.494   90.518    0.275    0.470    7.177
  274.744   95.594    0.274    0.459    7.076
  274.994   99.390    0.271    0.451    6.853
  275.244  105.712    0.259    0.449    6.787
  275.494  110.881    0.248    0.439    6.655
  275.744  115.132    0.239    0.434    6.626
  275.994  116.832    0.238    0.431    6.548
  276.244  117.454    0.233    0.427    6.443
  276.494  118.291    0.223    0.440    6.183
  276.744  120.890    0.224    0.456    6.002
  276.994  122.027    0.217    0.465    5.637
  277.244  120.607    0.223    0.474    5.421
  277.494  116.059    0.228    0.468    5.243
  277.744  113.513    0.251    0.464    5.390
  277.994  110.913    0.247    0.476    5.809
  278.244  108.768    0.215    0.477    6.584
  278.494  107.425    0.198    0.485    7.206
  278.744  107.008    0.181    0.490    7.575
  278.994  109.799    0.209    0.486    7.257
  279.244  114.058    0.226    0.470    6.765
  279.494  114.760    0.210    0.459    6.315
  279.744  112.657    0.225    0.450    5.944
  279.994  109.583    0.237    0.448    5.753
  280.244  105.633    0.244    0.438    5.755
  280.494  101.582    0.257    0.419    5.982
  280.744   96.065    0.265    0.420    6.235
  280.994   91.240    0.276    0.427    6.649
