~VERSION INFORMATION
 VERS.                 2.0:   CWLS LOG ASCII STANDARD -VERSION 2.0
 WRAP.                  NO:   ONE LINE PER DEPTH STEP
~WELL INFORMATION BLOCK
#MNEM.UNIT           DATA                    DESCRIPTION OF MNEMONIC
#---------    -------------------            -------------------------------
# Generated from Intellog Unique Number	CX_WELLS/WELL/3124
WELL.         UNIVERSAL                      : Well_name    - WELL
LOC .         00/06-09-083-03W4/0            : Location     - LOCATION
UWI .         00/06-09-083-03W400            : Uwi          - UNIQUE WELL ID
ENTR.         TIM                            : Entered      - ENTERED BY
SRVC.         SCHLUMBERGER                   : Scn          - SERVICE COMPANY
STRT.F        300                            : top_depth    - START DEPTH
STOP.F        979.954                        : bot_depth    - STOP DEPTH
STEP.F        0.82                           : increment    - STEP LENGTH
 NULL. -999.2500:NULL Value
~CURVE INFORMATION BLOCK
#MNEM UNIT       ERCB CURVE CODE    CURVE DESCRIPTION
#-----------   ------------------   ----------------------------------
DEPT.F        00 001 00 00         : DEPTH        - DEPTH
GR  .API      00 310 00 00         : GR           - GAMMA RAY
NPHI.V/V      00 330 00 00         : PHIN         - NEUTRON POROSITY (SANDSTONE)
DPHI.V/V      00 890 00 00         : PHID         - DENSITY POROSITY (SANDSTONE)
ILD .OHMM     00 120 00 00         : RESD         - DEEP RESISTIVITY (OTHER)
~PARAMETER INFORMATION
#MNEM.UNIT           DATA             DESCRIPTION OF MNEMONIC
#---------         -----------     ------------------------------
GL  .F        1568                 : gl           - GROUND LEVEL ELEVATION
EREF.F        1578.5               : kb           - ELEVATION OF DEPTH REFERENCE
DATM.F        1578.5               : datum        - DATUM ELEVATION
TDD .F        1000                 : tdd          - TOTAL DEPTH DRILLER
RUN .         ONE                  : Run          - RUN NUMBER
ENG .         BILL                 : Engineer     - RECORDING ENGINEER
WIT .         JIM                  : Witness      - WITNESSED BY
MUD .         GEL                  : Mud_type     - MUD TYPE
MATR.         SANDSTONE            : Logunit      - NEUTRON MATRIX
TMAX.F        68                   : BHT          - MAXIMUM RECORDED TEMPERATURE
BHTD.F        1000                 : BHTDEP       - MAXIMUM RECORDED TEMPERATURE
MATR.         1                    : LOGUNIT      - NEUTRON MATRIX
RMT .F        68                   : MDTP         - TEMPERATURE OF MUD
NEUT.         1                    : NEUTRON      - NEUTRON TYPE
RESI.         5.65                 : RESIST       - RESISTIVITY TYPE
RMC .OHMM     6.4                  : RMC          - RESISTIVITY OF MUD CAKE
RMF .OHMM     5.2                  : RMF          - RESISTIVITY OF MUD FILTRATE
SUFT.F        37.4                 : SUFT         - SURFACE TEMPERATURE
~A  DEPTH       GR     PHIN     PHID     RESD
# ...
  728.150   91.276    0.466    0.232    4.956
  728.970   87.246    0.463    0.235    4.964
  729.790   85.239    0.461    0.237    4.884
  730.610   83.916    0.464    0.243    4.890
  731.430   81.239    0.468    0.245    4.808
  732.251   80.616    0.477    0.245    4.727
  733.071   82.045    0.475    0.250    4.564
  733.891   84.188    0.458    0.254    4.488
  734.711   84.218    0.452    0.252    4.412
  735.531   82.226    0.444    0.257    4.338
  736.352   79.580    0.434    0.263    4.347
  737.172   78.941    0.425    0.263    4.352
  737.992   79.002    0.421    0.259    4.441
  738.812   81.130    0.419    0.242    4.533
  739.633   82.544    0.419    0.231    4.538
  740.453   83.289    0.424    0.224    4.634
  741.273   85.402    0.431    0.234    4.638
  742.093   86.147    0.435    0.252    4.647
  742.913   87.591    0.436    0.256    4.568
  743.734   89.050    0.442    0.261    4.577
  744.554   89.780    0.454    0.250    4.582
  745.374   91.209    0.465    0.227    4.593
  746.194   93.337    0.475    0.222    4.514
  747.014   94.736    0.484    0.225    4.440
  747.835   96.849    0.495    0.226    4.366
  748.655   97.624    0.511    0.227    4.136
  749.475   96.986    0.508    0.229    3.991
  750.295   94.324    0.502    0.234    3.576
  751.115   92.317    0.495    0.237    3.266
  751.936   87.588    0.487    0.241    3.038
  752.756   80.791    0.480    0.247    2.825
  753.576   71.272    0.451    0.260    2.628
  754.396   56.279    0.416    0.284    2.583
  755.217   41.970    0.389    0.307    2.540
  756.037   39.993    0.373    0.320    2.498
  756.857   40.738    0.375    0.332    2.502
  757.677   40.798    0.376    0.330    2.505
  758.497   37.438    0.376    0.323    2.331
  759.318   34.062    0.382    0.324    2.168
  760.138   30.701    0.390    0.334    2.093
  760.958   31.446    0.394    0.342    2.057
  761.778   39.033    0.401    0.340    2.098
  762.598   50.057    0.397    0.337    2.182
  763.419   61.750    0.371    0.330    2.354
  764.239   74.142    0.368    0.321    2.446
  765.059   78.308    0.377    0.311    2.544
  765.879   79.737    0.403    0.300    2.547
  766.699   80.481    0.413    0.293    2.326
  767.520   74.384    0.427    0.308    2.203
  768.340   64.181    0.449    0.327    2.051
  769.160   51.925    0.427    0.335    2.015
  769.980   43.759    0.418    0.341    1.982
  770.801   32.872    0.418    0.348    1.984
  771.621   28.842    0.418    0.348    1.951
  772.441   29.587    0.420    0.348    1.955
  773.261   28.279    0.436    0.349    1.958
  774.081   26.971    0.443    0.353    1.960
  774.902   24.979    0.436    0.357    1.963
  775.722   25.039    0.430    0.362    1.967
  776.542   26.468    0.426    0.369    1.934
  777.362   27.897    0.431    0.374    1.902
  778.182   29.341    0.433    0.374    1.870
  779.003   30.770    0.445    0.373    1.873
  779.823   31.500    0.445    0.368    1.842
  780.643   32.245    0.437    0.361    1.810
  781.463   32.990    0.431    0.356    1.815
  782.283   34.419    0.436    0.353    1.817
  783.104   35.878    0.437    0.353    1.786
  783.924   35.239    0.443    0.351    1.789
  784.744   32.578    0.440    0.351    1.759
  785.564   29.917    0.435    0.353    1.763
  786.385   29.278    0.429    0.358    1.734
  787.205   27.970    0.433    0.364    1.736
  788.025   27.346    0.440    0.364    1.738
  788.845   27.391    0.456    0.361    1.742
  789.665   28.820    0.469    0.366    1.776
  790.486   31.618    0.463    0.378    1.779
  791.306   35.829    0.458    0.388    1.783
  792.126   37.243    0.460    0.403    1.785
  792.946   40.041    0.488    0.420    1.788
  793.766   40.786    0.498    0.424    1.791
  794.587   42.215    0.503    0.414    1.794
  795.407   45.012    0.479    0.379    1.831
  796.227   49.862    0.456    0.366    1.834
  797.047   51.291    0.426    0.355    1.836
  797.867   47.246    0.421    0.350    1.841
  798.688   41.833    0.424    0.354    1.843
  799.508   37.104    0.426    0.359    1.848
  800.328   35.112    0.425    0.365    1.816
  801.148   33.834    0.422    0.360    1.818
  801.969   33.864    0.419    0.347    1.789
  802.789   32.556    0.420    0.350    1.791
  803.609   31.248    0.423    0.358    1.793
  804.429   31.324    0.424    0.364    1.763
  805.249   31.384    0.425    0.353    1.766
  806.070   33.498    0.425    0.354    1.769
  806.890   35.596    0.425    0.362    1.805
  807.710   42.514    0.425    0.356    1.948
  808.530   48.733    0.423    0.345    2.101
  809.350   57.688    0.402    0.318    2.309
  810.171   67.344    0.388    0.286    2.490
  810.991   71.510    0.416    0.288    2.588
  811.811   68.164    0.437    0.320    2.407
  812.631   66.157    0.440    0.344    2.199
  813.451   59.375    0.443    0.340    2.162
  814.272   48.487    0.433    0.329    2.166
  815.092   43.089    0.411    0.317    2.210
  815.912   47.255    0.368    0.305    2.298
  816.732   51.421    0.388    0.293    2.257
  817.552   52.850    0.413    0.321    2.140
  818.373   46.752    0.425    0.334    2.065
  819.193   35.850    0.434    0.345    1.956
  820.013   32.489    0.428    0.363    1.854
  820.833   29.813    0.424    0.372    1.724
  821.654   26.452    0.416    0.372    1.695
  822.474   23.091    0.408    0.368    1.667
  823.294   21.099    0.397    0.363    1.639
  824.114   21.160    0.396    0.355    1.639
  824.934   21.250    0.396    0.347    1.644
  825.755   21.965    0.396    0.342    1.647
  826.575   22.710    0.395    0.341    1.649
  827.395   22.801    0.393    0.344    1.683
  828.215   22.831    0.396    0.350    1.686
  829.035   22.907    0.396    0.360    1.689
  829.856   23.651    0.397    0.350    1.691
  830.676   25.096    0.397    0.344    1.696
  831.496   25.171    0.396    0.346    1.666
  832.316   24.532    0.396    0.349    1.638
  833.136   23.909    0.396    0.352    1.640
  833.957   23.270    0.396    0.346    1.644
  834.777   22.661    0.396    0.341    1.647
  835.597   22.038    0.397    0.335    1.648
  836.417   22.782    0.401    0.336    1.652
  837.238   24.226    0.404    0.347    1.686
  838.058   25.655    0.415    0.355    1.687
  838.878   27.769    0.422    0.338    1.755
  839.698   30.551    0.407    0.328    1.792
  840.518   37.454    0.411    0.319    1.794
  841.339   46.425    0.421    0.335    1.829
  842.159   45.117    0.454    0.347    1.832
  842.979   41.756    0.439    0.358    1.736
  843.799   38.396    0.428    0.374    1.585
  844.619   36.403    0.428    0.377    1.475
  845.440   38.517    0.421    0.361    1.478
  846.260   43.367    0.415    0.334    1.508
  847.080   48.916    0.406    0.318    1.567
  847.900   54.466    0.392    0.289    1.628
  848.720   56.595    0.399    0.269    1.789
  849.541   58.693    0.411    0.269    1.966
  850.361   60.791    0.416    0.272    2.121
  851.181   64.288    0.417    0.273    2.419
  852.001   67.085    0.424    0.273    2.562
  852.822   65.792    0.426    0.274    2.664
  853.642   63.785    0.435    0.284    2.669
  854.462   59.056    0.469    0.305    2.671
  855.282   48.853    0.460    0.327    2.676
  856.102   37.266    0.409    0.322    2.582
  856.923   28.431    0.329    0.318    2.404
  857.743   26.439    0.318    0.323    2.319
  858.563   25.131    0.324    0.327    2.199
  859.383   23.154    0.328    0.340    2.161
  860.203   20.493    0.390    0.336    2.124
  861.024   19.839    0.423    0.327    2.088
  861.844   18.546    0.421    0.318    2.016
  862.664   18.622    0.406    0.321    1.982
  863.484   19.366    0.389    0.317    1.914
  864.304   20.795    0.393    0.313    1.916
  865.125   22.224    0.401    0.310    1.955
  865.945   23.654    0.405    0.313    2.033
  866.765   23.714    0.375    0.314    2.035
  867.585   23.759    0.364    0.312    2.003
  868.406   22.482    0.359    0.314    2.006
  869.226   22.527    0.370    0.318    2.006
  870.046   22.588    0.382    0.319    1.768
