~VERSION INFORMATION
 VERS.                 2.0:   CWLS LOG ASCII STANDARD -VERSION 2.0
 WRAP.                  NO:   ONE LINE PER DEPTH STEP
~WELL INFORMATION BLOCK
#MNEM.UNIT           DATA                    DESCRIPTION OF MNEMONIC
#---------    -------------------            -------------------------------
# Generated from Intellog Unique Number	CW_70_72/WELL/3011
NULL.         -999.25                        : NULL_VALUE
WELL.         PEX CANAL 06-31                : Well_name    - WELL              
LOC .         06-31-070-23W4                 : Location     - LOCATION          
UWI .         00/06-31-070-23W4/0            : Uwi          - UNIQUE WELL ID    
ENTR.         jj                             : Entered      - ENTERED BY        
SRVC.         SCHLUMBERGER                   : Scn          - SERVICE COMPANY   
DATE.         13 MAR 83                      : Date         - LOG DATE          
STRT.M        405                            : top_depth    - START DEPTH       
STOP.M        610                            : bot_depth    - STOP DEPTH        
STEP.M        0.25                           : increment    - STEP LENGTH       
~CURVE INFORMATION BLOCK
#MNEM UNIT       ERCB CURVE CODE    CURVE DESCRIPTION
#-----------   ------------------   ----------------------------------
DEPT.M        00 001 00 00         : DEPTH        - DEPTH                       
ILD .OHMM     00 120 00 00         : RESD         - DEEP RESISTIVITY (DIL)      
CALI.MM       00 280 01 00         : CAL          - CALIPER                     
GR  .API      00 310 00 00         : GR           - GAMMA RAY                   
NPHI.V/V      00 330 00 00         : PHIN         - NEUTRON POROSITY (SANDSTONE)
DPHI.V/V      00 890 00 00         : PHID         - DENSITY POROSITY (SANDSTONE)
~PARAMETER INFORMATION       
#MNEM.UNIT           DATA             DESCRIPTION OF MNEMONIC
#---------         -----------     ------------------------------
GL  .M        627.8                : gl           - GROUND LEVEL ELEVATION      
EREF.M        631                  : kb           - ELEVATION OF DEPTH REFERENCE
DATM.M        627.8                : datum        - DATUM ELEVATION             
TDD .M        611                  : tdd          - TOTAL DEPTH DRILLER         
RUN .         ONE                  : Run          - RUN NUMBER                  
ENG .         BRADSHAW             : Engineer     - RECORDING ENGINEER          
WIT .         DENYAR               : Witness      - WITNESSED BY                
BASE.         EDM                  : Branch       - HOME BASE OF LOGGING UNIT   
MUD .         GEL CHEM             : Mud_type     - MUD TYPE                    
MATR.         SANDSTONE            : Logunit      - NEUTRON MATRIX              
TMAX.C        28.9                 : BHT          - MAXIMUM RECORDED TEMPERATURE
BHTD.M        612.1                : BHTDEP       - MAXIMUM RECORDED TEMPERATURE
RMT .C        26.1                 : MDTP         - TEMPERATURE OF MUD          
MUDD.KG/M     1130                 : MWT          - MUD DENSITY                 
NEUT.         1                    : NEUTRON      - NEUTRON TYPE                
RESI.         0                    : RESIST       - RESISTIVITY TYPE            
RM  .OHMM     4.08                 : RM           - RESISTIVITY OF MUD          
RMC .OHMM     0.25                 : RMC          - RESISTIVITY OF MUD CAKE     
RMF .OHMM     3.17                 : RMF          - RESISTIVITY OF MUD FILTRATE 
SUFT.C        0                    : SUFT         - SURFACE TEMPERATURE         
~A  DEPTH     RESD      CAL       GR     PHIN     PHID
# ...
  441.500    3.711  178.658   61.615    0.444    0.287
  441.750    3.792  183.257   63.243    0.435    0.268
  442.000    3.830  184.295   68.078    0.421    0.241
  442.250    3.798  183.866   72.787    0.426    0.228
  442.500    3.704  181.550   75.233    0.435    0.222
  442.750    3.624  178.293   73.215    0.441    0.254
  443.000    3.501  175.454   76.352    0.446    0.260
  443.250    3.414  174.394   78.483    0.445    0.268
  443.500    3.378  175.118   81.495    0.435    0.279
  443.750    3.313  176.469   82.495    0.423    0.291
  444.000    3.249  177.300   80.603    0.439    0.301
  444.250    3.239  179.281   76.133    0.454    0.304
  444.500    3.365  181.157   71.601    0.429    0.301
  444.750    3.542  182.402   68.012    0.423    0.297
  445.000    3.743  183.022   65.115    0.425    0.294
  445.250    4.029  182.069   68.000    0.410    0.291
  445.500    4.055  180.279   69.755    0.417    0.289
  445.750    3.795  178.069   66.605    0.422    0.297
  446.000    3.473  175.859   64.400    0.410    0.310
  446.250    3.262  174.591   66.530    0.409    0.308
  446.500    3.168  173.952   70.674    0.424    0.307
  446.750    3.160  173.628   71.548    0.441    0.316
  447.000    3.150  174.456   70.788    0.444    0.305
  447.250    3.165  175.914   75.371    0.437    0.276
  447.500    3.198  179.152   78.194    0.429    0.274
  447.750    3.255  182.390   76.993    0.424    0.283
  448.000    3.465  184.789   79.376    0.414    0.261
  448.250    3.654  185.618   82.262    0.438    0.218
  448.500    3.854  185.711   85.462    0.475    0.201
  448.750    3.929  184.968   88.160    0.461    0.224
  449.000    3.971  183.282   86.581    0.437    0.225
  449.250    3.936  181.283   83.055    0.401    0.219
  449.500    3.867  178.337   81.353    0.441    0.246
  449.750    3.763  176.651   82.163    0.463    0.244
  450.000    3.602  176.014   83.855    0.456    0.238
  450.250    3.525  175.480   80.957    0.424    0.253
  450.500    3.541  175.154   75.922    0.400    0.264
  450.750    3.645  175.983   76.167    0.390    0.251
  451.000    3.802  178.069   76.475    0.434    0.232
  451.250    3.921  179.946   77.664    0.451    0.223
  451.500    3.968  182.135   81.053    0.430    0.213
  451.750    4.002  181.602   87.836    0.427    0.208
  452.000    4.013  182.010   88.144    0.440    0.215
  452.250    4.031  184.306   85.874    0.464    0.193
  452.500    4.042  189.220   84.235    0.481    0.171
  452.750    4.068  191.516   83.788    0.473    0.169
  453.000    4.026  189.199   82.148    0.452    0.204
  453.250    3.664  185.208   70.135    0.431    0.260
  453.500    3.241  175.454   57.431    0.412    0.310
  453.750    2.707  158.995   46.486    0.401    0.321
  454.000    2.386  149.346   42.143    0.378    0.338
  454.250    2.183  156.147   41.131    0.384    0.341
  454.500    2.089  159.699   41.188    0.383    0.331
  454.750    2.057  162.517   39.673    0.372    0.325
  455.000    2.035  164.079   38.473    0.376    0.321
  455.250    2.041  165.535   42.742    0.399    0.314
  455.500    2.050  166.469   41.289    0.395    0.306
  455.750    2.075  167.504   41.410    0.390    0.310
  456.000    2.108  168.333   44.294    0.389    0.323
  456.250    2.150  169.163   46.615    0.390    0.329
  456.500    2.205  169.466   43.843    0.389    0.333
  456.750    2.304  169.353   39.814    0.393    0.339
  457.000    2.398  169.550   41.756    0.421    0.341
  457.250    2.548  170.067   44.642    0.428    0.339
  457.500    2.667  170.371   46.837    0.430    0.335
  457.750    2.797  170.466   50.728    0.439    0.327
  458.000    2.922  170.665   57.134    0.446    0.313
  458.250    3.100  170.653   62.849    0.450    0.306
  458.500    3.202  170.644   68.500    0.444    0.294
  458.750    3.339  170.321   71.953    0.429    0.281
  459.000    3.502  171.254   76.284    0.411    0.270
  459.250    3.645  173.759   79.924    0.402    0.263
  459.500    3.801  173.222   82.684    0.397    0.256
  459.750    3.958  172.583   85.067    0.434    0.254
  460.000    3.866  171.948   86.507    0.455    0.254
  460.250    3.531  170.890   82.729    0.456    0.257
  460.500    3.177  170.042   75.746    0.439    0.264
  460.750    2.923  168.982   69.894    0.429    0.282
  461.000    2.741  168.135   69.070    0.420    0.296
  461.250    2.648  167.392   68.373    0.397    0.297
  461.500    2.635  166.859   62.080    0.362    0.294
  461.750    2.672  166.220   58.805    0.325    0.310
  462.000    2.771  166.630   56.159    0.346    0.330
  462.250    3.045  170.077   53.072    0.364    0.332
  462.500    3.123  171.428   50.741    0.333    0.330
  462.750    2.994  165.342   49.603    0.321    0.336
  463.000    2.839  158.103   50.729    0.421    0.339
  463.250    2.737  161.655   51.540    0.452    0.334
  463.500    2.654  165.311   55.243    0.427    0.324
  463.750    2.582  168.550   55.488    0.414    0.322
  464.000    2.532  172.101   52.967    0.423    0.333
  464.250    2.497  173.453   53.402    0.440    0.330
  464.500    2.504  173.863   56.791    0.453    0.325
  464.750    2.511  173.957   56.092    0.447    0.314
  465.000    2.518  173.948   54.956    0.408    0.314
  465.250    2.534  174.147   53.377    0.429    0.320
  465.500    2.560  174.137   52.805    0.451    0.325
  465.750    2.577  174.337   52.484    0.455    0.334
  466.000    2.618  174.535   51.851    0.435    0.339
  466.250    2.655  174.947   50.651    0.415    0.332
  466.500    2.722  175.146   48.694    0.427    0.321
  466.750    2.755  173.879   48.062    0.451    0.330
  467.000    2.778  170.517   47.552    0.437    0.335
  467.250    2.714  170.507   49.370    0.415    0.338
  467.500    2.627  173.428   53.198    0.403    0.339
  467.750    2.532  175.621   52.879    0.411    0.336
  468.000    2.433  178.126   50.608    0.436    0.333
  468.250    2.350  179.478   52.740    0.452    0.329
  468.500    2.365  179.992   56.945    0.434    0.325
  468.750    2.416  179.771   56.374    0.434    0.316
  469.000    2.926  179.971   51.906    0.451    0.298
  469.250    4.054  180.800   44.418    0.394    0.076
  469.500    6.188  185.190   38.943    0.167    0.046
  469.750    8.228  187.590   37.051    0.146    0.035
  470.000   10.778  188.209   41.697    0.141    0.041
  470.250   14.329  187.151   43.012    0.147    0.030
  470.500   14.451  183.579   43.634    0.157    0.020
  470.750   12.547  178.434   44.507    0.176    0.040
  471.000    9.454  174.025   45.004    0.194    0.132
  471.250    5.746  170.767   45.942    0.314    0.192
  471.500    4.242  171.071   49.896    0.388    0.284
  471.750    3.444  175.461   56.680    0.430    0.309
  472.000    2.770  176.604   58.874    0.450    0.318
  472.250    2.361  175.545   54.343    0.425    0.326
  472.500    2.197  174.069   53.644    0.414    0.329
  472.750    2.211  168.192   53.198    0.415    0.332
  473.000    2.259  168.706   50.175    0.448    0.339
  473.250    2.419  169.533   50.484    0.497    0.352
  473.500    2.570  166.381   53.746    0.440    0.343
  473.750    2.665  165.216   56.757    0.385    0.336
  474.000    2.677  165.206   56.940    0.342    0.331
  474.250    2.534  164.989   55.112    0.389    0.337
  474.500    2.411  164.558   54.540    0.443    0.348
  474.750    2.395  163.816   56.860    0.449    0.345
  475.000    2.475  162.654   57.986    0.454    0.336
  475.250    2.807  163.063   55.150    0.471    0.314
  475.500    3.349  166.511   50.743    0.302    0.197
  475.750    4.025  176.036   47.281    0.262    0.141
  476.000    5.127  186.503   45.955    0.267    0.123
  476.250    6.060  187.749   47.583    0.286    0.157
  476.500    6.772  185.121   50.406    0.303    0.145
  476.750    5.870  180.920   55.555    0.294    0.175
  477.000    5.136  177.453   61.836    0.326    0.214
  477.250    4.536  175.347   70.190    0.383    0.252
  477.500    4.260  177.536   78.546    0.414    0.235
  477.750    3.979  180.251   78.037    0.441    0.235
