~VERSION INFORMATION
 VERS.                 2.0:   CWLS LOG ASCII STANDARD -VERSION 2.0
 WRAP.                  NO:   ONE LINE PER DEPTH STEP
~WELL INFORMATION BLOCK
#MNEM.UNIT           DATA                    DESCRIPTION OF MNEMONIC
#---------    -------------------            -------------------------------
# Generated from Intellog Unique Number	CN_94_101/WELL/2640
WELL.         07-28-094-19W4                 : Well_name    - WELL
LOC .         00/07-28-094-19W4/0            : Location     - LOCATION
UWI .         00/07-28-094-19W4/0            : Uwi          - UNIQUE WELL ID
ENTR.         JOETTE                         : Entered      - ENTERED BY
SRVC.         SCHLUMBERGER                   : Scn          - SERVICE COMPANY
DATE.         07\03\92                       : Date         - LOG DATE
STRT.F        500                            : top_depth    - START DEPTH
STOP.F        1195.54                        : bot_depth    - STOP DEPTH
STEP.F        0.82                           : increment    - STEP LENGTH
 NULL. -999.2500:NULL Value
~CURVE INFORMATION BLOCK
#MNEM UNIT       ERCB CURVE CODE    CURVE DESCRIPTION
#-----------   ------------------   ----------------------------------
DEPT.F        00 001 00 00         : DEPTH        - DEPTH
CALI.IN       00 280 01 00         : CAL          - CALIPER
GR  .API      00 310 00 00         : GR           - GAMMA RAY
NPHI.V/V      00 330 00 00         : PHIN         - NEUTRON POROSITY (SANDSTONE)
ILD .OHMM     00 120 00 00         : RESD         - DEEP RESISTIVITY (DIL)
~PARAMETER INFORMATION
#MNEM.UNIT           DATA             DESCRIPTION OF MNEMONIC
#---------         -----------     ------------------------------
GL  .M        639.775              : gl           - GROUND LEVEL ELEVATION
EREF.M        641.909              : kb           - ELEVATION OF DEPTH REFERENCE
DATM.M        641.909              : datum        - DATUM ELEVATION
TDD .M        368.198              : tdd          - TOTAL DEPTH DRILLER
RUN .         ONE                  : Run          - RUN NUMBER
ENG .         JO                   : Engineer     - RECORDING ENGINEER
WIT .         TIM                  : Witness      - WITNESSED BY
MUD .         GEL                  : Mud_type     - MUD TYPE
MATR.         SANDSTONE            : Logunit      - NEUTRON MATRIX
TMAX.F        60                   : BHT          - MAXIMUM RECORDED TEMPERATURE
BHTD.F        1208                 : BHTDEP       - MAXIMUM RECORDED TEMPERATURE
RMT .F        60                   : MDTP         - TEMPERATURE OF MUD
MUDD.LB/G     1.06                 : MWT          - MUD DENSITY
NEUT.         1                    : NEUTRON      - NEUTRON TYPE
RESI.         0                    : RESIST       - RESISTIVITY TYPE
RM  .OHMM     5.7                  : RM           - RESISTIVITY OF MUD
RMC .OHMM     5.7                  : RMC          - RESISTIVITY OF MUD CAKE
RMF .OHMM     5.7                  : RMF          - RESISTIVITY OF MUD FILTRATE
SUFT.F        39.2                 : SUFT         - SURFACE TEMPERATURE
~A  DEPTH      CAL       GR     PHIN     RESD
  500.000    6.959  112.013    0.389    3.791
  500.820    7.039  110.769    0.392    3.788
  501.640    7.038  108.310    0.398    3.715
  502.461    6.915  107.684    0.400    3.712
  503.281    6.873  112.563    0.401    3.710
  504.101    6.913  113.161    0.406    3.707
  504.921    6.953  110.703    0.416    3.703
  505.741    7.115  107.629    0.421    3.701
  506.562    7.114  105.160    0.405    3.697
  507.382    6.991  106.982    0.402    3.695
  508.202    6.908  110.032    0.424    3.693
  509.022    7.070  113.078    0.418    3.760
  509.843    7.110  107.556    0.423    3.897
  510.663    6.987  107.542    0.423    4.042
  511.483    6.863  106.913    0.413    4.268
  512.303    6.863   99.554    0.410    4.427
  513.123    6.943   94.644    0.411    4.852
  513.944    6.820   98.299    0.397    5.032
  514.764    6.737  101.349    0.362    5.414
  515.584    6.859  103.783    0.357    5.614
  516.404    6.980  105.602    0.372    5.716
  517.224    7.102  108.040    0.384    5.503
  518.045    7.141  106.183    0.359    5.299
  518.865    7.141  104.945    0.354    5.103
  519.685    7.180  109.219    0.362    4.824
  520.505    7.261  112.878    0.360    4.644
  521.325    7.260  112.864    0.389    4.471
  522.146    7.259  111.014    0.382    4.388
  522.966    7.176  108.552    0.361    4.303
  523.786    7.094  105.474    0.356    4.381
  524.606    7.052  109.741    0.348    4.714
  525.427    7.052  108.507    0.355    5.165
  526.247    7.132  104.817    0.372    5.456
  527.067    7.131  104.803    0.361    5.764
  527.887    6.967  100.508    0.372    6.090
  528.707    6.721   95.598    0.382    6.315
  529.528    6.557   87.624    0.390    6.194
  530.348    6.515   62.515    0.379    5.964
  531.168    6.473   40.466    0.328    6.301
  531.988    6.431   28.819    0.282    7.861
  532.808    6.390   29.418    0.242    9.109
  533.629    6.348   40.421    0.276   10.750
  534.449    6.429   44.692    0.317   11.357
  535.269    6.469   40.393    0.329   11.559
  536.089    6.508   38.540    0.364   11.553
  536.909    6.467   44.038    0.336   10.917
  537.730    6.425   48.917    0.319   10.713
  538.550    6.465   52.580    0.314   10.127
  539.370    6.546   59.911    0.316    9.573
  540.190    7.483   56.833    0.323    8.881
  541.010    8.257   49.474    0.342    8.552
  541.831    6.216   44.564    0.357    8.867
  542.651    6.133   37.817    0.323    9.366
  543.471    6.051   40.248    0.325    9.892
  544.291    6.050   40.234    0.343   10.453
  545.112    6.131   32.876    0.367   11.458
  545.932    6.211   23.069    0.381   15.683
  546.752    6.211   26.115    0.288   16.262
  547.572    6.169   24.265    0.295   17.496
  548.392    6.208   20.579    0.310   18.827
  549.213    6.248   19.949    0.319   20.255
  550.033    6.288   21.160    0.305   21.003
  550.853    6.287   22.979    0.290   22.182
  551.673    6.286   26.641    0.303   22.997
  552.493    6.285   26.627    0.319   22.989
  553.314    6.284   29.058    0.331   22.976
  554.134    6.243   31.496    0.332   22.121
  554.954    6.242   30.258    0.321   21.306
  555.774    6.240   32.692    0.307   19.405
  556.594    6.240   38.184    0.302   17.677
  557.415    6.279   41.227    0.314   15.807
  558.235    6.279   38.764    0.323   14.136
  559.055    6.278   36.306    0.329   12.179
  559.875    6.277   32.004    0.341   10.495
  560.696    6.357   49.744    0.353    9.044
  561.516    6.478   72.989    0.355    7.794
  562.336    6.560   81.541    0.347    7.099
  563.156    6.762   79.079    0.355    6.347
  563.976    6.965   77.232    0.361    6.001
  564.797    7.006   83.332    0.346    5.465
  565.617    7.005   85.158    0.354    5.071
  566.437    6.963   85.144    0.346    5.069
  567.257    7.003   81.454    0.366    4.971
  568.077    7.124   82.665    0.370    5.060
  568.898    7.164   80.818    0.386    5.152
  569.718    7.000   75.292    0.388    5.541
  570.538    6.754   71.602    0.359    5.748
  571.358    6.672   74.652    0.340    6.072
  572.178    6.671   81.368    0.348    6.067
  572.999    6.588   83.194    0.348    5.841
  573.819    6.546   77.059    0.376    5.626
  574.639    6.545   67.864    0.359    5.519
  575.459    6.544   70.910    0.336    5.618
  576.280    6.543   71.502    0.345    6.045
  577.100    6.542   69.043    0.336    6.875
  577.920    6.582   72.086    0.330    6.997
  578.740    6.581   76.969    0.333    6.738
  579.560    6.621   81.243    0.349    6.489
  580.381    6.620   78.781    0.362    6.249
  581.201    6.619   74.483    0.370    6.130
  582.021    6.577   67.733    0.374    6.596
  582.841    6.536   65.267    0.350    7.363
  583.661    6.494   68.314    0.356    7.356
  584.482    6.493   70.136    0.363    7.353
  585.302    6.451   70.126    0.374    7.079
  586.122    6.409   68.275    0.375    7.074
  586.942    6.409   64.589    0.357    7.612
  587.762    6.408   57.227    0.332    8.499
  588.583    6.406   51.092    0.339    8.814
  589.403    6.406   47.403    0.345    9.141
  590.223    6.405   49.840    0.331    9.479
  591.043    6.403   54.723    0.339    9.646
  591.864    6.403   59.603    0.351    9.287
  592.684    6.402   62.653    0.349    9.111
  593.504    6.401   65.084    0.339    8.455
  594.324    6.359   63.230    0.335    8.143
  595.144    6.358   57.711    0.324    7.415
  595.965    6.316   55.861    0.330    7.274
  596.785    6.316   61.352    0.341    7.682
  597.605    6.314   60.726    0.346    7.969
  598.425    6.273   58.880    0.340    9.063
  599.245    6.272   54.578    0.344   10.122
  600.066    6.271   47.831    0.344   11.093
  600.886    6.270   44.754    0.342   11.720
  601.706    6.269   45.355    0.348   11.928
  602.526    6.268   44.114    0.340   12.142
  603.346    6.267   42.264    0.347   12.131
  604.167    6.266   44.702    0.353   12.127
  604.987    6.265   47.129    0.346   12.116
  605.807    6.264   42.222    0.333   12.107
  606.627    6.304   44.045    0.333   11.874
  607.448    6.303   47.700    0.338   11.867
  608.268    6.302   45.853    0.347   11.639
  609.088    6.342   40.331    0.350   11.631
  609.908    6.341   33.584    0.340   12.063
  610.728    6.340   38.460    0.332   13.467
  611.549    6.339   39.674    0.334   15.602
  612.369    6.338   39.048    0.346   16.181
  613.189    6.337   39.646    0.332   16.169
  614.009    6.336   41.468    0.314   15.282
  614.829    6.335   37.170    0.319   14.994
  615.650    6.334   31.644    0.311   14.168
  616.470    6.333   37.139    0.326   13.903
  617.290    6.332   41.410    0.354   13.639
  618.110    6.332   42.620    0.373   13.376
  618.930    6.371   46.279    0.384   12.878
  619.751    6.370   42.592    0.358   13.357
  620.571    6.370   37.678    0.327   14.109
  621.391    6.409   34.604    0.311   14.627
  622.211    6.408   33.975    0.295   13.576
  623.031    6.489   53.551    0.298   11.274
  623.852    6.651   67.618    0.307    8.855
  624.672    6.813   85.967    0.318    7.354
  625.492    6.935   95.743    0.336    6.106
  626.312    6.934   94.505    0.388    5.359
  627.133    6.851  100.612    0.378    5.065
  627.953    6.769   98.146    0.377    5.063
  628.773    6.849  100.584    0.366    5.154
  629.593    6.930   98.734    0.379    5.444
  630.413    6.970   91.375    0.370    5.967
  631.234    6.969   94.422    0.380    6.304
  632.054    6.968   93.792    0.373    6.298
  632.874    6.967   95.611    0.366    5.952
  633.694    7.007   95.597    0.385    5.840
  634.514    6.965   99.259    0.365    5.518
  635.335    6.719  101.694    0.385    5.415
  636.155    6.555  105.965    0.422    5.215
  636.975    6.432  102.890    0.422    5.115
  637.795    6.431   96.137    0.413    5.016
  638.615    6.471   93.062    0.423    4.922
  639.436    6.470   91.828    0.420    4.827
  640.256    6.468   88.142    0.405    4.734
  641.076    6.468   85.067    0.404    4.732
  641.896    6.426   80.154    0.393    4.641
