~VERSION INFORMATION
 VERS.                 2.0:   CWLS LOG ASCII STANDARD -VERSION 2.0
 WRAP.                  NO:   ONE LINE PER DEPTH STEP
~WELL INFORMATION BLOCK
#MNEM.UNIT           DATA                    DESCRIPTION OF MNEMONIC
#---------    -------------------            -------------------------------
# Generated from Intellog Unique Number	CS_77_79/WELL/3296
WELL.         ALLIED ROXANA MINERALS LTD.    : Well_name    - WELL
LOC .         00/07-11-078-17W4/0            : Location     - LOCATION
UWI .         00/07-11-078-17W4/0            : Uwi          - UNIQUE WELL ID
ENTR.         JOETTE                         : Entered      - ENTERED BY
SRVC.         SCHLUMBERGER                   : Scn          - SERVICE COMPANY
DATE.         08-24-92                       : Date         - LOG DATE
STRT.M        185.928                        : top_depth    - START DEPTH
STOP.M        377.928                        : bot_depth    - STOP DEPTH
STEP.M        0.25                           : increment    - STEP LENGTH
 NULL. -999.2500:NULL Value
~CURVE INFORMATION BLOCK
#MNEM UNIT       ERCB CURVE CODE    CURVE DESCRIPTION
#-----------   ------------------   ----------------------------------
DEPT.M        00 001 00 00         : DEPTH        - DEPTH
GR  .API      00 310 00 00         : GR           - GAMMA RAY
NPHI.V/V      00 330 00 00         : PHIN         - NEUTRON POROSITY (SANDSTONE)
ILD .OHMM     00 120 00 00         : RESD         - DEEP RESISTIVITY (DIL)
~PARAMETER INFORMATION
#MNEM.UNIT           DATA             DESCRIPTION OF MNEMONIC
#---------         -----------     ------------------------------
GL  .M        593.446              : gl           - GROUND LEVEL ELEVATION
EREF.M        596.494              : kb           - ELEVATION OF DEPTH REFERENCE
DATM.M        596.494              : datum        - DATUM ELEVATION
TDD .M        396.85               : tdd          - TOTAL DEPTH DRILLER
RUN .         ONE                  : Run          - RUN NUMBER
ENG .         BILL                 : Engineer     - RECORDING ENGINEER
WIT .         JIM                  : Witness      - WITNESSED BY
MUD .         GEL                  : Mud_type     - MUD TYPE
MATR.         SANDSTONE            : Logunit      - NEUTRON MATRIX
TMAX.C        24.4444              : BHT          - MAXIMUM RECORDED TEMPERATURE
BHTD.M        396.85               : BHTDEP       - MAXIMUM RECORDED TEMPERATURE
RMT .C        13.3333              : MDTP         - TEMPERATURE OF MUD
MUDD.KG/M     8700                 : MWT          - MUD DENSITY
NEUT.         1                    : NEUTRON      - NEUTRON TYPE
RESI.         0                    : RESIST       - RESISTIVITY TYPE
RM  .OHMM     3.82                 : RM           - RESISTIVITY OF MUD
RMC .OHMM     3.82                 : RMC          - RESISTIVITY OF MUD CAKE
RMF .OHMM     3.82                 : RMF          - RESISTIVITY OF MUD FILTRATE
SUFT.C        15                   : SUFT         - SURFACE TEMPERATURE
~A  DEPTH       GR     PHIN     RESD
  185.928   54.196    0.449    1.618
  186.178   58.356    0.454    1.637
  186.428   62.544    0.455    1.450
  186.678   60.232    0.453    1.465
  186.928   63.243    0.446    1.689
  187.178   68.020    0.434    2.111
  187.428   67.500    0.436    2.933
  187.678   66.350    0.443    3.554
  187.928   69.348    0.445    3.976
  188.178   74.111    0.439    3.991
  188.428   75.959    0.432    4.010
  188.678   79.531    0.412    4.028
  188.928   84.882    0.408    4.040
  189.178   82.584    0.401    4.264
  189.428   82.638    0.393    4.275
  189.678   79.163    0.379    4.495
  189.928   69.802    0.360    6.125
  190.178   73.388    0.338    8.965
  190.428   76.385    0.331   10.194
  190.678   79.397    0.340   10.213
  190.928   86.513    0.349    9.424
  191.178   85.980    0.362    9.032
  191.428   82.518    0.382    7.840
  191.678   89.046    0.401    7.451
  191.928   95.575    0.400    6.865
  192.178   90.922    0.398    6.887
  192.428   82.163    0.383    7.705
  192.678   79.851    0.355    9.536
  192.928   64.017    0.313   11.375
  193.178   62.306    0.282   11.192
  193.428   58.831    0.259   10.598
  193.678   63.580    0.273    9.604
  193.928   78.361    0.316    8.812
  194.178   95.495    0.345    7.833
  194.428   94.962    0.375    7.638
  194.678   92.075    0.408    7.452
  194.928   86.833    0.401    8.274
  195.178   82.783    0.393   10.512
  195.428   81.072    0.378   12.347
  195.678   79.362    0.374   13.374
  195.928   79.403    0.366   13.793
  196.178   82.414    0.359   13.404
  196.428   87.163    0.369   13.430
  196.678   97.825    0.370   13.438
  196.928  102.013    0.375   13.658
  197.178   98.523    0.369   13.471
  197.428   95.061    0.354   12.477
  197.678   95.117    0.355   11.084
  197.928   93.392    0.365    9.686
  198.178   87.562    0.374    8.095
  198.428   84.087    0.381    7.904
  198.678   81.802    0.384    7.923
  198.928   80.666    0.385    7.938
  199.178   78.367    0.377    8.360
  199.428   77.834    0.363    8.360
  199.678   87.907    0.358   11.226
  199.928   81.488    0.348   11.839
  200.178   70.348    0.339   13.076
  200.428   66.873    0.342   13.285
  200.678   62.822    0.342   13.711
  200.928   65.217    0.337   13.528
  201.178   65.286    0.332   13.143
  201.428   58.854    0.304   12.747
  201.678   55.980    0.298   11.959
  201.928   58.978    0.300   11.166
  202.178   57.856    0.305   10.576
  202.428   56.734    0.317   10.397
  202.678   59.731    0.330   11.222
  202.928   62.729    0.343   11.637
  203.178   65.138    0.337   12.665
  203.428   67.000    0.340   13.487
  203.678   69.381    0.332   13.707
  203.928   69.436    0.324   12.717
  204.178   58.898    0.318   11.925
  204.428   49.524    0.311   11.746
  204.678   34.867    0.313   11.753
  204.928   32.582    0.317   11.776
  205.178   35.566    0.313   11.791
  205.428   52.700    0.326   11.604
  205.678   60.406    0.339   11.421
  205.928   61.049    0.311   11.230
  206.178   65.840    0.312   10.445
  206.428   62.364    0.333   10.053
  206.678   62.419    0.341    9.268
  206.928   67.168    0.335    8.674
  207.178   72.519    0.342    7.886
  207.428   76.721    0.352    7.501
  207.678   74.409    0.370    7.516
  207.928   70.933    0.368    8.136
  208.178   72.165    0.365    8.562
  208.428   78.118    0.372    8.577
  208.678   84.058    0.387    8.394
  208.928   88.821    0.408    8.002
  209.178  100.660    0.403    7.819
  209.428  107.790    0.388    7.636
  209.678  109.022    0.389    8.462
  209.928  106.723    0.396    9.485
  210.178  102.645    0.400    9.900
  210.428   96.829    0.389   10.928
  210.678  108.640    0.395   11.757
  210.928  108.723    0.395   11.970
  211.178  105.219    0.390   12.191
  211.428  101.155    0.382   12.210
  211.678   97.091    0.381   12.023
  211.928   88.319    0.375   11.634
  212.178   93.698    0.368   11.044
  212.428   80.778    0.369   10.255
  212.678   80.833    0.366    9.665
  212.928   73.840    0.358    9.086
  213.178   75.661    0.355    9.097
  213.428   79.261    0.350    9.116
  213.678   81.067    0.361    9.736
  213.928   84.667    0.369   10.764
  214.178   87.090    0.362   11.582
  214.428   87.706    0.357   13.013
  214.678   88.938    0.358   13.234
  214.928   95.480    0.357   12.849
  215.178   96.726    0.352   12.060
  215.428  100.298    0.355   11.264
  215.678  102.707    0.371   10.076
  215.928   92.169    0.373    9.482
  216.178   91.061    0.385    9.299
  216.428   84.040    0.378    8.709
  216.678   58.202    0.358    8.522
  216.928   61.200    0.344    8.541
  217.178   61.843    0.348    8.761
  217.428   56.588    0.351    8.978
  217.678   56.643    0.352    9.198
  217.928   62.597    0.360    9.411
  218.178   71.493    0.366   10.237
  218.428   73.300    0.378   11.063
  218.678   72.178    0.385   12.696
  218.928   74.600    0.378   13.514
  219.178   62.872    0.370   13.537
  219.428   55.865    0.372   13.346
  219.678   55.332    0.377   12.154
  219.928   57.755    0.368   11.766
  220.178   60.780    0.359   11.784
  220.428   60.219    0.360   11.605
  220.678   61.451    0.365   11.015
  220.928   64.448    0.367   10.219
  221.178   60.384    0.357    9.628
  221.428   49.272    0.346    9.449
  221.678   51.667    0.345    9.471
  221.928   47.602    0.330    9.486
  222.178   44.729    0.340    9.494
  222.428   51.243    0.359    9.920
  222.678   59.551    0.366   10.133
  222.928   66.079    0.364   10.555
  223.178   66.723    0.360   10.776
  223.428   70.897    0.356    9.987
  223.678   70.966    0.363    8.993
  223.928   69.242    0.374    8.399
  224.178   75.784    0.384    8.821
  224.428   79.958    0.397    9.647
  224.678   78.262    0.386    9.670
  224.928   75.963    0.357    9.483
  225.178   73.650    0.359    8.889
  225.428   73.705    0.363    8.100
  225.678   79.659    0.358    7.312
  225.928   86.187    0.366    7.125
  226.178   90.950    0.373    7.144
  226.428   92.182    0.384    7.361
  226.678   89.883    0.404    7.985
  226.928   82.876    0.425    8.807
  227.178   73.516    0.422   10.638
  227.428   70.629    0.392   16.112
  227.678   64.799    0.363   16.523
  227.928   58.380    0.360   21.594
  228.178   63.143    0.371   22.416
  228.428   70.849    0.384   22.830
  228.678   81.510    0.403   22.446
  228.928   88.627    0.394   22.064
  229.178   83.386    0.385   22.079
  229.428   76.379    0.391   22.498
  229.678   70.549    0.398   23.522
  229.928   64.131    0.404   24.747
  230.178   57.713    0.405   27.389
  230.428   50.117    0.376   29.829
  230.678   46.053    0.366   31.862
  230.928   53.170    0.353   32.284
  231.178   55.579    0.353   32.505
  231.428   52.103    0.354   33.331
  231.678   48.627    0.359   34.351
  231.928   46.328    0.358   35.987
  232.178   47.574    0.353   36.212
  232.428   47.027    0.357   36.219
  232.678   46.493    0.362   35.434
  232.928   45.960    0.363   35.244
  233.178   51.914    0.363   34.657
  233.428   55.499    0.364   33.869
  233.678   53.803    0.360   33.477
  233.928   52.079    0.366   32.688
  234.178   48.014    0.376   31.702
  234.428   45.127    0.385   31.104
  234.678   42.828    0.385   30.315
  234.928   42.883    0.382   29.321
  235.178   40.010    0.398   28.133
  235.428   36.520    0.395   27.139
  235.678   30.102    0.390   26.149
  235.928   28.391    0.396   22.734
  236.178   29.637    0.390   22.345
  236.428   32.046    0.384   21.348
  236.678   38.000    0.386   17.331
  236.928   40.983    0.384   16.539
  237.178   42.804    0.372   15.746
  237.428   39.916    0.363   14.151
  237.678   38.206    0.365   12.552
  237.928   42.983    0.370   11.360
  238.178   42.463    0.366   10.773
  238.428   43.695    0.364   10.586
  238.678   43.764    0.358   10.399
  238.928   43.805    0.359   10.418
  239.178   43.846    0.367   10.437
  239.428   45.681    0.366   10.448
  239.678   47.515    0.362   10.269
  239.928   49.910    0.375   10.078
