~VERSION INFORMATION
 VERS.                 2.0:   CWLS LOG ASCII STANDARD -VERSION 2.0
 WRAP.                  NO:   ONE LINE PER DEPTH STEP
~WELL INFORMATION BLOCK
#MNEM.UNIT           DATA                    DESCRIPTION OF MNEMONIC
#---------    -------------------            -------------------------------
# Generated from Intellog Unique Number	CW_73_75/WELL/2736
WELL.         MANNVILLE ALGAS MARTEN S 09-30 : Well_name    - WELL
LOC .         00/09-30-073-24W4/0            : Location     - LOCATION
UWI .         00/09-30-073-24W4/0            : Uwi          - UNIQUE WELL ID
ENTR.         JAYE                           : Entered      - ENTERED BY
SRVC.         WESTERN ATLAS                  : Scn          - SERVICE COMPANY
DATE.         15 MAR 79                      : Date         - LOG DATE
STRT.M        375                            : top_depth    - START DEPTH
STOP.M        595                            : bot_depth    - STOP DEPTH
STEP.M        0.25                           : increment    - STEP LENGTH
 NULL. -999.2500:NULL Value
~CURVE INFORMATION BLOCK
#MNEM UNIT       ERCB CURVE CODE    CURVE DESCRIPTION
#-----------   ------------------   ----------------------------------
DEPT.M        00 001 00 00         : DEPTH        - DEPTH
DPHI.V/V      00 890 00 00         : PHID         - DENSITY POROSITY (SANDSTONE)
NPHI.V/V      00 330 00 00         : PHIN         - NEUTRON POROSITY (SANDSTONE)
GR  .API      00 310 00 00         : GR           - GAMMA RAY
CALI.MM       00 280 01 00         : CAL          - CALIPER
ILD .OHMM     00 120 00 00         : RESD         - DEEP RESISTIVITY (DIL)
~PARAMETER INFORMATION
#MNEM.UNIT           DATA             DESCRIPTION OF MNEMONIC
#---------         -----------     ------------------------------
GL  .M        633.3                : gl           - GROUND LEVEL ELEVATION
EREF.M        636.3                : kb           - ELEVATION OF DEPTH REFERENCE
DATM.M        633.3                : datum        - DATUM ELEVATION
TDD .M        593                  : tdd          - TOTAL DEPTH DRILLER
RUN .         ONE                  : Run          - RUN NUMBER
ENG .         GRIEVE               : Engineer     - RECORDING ENGINEER
WIT .         MURYNKA              : Witness      - WITNESSED BY
BASE.         R.D.                 : Branch       - HOME BASE OF LOGGING UNIT
MUD .         GEL-CHEM             : Mud_type     - MUD TYPE
MATR.         SANDSTONE            : Logunit      - NEUTRON MATRIX
TMAX.C        22                   : BHT          - MAXIMUM RECORDED TEMPERATURE
BHTD.M        594                  : BHTDEP       - MAXIMUM RECORDED TEMPERATURE
RMT .C        11.1                 : MDTP         - TEMPERATURE OF MUD
MUDD.KG/M     1120                 : MWT          - MUD DENSITY
NEUT.         1                    : NEUTRON      - NEUTRON TYPE
RESI.         0                    : RESIST       - RESISTIVITY TYPE
RM  .OHMM     4.4                  : RM           - RESISTIVITY OF MUD
RMC .OHMM     0                    : RMC          - RESISTIVITY OF MUD CAKE
RMF .OHMM     4                    : RMF          - RESISTIVITY OF MUD FILTRATE
SUFT.C        0                    : SUFT         - SURFACE TEMPERATURE
~A  DEPTH     PHID     PHIN       GR      CAL     RESD
# ...
  484.500    0.172    0.371   87.895  174.004    4.011
  484.750    0.170    0.350   90.045  177.484    4.032
  485.000    0.161    0.355   91.818  176.486    4.069
  485.250    0.160    0.347   90.159  172.790    4.130
  485.500    0.159    0.338   87.128  173.040    4.215
  485.750    0.090    0.325   85.844  173.507    4.375
  486.000    0.068    0.307   81.193  173.647    4.880
  486.250    0.146    0.288   76.227  174.319    5.598
  486.500    0.185    0.333   76.689  174.888    6.231
  486.750    0.207    0.361   81.458  175.241    6.530
  487.000    0.206    0.387   83.730  175.912    6.286
  487.250    0.203    0.404   86.132  176.470    5.718
  487.500    0.206    0.402   89.154  175.368    5.172
  487.750    0.209    0.383   91.238  172.295    4.786
  488.000    0.180    0.388   94.137  170.880    4.445
  488.250    0.158    0.385   96.782  170.305    4.295
  488.500    0.142    0.370  100.926  170.347    4.261
  488.750    0.125    0.374  102.138  173.094    4.332
  489.000    0.113    0.379  101.229  176.467    4.405
  489.250    0.114    0.379  100.634  180.774    4.504
  489.500    0.125    0.366  102.219  185.393    4.685
  489.750    0.148    0.359  104.303  186.062    4.836
  490.000    0.170    0.360  105.016  184.653    4.973
  490.250    0.175    0.364  103.734  181.990    5.085
  490.500    0.151    0.354  102.386  178.811    5.170
  490.750    0.138    0.350  100.168  175.634    5.207
  491.000    0.140    0.351   96.949  172.973    5.305
  491.250    0.162    0.356   93.667  172.704    5.507
  491.500    0.174    0.363   96.191  175.973    5.652
  491.750    0.157    0.365   99.026  180.280    5.747
  492.000    0.138    0.361  101.113  182.405    5.799
  492.250    0.138    0.352  102.700  180.480    5.678
  492.500    0.150    0.353  104.346  180.104    5.497
  492.750    0.156    0.360  105.870  179.940    5.403
  493.000    0.158    0.364  106.897  179.780    5.340
  493.250    0.155    0.367  105.487  179.927    5.338
  493.500    0.155    0.362  103.953  180.595    5.357
  493.750    0.161    0.352  102.919  181.572    5.395
  494.000    0.169    0.341  103.323  183.282    5.404
  494.250    0.177    0.338  103.909  185.509    5.392
  494.500    0.167    0.356  101.065  185.239    5.390
  494.750    0.158    0.395  103.899  183.621    5.378
  495.000    0.152    0.395  104.676  181.585    5.386
  495.250    0.145    0.378  104.453  180.178    5.394
  495.500    0.151    0.360  103.918  180.013    5.392
  495.750    0.152    0.360  102.570  180.471    5.391
  496.000    0.139    0.371  103.158  180.933    5.399
  496.250    0.126    0.374  103.934  182.017    5.448
  496.500    0.139    0.393  104.585  183.726    5.477
  496.750    0.141    0.393  102.615  179.607    5.444
  497.000    0.129    0.377  102.143  176.636    5.422
  497.250    0.130    0.362  102.544  176.370    5.400
  497.500    0.138    0.356  101.820  177.243    5.367
  497.750    0.151    0.376  102.348  177.912    5.325
  498.000    0.161    0.375  101.065  178.895    5.283
  498.250    0.173    0.375  103.210  177.376    5.232
  498.500    0.169    0.350  105.108  179.922    5.171
  498.750    0.162    0.347  104.573  182.979    5.130
  499.000    0.159    0.350  103.726  177.823    5.119
  499.250    0.159    0.356  104.253  174.123    5.117
  499.500    0.167    0.370  107.899  172.920    5.164
  499.750    0.164    0.383  106.365  172.964    5.201
  500.000    0.153    0.387  102.773  174.464    5.249
  500.250    0.152    0.381  100.053  177.526    5.307
  500.500    0.160    0.369   97.834  181.105    5.335
  500.750    0.163    0.354   96.800  179.484    5.384
  501.000    0.155    0.356   97.451  179.323    5.402
  501.250    0.151    0.379   99.223  180.199    5.441
  501.500    0.155    0.395   99.064  182.008    5.511
  501.750    0.159    0.385   97.592  183.304    5.562
  502.000    0.156    0.368   97.745  181.265    5.698
  502.250    0.144    0.364  101.327  175.176    5.904
  502.500    0.129    0.359   99.733  173.664    6.140
  502.750    0.143    0.346   96.576  174.744    6.374
  503.000    0.159    0.354   93.857  177.390    6.604
  503.250    0.163    0.360   94.382  179.929    6.830
  503.500    0.163    0.346   98.653  181.428    6.892
  503.750    0.164    0.345  100.363  180.851    6.736
  504.000    0.166    0.348  100.702  178.811    6.375
  504.250    0.165    0.355  100.354  177.510    6.091
  504.500    0.154    0.351  100.445  178.487    5.897
  504.750    0.145    0.339  100.098  180.406    5.762
  505.000    0.143    0.346   99.748  182.630    5.664
  505.250    0.142    0.353   99.337  183.092    5.630
  505.500    0.158    0.348   98.741  181.994    5.649
  505.750    0.172    0.339   98.643  182.137    5.755
  506.000    0.168    0.344  102.787  183.538    5.785
  506.250    0.164    0.346  103.499  183.164    5.686
  506.500    0.133    0.313   98.784  181.646    5.484
  506.750    0.104    0.293   93.632  179.922    5.259
  507.000    0.061    0.263   86.918  177.996    5.228
  507.250    0.029    0.197   78.333  177.309    5.583
  507.500    0.014    0.181   74.182  177.455    6.441
  507.750   -0.004    0.174   71.461  179.377   11.253
  508.000   -0.013    0.174   70.052  180.874   13.280
  508.250   -0.019    0.175   72.138  182.800   17.419
  508.500   -0.021    0.162   75.034  182.941   20.949
  508.750   -0.021    0.156   75.748  181.737   23.584
  509.000   -0.017    0.171   73.467  180.634   24.345
  509.250    0.007    0.196   72.746  179.846   26.046
  509.500    0.071    0.239   74.516  179.374   27.709
  509.750    0.107    0.278   77.664  179.211   21.757
  510.000    0.135    0.300   77.754  179.152   18.528
  510.250    0.140    0.323   79.151  178.885   16.231
  510.500    0.135    0.339   81.114  178.928   15.074
  510.750    0.139    0.345   84.447  178.766   14.267
  511.000    0.156    0.341   84.411  178.811   13.451
  511.250    0.158    0.340   86.122  179.058   12.900
  511.500    0.166    0.342   84.338  179.633   12.512
  511.750    0.182    0.351   77.688  180.095   12.298
  512.000    0.200    0.359   72.161  180.129   12.132
  512.250    0.211    0.369   70.815  180.179   12.174
  512.500    0.202    0.377   74.838  179.905   12.401
  512.750    0.199    0.373   74.241  179.640   12.873
  513.000    0.208    0.377   72.456  179.163   13.389
  513.250    0.204    0.384   70.799  179.099   13.383
  513.500    0.197    0.376   68.826  178.946   13.329
  513.750    0.209    0.358   70.789  178.875   13.199
  514.000    0.222    0.371   72.376  178.919   13.071
  514.250    0.235    0.381   72.900  178.652   12.919
  514.500    0.233    0.381   73.488  178.912   12.650
  514.750    0.224    0.369   74.014  171.564   12.270
  515.000    0.211    0.355   76.974  172.027   11.991
  515.250    0.218    0.362   81.370  176.445   11.829
  515.500    0.228    0.371   82.518  178.563   11.758
  515.750    0.237    0.356   79.861  178.293   11.732
  516.000    0.237    0.336   77.583  174.178   11.728
  516.250    0.220    0.354   76.609  175.991   11.723
  516.500    0.203    0.366   76.822  178.322   11.719
  516.750    0.208    0.377   77.097  180.034   11.650
  517.000    0.229    0.378   78.309  180.282   11.558
  517.250    0.271    0.383   80.397  173.673   11.446
  517.500    0.291    0.391   80.047  172.886   11.291
  517.750    0.263    0.371   76.956  174.287   11.098
  518.000    0.226    0.357   74.235  175.365   11.010
  518.250    0.194    0.350   72.578  176.659   10.945
  518.500    0.198    0.347   74.413  177.539   11.003
  518.750    0.224    0.338   76.436  178.097   11.082
  519.000    0.227    0.363   78.647  178.667   11.057
  519.250    0.229    0.373   79.609  178.604   10.766
  519.500    0.238    0.372   77.701  178.438   10.502
  519.750    0.242    0.385   76.107  177.759    9.883
  520.000    0.247    0.392   76.632  178.423    9.266
  520.250    0.253    0.393   78.222  180.135    8.589
  520.500    0.252    0.389   79.560  180.179    8.145
  520.750    0.241    0.386   80.208  180.224    7.622
