~VERSION INFORMATION
 VERS.                 2.0:   CWLS LOG ASCII STANDARD -VERSION 2.0
 WRAP.                  NO:   ONE LINE PER DEPTH STEP
~WELL INFORMATION BLOCK
#MNEM.UNIT           DATA                    DESCRIPTION OF MNEMONIC
#---------    -------------------            -------------------------------
# Generated from Intellog Unique Number	CW_70_72/WELL/993
NULL.         -999.25                        : NULL_VALUE
WELL.         NORCEN ET AL VICTOR 08-01      : Well_name    - WELL              
LOC .         08-01-071-02W5                 : Location     - LOCATION          
UWI .         00/08-01-071-02W5/0            : Uwi          - UNIQUE WELL ID    
ENTR.         JAYE                           : Entered      - ENTERED BY        
SRVC.         COMPUTALOG                     : Scn          - SERVICE COMPANY   
DATE.         7 JUNE 82                      : Date         - LOG DATE          
STRT.M        375                            : top_depth    - START DEPTH       
STOP.M        625                            : bot_depth    - STOP DEPTH        
STEP.M        0.25                           : increment    - STEP LENGTH       
~CURVE INFORMATION BLOCK
#MNEM UNIT       ERCB CURVE CODE    CURVE DESCRIPTION
#-----------   ------------------   ----------------------------------
DEPT.M        00 001 00 00         : DEPTH        - DEPTH                       
DPHI.V/V      00 890 00 00         : PHID         - DENSITY POROSITY (SANDSTONE)
NPHI.V/V      00 330 00 00         : PHIN         - NEUTRON POROSITY (SANDSTONE)
GR  .API      00 310 00 00         : GR           - GAMMA RAY                   
CALI.MM       00 280 01 00         : CAL          - CALIPER                     
ILD .OHMM     00 120 00 00         : RESD         - DEEP RESISTIVITY (DIL)      
~PARAMETER INFORMATION       
#MNEM.UNIT           DATA             DESCRIPTION OF MNEMONIC
#---------         -----------     ------------------------------
GL  .M        593.49               : gl           - GROUND LEVEL ELEVATION      
EREF.M        597.61               : kb           - ELEVATION OF DEPTH REFERENCE
DATM.M        593.49               : datum        - DATUM ELEVATION             
TDD .M        655                  : tdd          - TOTAL DEPTH DRILLER         
RUN .         ONE                  : Run          - RUN NUMBER                  
ENG .         SVRCEK               : Engineer     - RECORDING ENGINEER          
WIT .         BOGNER/MOORE         : Witness      - WITNESSED BY                
BASE.         EDM                  : Branch       - HOME BASE OF LOGGING UNIT   
MUD .         GEL CHEM             : Mud_type     - MUD TYPE                    
MATR.         SANDSTONE            : Logunit      - NEUTRON MATRIX              
TMAX.C        31                   : BHT          - MAXIMUM RECORDED TEMPERATURE
BHTD.M        654.7                : BHTDEP       - MAXIMUM RECORDED TEMPERATURE
RMT .C        15.5                 : MDTP         - TEMPERATURE OF MUD          
MUDD.KG/M     1130                 : MWT          - MUD DENSITY                 
NEUT.         1                    : NEUTRON      - NEUTRON TYPE                
RESI.         0                    : RESIST       - RESISTIVITY TYPE            
RM  .OHMM     2.4                  : RM           - RESISTIVITY OF MUD          
RMC .OHMM     2.1                  : RMC          - RESISTIVITY OF MUD CAKE     
RMF .OHMM     2.05                 : RMF          - RESISTIVITY OF MUD FILTRATE 
SUFT.C        0                    : SUFT         - SURFACE TEMPERATURE         
~A  DEPTH     PHID     PHIN       GR      CAL     RESD
# ...
  521.000    0.213    0.386   67.175  205.924    3.631
  521.250    0.203    0.374   67.055  205.814    3.628
  521.500    0.204    0.385   68.243  205.839    3.598
  521.750    0.208    0.404   69.120  205.846    3.495
  522.000    0.208    0.389   69.880  205.752    3.420
  522.250    0.204    0.366   71.072  205.851    3.366
  522.500    0.204    0.339   69.021  205.877    3.306
  522.750    0.217    0.323   67.599  206.001    3.260
  523.000    0.231    0.305   72.338  206.541    3.239
  523.250    0.237    0.318   81.250  207.477    3.224
  523.500    0.229    0.352   88.668  208.738    3.252
  523.750    0.213    0.397   90.605  210.107    3.286
  524.000    0.215    0.421   89.671  211.878    3.308
  524.250    0.228    0.456   83.332  213.434    3.331
  524.500    0.233    0.461   82.779  214.393    3.353
  524.750    0.224    0.440   85.401  215.539    3.382
  525.000    0.215    0.416   86.278  216.687    3.392
  525.250    0.200    0.387   88.467  217.549    3.401
  525.500    0.197    0.361   92.338  218.690    3.418
  525.750    0.196    0.376   94.832  219.829    3.460
  526.000    0.198    0.391   95.653  220.595    3.497
  526.250    0.214    0.417   91.299  221.731    3.527
  526.500    0.211    0.460   92.301  222.487    3.531
  526.750    0.197    0.431   94.302  223.536    3.528
  527.000    0.189    0.412   95.929  224.585    3.518
  527.250    0.185    0.403   96.809  225.929    3.515
  527.500    0.182    0.384   97.687  226.577    3.512
  527.750    0.173    0.363   98.130  226.997    3.515
  528.000    0.182    0.387   98.637  227.209    3.519
  528.250    0.187    0.436   99.454  227.230    3.516
  528.500    0.186    0.404   96.349  227.350    3.527
  528.750    0.182    0.371   92.243  227.458    3.557
  529.000    0.185    0.386   92.813  227.267    3.628
  529.250    0.189    0.390   96.494  226.760    3.695
  529.500    0.195    0.354  101.794  225.949    3.776
  529.750    0.189    0.355  104.541  224.707    3.845
  530.000    0.183    0.409  104.107  223.471    3.944
  530.250    0.179    0.389  103.060  222.247    4.139
  530.500    0.175    0.366  102.631  221.122    4.385
  530.750    0.173    0.362  102.142  219.659    4.725
  531.000    0.168    0.376  101.830  218.645    5.129
  531.250    0.157    0.410  101.091  216.881    5.372
  531.500    0.131    0.394   94.316  215.252    5.287
  531.750    0.054    0.255   82.430  212.963    4.945
  532.000    0.036    0.211   70.856  211.430    4.513
  532.250    0.021    0.208   72.732  209.362    4.134
  532.500    0.084    0.256   82.698  208.141    3.788
  532.750    0.115    0.342   89.682  208.350    3.685
  533.000    0.143    0.354   95.293  209.095    3.654
  533.250    0.171    0.351   98.470  210.142    3.686
  533.500    0.181    0.379   99.541  211.389    3.753
  533.750    0.186    0.365  101.106  212.348    3.829
  534.000    0.195    0.392  103.418  213.086    3.826
  534.250    0.202    0.419   95.953  213.930    3.822
  534.500    0.195    0.433   93.406  214.667    3.848
  534.750    0.180    0.341   96.151  215.302    3.910
  535.000    0.171    0.334   99.395  215.825    4.034
  535.250    0.177    0.344  102.953  216.155    4.178
  535.500    0.180    0.343  105.698  216.473    4.527
  535.750    0.179    0.337  106.330  217.199    5.056
  536.000    0.175    0.325  106.528  217.644    5.920
  536.250    0.163    0.343   97.879  217.762    6.814
  536.500    0.129    0.366   89.978  217.566    7.682
  536.750    0.088    0.263   84.502  217.156    8.547
  537.000    0.077    0.237   79.842  216.759    7.179
  537.250    0.092    0.228   76.425  216.354    6.215
  537.500    0.129    0.245   80.224  215.944    5.171
  537.750    0.154    0.326   83.721  215.854    4.674
  538.000    0.168    0.447   86.961  215.766    4.481
  538.250    0.165    0.467   90.401  215.474    4.484
  538.500    0.162    0.442   94.333  215.485    4.515
  538.750    0.161    0.368  100.253  215.292    4.571
  539.000    0.162    0.325   94.534  215.188    4.628
  539.250    0.159    0.305   94.841  215.188    4.686
  539.500    0.156    0.315   95.296  215.221    4.744
  539.750    0.164    0.330   91.754  215.433    4.785
  540.000    0.170    0.342   90.010  215.558    4.816
  540.250    0.171    0.359   90.583  216.081    4.822
  540.500    0.171    0.351   91.087  216.411    4.855
  540.750    0.168    0.331   92.092  216.835    4.896
  541.000    0.165    0.338   94.514  217.054    4.948
  541.250    0.159    0.358   96.464  217.382    4.981
  541.500    0.152    0.388   96.656  217.492    5.005
  541.750    0.146    0.417   95.605  217.407    5.001
  542.000    0.142    0.391   94.736  217.629    4.959
  542.250    0.136    0.365   90.888  217.532    4.909
  542.500    0.130    0.344   88.468  217.338    4.831
  542.750    0.134    0.339   90.769  217.027    4.737
  543.000    0.148    0.352   93.339  216.938    4.489
  543.250    0.157    0.353   97.763  216.433    4.294
  543.500    0.157    0.324  100.331  216.235    4.171
  543.750    0.153    0.314  100.213  216.249    4.144
  544.000    0.140    0.327   96.169  215.940    4.203
  544.250    0.148    0.338   95.122  215.855    4.495
  544.500    0.158    0.335   95.186  215.661    5.243
  544.750    0.171    0.338   99.869  215.581    6.483
  545.000    0.173    0.367  106.532  217.144    7.794
  545.250    0.173    0.392  108.411  217.471    9.299
  545.500    0.192    0.416   99.514  212.713   10.582
  545.750    0.218    0.411   84.575  207.423   11.842
  546.000    0.267    0.339   73.624  204.330    9.889
  546.250    0.294    0.300   63.296  202.055    8.625
  546.500    0.307    0.269   59.069  200.711    8.267
  546.750    0.311    0.291   60.260  200.831    8.183
  547.000    0.309    0.277   63.132  201.781    8.146
  547.250    0.301    0.255   66.812  203.143    8.185
  547.500    0.294    0.315   70.306  204.607    8.223
  547.750    0.297    0.345   71.187  205.550    8.233
  548.000    0.300    0.316   67.955  206.168    8.179
  548.250    0.299    0.309   66.962  206.491    7.869
  548.500    0.299    0.318   68.028  206.721    7.430
  548.750    0.298    0.320   67.789  207.042    7.082
  549.000    0.296    0.314   64.553  207.049    6.699
  549.250    0.292    0.307   61.825  207.068    6.409
  549.500    0.288    0.302   61.770  207.088    5.971
  549.750    0.290    0.290   64.582  207.305    5.607
  550.000    0.292    0.295   67.820  207.428    5.116
  550.250    0.292    0.312   68.269  207.734    4.759
  550.500    0.290    0.334   65.971  207.958    4.510
  550.750    0.287    0.366   66.722  208.179    4.455
  551.000    0.282    0.376   70.408  208.509    4.467
  551.250    0.276    0.382   75.892  209.033    4.558
  551.500    0.271    0.372   79.762  209.362    4.939
  551.750    0.269    0.365   77.898  209.685    5.086
  552.000    0.261    0.383   73.235  209.911    4.921
  552.250    0.235    0.408   69.074  208.570    4.816
  552.500    0.197    0.297   65.342  206.504    4.634
  552.750    0.154    0.308   61.294  205.071    4.433
  553.000    0.177    0.346   63.425  204.029    4.290
  553.250    0.204    0.405   67.297  203.642    4.150
  553.500    0.259    0.399   68.421  203.105    4.054
  553.750    0.248    0.391   62.330  202.907    3.893
  554.000    0.247    0.378   61.271  202.803    3.781
  554.250    0.246    0.339   62.587  202.527    3.771
  554.500    0.245    0.327   61.723  202.225    3.811
  554.750    0.242    0.347   60.676  201.937    3.858
  555.000    0.237    0.364   63.420  201.845    3.899
  555.250    0.243    0.391   66.917  201.861    3.933
  555.500    0.254    0.365   66.180  202.080    4.057
  555.750    0.256    0.378   62.322  202.613    4.146
  556.000    0.253    0.386   63.014  203.772    4.245
  556.250    0.233    0.345   64.393  205.234    4.364
  556.500    0.226    0.358   62.099  206.693    4.511
  556.750    0.224    0.384   60.229  207.638    4.690
  557.000    0.225    0.421   62.108  208.279    4.940
  557.250    0.227    0.435   63.366  208.816    5.292
