~VERSION INFORMATION
 VERS.                 2.0:   CWLS LOG ASCII STANDARD -VERSION 2.0
 WRAP.                  NO:   ONE LINE PER DEPTH STEP
~WELL INFORMATION BLOCK
#MNEM.UNIT           DATA                    DESCRIPTION OF MNEMONIC
#---------    -------------------            -------------------------------
# Generated from Intellog Unique Number	CW_73_75/WELL/2731
WELL.         RIVA KELLY 07-22               : Well_name    - WELL
LOC .         00/07-22-073-19W4/0            : Location     - LOCATION
UWI .         00/07-22-073-19W4/0            : Uwi          - UNIQUE WELL ID
ENTR.         JAYE                           : Entered      - ENTERED BY
SRVC.         SCHLUMBERGER                   : Scn          - SERVICE COMPANY
DATE.         16 DEC 77                      : Date         - LOG DATE
STRT.M        365.76                         : top_depth    - START DEPTH
STOP.M        570.01                         : bot_depth    - STOP DEPTH
STEP.M        0.25                           : increment    - STEP LENGTH
 NULL. -999.2500:NULL Value
~CURVE INFORMATION BLOCK
#MNEM UNIT       ERCB CURVE CODE    CURVE DESCRIPTION
#-----------   ------------------   ----------------------------------
DEPT.M        00 001 00 00         : DEPTH        - DEPTH
ILD .OHMM     00 120 00 00         : RESD         - DEEP RESISTIVITY (DIL)
NPHI.V/V      00 330 00 00         : PHIN         - NEUTRON POROSITY (SANDSTONE)
DPHI.V/V      00 890 00 00         : PHID         - DENSITY POROSITY (SANDSTONE)
GR  .API      00 310 00 00         : GR           - GAMMA RAY
CALI.MM       00 280 01 00         : CAL          - CALIPER
~PARAMETER INFORMATION
#MNEM.UNIT           DATA             DESCRIPTION OF MNEMONIC
#---------         -----------     ------------------------------
GL  .M        670.865              : gl           - GROUND LEVEL ELEVATION
EREF.M        673.913              : kb           - ELEVATION OF DEPTH REFERENCE
DATM.M        670.865              : datum        - DATUM ELEVATION
TDD .M        567.842              : tdd          - TOTAL DEPTH DRILLER
RUN .         ONE                  : Run          - RUN NUMBER
ENG .         DALY                 : Engineer     - RECORDING ENGINEER
WIT .         STEIDEL              : Witness      - WITNESSED BY
BASE.         EDM                  : Branch       - HOME BASE OF LOGGING UNIT
MUD .         DAPP                 : Mud_type     - MUD TYPE
MATR.         SANDSTONE            : Logunit      - NEUTRON MATRIX
TMAX.C        23.3333              : BHT          - MAXIMUM RECORDED TEMPERATURE
BHTD.M        566.318              : BHTDEP       - MAXIMUM RECORDED TEMPERATURE
RMT .C        18.8889              : MDTP         - TEMPERATURE OF MUD
MUDD.KG/M     1176                 : MWT          - MUD DENSITY
NEUT.         1                    : NEUTRON      - NEUTRON TYPE
RESI.         0                    : RESIST       - RESISTIVITY TYPE
RM  .OHMM     0.99                 : RM           - RESISTIVITY OF MUD
RMC .OHMM     0                    : RMC          - RESISTIVITY OF MUD CAKE
RMF .OHMM     0                    : RMF          - RESISTIVITY OF MUD FILTRATE
SUFT.C        -17.7778             : SUFT         - SURFACE TEMPERATURE
~A  DEPTH     RESD     PHIN     PHID       GR      CAL
# ...
  475.260    5.649    0.428    0.329   57.881  142.840
  475.510    5.651    0.421    0.338   60.583  143.611
  475.760    5.600    0.416    0.337   61.598  144.906
  476.010    5.570    0.413    0.337   61.490  146.626
  476.260    5.635    0.413    0.341   59.633  148.559
  476.510    5.767    0.418    0.336   58.713  148.480
  476.760    5.968    0.417    0.316   58.418  146.604
  477.010    6.084    0.407    0.299   58.247  143.777
  477.260    6.120    0.383    0.282   58.950  139.576
  477.510    6.088    0.383    0.317   61.406  135.373
  477.760    5.976    0.426    0.357   62.793  139.213
  478.010    5.822    0.447    0.348   65.433  140.825
  478.260    5.693    0.452    0.347   68.135  140.751
  478.510    5.599    0.446    0.344   71.400  141.197
  478.760    5.486    0.441    0.340   73.664  141.546
  479.010    5.457    0.440    0.335   71.307  141.255
  479.260    5.521    0.432    0.322   68.889  140.650
  479.510    5.628    0.429    0.333   68.406  139.833
  479.760    5.748    0.430    0.343   70.982  139.229
  480.010    5.882    0.434    0.338   74.247  138.934
  480.260    5.928    0.445    0.339   76.823  137.694
  480.510    5.908    0.458    0.344   73.532  137.511
  480.760    5.767    0.457    0.347   74.359  140.288
  481.010    5.534    0.454    0.342   75.750  144.123
  481.260    5.321    0.449    0.333   74.330  145.209
  481.510    5.154    0.441    0.319   72.038  142.488
  481.760    5.098    0.434    0.305   70.304  144.421
  482.010    5.100    0.425    0.277   69.634  147.835
  482.260    5.054    0.416    0.275   70.213  148.072
  482.510    4.952    0.419    0.312   71.042  146.936
  482.760    4.851    0.430    0.325   72.310  146.224
  483.010    4.754    0.441    0.317   73.199  145.197
  483.260    4.693    0.453    0.308   74.714  144.695
  483.510    4.633    0.466    0.305   76.041  144.727
  483.760    4.582    0.482    0.304   77.931  144.965
  484.010    4.506    0.496    0.298   80.197  144.573
  484.260    4.374    0.490    0.284   83.961  144.489
  484.510    4.221    0.483    0.272   87.411  145.683
  484.760    4.035    0.477    0.263   90.176  147.298
  485.010    3.858    0.473    0.255   91.317  148.275
  485.260    3.745    0.485    0.247   92.584  147.458
  485.510    3.690    0.499    0.238   93.161  146.114
  485.760    3.622    0.495    0.228   91.367  148.043
  486.010    3.529    0.482    0.222   91.572  151.350
  486.260    3.470    0.473    0.231   93.961  154.764
  486.510    3.388    0.475    0.235   97.724  156.800
  486.760    3.257    0.479    0.237  100.927  155.348
  487.010    3.155    0.480    0.234  103.004  154.741
  487.260    3.186    0.476    0.232  101.084  158.792
  487.510    3.279    0.467    0.237   98.604  159.133
  487.760    3.484    0.449    0.245   96.248  157.365
  488.010    3.730    0.448    0.259   94.203  155.489
  488.260    4.101    0.450    0.268   91.471  152.872
  488.510    4.357    0.441    0.276   89.302  149.519
  488.760    4.665    0.442    0.277   87.758  148.807
  489.010    4.938    0.454    0.268   88.462  149.152
  489.260    5.150    0.465    0.254   89.914  149.918
  489.510    5.239    0.467    0.250   92.991  151.533
  489.760    5.000    0.463    0.248   95.006  154.841
  490.010    4.483    0.459    0.239   95.961  157.620
  490.260    3.741    0.455    0.229   96.226  158.283
  490.510    3.128    0.447    0.219   96.119  156.933
  490.760    2.591    0.437    0.209   95.759  156.115
  491.010    2.208    0.446    0.194   95.963  156.994
  491.260    2.083    0.453    0.171   98.166  157.974
  491.510    2.132    0.458    0.159  102.180  159.056
  491.760    2.566    0.456    0.184  104.944  160.037
  492.010    3.243    0.460    0.205  103.776  160.699
  492.260    4.000    0.464    0.214  101.292  159.776
  492.510    4.610    0.457    0.220   98.250  158.218
  492.760    4.780    0.444    0.226   97.516  155.706
  493.010    4.872    0.444    0.232   96.971  153.727
  493.260    4.939    0.450    0.235   99.176  153.120
  493.510    4.987    0.452    0.229   98.940  154.947
  493.760    5.026    0.451    0.227   92.339  157.089
  494.010    5.067    0.448    0.229   90.169  156.164
  494.260    5.097    0.432    0.235   88.748  154.186
  494.510    5.079    0.424    0.229   91.889  150.510
  494.760    5.052    0.431    0.218   93.965  151.597
  495.010    5.035    0.444    0.208   91.734  154.907
  495.260    5.018    0.445    0.201   91.064  156.942
  495.510    4.991    0.436    0.213   92.142  156.339
  495.760    4.955    0.431    0.217   94.159  154.883
  496.010    4.929    0.435    0.220   94.299  153.535
  496.260    4.912    0.443    0.232   92.566  156.737
  496.510    4.895    0.447    0.246   92.770  156.764
  496.760    4.851    0.450    0.252   94.974  153.937
  497.010    4.807    0.454    0.247   96.675  152.698
  497.260    4.692    0.458    0.238   98.628  155.369
  497.510    4.588    0.463    0.231  100.892  158.361
  497.760    4.370    0.476    0.241  100.972  159.234
  498.010    4.194    0.463    0.225   99.303  159.155
  498.260    4.102    0.469    0.216   96.947  158.548
  498.510    4.126    0.463    0.214   94.527  157.627
  498.760    4.159    0.448    0.218   90.548  155.962
  499.010    4.247    0.449    0.231   87.567  153.661
  499.260    4.330    0.476    0.243   85.771  150.835
  499.510    4.414    0.472    0.253   83.977  148.536
  499.760    4.474    0.460    0.261   82.496  146.242
  500.010    4.552    0.440    0.272   79.201  146.265
  500.260    4.640    0.422    0.270   74.971  148.199
  500.510    4.802    0.407    0.244   68.306  151.188
  500.760    5.190    0.387    0.204   63.389  155.235
  501.010    5.609    0.358    0.151   61.844  159.809
  501.260    6.225    0.287    0.129   60.548  162.379
  501.510    6.817    0.288    0.121   60.442  162.618
  501.760    7.609    0.318    0.153   60.647  162.010
  502.010    7.844    0.343    0.185   61.350  160.345
  502.260    6.510    0.359    0.211   62.301  157.308
  502.510    5.516    0.387    0.261   63.255  154.057
  502.760    4.955    0.435    0.296   64.209  150.383
  503.010    4.493    0.461    0.326   65.099  145.760
  503.260    4.386    0.474    0.332   64.929  143.885
  503.510    4.479    0.462    0.325   62.572  143.911
  503.760    4.778    0.423    0.304   61.216  144.785
  504.010    5.164    0.400    0.275   62.044  148.199
  504.260    5.655    0.360    0.223   63.186  151.296
  504.510    6.182    0.343    0.203   63.327  152.379
  504.760    6.694    0.321    0.210   63.594  149.343
  505.010    7.086    0.288    0.170   64.171  150.430
  505.260    6.839    0.312    0.200   67.498  153.312
  505.510    6.120    0.354    0.233   70.199  160.001
  505.760    5.592    0.393    0.285   70.654  156.327
  506.010    5.276    0.412    0.313   67.736  148.425
  506.260    5.248    0.405    0.274   63.505  146.019
  506.510    6.082    0.350    0.226   60.336  145.201
  506.760    7.156    0.305    0.157   57.105  147.768
  507.010    8.532    0.250    0.123   53.750  150.442
  507.260    9.740    0.187    0.051   52.642  153.431
  507.510    9.688    0.210    0.064   58.655  158.007
  507.760    8.492    0.280    0.104   62.045  158.458
  508.010    7.402    0.319    0.179   65.057  156.056
  508.260    6.131    0.368    0.293   67.073  154.283
  508.510    5.374    0.412    0.302   65.153  152.513
  508.760    5.100    0.427    0.294   65.546  150.955
  509.010    4.922    0.423    0.297   65.249  149.403
  509.260    4.777    0.416    0.289   63.892  149.006
  509.510    4.689    0.409    0.279   65.283  148.822
  509.760    4.638    0.416    0.282   64.737  148.538
  510.010    4.596    0.437    0.300   63.254  148.665
  510.260    4.554    0.448    0.310   62.460  148.586
  510.510    4.547    0.446    0.316   62.727  148.515
  510.760    4.532    0.437    0.318   62.743  148.647
  511.010    4.533    0.425    0.310   62.511  149.209
  511.260    4.534    0.427    0.307   61.339  149.343
  511.510    4.545    0.437    0.312   60.797  149.792
