~VERSION INFORMATION
 VERS.                 2.0:   CWLS LOG ASCII STANDARD -VERSION 2.0
 WRAP.                  NO:   ONE LINE PER DEPTH STEP
~WELL INFORMATION BLOCK
#MNEM.UNIT           DATA                    DESCRIPTION OF MNEMONIC
#---------    -------------------            -------------------------------
# Generated from Intellog Unique Number	CW_82_90/WELL/3420
WELL.         TEXACO CORN LAKE               : Well_name    - WELL
LOC .         00/06-11-089-25W4/0            : Location     - LOCATION
UWI .         00/06-11-089-25W4/0            : Uwi          - UNIQUE WELL ID
ENTR.         MAX                            : Entered      - ENTERED BY
SRVC.         COMPUTALOG                     : Scn          - SERVICE COMPANY
STRT.M        200                            : top_depth    - START DEPTH
STOP.M        413                            : bot_depth    - STOP DEPTH
STEP.M        0.25                           : increment    - STEP LENGTH
 NULL. -999.2500:NULL Value
~CURVE INFORMATION BLOCK
#MNEM UNIT       ERCB CURVE CODE    CURVE DESCRIPTION
#-----------   ------------------   ----------------------------------
DEPT.M        00 001 00 00         : DEPTH        - DEPTH
GR  .API      00 310 00 00         : GR           - GAMMA RAY
CALI.MM       00 280 01 00         : CAL          - CALIPER
DPHI.V/V      00 890 00 00         : PHID         - DENSITY POROSITY (SANDSTONE)
NPHI.V/V      00 330 00 00         : PHIN         - NEUTRON POROSITY (SANDSTONE)
ILD .OHMM     00 120 00 00         : RESD         - DEEP RESISTIVITY (DIL)
~PARAMETER INFORMATION
#MNEM.UNIT           DATA             DESCRIPTION OF MNEMONIC
#---------         -----------     ------------------------------
GL  .M        617.98               : gl           - GROUND LEVEL ELEVATION
EREF.M        621.5                : kb           - ELEVATION OF DEPTH REFERENCE
DATM.M        617.98               : datum        - DATUM ELEVATION
TDD .M        415                  : tdd          - TOTAL DEPTH DRILLER
RUN .         ONE                  : Run          - RUN NUMBER
ENG .         BILL                 : Engineer     - RECORDING ENGINEER
WIT .         JIM                  : Witness      - WITNESSED BY
MUD .         GEL                  : Mud_type     - MUD TYPE
MATR.         SANDSTONE            : Logunit      - NEUTRON MATRIX
TMAX.C        16.6                 : BHT          - MAXIMUM RECORDED TEMPERATURE
BHTD.M        415                  : BHTDEP       - MAXIMUM RECORDED TEMPERATURE
MATR.         1                    : LOGUNIT      - NEUTRON MATRIX
RMT .C        15.6                 : MDTP         - TEMPERATURE OF MUD
NEUT.         1                    : NEUTRON      - NEUTRON TYPE
RESI.         0                    : RESIST       - RESISTIVITY TYPE
RMC .OHMM     4                    : RMC          - RESISTIVITY OF MUD CAKE
RMF .OHMM     5.5                  : RMF          - RESISTIVITY OF MUD FILTRATE
SUFT.C        -13.7                : SUFT         - SURFACE TEMPERATURE
~A  DEPTH       GR      CAL     PHID     PHIN     RESD
  200.000  103.875  217.167    0.200    0.350    5.792
  200.250  105.113  217.192    0.205    0.346    5.433
  200.500  106.043  215.694    0.212    0.360    5.049
  200.750  106.365  215.713    0.214    0.405    4.824
  201.000  104.548  216.251    0.212    0.423    4.739
  201.250  104.256  216.276    0.215    0.406    4.656
  201.500  105.187  216.295    0.220    0.393    4.574
  201.750  105.506  216.321    0.221    0.404    4.535
  202.000  108.882  216.350    0.221    0.366    4.539
  202.250  110.425  215.354    0.220    0.346    4.543
  202.500  108.915  215.379    0.220    0.332    4.589
  202.750  106.790  216.426    0.221    0.442    4.678
  203.000  103.139  216.452    0.219    0.465    4.859
  203.250   99.794  215.462    0.219    0.505    5.142
  203.500   84.840  214.979    0.231    0.516    5.697
  203.750   56.748  214.489    0.263    0.432    6.927
  204.000   37.823  211.972    0.256    0.353    8.988
  204.250   33.867  210.470    0.243    0.282   11.448
  204.500   38.770  211.005    0.231    0.263   13.413
  204.750   43.064  211.543    0.239    0.297   14.594
  205.000   42.772  210.544    0.273    0.406   13.561
  205.250   38.816  210.060    0.289    0.407   12.718
  205.500   35.168  210.085    0.285    0.391   12.727
  205.750   34.874  209.602    0.274    0.369   13.849
  206.000   35.805  209.122    0.278    0.339   13.231
  206.250   40.709  212.708    0.280    0.313   12.180
  206.500   60.278  217.319    0.270    0.315   10.806
  206.750   74.040  216.323    0.250    0.357    8.657
  207.000   78.640  216.861    0.238    0.392    7.265
  207.250   73.460  217.393    0.260    0.421    7.545
  207.500   63.699  216.397    0.289    0.396    9.433
  207.750   49.660  216.425    0.307    0.345   10.851
  208.000   45.093  216.451    0.314    0.317   11.375
  208.250   44.805  216.473    0.314    0.297   11.278
  208.500   47.266  216.499    0.307    0.314   10.192
  208.750   49.721  216.528    0.295    0.374    8.241
  209.000   53.404  215.532    0.285    0.406    6.915
  209.250   53.723  214.542    0.287    0.444    6.079
  209.500   57.405  214.059    0.301    0.478    5.917
  209.750   52.838  213.572    0.315    0.399    6.377
  210.000   50.413  214.113    0.298    0.360    7.068
  210.250   52.868  214.645    0.282    0.363    7.008
  210.500   58.993  215.176    0.289    0.412    6.950
  210.750   61.453  214.696    0.298    0.458    7.285
  211.000   58.413  214.718    0.299    0.386    7.852
  211.250   54.154  214.747    0.295    0.370    8.231
  211.500   54.472  214.769    0.284    0.405    8.162
  211.750   57.543  214.801    0.279    0.451    8.093
  212.000   58.477  214.824    0.280    0.458    8.099
  212.250   55.435  214.849    0.275    0.395    8.732
  212.500   53.314  215.381    0.266    0.415    9.411
  212.750   55.160  214.897    0.260    0.400    9.958
  213.000   57.314  213.398    0.263    0.405   10.150
  213.250   57.331  213.427    0.276    0.389   10.445
  213.500   53.373  212.937    0.280    0.391   10.455
  213.750   52.776  214.490    0.275    0.365   10.462
  214.000   56.461  216.552    0.256    0.343   10.279
  214.250   58.918  216.581    0.230    0.324    9.730
  214.500   60.156  216.600    0.227    0.326    8.876
  214.750   59.863  215.608    0.222    0.331    8.402
  215.000   59.575  214.618    0.210    0.342    8.487
  215.250   59.589  214.640    0.213    0.328    9.148
  215.500   58.077  214.666    0.245    0.334    9.770
  215.750   55.342  214.692    0.263    0.352   10.338
  216.000   53.527  213.699    0.283    0.356   10.736
  216.250   53.846  213.218    0.287    0.360   10.944
  216.500   54.472  213.241    0.278    0.378   10.458
  216.750   53.265  212.760    0.264    0.401   10.178
  217.000   49.615  212.274    0.256    0.400   11.492
  217.250   46.270  211.790    0.264    0.383   13.097
  217.500   43.230  212.334    0.275    0.354   14.650
  217.750   38.052  212.354    0.286    0.334   15.940
  218.000   33.483  212.376    0.292    0.335   16.708
  218.250   31.667  211.892    0.295    0.358   17.676
  218.500   31.685  211.412    0.295    0.374   18.359
  218.750   32.309  211.441    0.290    0.374   18.717
  219.000   32.324  211.463    0.292    0.356   18.913
  219.250   32.645  211.485    0.293    0.335   18.926
  219.500   32.966  211.511    0.294    0.337   19.114
  219.750   32.674  211.540    0.297    0.343   19.129
  220.000   32.384  211.565    0.304    0.334   19.147
  220.250   32.707  211.588    0.301    0.332   19.337
  220.500   34.860  211.107    0.295    0.335   19.354
  220.750   36.401  211.126    0.291    0.324   19.370
  221.000   36.111  211.155    0.287    0.319   19.384
  221.250   35.515  211.184    0.288    0.320   19.401
  221.500   35.838  211.203    0.293    0.302   19.417
  221.750   36.768  211.232    0.296    0.289   19.431
  222.000   38.313  211.258    0.292    0.316   19.448
  222.250   38.634  211.280    0.277    0.369   19.466
  222.500   37.733  211.309    0.290    0.370   19.482
  222.750   36.218  211.334    0.302    0.390   19.317
  223.000   35.625  211.360    0.321    0.399   18.976
  223.250   36.555  211.385    0.319    0.335   18.480
  223.500   38.405  211.411    0.318    0.300   18.146
  223.750   38.728  210.931    0.320    0.300   17.825
  224.000   38.739  210.956    0.322    0.341   17.675
  224.250   39.369  210.979    0.325    0.388   17.526
  224.500   39.994  210.492    0.325    0.408   17.378
  224.750   40.007  210.520    0.324    0.404   17.232
  225.000   39.106  211.052    0.320    0.383   17.249
  225.250   39.121  211.587    0.319    0.355   17.261
  225.500   39.444  211.616    0.322    0.341   17.273
  225.750   38.845  211.641    0.324    0.369   17.285
  226.000   38.862  211.663    0.328    0.404   17.301
  226.250   41.321  211.689    0.325    0.423   17.315
  226.500   40.420  211.718    0.321    0.439   17.489
  226.750   39.822  211.743    0.321    0.418   17.505
  227.000   37.701  211.769    0.322    0.416   17.517
  227.250   38.937  211.794    0.318    0.407   17.695
  227.500   38.648  211.820    0.315    0.387   17.874
  227.750   36.523  211.842    0.315    0.367   18.223
  228.000   35.011  211.865    0.315    0.330   18.408
  228.250   35.332  211.388    0.317    0.348   18.424
  228.500   36.877  211.407    0.318    0.384   18.099
  228.750   38.112  211.436    0.318    0.404   17.616
  229.000   38.435  210.949    0.318    0.365   17.150
  229.250   38.754  210.472    0.318    0.349   17.006
  229.500   38.771  210.491    0.317    0.357   17.016
  229.750   38.175  210.014    0.318    0.371   16.876
  230.000   37.885  210.033    0.329    0.394   16.890
  230.250   37.901  210.058    0.339    0.387   16.746
  230.500   38.221  210.599    0.338    0.377   16.603
  230.750   38.541  211.128    0.335    0.376   16.465
  231.000   38.558  212.175    0.332    0.366   16.328
  231.250   38.573  213.219    0.333    0.344   16.187
  231.500   38.279  213.241    0.335    0.328   16.049
  231.750   39.211  212.252    0.331    0.346   16.063
  232.000   38.312  212.789    0.325    0.375   16.075
  232.250   38.938  213.318    0.317    0.363   15.939
  232.500   40.481  213.347    0.321    0.361   15.952
  232.750   40.494  213.372    0.325    0.375   16.417
  233.000   39.899  213.401    0.325    0.379   16.738
  233.250   41.138  213.423    0.328    0.385   16.595
  233.500   41.153  213.449    0.330    0.384   16.305
  233.750   41.472  213.471    0.328    0.380   16.016
  234.000   42.711  213.494    0.325    0.391   16.029
  234.250   44.254  213.010    0.322    0.409   15.317
  234.500   45.186  213.036    0.320    0.447   14.101
  234.750   47.034  213.064    0.317    0.442   12.982
  235.000   49.799  213.090    0.316    0.404   13.485
  235.250   51.342  212.603    0.318    0.370   13.747
  235.500   51.050  212.632    0.318    0.378   13.887
  235.750   50.151  212.657    0.317    0.411   13.899
  236.000   50.469  213.192    0.312    0.409   14.040
  236.250   52.012  213.727    0.309    0.372   14.049
