~VERSION INFORMATION
 VERS.                 2.0:   CWLS LOG ASCII STANDARD -VERSION 2.0
 WRAP.                  NO:   ONE LINE PER DEPTH STEP
~WELL INFORMATION BLOCK
#MNEM.UNIT           DATA                    DESCRIPTION OF MNEMONIC
#---------    -------------------            -------------------------------
# Generated from Intellog Unique Number	CS_69_70/WELL/714
NULL.         -999.25                        : NULL_VALUE
WELL.         ET AL TWEEDIE                  : Well_name    - WELL              
LOC .         00/06-05-070-13W4/0            : Location     - LOCATION          
UWI .         00/06-05-070-13W4/0            : Uwi          - UNIQUE WELL ID    
ENTR.         SP                             : Entered      - ENTERED BY        
SRVC.         SCHLUMBERGER                   : Scn          - SERVICE COMPANY   
STRT.M        275                            : top_depth    - START DEPTH       
STOP.M        520                            : bot_depth    - STOP DEPTH        
STEP.M        0.25                           : increment    - STEP LENGTH       
~CURVE INFORMATION BLOCK
#MNEM UNIT       ERCB CURVE CODE    CURVE DESCRIPTION
#-----------   ------------------   ----------------------------------
DEPT.M        00 001 00 00         : DEPTH        - DEPTH                       
ILD .OHMM     00 120 00 00         : RESD         - DEEP RESISTIVITY (DIL)      
DPHI.V/V      00 890 00 00         : PHID         - DENSITY POROSITY (LIMESTONE)
NPHI.V/V      00 330 00 00         : PHIN         - NEUTRON POROSITY (LIMESTONE)
GR  .API      00 310 00 00         : GR           - GAMMA RAY                   
~PARAMETER INFORMATION       
#MNEM.UNIT           DATA             DESCRIPTION OF MNEMONIC
#---------         -----------     ------------------------------
GL  .M        577.2                : gl           - GROUND LEVEL ELEVATION      
EREF.M        581.1                : kb           - ELEVATION OF DEPTH REFERENCE
DATM.M        577.2                : datum        - DATUM ELEVATION             
TDD .M        528                  : tdd          - TOTAL DEPTH DRILLER         
RUN .         ONE                  : Run          - RUN NUMBER                  
ENG .         BILL                 : Engineer     - RECORDING ENGINEER          
WIT .         JIM                  : Witness      - WITNESSED BY                
MUD .         GEL                  : Mud_type     - MUD TYPE                    
MATR.         LIMESTONE            : Logunit      - NEUTRON MATRIX              
TMAX.C        23                   : BHT          - MAXIMUM RECORDED TEMPERATURE
BHTD.M        528                  : BHTDEP       - MAXIMUM RECORDED TEMPERATURE
MATR.         1                    : LOGUNIT      - NEUTRON MATRIX              
RMT .C        25                   : MDTP         - TEMPERATURE OF MUD          
NEUT.         1                    : NEUTRON      - NEUTRON TYPE                
RESI.         0                    : RESIST       - RESISTIVITY TYPE            
RMC .OHMM     0.25                 : RMC          - RESISTIVITY OF MUD CAKE     
RMF .OHMM     0.25                 : RMF          - RESISTIVITY OF MUD FILTRATE 
SUFT.C        15                   : SUFT         - SURFACE TEMPERATURE         
~A  DEPTH     RESD     PHID     PHIN       GR
# ...
  362.000    8.152    0.255    0.278   48.400
  362.250    8.466    0.294    0.347   63.576
  362.500    7.731    0.327    0.364   74.195
  362.750    6.469    0.359    0.353   75.283
  363.000    5.504    0.288    0.285   69.235
  363.250    4.943    0.251    0.221   60.789
  363.500    5.338    0.148    0.181   53.364
  363.750    6.164    0.072    0.163   49.833
  364.000    7.527   -0.001    0.150   46.723
  364.250    9.920    0.073    0.158   50.268
  364.500   12.690    0.150    0.188   53.874
  364.750   14.303    0.219    0.230   56.279
  365.000   12.376    0.276    0.282   58.144
  365.250    8.500    0.316    0.343   60.070
  365.500    7.020    0.339    0.363   61.520
  365.750    5.638    0.345    0.365   61.587
  366.000    4.806    0.348    0.363   61.053
  366.250    4.213    0.346    0.364   59.263
  366.500    3.869    0.341    0.363   56.576
  366.750    3.730    0.337    0.361   55.800
  367.000    3.615    0.334    0.365   55.151
  367.250    3.706    0.334    0.374   56.116
  367.500    3.848    0.342    0.375   58.700
  367.750    3.850    0.352    0.370   60.566
  368.000    3.954    0.345    0.369   60.754
  368.250    4.175    0.302    0.350   55.486
  368.500    4.417    0.262    0.340   60.410
  368.750    4.630    0.233    0.341   66.653
  369.000    4.772    0.207    0.357   72.897
  369.250    4.901    0.238    0.374   76.020
  369.500    4.903    0.240    0.392   79.265
  369.750    4.665    0.248    0.392   80.172
  370.000    4.430    0.258    0.381   79.761
  370.250    4.327    0.267    0.372   79.888
  370.500    4.329    0.261    0.372   80.614
  370.750    4.404    0.250    0.378   81.581
  371.000    4.481    0.243    0.369   83.029
  371.250    4.559    0.239    0.373   83.938
  371.500    4.647    0.240    0.391   84.602
  371.750    4.658    0.243    0.399   85.031
  372.000    4.540    0.250    0.395   84.318
  372.250    4.434    0.254    0.388   81.387
  372.500    4.387    0.246    0.391   81.036
  372.750    4.364    0.239    0.386   85.001
  373.000    4.367    0.232    0.376   87.166
  373.250    4.410    0.226    0.369   88.912
  373.500    4.420    0.225    0.369   88.920
  373.750    4.439    0.231    0.377   83.172
  374.000    4.441    0.243    0.383   82.100
  374.250    4.460    0.247    0.373   84.026
  374.500    4.470    0.249    0.365   87.631
  374.750    4.489    0.238    0.360   90.097
  375.000    4.491    0.228    0.364   91.304
  375.250    4.535    0.223    0.373   91.311
  375.500    4.546    0.214    0.372   89.280
  375.750    4.557    0.227    0.370   89.888
  376.000    4.543    0.227    0.373   91.695
  376.250    4.536    0.237    0.380   93.022
  376.500    4.538    0.244    0.380   92.429
  376.750    4.532    0.240    0.371   88.240
  377.000    4.535    0.234    0.368   83.391
  377.250    4.545    0.232    0.375   82.799
  377.500    4.573    0.234    0.382   82.570
  377.750    4.575    0.243    0.378   82.695
  378.000    4.569    0.255    0.367   83.843
  378.250    4.580    0.235    0.369   83.490
  378.500    4.582    0.236    0.378   80.201
  378.750    4.576    0.245    0.383   75.590
  379.000    4.587    0.258    0.376   79.495
  379.250    4.580    0.246    0.366   84.961
  379.500    4.532    0.231    0.368   86.466
  379.750    4.385    0.223    0.383   87.732
  380.000    4.156    0.228    0.389   87.260
  380.250    4.059    0.232    0.376   85.890
  380.500    4.168    0.240    0.372   87.575
  380.750    4.248    0.236    0.384   90.041
  381.000    4.347    0.238    0.376   92.269
  381.250    4.432    0.230    0.375   92.394
  381.500    4.424    0.229    0.387   90.423
  381.750    4.369    0.232    0.414   86.955
  382.000    4.042    0.252    0.405   84.803
  382.250    3.624    0.284    0.375   86.729
  382.500    3.153    0.276    0.378   92.492
  382.750    2.486    0.271    0.426   96.756
  383.000    2.123    0.263    0.473   98.623
  383.250    1.837    0.268    0.506   97.371
  383.500    1.628    0.274    0.490   91.564
  383.750    1.501    0.278    0.506   89.053
  384.000    1.496    0.279    0.493   90.080
  384.250    1.621    0.262    0.499   93.025
  384.500    1.821    0.252    0.435   94.651
  384.750    2.103    0.241    0.398   93.940
  385.000    2.414    0.238    0.379   87.352
  385.250    2.701    0.256    0.370   79.746
  385.500    3.033    0.265    0.366   78.915
  385.750    3.331    0.272    0.372   82.939
  386.000    3.524    0.260    0.367   86.784
  386.250    3.708    0.252    0.363   88.470
  386.500    3.886    0.250    0.361   89.017
  386.750    4.051    0.255    0.365   87.046
  387.000    4.152    0.264    0.365   83.577
  387.250    4.193    0.275    0.365   81.846
  387.500    4.195    0.277    0.367   79.215
  387.750    4.221    0.279    0.371   74.846
  388.000    4.270    0.273    0.380   69.220
  388.250    4.296    0.265    0.368   67.607
  388.500    4.227    0.275    0.356   70.972
  388.750    3.911    0.291    0.353   73.737
  389.000    3.473    0.305    0.362   75.606
  389.250    3.160    0.322    0.366   75.251
  389.500    3.029    0.331    0.359   64.528
  389.750    3.003    0.328    0.349   54.943
  390.000    3.055    0.323    0.350   53.093
  390.250    3.114    0.327    0.357   53.281
  390.500    3.168    0.316    0.361   53.407
  390.750    3.205    0.310    0.357   54.555
  391.000    3.213    0.308    0.356   55.282
  391.250    3.214    0.304    0.360   55.531
  391.500    3.210    0.305    0.360   55.417
  391.750    3.182    0.313    0.357   54.165
  392.000    3.160    0.324    0.356   51.055
  392.250    3.138    0.329    0.356   49.084
  392.500    3.087    0.322    0.361   50.830
  392.750    3.015    0.320    0.365   51.497
  393.000    2.955    0.317    0.363   48.747
  393.250    2.902    0.327    0.359   50.253
  393.500    2.855    0.335    0.358   53.319
  393.750    2.820    0.336    0.358   57.407
  394.000    2.805    0.335    0.358   58.910
  394.250    2.781    0.333    0.356   60.716
  394.500    2.767    0.338    0.354   61.564
  394.750    2.768    0.343    0.351   59.953
  395.000    2.780    0.350    0.353   60.859
  395.250    2.786    0.356    0.356   62.785
  395.500    2.798    0.347    0.363   63.213
  395.750    2.815    0.335    0.368   62.620
  396.000    2.848    0.340    0.367   61.489
  396.250    2.925    0.343    0.364   61.856
  396.500    2.965    0.328    0.369   62.824
  396.750    2.999    0.310    0.381   63.973
  397.000    3.024    0.301    0.386   65.237
  397.250    3.099    0.301    0.381   67.284
  397.500    3.194    0.305    0.374   68.130
  397.750    3.299    0.313    0.364   67.597
  398.000    3.438    0.315    0.359   67.905
  398.250    3.531    0.318    0.357   72.409
  398.500    3.592    0.319    0.355   71.877
  398.750    3.628    0.291    0.357   72.064
  399.000    3.650    0.279    0.362   75.612
  399.250    3.551    0.270    0.374   77.237
  399.500    3.347    0.260    0.384   78.142
  399.750    3.239    0.256    0.404   79.590
  400.000    3.199    0.254    0.431   80.616
  400.250    3.124    0.251    0.445   81.703
  400.500    3.102    0.247    0.415   81.950
  400.750    3.046    0.246    0.389   81.181
  401.000    3.420    0.248    0.373   80.348
  401.250    4.009    0.249    0.384   79.036
  401.500    4.218    0.238    0.385   79.823
  401.750    4.348    0.222    0.365   81.090
  402.000    4.465    0.208    0.357   84.275
  402.250    4.542    0.209    0.356   86.500
  402.500    4.596    0.221    0.358   86.927
  402.750    4.555    0.227    0.361   85.976
  403.000    4.326    0.236    0.361   85.504
  403.250    3.943    0.237    0.360   87.250
  403.500    3.628    0.243    0.389   88.877
  403.750    3.401    0.267    0.427   90.504
  404.000    3.212    0.288    0.421   91.109
  404.250    3.067    0.271    0.419   87.160
  404.500    2.940    0.249    0.424   92.085
  404.750    2.834    0.254    0.411   96.890
  405.000    2.697    0.265    0.409   98.696
  405.250    2.585    0.274    0.433   98.222
