~VERSION INFORMATION
 VERS.                 2.0:   CWLS LOG ASCII STANDARD -VERSION 2.0
 WRAP.                  NO:   ONE LINE PER DEPTH STEP
~WELL INFORMATION BLOCK
#MNEM.UNIT           DATA                    DESCRIPTION OF MNEMONIC
#---------    -------------------            -------------------------------
# Generated from Intellog Unique Number	CC_84_87/WELL/1167
NULL.         -999.25                        : NULL_VALUE
WELL.         HB GORDON LK EV                : Well_name    - WELL
LOC .         07-24-086-03W4                 : Location     - LOCATION          
UWI .         00/07-24-086-03W400            : Uwi          - UNIQUE WELL ID    
ENTR.         DW                             : Entered      - ENTERED BY        
SRVC.         SCHLUMBERGER                   : Scn          - SERVICE COMPANY   
DATE.         13 MAR 76                      : Date         - LOG DATE
STRT.M        33.528                         : top_depth    - START DEPTH       
STOP.M        195.071                        : bot_depth    - STOP DEPTH        
STEP.M        0.3048                         : increment    - STEP LENGTH       
~CURVE INFORMATION BLOCK
#MNEM UNIT       ERCB CURVE CODE    CURVE DESCRIPTION
#-----------   ------------------   ----------------------------------
DEPT.M        00 001 00 00         : DEPTH        - DEPTH                       
DPHI.V/V      00 890 00 00         : PHID         - DENSITY POROSITY (LIMESTONE)
NPHI.V/V      00 330 00 00         : PHIN         - NEUTRON POROSITY (LIMESTONE)
GR  .API      00 310 00 00         : GR           - GAMMA RAY                   
ILD .OHMM     00 120 00 00         : RESD         - DEEP RESISTIVITY (DIL)      
~PARAMETER INFORMATION       
#MNEM.UNIT           DATA             DESCRIPTION OF MNEMONIC
#---------         -----------     ------------------------------
GL  .M        474.878              : gl           - GROUND LEVEL ELEVATION      
EREF.M        476.707              : kb           - ELEVATION OF DEPTH REFERENCE
DATM.M        476.707              : datum        - DATUM ELEVATION             
TDD .M        199.034              : tdd          - TOTAL DEPTH DRILLER         
RUN .         ONE                  : Run          - RUN NUMBER                  
ENG .         BILL                 : Engineer     - RECORDING ENGINEER          
WIT .         JIM                  : Witness      - WITNESSED BY                
MUD .         GEL                  : Mud_type     - MUD TYPE                    
MATR.         LIMESTONE            : Logunit      - NEUTRON MATRIX              
TMAX.C        20.5556              : BHT          - MAXIMUM RECORDED TEMPERATURE
BHTD.M        199.034              : BHTDEP       - MAXIMUM RECORDED TEMPERATURE
MATR.         1                    : LOGUNIT      - NEUTRON MATRIX              
RMT .C        25                   : MDTP         - TEMPERATURE OF MUD          
NEUT.         1                    : NEUTRON      - NEUTRON TYPE                
RESI.         0                    : RESIST       - RESISTIVITY TYPE            
RMC .OHMM     0.25                 : RMC          - RESISTIVITY OF MUD CAKE     
RMF .OHMM     0.25                 : RMF          - RESISTIVITY OF MUD FILTRATE 
SUFT.C        15                   : SUFT         - SURFACE TEMPERATURE         
~A  DEPTH     PHID     PHIN       GR     RESD
# ...
  139.598    0.307    0.624   93.145    3.500
  139.903    0.297    0.591   93.145    4.292
  140.208    0.281    0.529   96.169    4.622
  140.513    0.309    0.527  101.008    5.564
  140.818    0.290    0.545  101.008    5.993
  141.122    0.294    0.521   97.984    6.337
  141.427    0.263    0.489   94.960    5.466
  141.732    0.251    0.500   96.774    5.269
  142.037    0.268    0.543  101.008    5.368
  142.342    0.313    0.561  102.823    5.782
  142.646    0.314    0.529   90.121    6.961
  142.951    0.296    0.489   85.282    7.224
  143.256    0.262    0.470   89.516    7.361
  143.561    0.255    0.468   96.774    6.468
  143.866    0.258    0.500  105.242    5.181
  144.170    0.285    0.549  107.661    4.812
  144.475    0.308    0.601  105.847    4.554
  144.780    0.320    0.602  102.823    4.555
  145.085    0.277    0.555  103.427    4.556
  145.389    0.284    0.536  104.032    4.642
  145.694    0.330    0.558  103.427    4.475
  145.999    0.283    0.540  103.427    4.006
  146.304    0.284    0.549  107.056    3.790
  146.609    0.306    0.581  108.871    3.722
  146.913    0.306    0.592  110.081    3.722
  147.218    0.278    0.553  109.476    3.863
  147.523    0.292    0.540  105.242    4.318
  147.828    0.285    0.526   99.194    4.566
  148.133    0.308    0.556  102.218    5.296
  148.437    0.269    0.515  100.403    5.811
  148.742    0.256    0.478   99.194    6.032
  149.047    0.234    0.449  104.637    5.923
  149.352    0.251    0.461  105.847    6.263
  149.657    0.262    0.470   96.774    6.622
  149.961    0.246    0.438   85.887    6.873
  150.266    0.261    0.424   81.048    7.136
  150.571    0.273    0.442   81.048    7.137
  150.876    0.296    0.453   80.444    7.272
  151.181    0.273    0.438   79.839    7.410
  151.485    0.263    0.410   76.210    7.412
  151.790    0.247    0.381   62.298    7.413
  152.095    0.262    0.364   68.952    7.415
  152.400    0.298    0.396   71.976    7.281
  152.705    0.314    0.404   71.371    7.017
  153.009    0.314    0.402   71.976    6.519
  153.314    0.309    0.416   75.605    6.401
  153.619    0.300    0.413   76.814    6.402
  153.924    0.294    0.420   75.605    6.524
  154.229    0.303    0.443   72.581    6.647
  154.533    0.302    0.427   68.347    6.648
  154.838    0.290    0.404   54.435    6.650
  155.143    0.301    0.379   62.903    6.776
  155.448    0.315    0.396   67.137    6.654
  155.753    0.297    0.433   58.065    6.655
  156.057    0.290    0.409   59.879    6.535
  156.362    0.301    0.388   64.113    6.536
  156.667    0.308    0.398   65.323    6.660
  156.972    0.292    0.420   70.161    6.786
  157.276    0.289    0.430   76.210    6.915
  157.581    0.290    0.413   84.677    6.917
  157.886    0.281    0.407   89.516    6.792
  158.191    0.266    0.403   90.726    6.668
  158.496    0.252    0.403   88.306    6.670
  158.800    0.263    0.414   87.097    6.671
  159.105    0.280    0.433   88.911    6.550
  159.410    0.271    0.437   88.911    6.676
  159.715    0.249    0.444   86.492    6.677
  160.020    0.261    0.438   82.863    6.679
  160.324    0.263    0.430   75.000    6.558
  160.629    0.267    0.414   64.113    6.439
  160.934    0.306    0.398   58.669    6.322
  161.239    0.339    0.394   58.669    6.324
  161.544    0.292    0.376   69.556    6.444
  161.848    0.273    0.386   78.024    6.445
  162.153    0.277    0.390   82.258    6.567
  162.458    0.267    0.391   79.839    6.569
  162.763    0.262    0.390   76.210    6.570
  163.068    0.255    0.367   79.234    6.695
  163.372    0.254    0.373   77.419    6.696
  163.677    0.269    0.399   86.492    6.575
  163.982    0.288    0.393   88.306    6.337
  164.287    0.303    0.380   73.186    6.109
  164.592    0.296    0.364   73.790    6.703
  164.896    0.244    0.334   91.936    7.355
  165.201    0.178    0.343   97.984    7.777
  165.506    0.201    0.384   96.774    8.534
  165.811    0.212    0.403   99.798    8.695
  166.116    0.186    0.412  103.427    8.697
  166.420    0.187    0.420  105.847    8.384
  166.725    0.188    0.425  107.056    8.702
  167.030    0.169    0.426  108.266    8.545
  167.335    0.167    0.435  114.919    8.706
  167.639    0.205    0.453  116.129    8.708
  167.944    0.199    0.459  116.129    8.873
  168.249    0.188    0.446  105.242    8.875
  168.554    0.199    0.416  110.081    8.878
  168.859    0.189    0.427  113.105    9.046
  169.163    0.201    0.449  114.919    8.882
  169.468    0.189    0.458  116.129    8.885
  169.773    0.178    0.458  119.758    8.724
  170.078    0.178    0.461  116.129    8.566
  170.383    0.215    0.454  116.734    8.568
  170.687    0.208    0.461  118.548    8.413
  170.992    0.214    0.464  119.153    8.261
  171.297    0.214    0.463  118.548    8.262
  171.602    0.201    0.443  117.944    8.264
  171.907    0.195    0.432  119.153    8.266
  172.211    0.197    0.437  118.548    8.268
  172.516    0.200    0.436  122.782    8.119
  172.821    0.211    0.430  124.597    8.120
  173.126    0.234    0.452  125.806    8.429
  173.431    0.232    0.475  124.597    8.750
  173.735    0.220    0.492  120.968    8.751
  174.040    0.197    0.475  117.944    8.754
  174.345    0.218    0.459  116.129    8.755
  174.650    0.218    0.455  120.363    8.758
  174.955    0.220    0.449  123.387    8.760
  175.259    0.221    0.444  123.992    8.763
  175.564    0.203    0.435  125.806    8.929
  175.869    0.197    0.472  125.806    9.097
  176.174    0.189    0.480  123.992    9.444
  176.479    0.193    0.455  122.782    9.446
  176.783    0.206    0.449  124.597    9.624
  177.088    0.214    0.461  125.202    9.626
  177.393    0.216    0.475  129.435    9.452
  177.698    0.228    0.483  130.645    9.282
  178.002    0.239    0.492  132.460    9.114
  178.307    0.225    0.497  126.411    8.948
  178.612    0.192    0.487  118.548    8.951
  178.917    0.178    0.474  115.524    8.788
  179.222    0.191    0.465  111.895    8.956
  179.526    0.203    0.471  101.008    8.957
  179.831    0.216    0.483   99.798    8.959
  180.136    0.233    0.455  104.637    8.796
  180.441    0.210    0.424  109.476    8.800
  180.746    0.185    0.429  112.500    8.966
  181.050    0.237    0.438  117.339    9.135
  181.355    0.210    0.437  120.968    9.139
  181.660    0.200    0.453  123.992    8.973
  181.965    0.192    0.464  128.831    8.648
  182.270    0.203    0.478  136.089    8.491
  182.574    0.219    0.469  148.790    8.339
  182.879    0.234    0.474  158.468    8.188
  183.184    0.197    0.499  159.677    8.040
  183.489    0.194    0.492  158.468    8.041
  183.794    0.208    0.475  151.815    8.043
  184.098    0.209    0.458  145.766    7.472
  184.403    0.209    0.443  139.718    7.335
  184.708    0.182    0.431  133.065    7.475
  185.013    0.194    0.415  125.806    7.476
  185.318    0.200    0.417   98.589    7.478
  185.622    0.212    0.406   93.145    7.076
  185.927    0.228    0.393   90.121    6.573
  186.232    0.234    0.392   90.726    6.105
  186.537    0.222    0.393   90.121    5.885
  186.842    0.238    0.383   83.468    5.568
  187.146    0.257    0.368   76.210    5.367
  187.451    0.270    0.362   74.395    4.893
  187.756    0.274    0.389   74.395    4.545
  188.061    0.285    0.402   66.532    4.222
  188.365    0.290    0.395   69.556    4.145
  188.670    0.282    0.379   73.790    3.996
  188.975    0.276    0.379   75.605    3.997
  189.280    0.270    0.384   78.629    4.226
  189.585    0.250    0.384   82.258    4.468
  189.889    0.219    0.374   88.911    5.792
  190.194    0.064    0.387   79.839    7.370
  190.499    0.036    0.378   74.395   10.675
  190.804    0.011    0.349   76.814   14.627
  191.109    0.028    0.270   79.839   17.936
  191.413    0.035    0.282   79.234   19.682
  191.718    0.045    0.250   75.605   20.054
  192.023    0.021    0.302   16.331   20.434
  192.328    0.044    0.324    9.073   21.209
