~VERSION INFORMATION
 VERS.                 2.0:   CWLS LOG ASCII STANDARD -VERSION 2.0
 WRAP.                  NO:   ONE LINE PER DEPTH STEP
~WELL INFORMATION BLOCK
#MNEM.UNIT           DATA                    DESCRIPTION OF MNEMONIC
#---------    -------------------            -------------------------------
# Generated from Intellog Unique Number	CN_91_93/WELL/3138
WELL.         07-12-092-18W4                 : Well_name    - WELL
LOC .         00/07-12-092-18W4/0            : Location     - LOCATION
UWI .         00/07-12-092-18W400            : Uwi          - UNIQUE WELL ID
ENTR.         JOETTE                         : Entered      - ENTERED BY
SRVC.         SCHLUMBERGER                   : Scn          - SERVICE COMPANY
DATE.         04\12\92                       : Date         - LOG DATE
STRT.M        115                            : top_depth    - START DEPTH
STOP.M        265                            : bot_depth    - STOP DEPTH
STEP.M        0.25                           : increment    - STEP LENGTH
 NULL. -999.2500:NULL Value
~CURVE INFORMATION BLOCK
#MNEM UNIT       ERCB CURVE CODE    CURVE DESCRIPTION
#-----------   ------------------   ----------------------------------
DEPT.M        00 001 00 00         : DEPTH        - DEPTH
CALI.MM       00 280 01 00         : CAL          - CALIPER
GR  .API      00 310 00 00         : GR           - GAMMA RAY
NPHI.V/V      00 330 00 00         : PHIN         - NEUTRON POROSITY (SANDSTONE)
DPHI.V/V      00 890 00 00         : PHID         - DENSITY POROSITY (SANDSTONE)
ILD .OHMM     00 120 00 00         : RESD         - DEEP RESISTIVITY (DIL)
~PARAMETER INFORMATION
#MNEM.UNIT           DATA             DESCRIPTION OF MNEMONIC
#---------         -----------     ------------------------------
GL  .M        517.74               : gl           - GROUND LEVEL ELEVATION
EREF.M        520.74               : kb           - ELEVATION OF DEPTH REFERENCE
DATM.M        520.74               : datum        - DATUM ELEVATION
TDD .M        267.5                : tdd          - TOTAL DEPTH DRILLER
RUN .         ONE                  : Run          - RUN NUMBER
ENG .         JO                   : Engineer     - RECORDING ENGINEER
WIT .         TIM                  : Witness      - WITNESSED BY
MUD .         GEL                  : Mud_type     - MUD TYPE
MATR.         SANDSTONE            : Logunit      - NEUTRON MATRIX
TMAX.C        20                   : BHT          - MAXIMUM RECORDED TEMPERATURE
BHTD.M        267.5                : BHTDEP       - MAXIMUM RECORDED TEMPERATURE
RMT .C        16                   : MDTP         - TEMPERATURE OF MUD
MUDD.KG/M     1120                 : MWT          - MUD DENSITY
NEUT.         1                    : NEUTRON      - NEUTRON TYPE
RESI.         0                    : RESIST       - RESISTIVITY TYPE
RM  .OHMM     6.99                 : RM           - RESISTIVITY OF MUD
RMC .OHMM     6.99                 : RMC          - RESISTIVITY OF MUD CAKE
RMF .OHMM     6.55                 : RMF          - RESISTIVITY OF MUD FILTRATE
SUFT.C        4                    : SUFT         - SURFACE TEMPERATURE
~A  DEPTH      CAL       GR     PHIN     PHID     RESD
# ...
  151.500  169.659   93.599    0.457    0.242    8.129
  151.750  171.693   91.143    0.509    0.254    7.100
  152.000  174.749   89.912    0.483    0.244    6.442
  152.250  174.740   91.132    0.447    0.249    6.194
  152.500  174.731   92.966    0.467    0.253    5.837
  152.750  175.744   93.573    0.482    0.247    5.722
  153.000  175.733   93.567    0.505    0.242    5.604
  153.250  175.722   94.789    0.487    0.255    5.598
  153.500  175.713   98.461    0.470    0.269    5.805
  153.750  176.723   98.456    0.472    0.270    6.141
  154.000  177.740   96.612    0.482    0.259    7.143
  154.250  177.729   90.476    0.486    0.249   10.640
  154.500  178.744   88.632    0.484    0.226   11.918
  154.750  177.714   86.787    0.483    0.200   16.155
  155.000  175.660   84.331    0.474    0.185   16.765
  155.250  173.608   78.810    0.441    0.194   18.772
  155.500  168.492   74.515    0.435    0.195   21.018
  155.750  165.419   71.445    0.439    0.171   23.525
  156.000  164.389   70.214    0.415    0.091   25.363
  156.250  165.403   68.370    0.293    0.129   25.327
  156.500  167.435   65.913    0.345    0.160   22.128
  156.750  171.512   68.359    0.388    0.199   12.701
  157.000  174.568   76.322    0.402    0.118   10.087
  157.250  176.600   92.864    0.383    0.139    8.008
  157.500  179.656  101.438    0.481    0.207    7.132
  157.750  181.692   98.983    0.510    0.220    6.473
  158.000  182.705   98.364    0.493    0.209    6.104
  158.250  183.715  107.551    0.457    0.209    5.756
  158.500  183.706  111.835    0.476    0.216    5.639
  158.750  184.719  116.121    0.507    0.216    5.738
  159.000  182.667  118.566    0.501    0.200    5.729
  159.250  181.639  115.497    0.480    0.174    5.721
  159.500  180.607  110.589    0.493    0.169    5.607
  159.750  180.600  109.970    0.496    0.176    5.493
  160.000  179.568  110.578    0.493    0.175    5.591
  160.250  176.494  113.023    0.482    0.166    5.911
  160.500  176.488  113.632    0.480    0.169    6.494
  160.750  177.500  109.950    0.518    0.166    7.699
  161.000  177.487   98.300    0.549    0.154   11.919
  161.250  176.457   78.682    0.519    0.068   13.608
  161.500  173.384   56.611    0.280   -0.007   16.128
  161.750  170.313   59.671    0.225    0.035   15.502
  162.000  168.261   74.987    0.293    0.053   13.293
  162.250  167.231   90.917    0.392    0.107   13.269
  162.500  171.308   93.364    0.392    0.157   15.440
  162.750  173.342   92.744    0.386    0.216   19.385
  163.000  171.288   95.190    0.368    0.228   22.123
  163.250  168.217   96.411    0.367    0.202   22.508
  163.500  167.184   92.117    0.367    0.183   20.824
  163.750  167.178   85.982    0.342    0.145   19.266
  164.000  168.190   87.203    0.306    0.169   18.874
  164.250  173.289   98.230    0.366    0.199   18.498
  164.500  180.428   99.449    0.398    0.197   17.430
  164.750  180.420   98.832    0.424    0.199   16.766
  165.000  183.475  101.278    0.425    0.202   15.506
  165.250  186.531  101.886    0.421    0.195   14.335
  165.500  185.501   98.202    0.430    0.195   14.049
  165.750  182.423  100.034    0.441    0.201   14.028
  166.000  180.373   98.803    0.455    0.199   14.558
  166.250  177.302   95.122    0.456    0.144   15.685
  166.500  173.203   94.502    0.415    0.084   16.277
  166.750  172.177   96.950    0.428    0.149   17.536
  167.000  183.405   98.783    0.435    0.180   18.192
  167.250  186.458  100.004    0.449    0.232   18.872
  167.500  185.428   98.160    0.457    0.252   18.852
  167.750  184.400   95.703    0.446    0.261   19.557
  168.000  180.303   95.083    0.408    0.253   21.077
  168.250  176.210   95.691    0.378    0.231   21.849
  168.500  168.028   98.138    0.371    0.210   21.826
  168.750  164.952   97.520    0.382    0.221   21.382
  169.000  164.943   93.224    0.381    0.209   20.163
  169.250  164.932   91.994    0.370    0.214   19.380
  169.500  163.904   91.373    0.379    0.243   19.352
  169.750  163.895   92.593    0.397    0.251   19.324
  170.000  163.884   96.878    0.407    0.246   19.303
  170.250  163.880   97.487    0.412    0.250   19.268
  170.500  165.914   95.642    0.415    0.259   18.877
  170.750  167.946   92.574    0.412    0.251   18.500
  171.000  167.939   92.568    0.403    0.240   18.124
  171.250  167.928   96.853    0.403    0.231   17.756
  171.500  166.898   99.298    0.415    0.224   17.389
  171.750  165.870  100.519    0.412    0.224   17.357
  172.000  165.859   95.610    0.418    0.230   17.672
  172.250  165.848   91.929    0.417    0.230   18.686
  172.500  164.818   90.698    0.409    0.236   20.132
  172.750  163.788   90.691    0.405    0.255   20.483
  173.000  163.777   90.687    0.360    0.212   20.081
  173.250  164.794   91.294    0.345    0.158   17.876
  173.500  164.785   93.740    0.362    0.165   16.863
  173.750  166.819   98.638    0.393    0.183   14.445
  174.000  174.982  103.536    0.409    0.215   13.621
  174.250  182.123   99.240    0.429    0.211   13.874
  174.500  179.050   93.719    0.453    0.211   14.670
  174.750  174.956   95.552    0.476    0.169   15.805
  175.000  171.882   96.160    0.417    0.154   15.782
  175.250  174.938   92.476    0.397    0.195   14.882
  175.500  175.951   92.472    0.423    0.211   14.866
  175.750  174.918   93.692    0.435    0.239   17.959
  176.000  173.890   94.300    0.412    0.236   14.263
  176.250  172.858   91.843    0.388    0.178   10.297
  176.500  172.849  101.644    0.354    0.152    7.293
  176.750  175.904  112.058    0.407    0.204    6.249
  177.000  177.939  109.601    0.456    0.250    7.269
  177.250  180.994  104.691    0.512    0.229   10.632
  177.500  182.007   99.782    0.535    0.209   11.242
  177.750  178.934   96.100    0.532    0.198   12.116
  178.000  175.858   89.966    0.517    0.184   12.569
  178.250  174.828   89.347    0.466    0.163   12.555
  178.500  174.819   91.794    0.444    0.172   12.537
  178.750  174.812   95.466    0.434    0.182   12.514
  179.000  175.825   98.525    0.437    0.190   12.264
  179.250  176.836   99.133    0.430    0.199   12.015
  179.500  177.850   99.741    0.429    0.193   12.220
  179.750  179.882  100.960    0.432    0.187   12.447
  180.000  181.917  101.569    0.427    0.185   14.204
  180.250  180.886  102.176    0.454    0.198   16.841
  180.500  174.746   99.719    0.445    0.178   19.220
  180.750  170.652   94.198    0.424    0.151   20.707
  181.000  167.576   87.449    0.360    0.069   20.279
  181.250  166.550   91.735    0.320    0.091   19.881
  181.500  166.542   95.406    0.366    0.206   19.845
  181.750  165.509   96.013    0.385    0.227   20.205
  182.000  165.502   94.782    0.387    0.241   20.946
  182.250  164.472   92.327    0.377    0.239   20.923
  182.500  163.438   92.934    0.359    0.225   22.116
  182.750  163.431   96.605    0.365    0.230   22.517
  183.000  162.403   95.374    0.376    0.221   23.368
  183.250  161.373   93.531    0.390    0.214   24.691
  183.500  160.340   94.139    0.388    0.245   25.632
  183.750  159.310   93.519    0.380    0.263   29.816
  184.000  159.301   89.838    0.365    0.281   36.726
  184.250  159.288   83.704    0.319    0.254   55.803
  184.500  159.283   80.633    0.293    0.142   63.661
  184.750  159.270   75.725    0.271    0.083   51.553
  185.000  159.266   68.365    0.262    0.077   33.819
  185.250  159.257   68.972    0.261    0.095   31.891
  185.500  159.244   72.644    0.317    0.116   40.053
  185.750  160.259   76.929    0.369    0.143   48.403
  186.000  161.269   78.147    0.400    0.176   50.213
  186.250  162.286   75.080    0.407    0.202   47.351
  186.500  164.320   70.171    0.314    0.131   42.964
  186.750  163.290   70.779    0.293    0.073   42.091
  187.000  161.236   73.837    0.267    0.099   48.036
  187.250  160.204   74.445    0.301    0.153   56.974
  187.500  160.195   71.376    0.320    0.282   68.827
  187.750  160.188   67.081    0.324    0.275   63.700
