~VERSION INFORMATION
 VERS.                 2.0:   CWLS LOG ASCII STANDARD -VERSION 2.0
 WRAP.                  NO:   ONE LINE PER DEPTH STEP
~WELL INFORMATION BLOCK
#MNEM.UNIT           DATA                    DESCRIPTION OF MNEMONIC
#---------    -------------------            -------------------------------
# Generated from Intellog Unique Number	CS_67_68/WELL/620
WELL.         AEC FISH CREEK                 : Well_name    - WELL
LOC .         00/01-26-068-08W4/0            : Location     - LOCATION
UWI .         00/01-26-068-08W4/0            : Uwi          - UNIQUE WELL ID
ENTR.         SP                             : Entered      - ENTERED BY
SRVC.         SCHLUMBERGER                   : Scn          - SERVICE COMPANY
STRT.M        270                            : top_depth    - START DEPTH
STOP.M        495                            : bot_depth    - STOP DEPTH
STEP.M        0.25                           : increment    - STEP LENGTH
 NULL. -999.2500:NULL Value
~CURVE INFORMATION BLOCK
#MNEM UNIT       ERCB CURVE CODE    CURVE DESCRIPTION
#-----------   ------------------   ----------------------------------
DEPT.M        00 001 00 00         : DEPTH        - DEPTH
ILD .OHMM     00 120 00 00         : RESD         - DEEP RESISTIVITY (DIL)
DPHI.V/V      00 890 00 00         : PHID         - DENSITY POROSITY (LIMESTONE)
NPHI.V/V      00 330 00 00         : PHIN         - NEUTRON POROSITY (LIMESTONE)
GR  .API      00 310 00 00         : GR           - GAMMA RAY
~PARAMETER INFORMATION
#MNEM.UNIT           DATA             DESCRIPTION OF MNEMONIC
#---------         -----------     ------------------------------
GL  .M        602.15               : gl           - GROUND LEVEL ELEVATION
EREF.M        605.73               : kb           - ELEVATION OF DEPTH REFERENCE
DATM.M        602.15               : datum        - DATUM ELEVATION
TDD .M        505                  : tdd          - TOTAL DEPTH DRILLER
RUN .         ONE                  : Run          - RUN NUMBER
ENG .         BILL                 : Engineer     - RECORDING ENGINEER
WIT .         JIM                  : Witness      - WITNESSED BY
MUD .         GEL                  : Mud_type     - MUD TYPE
MATR.         LIMESTONE            : Logunit      - NEUTRON MATRIX
TMAX.C        22                   : BHT          - MAXIMUM RECORDED TEMPERATURE
BHTD.M        505                  : BHTDEP       - MAXIMUM RECORDED TEMPERATURE
MATR.         1                    : LOGUNIT      - NEUTRON MATRIX
RMT .C        25                   : MDTP         - TEMPERATURE OF MUD
NEUT.         1                    : NEUTRON      - NEUTRON TYPE
RESI.         0                    : RESIST       - RESISTIVITY TYPE
RMC .OHMM     0.25                 : RMC          - RESISTIVITY OF MUD CAKE
RMF .OHMM     0.25                 : RMF          - RESISTIVITY OF MUD FILTRATE
SUFT.C        15                   : SUFT         - SURFACE TEMPERATURE
~A  DEPTH     RESD     PHID     PHIN       GR
# ...
  444.000    7.536    0.257    0.372  110.922
  444.250    7.565    0.251    0.381  116.158
  444.500    7.738    0.244    0.390  122.068
  444.750    8.330    0.236    0.378  119.862
  445.000    9.086    0.222    0.357  111.694
  445.250   10.137    0.207    0.348  109.674
  445.500   11.078    0.200    0.349  101.568
  445.750   11.680    0.197    0.365   90.634
  446.000   12.245    0.233    0.378   80.192
  446.250   12.454    0.267    0.388   68.827
  446.500   11.993    0.312    0.380   67.852
  446.750   11.505    0.319    0.394   72.289
  447.000   11.016    0.322    0.403   70.205
  447.250    9.744    0.315    0.400   73.719
  447.500    9.347    0.304    0.378   79.751
  447.750    8.866    0.310    0.377   85.047
  448.000    8.113    0.322    0.388   81.613
  448.250    7.537    0.330    0.379   61.764
  448.500    7.326    0.331    0.378   52.921
  448.750    7.299    0.334    0.389   56.003
  449.000    7.396    0.338    0.377   63.697
  449.250    7.537    0.344    0.379   70.652
  449.500    7.623    0.347    0.389   75.886
  449.750    7.666    0.342    0.395   74.665
  450.000    7.666    0.335    0.399   76.148
  450.250    7.594    0.326    0.382   79.539
  450.500    7.410    0.306    0.366   81.022
  450.750    7.299    0.290    0.359   79.556
  451.000    7.122    0.275    0.349   81.164
  451.250    6.936    0.263    0.339   85.475
  451.500    6.794    0.251    0.335   93.414
  451.750    6.679    0.239    0.335   99.692
  452.000    6.530    0.231    0.339  106.095
  452.250    6.335    0.230    0.359  110.038
  452.500    6.300    0.235    0.379  112.198
  452.750    6.264    0.239    0.371  111.285
  453.000    6.240    0.237    0.361  109.819
  453.250    6.323    0.226    0.349  108.105
  453.500    6.395    0.216    0.343  107.683
  453.750    6.493    0.207    0.353  109.106
  454.000    6.554    0.202    0.361  112.312
  454.250    6.629    0.198    0.364  112.750
  454.500    6.679    0.197    0.360  111.223
  454.750    6.756    0.203    0.360  107.973
  455.000    6.820    0.208    0.361  103.247
  455.250    6.859    0.214    0.364   99.383
  455.500    6.911    0.220    0.364   96.134
  455.750    6.911    0.228    0.358   93.745
  456.000    6.820    0.232    0.352   97.502
  456.250    6.781    0.219    0.347  107.347
  456.500    6.820    0.208    0.355  115.471
  456.750    6.885    0.210    0.369  120.460
  457.000    6.963    0.205    0.367  124.464
  457.250    7.163    0.196    0.353  126.932
  457.500    7.799    0.187    0.341  126.018
  457.750    8.571    0.178    0.336  125.350
  458.000    9.491    0.187    0.352  122.346
  458.250   10.997    0.213    0.361   99.609
  458.500   12.293    0.206    0.345   83.449
  458.750   13.485    0.187    0.333   68.089
  459.000   12.504    0.168    0.321   54.941
  459.250   10.853    0.210    0.317   48.679
  459.500    9.261    0.269    0.342   54.898
  459.750    8.768    0.286    0.361   62.959
  460.000    8.316    0.281    0.358   71.820
  460.250    7.843    0.254    0.345   79.575
  460.500    7.682    0.227    0.340   86.531
  460.750    7.581    0.229    0.344   93.426
  461.000    7.496    0.216    0.336   97.244
  461.250    7.397    0.195    0.330   95.470
  461.500    7.287    0.170    0.327  103.348
  461.750    7.177    0.158    0.334  113.869
  462.000    7.137    0.151    0.343  126.172
  462.250    7.137    0.148    0.329  122.186
  462.500    7.205    0.143    0.323  117.829
  462.750    7.342    0.139    0.333  118.330
  463.000    7.384    0.144    0.339  118.830
  463.250    7.454    0.174    0.341  109.125
  463.500    7.539    0.200    0.341   97.453
  463.750    7.697    0.210    0.339   89.225
  464.000    7.963    0.217    0.336   86.343
  464.250    8.177    0.221    0.338   85.430
  464.500    8.254    0.211    0.329   87.283
  464.750    8.332    0.196    0.320   88.091
  465.000    8.459    0.182    0.318   87.976
  465.250    8.588    0.189    0.329   88.231
  465.500    8.670    0.204    0.330   92.358
  465.750    8.719    0.188    0.324   93.289
  466.000    8.735    0.152    0.319   85.737
  466.250    8.719    0.117    0.318   82.117
  466.500    8.752    0.157    0.333   93.622
  466.750    8.703    0.200    0.347   99.409
  467.000    8.670    0.230    0.350   97.451
  467.250    8.556    0.223    0.346  101.518
  467.500    8.460    0.215    0.346  107.551
  467.750    8.380    0.206    0.354  113.400
  468.000    8.317    0.201    0.364  106.769
  468.250    8.116    0.198    0.372   97.679
  468.500    8.024    0.209    0.377   91.049
  468.750    7.904    0.212    0.374   87.798
  469.000    7.800    0.208    0.368   88.483
  469.250    7.654    0.214    0.362   91.074
  469.500    7.483    0.242    0.359   91.696
  469.750    7.315    0.256    0.356   83.959
  470.000    7.111    0.256    0.349   78.005
  470.250    6.809    0.256    0.342   73.094
  470.500    6.581    0.257    0.340   72.980
  470.750    6.337    0.256    0.346   74.712
  471.000    6.172    0.257    0.354   75.334
  471.250    5.966    0.253    0.363   75.404
  471.500    5.658    0.267    0.372   72.031
  471.750    5.469    0.295    0.378   61.527
  472.000    5.347    0.312    0.384   48.257
  472.250    5.237    0.315    0.391   41.933
  472.500    5.120    0.316    0.379   41.881
  472.750    4.939    0.322    0.367   40.968
  473.000    4.829    0.313    0.360   45.218
  473.250    4.738    0.307    0.355   53.280
  473.500    4.580    0.314    0.358   50.460
  473.750    4.537    0.321    0.361   40.510
  474.000    4.486    0.325    0.356   33.879
  474.250    4.402    0.325    0.351   31.121
  474.500    4.320    0.325    0.346   32.359
  474.750    4.223    0.328    0.343   33.537
  475.000    4.144    0.333    0.351   33.300
  475.250    4.089    0.339    0.356   32.200
  475.500    4.036    0.341    0.357   31.779
  475.750    3.998    0.335    0.353   34.555
  476.000    3.923    0.325    0.350   36.652
  476.250    3.864    0.322    0.366   36.969
  476.500    3.821    0.333    0.380   34.826
  476.750    3.778    0.340    0.373   31.761
  477.000    3.735    0.344    0.370   30.662
  477.250    3.693    0.346    0.371   33.439
  477.500    3.672    0.349    0.377   35.537
  477.750    3.665    0.352    0.383   38.681
  478.000    3.645    0.356    0.389   40.348
  478.250    3.631    0.351    0.382   38.512
  478.500    3.604    0.347    0.376   35.018
  478.750    3.577    0.350    0.381   32.260
  479.000    3.550    0.357    0.386   29.195
  479.250    3.523    0.361    0.382   27.789
  479.500    3.510    0.357    0.379   30.810
  479.750    3.503    0.343    0.380   34.138
  480.000    3.510    0.330    0.374   39.864
  480.250    3.530    0.329    0.375   42.885
  480.500    3.543    0.342    0.387   44.000
  480.750    3.570    0.351    0.386   39.951
  481.000    3.590    0.350    0.399   36.210
  481.250    3.624    0.343    0.412   37.633
  481.500    3.645    0.339    0.407   40.346
  481.750    3.652    0.349    0.410   43.306
  482.000    3.666    0.352    0.410   45.158
  482.250    3.666    0.330    0.392   45.474
  482.500    3.645    0.321    0.381   50.032
  482.750    3.638    0.327    0.389   47.028
  483.000    3.624    0.338    0.396   41.258
  483.250    3.618    0.371    0.404   48.399
  483.500    3.604    0.347    0.412   51.419
  483.750    3.618    0.333    0.419   50.321
  484.000    3.638    0.339    0.407   46.579
  484.250    3.666    0.347    0.395   40.379
  484.500    3.666    0.351    0.383   43.892
  484.750    3.666    0.340    0.373   48.326
  485.000    3.645    0.333    0.365   50.118
  485.250    3.638    0.336    0.375   48.898
  485.500    3.625    0.342    0.385   42.144
  485.750    3.618    0.333    0.390   39.816
  486.000    3.604    0.322    0.381   42.715
  486.250    3.597    0.315    0.375   43.706
  486.500    3.604    0.331    0.368   43.284
  486.750    3.604    0.343    0.369   39.604
  487.000    3.597    0.350    0.376   36.232
  487.250    3.584    0.351    0.380   36.240
