~VERSION INFORMATION
 VERS.                 2.0:   CWLS LOG ASCII STANDARD -VERSION 2.0
 WRAP.                  NO:   ONE LINE PER DEPTH STEP
~WELL INFORMATION BLOCK
#MNEM.UNIT           DATA                    DESCRIPTION OF MNEMONIC
#---------    -------------------            -------------------------------
# Generated from Intellog Unique Number	nealta/WELL/2348
WELL.         CDN-SUP MARTEN 07-01           : Well_name    - WELL
LOC .         07-01-077-03W5                 : Location     - LOCATION
UWI .         00/07-01-077-03W5/0            : Uwi          - UNIQUE WELL ID
ENTR.         JAYE                           : Entered      - ENTERED BY
SRVC.         SCHLUMBERGER                   : Scn          - SERVICE COMPANY
DATE.         10 JAN 78                      : Date         - LOG DATE
STRT.M        480.06                         : top_depth    - START DEPTH
STOP.M        707.06                         : bot_depth    - STOP DEPTH
STEP.M        0.25                           : increment    - STEP LENGTH
 NULL. -999.2500:NULL Value
~CURVE INFORMATION BLOCK
#MNEM UNIT       ERCB CURVE CODE    CURVE DESCRIPTION
#-----------   ------------------   ----------------------------------
DEPT.M        00 001 00 00         : DEPTH        - DEPTH
NPHI.V/V      00 330 00 00         : PHIN         - NEUTRON POROSITY (SANDSTONE)
DPHI.V/V      00 890 00 00         : PHID         - DENSITY POROSITY (SANDSTONE)
ILD .OHMM     00 120 00 00         : RESD         - DEEP RESISTIVITY (DIL)
GR  .API      00 310 00 00         : GR           - GAMMA RAY
CALI.MM       00 280 01 00         : CAL          - CALIPER
~PARAMETER INFORMATION
#MNEM.UNIT           DATA             DESCRIPTION OF MNEMONIC
#---------         -----------     ------------------------------
GL  .M        769.925              : gl           - GROUND LEVEL ELEVATION
EREF.M        774.192              : kb           - ELEVATION OF DEPTH REFERENCE
DATM.M        769.925              : datum        - DATUM ELEVATION
TDD .M        736.092              : tdd          - TOTAL DEPTH DRILLER
RUN .         ONE                  : Run          - RUN NUMBER
ENG .         ACKERMAN/VAN STEENBE : Engineer     - RECORDING ENGINEER
WIT .         CRAIMAIN/SMAILES     : Witness      - WITNESSED BY
BASE.         EDMONTON             : Branch       - HOME BASE OF LOGGING UNIT
MUD .         GEL                  : Mud_type     - MUD TYPE
MATR.         SANDSTONE            : Logunit      - NEUTRON MATRIX
TMAX.C        27.7778              : BHT          - MAXIMUM RECORDED TEMPERATURE
BHTD.M        736.092              : BHTDEP       - MAXIMUM RECORDED TEMPERATURE
RMT .C        10                   : MDTP         - TEMPERATURE OF MUD
MUDD.KG/M     1140                 : MWT          - MUD DENSITY
NEUT.         1                    : NEUTRON      - NEUTRON TYPE
RESI.         0                    : RESIST       - RESISTIVITY TYPE
RM  .OHMM     2.95                 : RM           - RESISTIVITY OF MUD
RMC .OHMM     0                    : RMC          - RESISTIVITY OF MUD CAKE
RMF .OHMM     3.82                 : RMF          - RESISTIVITY OF MUD FILTRATE
SUFT.C        4.5                  : SUFT         - SURFACE TEMPERATURE
~A  DEPTH     PHIN     PHID     RESD       GR      CAL
# ...
  589.560    0.504    0.279    6.239   90.872  184.287
  589.810    0.502    0.276    6.065   96.279  184.775
  590.060    0.517    0.271    5.963   91.326  185.897
  590.310    0.505    0.285    5.929   85.621  186.390
  590.560    0.504    0.280    5.972   80.233  186.458
  590.810    0.515    0.282    6.117   75.591  186.105
  591.060    0.520    0.297    6.590   68.203  185.958
  591.310    0.494    0.288    7.342   61.501  186.334
  591.560    0.472    0.272    8.333   58.483  187.566
  591.810    0.454    0.255    9.709   60.082  188.688
  592.060    0.436    0.236   11.185   59.000  189.288
  592.310    0.406    0.194   12.415   58.540  189.456
  592.560    0.367    0.157   12.740   58.703  189.311
  592.810    0.335    0.179   12.203   56.870  188.640
  593.060    0.395    0.221   10.868   55.223  187.646
  593.310    0.423    0.232    8.999   56.573  186.870
  593.560    0.439    0.238    9.133   60.108  186.617
  593.810    0.445    0.197   10.080   63.081  187.004
  594.060    0.390    0.075   11.832   58.688  187.382
  594.310    0.264    0.027   15.389   55.546  187.557
  594.560    0.230    0.043   17.241   54.147  187.631
  594.810    0.238    0.064   16.824   56.498  187.900
  595.060    0.248    0.065   15.495   61.095  188.290
  595.310    0.263    0.102   13.646   63.813  188.772
  595.560    0.293    0.107   11.817   63.418  189.268
  595.810    0.317    0.151    9.445   67.638  189.446
  596.060    0.313    0.202    7.354   76.100  189.710
  596.310    0.427    0.244    6.250   83.753  189.883
  596.560    0.482    0.255    5.515   89.348  189.843
  596.810    0.476    0.248    4.930   91.759  189.495
  597.060    0.473    0.239    4.643   89.177  189.351
  597.310    0.477    0.227    4.497   88.907  189.831
  597.560    0.490    0.246    4.471   89.379  190.431
  597.810    0.497    0.244    4.512   88.176  190.708
  598.060    0.495    0.238    4.562   86.899  190.774
  598.310    0.492    0.228    4.734   84.505  190.099
  598.560    0.494    0.229    4.950   80.799  188.999
  598.810    0.508    0.234    5.353   78.784  187.589
  599.060    0.507    0.235    5.886   78.008  187.025
  599.310    0.485    0.217    6.460   74.551  186.876
  599.560    0.472    0.222    6.742   71.098  186.835
  599.810    0.461    0.222    6.740   71.511  187.959
  600.060    0.451    0.224    6.408   73.171  188.242
  600.310    0.445    0.229    5.979   77.017  187.573
  600.560    0.493    0.232    5.759   82.861  187.103
  600.810    0.505    0.232    5.384   85.209  187.804
  601.060    0.507    0.234    5.042   84.561  188.713
  601.310    0.502    0.226    4.723   85.163  186.775
  601.560    0.515    0.254    4.473   83.454  186.315
  601.810    0.518    0.249    4.381   83.869  187.018
  602.060    0.508    0.236    4.413   84.656  188.875
  602.310    0.499    0.226    4.529   84.383  189.580
  602.560    0.492    0.220    4.648   84.298  189.327
  602.810    0.493    0.215    4.725   86.519  188.651
  603.060    0.505    0.227    4.778   89.244  188.192
  603.310    0.516    0.243    4.803   90.033  187.936
  603.560    0.506    0.227    4.802   89.261  187.896
  603.810    0.488    0.219    4.739   88.424  187.966
  604.060    0.484    0.217    4.651   89.775  187.925
  604.310    0.485    0.225    4.572   92.185  188.945
  604.560    0.498    0.210    4.470   92.910  189.961
  604.810    0.499    0.210    4.370   95.010  191.192
  605.060    0.503    0.218    4.312   97.110  191.998
  605.310    0.522    0.209    4.344   96.778  192.595
  605.560    0.537    0.232    4.475   94.878  191.710
  605.810    0.526    0.248    4.875   90.236  189.978
  606.060    0.513    0.269    5.669   83.475  189.193
  606.310    0.501    0.271    6.629   75.960  189.054
  606.560    0.499    0.273    7.567   66.514  189.022
  606.810    0.504    0.283    8.383   60.501  189.186
  607.060    0.495    0.279    8.651   59.733  188.939
  607.310    0.476    0.274    8.332   65.821  188.685
  607.560    0.469    0.264    8.207   70.416  188.224
  607.810    0.474    0.290    8.329   73.327  187.233
  608.060    0.484    0.295    8.452   74.238  186.770
  608.310    0.499    0.294    8.514   73.029  186.204
  608.560    0.487    0.242    8.418   69.641  185.949
  608.810    0.473    0.215    8.078   67.494  186.121
  609.060    0.450    0.245    7.579   66.345  186.503
  609.310    0.455    0.275    7.341   65.572  186.146
  609.560    0.555    0.298    7.084   67.614  185.589
  609.810    0.544    0.306    6.849   70.521  185.226
  610.060    0.530    0.294    6.708   73.678  186.035
  610.310    0.519    0.244    6.632   74.533  187.155
  610.560    0.508    0.233    6.680   72.071  188.065
  610.810    0.479    0.243    6.792   69.927  188.042
  611.060    0.464    0.277    7.023   71.962  187.777
  611.310    0.484    0.258    7.509   72.253  186.791
  611.560    0.510    0.248    8.195   67.860  185.797
  611.810    0.477    0.223    8.698   65.717  185.331
  612.060    0.464    0.226    8.424   64.819  185.081
  612.310    0.448    0.230    7.447   65.045  185.786
  612.560    0.444    0.233    6.570   65.586  186.693
  612.810    0.453    0.242    5.841   68.243  187.398
  613.060    0.464    0.269    5.115   74.462  188.520
  613.310    0.483    0.251    4.737   81.116  189.538
  613.560    0.494    0.246    4.462   86.647  189.922
  613.810    0.503    0.244    4.257   91.178  190.305
  614.060    0.510    0.250    4.078   91.219  190.797
  614.310    0.500    0.245    4.001   90.571  191.290
  614.560    0.489    0.227    3.978   91.236  191.768
  614.810    0.491    0.227    4.022   91.771  192.257
  615.060    0.503    0.241    4.082   92.685  192.534
  615.310    0.500    0.242    4.340   95.034  192.819
  615.560    0.523    0.258    4.790   98.194  192.780
  615.810    0.519    0.257    5.387   95.236  192.107
  616.060    0.510    0.257    5.749   89.409  188.996
  616.310    0.507    0.252    5.889   85.456  186.526
  616.560    0.518    0.265    6.021   88.675  185.747
  616.810    0.512    0.266    6.343   92.273  185.819
  617.060    0.508    0.258    6.769   94.870  187.257
  617.310    0.512    0.262    7.184   92.914  188.276
  617.560    0.530    0.246    7.885   87.833  187.919
  617.810    0.539    0.259    8.768   83.007  185.345
  618.060    0.536    0.266    9.411   79.802  184.145
  618.310    0.526    0.268   10.406   79.155  184.207
  618.560    0.515    0.283   11.615   79.445  184.376
  618.810    0.502    0.293   11.964   78.546  184.337
  619.060    0.499    0.273   11.268   77.273  184.617
  619.310    0.504    0.262   10.653   76.190  184.798
  619.560    0.493    0.270   10.512   77.477  185.176
  619.810    0.493    0.273   11.325   82.572  185.237
  620.060    0.514    0.262   13.670   82.179  185.625
  620.310    0.519    0.266   16.410   80.401  186.009
  620.560    0.521    0.277   18.836   77.695  185.647
  620.810    0.518    0.273   21.904   74.179  185.404
  621.060    0.511    0.262   20.098   71.658  184.935
  621.310    0.475    0.252   16.988   71.948  184.689
  621.560    0.439    0.256   15.414   73.547  184.546
  621.810    0.445    0.239   16.450   75.960  184.607
  622.060    0.435    0.218   17.855   78.492  184.991
  622.310    0.428    0.146   20.040   78.656  186.853
  622.560    0.425    0.079   20.682   76.698  189.245
  622.810    0.408    0.076   18.180   71.558  190.686
  623.060    0.265    0.093   15.054   68.913  190.228
  623.310    0.264    0.138   11.721   71.511  188.597
  623.560    0.292    0.177   10.169   83.971  187.503
  623.810    0.398    0.230    8.922   88.506  187.568
  624.060    0.463    0.249    8.279   90.914  188.166
  624.310    0.477    0.249    7.944   93.386  187.278
  624.560    0.490    0.259    7.723   93.367  184.814
  624.810    0.482    0.230    7.679   93.340  185.404
  625.060    0.473    0.218    8.074   93.258  186.212
  625.310    0.481    0.214    8.714   93.105  186.382
  625.560    0.489    0.207    9.162   90.962  186.344
  625.810    0.491    0.208    9.332   87.948  185.990
