~VERSION INFORMATION
 VERS.                 2.0:   CWLS LOG ASCII STANDARD -VERSION 2.0
 WRAP.                  NO:   ONE LINE PER DEPTH STEP
~WELL INFORMATION BLOCK
#MNEM.UNIT           DATA                    DESCRIPTION OF MNEMONIC
#---------    -------------------            -------------------------------
# Generated from Intellog Unique Number	CS_71_72/WELL/2057
WELL.         HUS BVX UNIGAS LYLE            : Well_name    - WELL
LOC .         00/07-13-071-16W4/0            : Location     - LOCATION
UWI .         00/07-13-071-16W4/0            : Uwi          - UNIQUE WELL ID
ENTR.         T                              : Entered      - ENTERED BY
SRVC.         WESTERN ATLAS                  : Scn          - SERVICE COMPANY
DATE.         01\13\92                       : Date         - LOG DATE
STRT.M        304.8                          : top_depth    - START DEPTH
STOP.M        499.8                          : bot_depth    - STOP DEPTH
STEP.M        0.25                           : increment    - STEP LENGTH
 NULL. -999.2500:NULL Value
~CURVE INFORMATION BLOCK
#MNEM UNIT       ERCB CURVE CODE    CURVE DESCRIPTION
#-----------   ------------------   ----------------------------------
DEPT.M        00 001 00 00         : DEPTH        - DEPTH
GR  .API      00 310 00 00         : GR           - GAMMA RAY
NPHI.V/V      00 330 00 00         : PHIN         - NEUTRON POROSITY (SANDSTONE)
ILD .OHMM     00 120 00 00         : RESD         - DEEP RESISTIVITY (DIL)
~PARAMETER INFORMATION
#MNEM.UNIT           DATA             DESCRIPTION OF MNEMONIC
#---------         -----------     ------------------------------
GL  .M        600.151              : gl           - GROUND LEVEL ELEVATION
EREF.M        603.199              : kb           - ELEVATION OF DEPTH REFERENCE
DATM.M        603.199              : datum        - DATUM ELEVATION
TDD .M        500.482              : tdd          - TOTAL DEPTH DRILLER
RUN .         ONE                  : Run          - RUN NUMBER
ENG .         JO                   : Engineer     - RECORDING ENGINEER
WIT .         TIM                  : Witness      - WITNESSED BY
MUD .         GEL                  : Mud_type     - MUD TYPE
MATR.         SANDSTONE            : Logunit      - NEUTRON MATRIX
TMAX.C        24.4444              : BHT          - MAXIMUM RECORDED TEMPERATURE
BHTD.M        500.482              : BHTDEP       - MAXIMUM RECORDED TEMPERATURE
RMT .C        14.4444              : MDTP         - TEMPERATURE OF MUD
MUDD.KG/M     9483.33              : MWT          - MUD DENSITY
NEUT.         1                    : NEUTRON      - NEUTRON TYPE
RESI.         0                    : RESIST       - RESISTIVITY TYPE
RM  .OHMM     4.16                 : RM           - RESISTIVITY OF MUD
RMC .OHMM     4.16                 : RMC          - RESISTIVITY OF MUD CAKE
RMF .OHMM     4.16                 : RMF          - RESISTIVITY OF MUD FILTRATE
SUFT.C        4                    : SUFT         - SURFACE TEMPERATURE
~A  DEPTH       GR     PHIN     RESD
  304.800   80.368    0.469    2.631
  305.050   79.871    0.467    2.630
  305.300   78.895    0.463    2.630
  305.550   76.485    0.459    2.582
  305.800   75.988    0.468    2.535
  306.050   73.099    0.471    2.535
  306.300   70.210    0.445    2.823
  306.550   73.057    0.457    3.033
  306.800   75.908    0.462    3.379
  307.050   75.411    0.427    3.565
  307.300   69.174    0.400    3.564
  307.550   61.501    0.363    3.500
  307.800   56.220    0.334    3.256
  308.050   68.634    0.387    3.140
  308.300   69.089    0.428    2.920
  308.550   69.558    0.477    2.868
  308.800   71.931    0.505    2.816
  309.050   77.653    0.510    2.765
  309.300   81.456    0.502    2.764
  309.550   79.524    0.500    2.714
  309.800   77.118    0.496    2.713
  310.050   76.142    0.495    2.713
  310.300   77.549    0.492    2.663
  310.550   78.487    0.491    2.663
  310.800   77.995    0.490    2.662
  311.050   75.584    0.488    2.710
  311.300   72.691    0.488    2.709
  311.550   71.237    0.487    2.757
  311.800   69.783    0.487    2.757
  312.050   66.894    0.485    2.806
  312.300   62.575    0.481    2.856
  312.550   63.991    0.481    2.856
  312.800   66.364    0.482    2.855
  313.050   65.384    0.486    2.854
  313.300   60.582    0.489    2.853
  313.550   56.736    0.490    2.853
  313.800   54.799    0.489    2.852
  314.050   59.569    0.489    2.800
  314.300   66.725    0.489    2.800
  314.550   65.271    0.488    2.749
  314.800   62.382    0.485    2.748
  315.050   59.015    0.480    2.747
  315.300   55.648    0.479    2.747
  315.550   53.228    0.479    2.746
  315.800   58.480    0.474    2.745
  316.050   64.680    0.471    2.744
  316.300   63.222    0.466    2.744
  316.550   65.112    0.461    2.743
  316.800   66.528    0.458    2.742
  317.050   66.988    0.457    2.742
  317.300   66.974    0.462    2.741
  317.550   65.993    0.465    2.691
  317.800   64.066    0.470    2.691
  318.050   61.651    0.476    2.690
  318.300   60.675    0.481    2.641
  318.550   60.178    0.485    2.640
  318.800   62.551    0.492    2.640
  319.050   64.929    0.490    2.592
  319.300   68.737    0.488    2.591
  319.550   70.631    0.480    2.591
  319.800   70.613    0.476    2.590
  320.050   64.371    0.475    2.589
  320.300   66.743    0.474    2.589
  320.550   68.638    0.474    2.588
  320.800   62.879    0.479    2.634
  321.050   56.642    0.484    2.681
  321.300   54.705    0.492    2.729
  321.550   62.344    0.494    2.778
  321.800   66.153    0.491    2.828
  322.050   64.694    0.490    2.879
  322.300   62.767    0.487    2.930
  322.550   59.399    0.486    3.037
  322.800   59.380    0.483    3.148
  323.050   64.624    0.484    3.204
  323.300   68.905    0.482    3.261
  323.550   70.326    0.481    3.261
  323.800   64.084    0.481    3.260
  324.050   64.061    0.475    3.259
  324.300   66.434    0.460    3.200
  324.550   66.898    0.436    3.086
  324.800   65.923    0.425    3.085
  325.050   63.990    0.434    3.197
  325.300   58.231    0.448    3.314
  325.550   69.693    0.455    3.625
  325.800   67.761    0.453    4.038
  326.050   58.653    0.447    4.261
  326.300   50.020    0.436    4.261
  326.550   48.561    0.420    4.109
  326.800   49.504    0.411    3.891
  327.050   51.877    0.419    3.753
  327.300   54.728    0.432    3.684
  327.550   58.531    0.445    3.618
  327.800   62.822    0.443    3.617
  328.050   67.109    0.435    3.616
  328.300   66.612    0.424    3.615
  328.550   61.809    0.407    3.680
  328.800   56.529    0.387    3.746
  329.050   53.635    0.378    3.813
  329.300   56.970    0.384    3.812
  329.550   59.821    0.390    3.610
  329.800   61.237    0.404    3.545
  330.050   63.127    0.414    3.544
  330.300   65.022    0.426    3.808
  330.550   66.916    0.430    4.241
  330.800   69.768    0.426    4.476
  331.050   75.489    0.420    4.897
  331.300   81.689    0.413    5.075
  331.550   86.459    0.412    5.073
  331.800   90.745    0.407    5.073
  332.050   90.243    0.403    4.981
  332.300   88.789    0.396    4.979
  332.550   86.379    0.391    5.160
  332.800   94.014    0.391    5.159
  333.050   99.257    0.394    5.066
  333.300   97.803    0.397    5.250
  333.550   93.957    0.402    4.305
  333.800   91.547    0.407    3.933
  334.050   91.050    0.417    3.792
  334.300   92.466    0.431    3.724
  334.550   94.361    0.444    3.657
  334.800   91.472    0.450    3.590
  335.050   87.626    0.451    3.526
  335.300   80.906    0.452    3.524
  335.550   70.363    0.454    3.588
  335.800   64.604    0.453    3.652
  336.050   59.802    0.439    3.651
  336.300   55.952    0.426    3.650
  336.550   64.070    0.415    3.649
  336.800   75.053    0.403    3.648
  337.050   78.383    0.400    3.781
  337.300   84.104    0.399    3.849
  337.550   82.167    0.399    3.989
  337.800   81.670    0.398    4.209
  338.050   81.173    0.396    4.208
  338.300   79.241    0.395    4.058
  338.550   74.917    0.394    3.985
  338.800   69.636    0.395    3.842
  339.050   62.920    0.401    3.842
  339.300   63.858    0.411    3.910
  339.550   68.623    0.409    3.910
  339.800   70.035    0.401    4.052
  340.050   69.542    0.402    4.125
  340.300   67.610    0.412    4.275
  340.550   66.152    0.422    4.351
  340.800   65.650    0.425    4.429
  341.050   65.148    0.422    4.428
  341.300   65.138    0.418    4.348
  341.550   66.555    0.413    4.269
  341.800   68.923    0.397    4.192
  342.050   71.775    0.382    4.042
  342.300   72.712    0.390    4.041
  342.550   71.742    0.411    4.040
  342.800   69.326    0.423    4.039
  343.050   66.921    0.431    4.038
  343.300   63.075    0.433    4.037
  343.550   61.138    0.435    4.036
  343.800   65.907    0.444    4.108
  344.050   72.586    0.448    4.034
  344.300   76.394    0.451    3.890
  344.550   80.680    0.446    3.751
  344.800   82.092    0.437    3.683
  345.050   83.991    0.427    3.682
  345.300   88.278    0.416    3.682
  345.550   92.085    0.412    3.680
  345.800   94.459    0.410    3.680
  346.050   91.087    0.410    3.746
  346.300   87.241    0.414    3.813
  346.550   81.960    0.420    3.812
  346.800   79.071    0.425    3.811
  347.050   76.661    0.430    3.809
  347.300   74.250    0.436    3.948
  347.550   71.835    0.433    4.092
  347.800   70.860    0.421    4.166
  348.050   69.401    0.415    4.395
  348.300   67.952    0.414    4.475
  348.550   65.541    0.415    4.555
  348.800   64.566    0.416    4.553
  349.050   71.244    0.413    4.313
  349.300   79.357    0.409    4.159
  349.550   87.949    0.422    3.939
  349.800   89.844    0.435    3.799
  350.050   86.472    0.446    3.598
  350.300   83.588    0.451    3.533
  350.550   73.523    0.458    3.596
  350.800   67.286    0.475    4.626
  351.050   65.827    0.467    5.343
  351.300   69.152    0.451    5.740
  351.550   75.362    0.436    5.843
  351.800   81.561    0.429    5.948
  352.050   82.495    0.425    5.947
  352.300   81.998    0.423    5.945
  352.550   80.065    0.416    5.837
  352.800   76.220    0.407    5.629
  353.050   73.331    0.399    5.428
  353.300   72.355    0.391    5.235
  353.550   78.555    0.390    4.958
  353.800   79.493    0.393    4.449
  354.050   75.169    0.398    4.214
  354.300   69.888    0.407    4.289
  354.550   61.255    0.429    4.445
  354.800   55.974    0.435    4.607
  355.050   61.217    0.422    4.690
  355.300   65.982    0.401    4.605
  355.550   69.312    0.405    4.131
  355.800   69.293    0.428    3.913
  356.050   66.404    0.441    3.448
  356.300   63.515    0.446    3.208
  356.550   59.669    0.432    3.038
  356.800   53.432    0.405    2.983
  357.050   52.452    0.375    2.877
  357.300   52.911    0.379    2.825
  357.550   52.888    0.386    2.774
  357.800   51.917    0.392    2.723
  358.050   50.463    0.396    2.723
  358.300   48.531    0.391    2.771
  358.550   46.599    0.391    2.771
  358.800   42.270    0.395    2.770
