~VERSION INFORMATION
 VERS.                 2.0:   CWLS LOG ASCII STANDARD -VERSION 2.0
 WRAP.                  NO:   ONE LINE PER DEPTH STEP
~WELL INFORMATION BLOCK
#MNEM.UNIT           DATA                    DESCRIPTION OF MNEMONIC
#---------    -------------------            -------------------------------
# Generated from Intellog Unique Number	CW_79_81/WELL/3694
WELL.         AMCO                           : Well_name    - WELL
LOC .         00/07-09-078-23W4/0            : Location     - LOCATION
UWI .         00/07-09-078-23W4/0            : Uwi          - UNIQUE WELL ID
ENTR.         TIM                            : Entered      - ENTERED BY
SRVC.         SCHLUMBERGER                   : Scn          - SERVICE COMPANY
DATE.         05\15\92                       : Date         - LOG DATE
STRT.M        250                            : top_depth    - START DEPTH
STOP.M        525                            : bot_depth    - STOP DEPTH
STEP.M        0.25                           : increment    - STEP LENGTH
 NULL. -999.2500:NULL Value
~CURVE INFORMATION BLOCK
#MNEM UNIT       ERCB CURVE CODE    CURVE DESCRIPTION
#-----------   ------------------   ----------------------------------
DEPT.M        00 001 00 00         : DEPTH        - DEPTH
GR  .API      00 310 00 00         : GR           - GAMMA RAY
DPHI.V/V      00 890 00 00         : PHID         - DENSITY POROSITY (SANDSTONE)
ILD .OHMM     00 120 00 00         : RESD         - DEEP RESISTIVITY (DIL)
NPHI.V/V      00 330 00 00         : PHIN         - NEUTRON POROSITY (SANDSTONE)
~PARAMETER INFORMATION
#MNEM.UNIT           DATA             DESCRIPTION OF MNEMONIC
#---------         -----------     ------------------------------
GL  .M        605                  : gl           - GROUND LEVEL ELEVATION
EREF.M        609                  : kb           - ELEVATION OF DEPTH REFERENCE
DATM.M        609                  : datum        - DATUM ELEVATION
TDD .M        525                  : tdd          - TOTAL DEPTH DRILLER
RUN .         ONE                  : Run          - RUN NUMBER
ENG .         JO                   : Engineer     - RECORDING ENGINEER
WIT .         TIM                  : Witness      - WITNESSED BY
MUD .         GEL                  : Mud_type     - MUD TYPE
MATR.         SANDSTONE            : Logunit      - NEUTRON MATRIX
TMAX.C        27                   : BHT          - MAXIMUM RECORDED TEMPERATURE
BHTD.M        525                  : BHTDEP       - MAXIMUM RECORDED TEMPERATURE
RMT .C        20                   : MDTP         - TEMPERATURE OF MUD
MUDD.KG/M     1090                 : MWT          - MUD DENSITY
NEUT.         1                    : NEUTRON      - NEUTRON TYPE
RESI.         0                    : RESIST       - RESISTIVITY TYPE
RM  .OHMM     5.2                  : RM           - RESISTIVITY OF MUD
RMC .OHMM     4                    : RMC          - RESISTIVITY OF MUD CAKE
RMF .OHMM     6.3                  : RMF          - RESISTIVITY OF MUD FILTRATE
SUFT.C        4                    : SUFT         - SURFACE TEMPERATURE
~A  DEPTH       GR     PHID     RESD     PHIN
# ...
  293.500   51.411    0.320    4.480    0.476
  293.750   50.792    0.308    5.795    0.452
  294.000   48.948    0.300    8.676    0.437
  294.250   50.779    0.306   12.531    0.484
  294.500   54.446    0.312   13.254    0.512
  294.750   51.986    0.313   13.519    0.526
  295.000   48.916    0.313   13.528    0.533
  295.250   45.847    0.308   13.794    0.524
  295.500   43.389    0.301   14.071    0.532
  295.750   40.931    0.291   14.608    0.546
  296.000   42.149    0.292   16.328    0.552
  296.250   44.593    0.295   18.244    0.535
  296.500   47.036    0.291   21.145    0.520
  296.750   49.480    0.283   25.419    0.513
  297.000   48.860    0.277   30.004    0.506
  297.250   45.789    0.280   40.266    0.499
  297.500   43.942    0.285   44.204    0.491
  297.750   48.837    0.284   45.879    0.504
  298.000   50.666    0.255   48.541    0.406
  298.250   46.984    0.227   48.616    0.380
  298.500   42.688    0.207   48.661    0.362
  298.750   40.843    0.199   49.605    0.413
  299.000   48.800    0.223   49.667    0.447
  299.250   55.533    0.268   49.743    0.542
  299.500   56.136    0.296   48.001    0.564
  299.750   57.355    0.319   42.285    0.478
  300.000   59.800    0.315   36.575    0.461
  300.250   60.404    0.308   33.430    0.487
  300.500   60.396    0.291   31.684    0.520
  300.750   59.164    0.251   30.030    0.528
  301.000   54.255    0.204   29.522    0.542
  301.250   51.797    0.039   28.506    0.227
  301.500   56.691    0.194   28.015    0.289
  301.750   59.135    0.300   27.050    0.357
  302.000   54.226    0.316   26.585    0.450
  302.250   50.543    0.319   25.212    0.483
  302.500   51.761    0.323   24.770    0.489
  302.750   52.979    0.327   24.352    0.500
  303.000   52.972    0.327   22.676    0.513
  303.250   52.963    0.326   22.285    0.524
  303.500   52.345    0.324   21.902    0.520
  303.750   49.273    0.320   21.148    0.507
  304.000   49.878    0.315   20.049    0.489
  304.250   53.549    0.317   19.704    0.467
  304.500   59.054    0.327   19.020    0.478
  304.750   58.432    0.329   18.693    0.524
  305.000   57.809    0.326   17.406    0.529
  305.250   57.191    0.312   17.101    0.528
  305.500   56.573    0.311   15.357    0.496
  305.750   57.791    0.315   14.810    0.461
  306.000   61.461    0.305   13.287    0.446
  306.250   67.581    0.279   11.921    0.435
  306.500   78.602    0.250   10.314    0.454
  306.750   87.170    0.244    9.254    0.463
  307.000   92.679    0.231    8.302    0.458
  307.250   96.959    0.213    6.206    0.455
  307.500   96.339    0.211    5.988    0.497
  307.750   92.657    0.222    5.573    0.523
  308.000   64.467    0.244    5.684    0.529
  308.250   55.268    0.286    5.900    0.539
  308.500   49.743    0.312    6.714    0.535
  308.750   49.127    0.312   10.622    0.506
  309.000   47.892    0.310   12.770    0.489
  309.250   46.662    0.311   15.073    0.446
  309.500   44.816    0.312   15.948    0.420
  309.750   44.195    0.303   14.841    0.405
  310.000   45.413    0.288   13.807    0.387
  310.250   52.147    0.278   11.513    0.392
  310.500   66.231    0.274    9.778    0.417
  310.750   76.027    0.261    8.614    0.438
  311.000   75.407    0.226    8.317    0.457
  311.250   71.111    0.254    8.325    0.463
  311.500   64.977    0.263    9.133    0.471
  311.750   52.102    0.280   10.781    0.496
  312.000   50.257    0.309   14.735    0.504
  312.250   55.151    0.327   16.469    0.510
  312.500   55.753    0.325   16.794    0.516
  312.750   54.524    0.315   16.809    0.485
  313.000   51.451    0.304   16.835    0.423
  313.250   53.282    0.300   16.556    0.471
  313.500   55.727    0.311   15.971    0.521
  313.750   56.946    0.315   15.137    0.533
  314.000   56.324    0.305   14.087    0.545
  314.250   56.319    0.299   12.875    0.538
  314.500   56.924    0.292   12.428    0.507
  314.750   57.529    0.291   12.440    0.493
  315.000   58.133    0.291   12.685    0.523
  315.250   59.959    0.279   12.935    0.544
  315.500   60.568    0.265   13.438    0.550
  315.750   61.175    0.255   13.215    0.557
  316.000   61.779    0.264   12.525    0.565
  316.250   62.997    0.283   11.870    0.563
  316.500   63.604    0.292   11.666    0.521
  316.750   65.431    0.282   11.268    0.464
  317.000   66.651    0.260   11.275    0.430
  317.250   68.484    0.260   10.493    0.454
  317.500   73.378    0.258    9.587    0.464
  317.750   82.561    0.240    8.602    0.482
  318.000   91.131    0.241    7.860    0.483
  318.250   97.864    0.240    7.186    0.473
  318.500   99.080    0.242    7.060    0.482
  318.750   96.009    0.253    7.337    0.488
  319.000   92.939    0.281    7.479    0.517
  319.250   85.579    0.295    7.911    0.526
  319.500   72.091    0.305    8.367    0.527
  319.750   67.797    0.308    8.850    0.477
  320.000   60.438    0.308    9.534    0.454
  320.250   54.304    0.306    9.898    0.420
  320.500   50.006    0.303   11.063    0.414
  320.750   52.450    0.298   12.365    0.408
  321.000   55.508    0.296   12.842    0.397
  321.250   59.789    0.275   12.624    0.374
  321.500   67.134    0.256   11.326    0.362
  321.750   75.092    0.241   10.537    0.405
  322.000   82.437    0.234    9.628    0.431
  322.250   93.456    0.231    8.638    0.435
  322.500   98.961    0.226    7.612    0.443
  322.750  101.405    0.225    6.829    0.419
  323.000  102.625    0.230    6.238    0.405
  323.250  105.681    0.231    5.397    0.397
  323.500  111.186    0.229    5.114    0.438
  323.750  112.406    0.230    5.412    0.468
  324.000  104.434    0.241    5.618    0.475
  324.250   86.659    0.253    6.163    0.481
  324.500   81.750    0.268    6.173    0.451
  324.750   82.967    0.241    5.536    0.427
  325.000   94.600    0.173    4.617    0.437
  325.250  101.947    0.150    4.142    0.453
  325.500  112.355    0.172    3.856    0.459
  325.750  116.635    0.211    3.653    0.460
  326.000  122.142    0.214    3.593    0.463
  326.250  127.036    0.194    3.467    0.464
  326.500  131.316    0.188    3.287    0.455
  326.750  131.923    0.218    3.172    0.427
  327.000  133.140    0.246    3.119    0.475
  327.250  134.359    0.262    3.122    0.526
  327.500  130.064    0.252    3.127    0.559
  327.750  117.803    0.238    3.130    0.587
  328.000  111.056    0.229    3.134    0.555
  328.250  104.309    0.219    3.376    0.488
  328.500  103.688    0.222    3.914    0.447
  328.750  107.357    0.228    4.535    0.420
  329.000  108.577    0.234    5.256    0.418
  329.250  109.791    0.227    5.664    0.443
  329.500  110.397    0.218    5.174    0.462
  329.750  111.615    0.222    4.728    0.491
  330.000  114.060    0.229    4.320    0.503
  330.250  115.891    0.232    4.171    0.520
  330.500  114.046    0.238    4.252    0.557
  330.750  109.137    0.251    4.668    0.570
  331.000   83.397    0.274    5.123    0.586
  331.250   76.649    0.289    5.415    0.551
  331.500   74.804    0.267    6.050    0.525
  331.750   71.733    0.262    8.117    0.482
  332.000   68.050    0.297    8.430    0.527
  332.250   61.303    0.330    9.084    0.541
  332.500   55.780    0.352   10.153    0.546
  332.750   55.160    0.346   10.548    0.518
  333.000   55.155    0.335   10.557    0.489
  333.250   55.146    0.330   10.765    0.463
  333.500   55.137    0.330   10.974    0.454
  333.750   55.133    0.332   11.397    0.501
  334.000   55.737    0.338   11.836    0.526
  334.250   55.117    0.341   12.296    0.547
  334.500   52.659    0.345   12.539    0.551
  334.750   56.330    0.336   12.550    0.523
  335.000   61.224    0.326   12.566    0.496
  335.250   63.666    0.313   12.585    0.473
  335.500   63.655    0.299   12.605    0.462
  335.750   63.651    0.279   12.620    0.458
  336.000   63.031    0.261   12.632    0.464
  336.250   62.410    0.262   12.648    0.486
  336.500   61.179    0.295   12.441    0.512
  336.750   59.944    0.318   12.453    0.522
