~VERSION INFORMATION
 VERS.                 2.0:   CWLS LOG ASCII STANDARD -VERSION 2.0
 WRAP.                  NO:   ONE LINE PER DEPTH STEP
~WELL INFORMATION BLOCK
#MNEM.UNIT           DATA                    DESCRIPTION OF MNEMONIC
#---------    -------------------            -------------------------------
# Generated from Intellog Unique Number	CS_73_76/WELL/644
WELL.         BOW VALLEY INDUSTRIES LTD      : Well_name    - WELL
LOC .         00/06-25-073-17W4/0            : Location     - LOCATION
UWI .         00/06-25-073-17W4/0            : Uwi          - UNIQUE WELL ID
ENTR.         SP                             : Entered      - ENTERED BY
SRVC.         SCHLUMBERGER                   : Scn          - SERVICE COMPANY
STRT.M        237.744                        : top_depth    - START DEPTH
STOP.M        444.744                        : bot_depth    - STOP DEPTH
STEP.M        0.25                           : increment    - STEP LENGTH
 NULL. -999.2500:NULL Value
~CURVE INFORMATION BLOCK
#MNEM UNIT       ERCB CURVE CODE    CURVE DESCRIPTION
#-----------   ------------------   ----------------------------------
DEPT.M        00 001 00 00         : DEPTH        - DEPTH
GR  .API      00 310 00 00         : GR           - GAMMA RAY
DPHI.V/V      00 890 00 00         : PHID         - DENSITY POROSITY (LIMESTONE)
NPHI.V/V      00 330 00 00         : PHIN         - NEUTRON POROSITY (LIMESTONE)
ILD .OHMM     00 120 00 00         : RESD         - DEEP RESISTIVITY (DIL)
~PARAMETER INFORMATION
#MNEM.UNIT           DATA             DESCRIPTION OF MNEMONIC
#---------         -----------     ------------------------------
GL  .M        574.853              : gl           - GROUND LEVEL ELEVATION
EREF.M        577.901              : kb           - ELEVATION OF DEPTH REFERENCE
DATM.M        574.853              : datum        - DATUM ELEVATION
TDD .M        448.361              : tdd          - TOTAL DEPTH DRILLER
RUN .         ONE                  : Run          - RUN NUMBER
ENG .         BILL                 : Engineer     - RECORDING ENGINEER
WIT .         JIM                  : Witness      - WITNESSED BY
MUD .         GEL                  : Mud_type     - MUD TYPE
MATR.         LIMESTONE            : Logunit      - NEUTRON MATRIX
TMAX.C        12.2222              : BHT          - MAXIMUM RECORDED TEMPERATURE
BHTD.M        448.361              : BHTDEP       - MAXIMUM RECORDED TEMPERATURE
MATR.         1                    : LOGUNIT      - NEUTRON MATRIX
RMT .C        25                   : MDTP         - TEMPERATURE OF MUD
NEUT.         1                    : NEUTRON      - NEUTRON TYPE
RESI.         0                    : RESIST       - RESISTIVITY TYPE
RMC .OHMM     0.25                 : RMC          - RESISTIVITY OF MUD CAKE
RMF .OHMM     0.25                 : RMF          - RESISTIVITY OF MUD FILTRATE
SUFT.C        15                   : SUFT         - SURFACE TEMPERATURE
~A  DEPTH       GR     PHID     PHIN     RESD
# ...
  368.244   72.170    0.311    0.463    5.319
  368.494   72.210    0.311    0.461    5.220
  368.744   71.217    0.311    0.464    5.217
  368.994   70.978    0.313    0.463    5.215
  369.244   69.964    0.311    0.462    5.214
  369.494   68.986    0.309    0.466    5.214
  369.744   68.775    0.317    0.456    5.214
  369.994   69.668    0.321    0.453    5.213
  370.244   72.081    0.319    0.460    5.208
  370.494   72.933    0.313    0.464    5.314
  370.744   74.606    0.306    0.464    5.393
  370.994   74.900    0.295    0.460    5.651
  371.244   74.751    0.288    0.452    5.911
  371.494   73.419    0.285    0.434    6.404
  371.744   72.171    0.276    0.399    6.777
  371.994   70.160    0.257    0.366    6.857
  372.244   69.392    0.222    0.362    6.791
  372.494   70.223    0.257    0.423    6.729
  372.744   72.256    0.315    0.448    6.329
  372.994   73.347    0.315    0.456    5.978
  373.244   73.661    0.304    0.458    5.807
  373.494   73.217    0.305    0.463    5.706
  373.744   72.905    0.311    0.460    5.709
  373.994   72.522    0.314    0.456    5.711
  374.244   71.534    0.316    0.454    5.863
  374.494   70.440    0.321    0.453    5.799
  374.744   69.581    0.322    0.469    5.816
  374.994   70.826    0.318    0.476    5.816
  375.244   72.734    0.314    0.476    5.815
  375.494   74.165    0.307    0.474    5.817
  375.744   75.894    0.305    0.468    5.867
  375.994   76.803    0.301    0.460    5.923
  376.244   76.823    0.307    0.451    5.845
  376.494   75.931    0.307    0.447    5.668
  376.744   75.656    0.315    0.441    5.500
  376.994   76.682    0.320    0.453    5.327
  377.244   77.954    0.319    0.470    5.280
  377.494   80.369    0.317    0.471    5.210
  377.744   82.046    0.311    0.474    5.198
  377.994   82.150    0.308    0.470    5.306
  378.244   83.247    0.294    0.460    5.484
  378.494   84.893    0.285    0.454    5.721
  378.744   86.555    0.270    0.445    5.812
  378.994   89.860    0.253    0.437    5.739
  379.244   95.362    0.247    0.436    5.414
  379.494  101.547    0.239    0.449    5.103
  379.744  107.716    0.225    0.472    4.957
  379.994  114.274    0.210    0.487    4.812
  380.244  114.211    0.221    0.493    4.668
  380.494  113.656    0.225    0.493    4.603
  380.744  113.790    0.230    0.486    4.679
  380.994  114.824    0.217    0.480    4.668
  381.244  115.509    0.193    0.474    4.668
  381.494  115.473    0.206    0.478    4.668
  381.744  115.605    0.213    0.483    4.667
  381.994  112.976    0.221    0.484    4.662
  382.244  112.562    0.225    0.486    4.770
  382.494  113.500    0.237    0.492    4.774
  382.744  114.633    0.231    0.498    4.775
  382.994  114.963    0.229    0.505    4.919
  383.244  113.758    0.242    0.483    4.622
  383.494  110.582    0.228    0.452    4.689
  383.744  112.053    0.214    0.452    4.752
  383.994  113.013    0.220    0.464    4.908
  384.244  113.863    0.212    0.460    4.949
  384.494  111.748    0.214    0.461    5.018
  384.744  109.575    0.223    0.467    5.171
  384.994  110.390    0.206    0.461    5.349
  385.244  111.305    0.198    0.455    5.693
  385.494  112.998    0.195    0.471    5.857
  385.744  115.344    0.204    0.483    6.027
  385.994  117.895    0.213    0.472    5.749
  386.244  119.195    0.207    0.465    5.501
  386.494  119.924    0.200    0.456    5.109
  386.744  120.932    0.194    0.455    4.803
  386.994  121.930    0.191    0.454    4.641
  387.244  121.341    0.196    0.454    4.504
  387.494  114.825    0.201    0.460    4.493
  387.744  106.458    0.194    0.452    4.779
  387.994   96.922    0.198    0.431    5.388
  388.244   84.171    0.164    0.382    6.574
  388.494   80.086    0.132    0.323    7.503
  388.744   83.113    0.051    0.359    9.005
  388.994   87.346    0.145    0.392    9.490
  389.244   90.161    0.221    0.414    8.326
  389.494   93.244    0.242    0.421    7.331
  389.744   97.027    0.213    0.417    6.705
  389.994   98.319    0.170    0.416    6.364
  390.244   89.094    0.141    0.354    6.450
  390.494   81.335    0.108    0.291    7.548
  390.744   77.717    0.075    0.262    9.059
  390.994   78.524    0.047    0.266   11.164
  391.244   81.905    0.035    0.283   13.322
  391.494   88.848    0.046    0.312   12.658
  391.744   94.609    0.080    0.372   11.354
  391.994  101.017    0.124    0.419    9.978
  392.244   97.687    0.155    0.414    9.439
  392.494   93.763    0.146    0.413    8.987
  392.744   93.169    0.136    0.401    8.835
  392.994   97.020    0.139    0.392    8.640
  393.244  101.240    0.148    0.388    9.065
  393.494  104.866    0.152    0.401    9.342
  393.744  107.564    0.157    0.414    8.901
  393.994  107.873    0.161    0.416    8.470
  394.244  103.444    0.171    0.421    8.237
  394.494  100.807    0.191    0.429    7.996
  394.744   99.733    0.177    0.425    7.772
  394.994   99.305    0.165    0.424    7.742
  395.244   98.139    0.159    0.403    8.318
  395.494   95.434    0.151    0.384    8.539
  395.744   93.684    0.136    0.365    9.076
  395.994  105.471    0.125    0.392    9.675
  396.244  112.217    0.140    0.430    9.510
  396.494  116.746    0.156    0.441    8.960
  396.744  118.184    0.159    0.433    8.437
  396.994  114.682    0.167    0.444    7.939
  397.244  113.668    0.169    0.444    7.703
  397.494  114.407    0.174    0.440    7.486
  397.744  118.701    0.166    0.435    7.507
  397.994  116.395    0.160    0.422    7.333
  398.244  114.679    0.153    0.419    7.504
  398.494  116.276    0.145    0.415    7.481
  398.744  117.610    0.143    0.411    7.648
  398.994  121.956    0.168    0.414    7.634
  399.244  125.328    0.184    0.422    7.635
  399.494  123.093    0.194    0.413    7.650
  399.744  122.479    0.189    0.402    7.369
  399.994  122.781    0.188    0.390    7.141
  400.244  123.636    0.193    0.383    7.103
  400.494  122.594    0.189    0.392    6.984
  400.744  119.784    0.172    0.400    6.819
  400.994  112.379    0.152    0.406    6.977
  401.244  106.663    0.124    0.404    6.870
  401.494  103.337    0.103    0.403    6.714
  401.744  108.669    0.127    0.415    6.582
  401.994  112.079    0.161    0.431    6.397
  402.244  113.305    0.168    0.433    6.026
  402.494  111.427    0.173    0.430    5.295
  402.744  111.774    0.178    0.446    4.450
  402.994  113.881    0.181    0.457    3.417
  403.244  118.596    0.200    0.492    2.973
  403.494  115.262    0.213    0.525    2.546
  403.744  112.718    0.225    0.521    2.353
  403.994  115.938    0.224    0.507    2.248
  404.244  119.256    0.218    0.496    2.180
  404.494  121.790    0.211    0.494    2.165
  404.744  123.239    0.206    0.510    2.263
  404.994  124.082    0.203    0.527    2.406
  405.244  123.382    0.210    0.507    2.804
  405.494  121.398    0.203    0.469    3.259
  405.744  115.712    0.174    0.437    4.254
  405.994  110.558    0.134    0.393    5.166
  406.244  104.938    0.117    0.379    6.840
  406.494  104.884    0.098    0.365    7.426
  406.744  109.690    0.114    0.390    7.268
  406.994  113.597    0.139    0.415    6.476
  407.244  116.913    0.150    0.432    6.533
  407.494  111.033    0.102    0.386    7.427
  407.744   97.710    0.087    0.336    7.908
  407.994   94.126    0.048    0.316    9.053
  408.244   98.778    0.057    0.365    9.881
  408.494  102.745    0.119    0.395    8.678
  408.744  113.059    0.162    0.435    6.454
  408.994  118.684    0.172    0.482    4.878
  409.244  124.978    0.177    0.500    4.078
  409.494  120.934    0.161    0.481    3.614
  409.744  117.396    0.141    0.456    3.954
  409.994  113.397    0.106    0.437    4.284
  410.244  103.872    0.078    0.403    5.204
  410.494   89.703    0.060    0.376    6.369
  410.744   92.553    0.091    0.372    7.376
  410.994   99.112    0.119    0.426    7.391
  411.244  104.921    0.135    0.423    7.154
  411.494  107.275    0.113    0.413    7.084
