~VERSION INFORMATION
 VERS.                 2.0:   CWLS LOG ASCII STANDARD -VERSION 2.0
 WRAP.                  NO:   ONE LINE PER DEPTH STEP
~WELL INFORMATION BLOCK
#MNEM.UNIT           DATA                    DESCRIPTION OF MNEMONIC
#---------    -------------------            -------------------------------
# Generated from Intellog Unique Number	CW_82_90/WELL/3062
WELL.         CHEVRON WABASCA NORTH          : Well_name    - WELL
LOC .         00/07-04-087-25W4/0            : Location     - LOCATION
UWI .         00/07-04-087-25W4/0            : Uwi          - UNIQUE WELL ID
ENTR.         MAX                            : Entered      - ENTERED BY
SRVC.         SCHLUMBERGER                   : Scn          - SERVICE COMPANY
STRT.M        228.6                          : top_depth    - START DEPTH
STOP.M        441.85                         : bot_depth    - STOP DEPTH
STEP.M        0.25                           : increment    - STEP LENGTH
 NULL. -999.2500:NULL Value
~CURVE INFORMATION BLOCK
#MNEM UNIT       ERCB CURVE CODE    CURVE DESCRIPTION
#-----------   ------------------   ----------------------------------
DEPT.M        00 001 00 00         : DEPTH        - DEPTH
ILD .OHMM     00 120 00 00         : RESD         - DEEP RESISTIVITY (DIL)
NPHI.V/V      00 330 00 00         : PHIN         - NEUTRON POROSITY (SANDSTONE)
DPHI.V/V      00 890 00 00         : PHID         - DENSITY POROSITY (SANDSTONE)
CALI.MM       00 280 01 00         : CAL          - CALIPER
GR  .API      00 310 00 00         : GR           - GAMMA RAY
~PARAMETER INFORMATION
#MNEM.UNIT           DATA             DESCRIPTION OF MNEMONIC
#---------         -----------     ------------------------------
GL  .M        629.412              : gl           - GROUND LEVEL ELEVATION
EREF.M        632.46               : kb           - ELEVATION OF DEPTH REFERENCE
DATM.M        629.412              : datum        - DATUM ELEVATION
TDD .M        445.313              : tdd          - TOTAL DEPTH DRILLER
RUN .         ONE                  : Run          - RUN NUMBER
ENG .         BILL                 : Engineer     - RECORDING ENGINEER
WIT .         JIM                  : Witness      - WITNESSED BY
MUD .         GEL                  : Mud_type     - MUD TYPE
MATR.         SANDSTONE            : Logunit      - NEUTRON MATRIX
TMAX.C        26.1111              : BHT          - MAXIMUM RECORDED TEMPERATURE
BHTD.M        445.313              : BHTDEP       - MAXIMUM RECORDED TEMPERATURE
MATR.         1                    : LOGUNIT      - NEUTRON MATRIX
RMT .C        10                   : MDTP         - TEMPERATURE OF MUD
NEUT.         1                    : NEUTRON      - NEUTRON TYPE
RESI.         0                    : RESIST       - RESISTIVITY TYPE
RMC .OHMM     5.34                 : RMC          - RESISTIVITY OF MUD CAKE
RMF .OHMM     7.18                 : RMF          - RESISTIVITY OF MUD FILTRATE
SUFT.C        -20.5556             : SUFT         - SURFACE TEMPERATURE
~A  DEPTH     RESD     PHIN     PHID      CAL       GR
# ...
  338.100    2.787    0.541    0.222  112.660   94.710
  338.350    2.970    0.559    0.212  111.923   94.420
  338.600    3.343    0.560    0.216  114.926   89.712
  338.850    3.797    0.539    0.222  119.423   86.772
  339.100    4.273    0.525    0.226  130.655   85.599
  339.350    5.265    0.511    0.213  123.934   82.659
  339.600    5.926    0.500    0.198  125.441   82.957
  339.850    6.260    0.482    0.187  124.705   77.072
  340.100    6.553    0.470    0.181  120.976   75.604
  340.350    6.922    0.464    0.170  122.485   76.493
  340.600    7.116    0.482    0.174  125.486   76.202
  340.850    7.316    0.498    0.208  124.003   73.262
  341.100    7.590    0.490    0.216  118.778   70.616
  341.350    7.733    0.466    0.166  116.547   66.792
  341.600    7.736    0.407    0.135  115.808   67.386
  341.850    7.601    0.376    0.153  115.073   69.157
  342.100    7.204    0.403    0.186  114.335   70.633
  342.350    7.013    0.454    0.235  114.347   72.700
  342.600    6.892    0.466    0.226  113.609   74.471
  342.850    6.771    0.463    0.206  113.621   76.537
  343.100    6.593    0.458    0.189  113.635   78.897
  343.350    6.362    0.453    0.179  113.644   81.846
  343.600    5.920    0.464    0.184  116.647   83.913
  343.850    5.265    0.474    0.199  118.902   85.389
  344.100    4.557    0.482    0.226  116.672   87.454
  344.350    4.017    0.489    0.230  114.437   87.753
  344.600    3.704    0.499    0.241  114.450   86.581
  344.850    3.607    0.517    0.241  114.459   86.584
  345.100    3.845    0.529    0.235  114.471   84.528
  345.350    4.135    0.531    0.239  113.734   82.177
  345.600    4.870    0.522    0.249  112.997   79.825
  345.850    6.222    0.523    0.274  113.010   76.590
  346.100    6.814    0.544    0.259  112.275   75.417
  346.350    6.696    0.518    0.253  111.536   75.422
  346.600    6.519    0.491    0.238  110.050   77.193
  346.850    5.904    0.485    0.222  107.070   78.081
  347.100    5.064    0.477    0.222  104.089   79.262
  347.350    4.545    0.481    0.222  102.603   81.624
  347.600    4.269    0.498    0.231  107.852   81.334
  347.850    4.232    0.519    0.226  113.098   80.159
  348.100    4.273    0.528    0.210  114.607   78.986
  348.350    4.638    0.514    0.201  114.616   78.107
  348.600    5.872    0.492    0.211  113.133   77.228
  348.850    6.729    0.478    0.216  113.892   71.048
  349.100    8.291    0.454    0.197  117.645   66.635
  349.350   11.597    0.412    0.152  119.899   62.518
  349.600   13.656    0.374    0.060  119.162   61.638
  349.850   16.081    0.325    0.038  116.929   62.526
  350.100   15.801    0.251    0.002  114.696   65.475
  350.350   14.440    0.268    0.002  113.212   71.958
  350.600    9.171    0.396    0.095  105.297   74.153
  350.850    7.309    0.443    0.187  104.553   84.662
  351.100    6.555    0.445    0.162  105.292   90.207
  351.350    6.322    0.458    0.158  108.256   84.952
  351.600    6.323    0.467    0.163  110.477   81.447
  351.850    6.323    0.485    0.175  111.217   82.322
  352.100    6.382    0.488    0.186  111.956   84.365
  352.350    6.382    0.481    0.187  112.695   85.240
  352.600    6.441    0.472    0.196  111.951   84.363
  352.850    6.501    0.467    0.189  112.690   84.070
  353.100    6.502    0.474    0.179  116.395   83.193
  353.350    6.503    0.469    0.180  117.134   82.900
  353.600    6.503    0.478    0.176  117.873   83.775
  353.850    6.563    0.471    0.190  119.354   84.066
  354.100    6.624    0.466    0.201  119.351   85.817
  354.350    6.625    0.469    0.190  115.641   86.984
  354.600    6.686    0.470    0.172  116.381   87.567
  354.850    6.748    0.464    0.167  119.344   87.565
  355.100    6.810    0.456    0.171  118.600   87.273
  355.350    6.873    0.459    0.183  116.374   87.272
  355.600    6.874    0.461    0.173  115.630   87.271
  355.850    6.937    0.459    0.166  117.110   86.102
  356.100    6.938    0.463    0.175  117.849   84.349
  356.350    7.002    0.461    0.184  114.881   83.181
  356.600    7.131    0.458    0.181  117.102   84.055
  356.850    7.132    0.476    0.160  118.583   84.055
  357.100    7.133    0.485    0.164  115.614   85.805
  357.350    7.134    0.481    0.176  111.904   85.512
  357.600    7.265    0.468    0.160  111.161   82.884
  357.850    7.814    0.445    0.148  111.158   79.380
  358.100    8.252    0.411    0.103  111.897   75.876
  358.350    8.405    0.425    0.108  114.119   74.999
  358.600    8.482    0.449    0.184  114.117   77.333
  358.850    8.406    0.456    0.176  114.115   82.587
  359.100    8.107    0.445    0.171  115.595   84.922
  359.350    7.540    0.440    0.187  117.817   82.877
  359.600    7.473    0.439    0.197  117.074   80.249
  359.850    7.542    0.436    0.222  111.138   77.037
  360.100    8.038    0.420    0.231  108.170   74.116
  360.350    8.412    0.388    0.237  107.426   70.904
  360.600    9.213    0.371    0.264  107.424   68.568
  360.850   10.369    0.362    0.203  105.939   65.939
  361.100   11.669    0.345    0.103  105.194   63.603
  361.350   13.619    0.311    0.050  105.934   58.639
  361.600   15.895    0.264    0.046  108.156   56.010
  361.850   19.590    0.255    0.054  108.895   55.133
  362.100   23.072    0.271    0.055  109.634   53.381
  362.350   24.589    0.294    0.083  109.631   59.511
  362.600   20.694    0.333    0.141  106.663   66.808
  362.850   17.416    0.415    0.198  105.919   72.646
  363.100   13.880    0.441    0.198  106.658   70.601
  363.350   10.010    0.454    0.205  111.105   69.141
  363.600    9.481    0.461    0.235  111.844   68.556
  363.850    9.396    0.457    0.241  109.617   68.263
  364.100    9.657    0.449    0.225  106.648   67.386
  364.350   10.106    0.430    0.201  106.646   66.802
  364.600   10.869    0.374    0.171  106.644   66.217
  364.850   12.012    0.325    0.113  108.124   65.924
  365.100   14.805    0.305    0.074  113.313   62.128
  365.350   17.278    0.306    0.085  114.052   63.002
  365.600   17.438    0.366    0.163  107.375   67.089
  365.850   12.807    0.423    0.171   99.958   73.219
  366.100   10.394    0.441    0.169  103.663   77.305
  366.350    9.154    0.470    0.194  114.783   79.639
  366.600    8.062    0.466    0.195  117.747   80.806
  366.850    7.775    0.472    0.188  114.778   82.265
  367.100    7.918    0.457    0.183  113.293   83.140
  367.350    8.212    0.441    0.157  113.290   81.679
  367.600    8.595    0.438    0.141  113.288   84.597
  367.850    8.914    0.463    0.155  114.769   86.348
  368.100    8.996    0.476    0.183  114.025   88.391
  368.350    8.997    0.471    0.185  113.281   89.558
  368.600    8.756    0.455    0.182  111.795   90.724
  368.850    8.369    0.446    0.175  112.535   91.015
  369.100    8.071    0.449    0.155  114.757   92.766
  369.350    7.926    0.468    0.189  115.496   96.268
  369.600    7.714    0.473    0.187  117.718   98.895
  369.850    7.715    0.477    0.169  118.457  100.062
  370.100    7.716    0.444    0.179  122.162   99.477
  370.350    7.930    0.415    0.202  119.194   97.724
  370.600    8.150    0.388    0.205  108.810   95.096
  370.850    8.686    0.388    0.186  108.066   93.635
  371.100    9.257    0.396    0.156  108.805   91.883
  371.350    9.777    0.401    0.169  111.769   88.962
  371.600   10.232    0.383    0.160  113.990   87.793
  371.850   10.709    0.366    0.152  114.730   83.413
  372.100   11.310    0.362    0.129  115.469   81.661
  372.350   11.730    0.381    0.189  114.725   86.915
  372.600   11.520    0.395    0.209  111.015   90.125
  372.850   11.110    0.397    0.204  110.271   90.708
  373.100   10.618    0.395    0.199  113.235   91.291
  373.350   10.240    0.404    0.190  117.681   91.290
  373.600    9.876    0.415    0.191  121.386   91.581
  373.850    9.612    0.424    0.186  123.609   93.332
  374.100    9.355    0.435    0.174  124.347   93.623
  374.350    9.271    0.437    0.201  123.604   90.410
