~VERSION INFORMATION
 VERS.                 2.0:   CWLS LOG ASCII STANDARD -VERSION 2.0
 WRAP.                  NO:   ONE LINE PER DEPTH STEP
~WELL INFORMATION BLOCK
#MNEM.UNIT           DATA                    DESCRIPTION OF MNEMONIC
#---------    -------------------            -------------------------------
# Generated from Intellog Unique Number	CS_77_79/WELL/3296
WELL.         ALLIED ROXANA MINERALS LTD.    : Well_name    - WELL
LOC .         00/07-11-078-17W4/0            : Location     - LOCATION
UWI .         00/07-11-078-17W4/0            : Uwi          - UNIQUE WELL ID
ENTR.         JOETTE                         : Entered      - ENTERED BY
SRVC.         SCHLUMBERGER                   : Scn          - SERVICE COMPANY
DATE.         08-24-92                       : Date         - LOG DATE
STRT.M        185.928                        : top_depth    - START DEPTH
STOP.M        377.928                        : bot_depth    - STOP DEPTH
STEP.M        0.25                           : increment    - STEP LENGTH
 NULL. -999.2500:NULL Value
~CURVE INFORMATION BLOCK
#MNEM UNIT       ERCB CURVE CODE    CURVE DESCRIPTION
#-----------   ------------------   ----------------------------------
DEPT.M        00 001 00 00         : DEPTH        - DEPTH
GR  .API      00 310 00 00         : GR           - GAMMA RAY
NPHI.V/V      00 330 00 00         : PHIN         - NEUTRON POROSITY (SANDSTONE)
ILD .OHMM     00 120 00 00         : RESD         - DEEP RESISTIVITY (DIL)
~PARAMETER INFORMATION
#MNEM.UNIT           DATA             DESCRIPTION OF MNEMONIC
#---------         -----------     ------------------------------
GL  .M        593.446              : gl           - GROUND LEVEL ELEVATION
EREF.M        596.494              : kb           - ELEVATION OF DEPTH REFERENCE
DATM.M        596.494              : datum        - DATUM ELEVATION
TDD .M        396.85               : tdd          - TOTAL DEPTH DRILLER
RUN .         ONE                  : Run          - RUN NUMBER
ENG .         BILL                 : Engineer     - RECORDING ENGINEER
WIT .         JIM                  : Witness      - WITNESSED BY
MUD .         GEL                  : Mud_type     - MUD TYPE
MATR.         SANDSTONE            : Logunit      - NEUTRON MATRIX
TMAX.C        24.4444              : BHT          - MAXIMUM RECORDED TEMPERATURE
BHTD.M        396.85               : BHTDEP       - MAXIMUM RECORDED TEMPERATURE
RMT .C        13.3333              : MDTP         - TEMPERATURE OF MUD
MUDD.KG/M     8700                 : MWT          - MUD DENSITY
NEUT.         1                    : NEUTRON      - NEUTRON TYPE
RESI.         0                    : RESIST       - RESISTIVITY TYPE
RM  .OHMM     3.82                 : RM           - RESISTIVITY OF MUD
RMC .OHMM     3.82                 : RMC          - RESISTIVITY OF MUD CAKE
RMF .OHMM     3.82                 : RMF          - RESISTIVITY OF MUD FILTRATE
SUFT.C        15                   : SUFT         - SURFACE TEMPERATURE
~A  DEPTH       GR     PHIN     RESD
# ...
  348.678   63.908    0.443    9.287
  348.928   63.389    0.445   10.113
  349.178   66.386    0.448   11.339
  349.428   69.958    0.450   12.568
  349.678   69.425    0.445   12.785
  349.928   73.025    0.433   12.803
  350.178   72.505    0.424   12.818
  350.428   72.546    0.413   13.446
  350.678   73.792    0.401   13.865
  350.928   75.612    0.391   14.081
  351.178   72.711    0.384   13.491
  351.428   72.192    0.376   12.908
  351.678   76.352    0.365   12.725
  351.928   74.642    0.340   12.534
  352.178   71.166    0.325   12.557
  352.428   76.545    0.320   12.568
  352.678   79.529    0.361   12.785
  352.928   79.009    0.372   13.009
  353.178   76.710    0.382   13.020
  353.428   77.928    0.386   13.446
  353.678   90.944    0.391   13.659
  353.928   90.410    0.392   13.678
  354.178   86.346    0.390   13.697
  354.428   84.047    0.386   13.514
  354.678   77.040    0.382   13.125
  354.928   70.636    0.376   12.531
  355.178   68.323    0.369   11.145
  355.428   66.024    0.348   10.752
  355.678   74.906    0.347   10.364
  355.928   86.156    0.344    9.975
  356.178   92.096    0.343    9.590
  356.428   98.625    0.361    9.605
  356.678   98.707    0.374   11.444
  356.928   97.558    0.379   13.069
  357.178   98.831    0.380   15.509
  357.428  101.213    0.378   16.940
  357.678  107.152    0.392   17.972
  357.928  109.561    0.393   18.387
  358.178  106.086    0.389   19.007
  358.428  102.610    0.385   19.026
  358.678   97.957    0.379   18.443
  358.928   90.950    0.364   17.849
  359.178   83.355    0.335   16.660
  359.428   71.626    0.330   16.264
  359.678   64.620    0.317   15.483
  359.928   65.263    0.331   15.491
  360.178   75.336    0.324   15.917
  360.428   81.865    0.320   16.739
  360.678   91.938    0.327   18.368
  360.928  112.029    0.337   22.019
  361.178  109.730    0.342   24.455
  361.428  106.842    0.337   30.729
  361.678  102.764    0.332   33.371
  361.928   96.934    0.327   31.973
  362.178   92.870    0.317   29.974
  362.428   89.394    0.311   29.387
  362.678   87.082    0.306   30.210
  362.928   81.868    0.304   30.628
  363.178   78.967    0.313   31.458
  363.428   84.907    0.320   31.671
  363.678   84.975    0.320   31.895
  363.928   82.088    0.314   31.301
  364.178   83.306    0.306   31.320
  364.428   83.375    0.300   30.128
  364.678   81.665    0.293   29.941
  364.928   80.543    0.293   30.157
  365.178   79.996    0.291   31.189
  365.428   81.816    0.286   32.213
  365.678   83.664    0.291   34.044
  365.928   82.542    0.301   35.673
  366.178   81.995    0.297   34.683
  366.428   84.404    0.294   34.298
  366.678   86.827    0.291   34.320
  366.928   83.365    0.293   34.731
  367.178   82.804    0.293   36.166
  367.428   85.213    0.295   36.783
  367.678   91.194    0.296   38.419
  367.928   93.001    0.297   40.452
  368.178   95.998    0.300   39.862
  368.428   98.407    0.303   33.823
  368.678  100.816    0.313   32.426
  368.928  104.990    0.322   31.032
  369.178  106.825    0.334   29.635
  369.428  103.335    0.341   28.439
  369.678   95.740    0.346   27.049
  369.928   85.188    0.346   26.261
  370.178   73.474    0.343   25.872
  370.428   67.055    0.340   26.089
  370.678   61.814    0.331   26.911
  370.928   55.984    0.320   27.733
  371.178   50.155    0.303   31.593
  371.428   52.564    0.307   32.822
  371.678   54.973    0.311   33.637
  371.928   57.984    0.317   32.848
  372.178   56.273    0.321   28.223
  372.428   58.094    0.334   26.421
  372.678   55.795    0.347   22.401
  372.928   52.319    0.345   20.802
  373.178   54.728    0.334   19.610
  373.428   58.314    0.323   19.830
  373.678   61.325    0.314   20.656
  373.928   57.247    0.308   21.276
  374.178   50.829    0.303   22.098
  374.428   43.822    0.297   22.920
  374.678   30.342    0.293   22.920
  374.928   27.441    0.287   21.351
  375.178   15.152    0.277   18.534
  375.428   12.251    0.266   18.351
  375.678    7.009    0.237   18.366
  375.928    2.945    0.200   19.393
  376.178    5.970    0.185   20.413
  376.428    7.174    0.159   22.450
  376.678   12.540    0.140   23.485
  376.928   18.479    0.132   23.492
  377.178   22.668    0.129   24.120
  377.428   20.957    0.124   25.140
  377.678   20.424    0.121   25.361
  377.928   21.656    0.112   25.779
