~VERSION INFORMATION
 VERS.                 2.0:   CWLS LOG ASCII STANDARD -VERSION 2.0
 WRAP.                  NO:   ONE LINE PER DEPTH STEP
~WELL INFORMATION BLOCK
#MNEM.UNIT           DATA                    DESCRIPTION OF MNEMONIC
#---------    -------------------            -------------------------------
# Generated from Intellog Unique Number	CX_WELLS/WELL/3007
WELL.         TRITON ATCOR THORNBURY         : Well_name    - WELL
LOC .         00/08-04-082-12W4/0            : Location     - LOCATION
UWI .         00/08-04-082-12W400            : Uwi          - UNIQUE WELL ID
ENTR.         T                              : Entered      - ENTERED BY
SRVC.         SCHLUMBERGER                   : Scn          - SERVICE COMPANY
STRT.M        300                            : top_depth    - START DEPTH
STOP.M        535                            : bot_depth    - STOP DEPTH
STEP.M        0.25                           : increment    - STEP LENGTH
 NULL. -999.2500:NULL Value
~CURVE INFORMATION BLOCK
#MNEM UNIT       ERCB CURVE CODE    CURVE DESCRIPTION
#-----------   ------------------   ----------------------------------
DEPT.M        00 001 00 00         : DEPTH        - DEPTH
GR  .API      00 310 00 00         : GR           - GAMMA RAY
NPHI.V/V      00 330 00 00         : PHIN         - NEUTRON POROSITY (SANDSTONE)
DPHI.V/V      00 890 00 00         : PHID         - DENSITY POROSITY (SANDSTONE)
ILD .OHMM     00 120 00 00         : RESD         - DEEP RESISTIVITY (OTHER)
~PARAMETER INFORMATION
#MNEM.UNIT           DATA             DESCRIPTION OF MNEMONIC
#---------         -----------     ------------------------------
GL  .M        746                  : gl           - GROUND LEVEL ELEVATION
EREF.M        748.6                : kb           - ELEVATION OF DEPTH REFERENCE
DATM.M        748.6                : datum        - DATUM ELEVATION
TDD .M        546                  : tdd          - TOTAL DEPTH DRILLER
RUN .         ONE                  : Run          - RUN NUMBER
ENG .         BILL                 : Engineer     - RECORDING ENGINEER
WIT .         JIM                  : Witness      - WITNESSED BY
MUD .         GEL                  : Mud_type     - MUD TYPE
MATR.         SANDSTONE            : Logunit      - NEUTRON MATRIX
TMAX.C        27                   : BHT          - MAXIMUM RECORDED TEMPERATURE
BHTD.M        546                  : BHTDEP       - MAXIMUM RECORDED TEMPERATURE
MATR.         1                    : LOGUNIT      - NEUTRON MATRIX
RMT .C        16                   : MDTP         - TEMPERATURE OF MUD
NEUT.         1                    : NEUTRON      - NEUTRON TYPE
RESI.         3.34                 : RESIST       - RESISTIVITY TYPE
RMC .OHMM     2                    : RMC          - RESISTIVITY OF MUD CAKE
RMF .OHMM     3.9                  : RMF          - RESISTIVITY OF MUD FILTRATE
SUFT.C        4                    : SUFT         - SURFACE TEMPERATURE
~A  DEPTH       GR     PHIN     PHID     RESD
  300.000   99.982    0.555    0.202    3.446
  300.250  100.600    0.556    0.212    3.577
  300.500  102.414    0.554    0.257    3.579
  300.750  104.229    0.552    0.278    3.581
  301.000  105.448    0.548    0.274    3.517
  301.250  106.055    0.540    0.255    3.455
  301.500  107.864    0.528    0.258    3.456
  301.750  106.102    0.533    0.258    3.458
  302.000  104.941    0.535    0.255    3.460
  302.250  103.769    0.530    0.254    3.461
  302.500  102.013    0.494    0.255    3.463
  302.750  102.631    0.502    0.260    3.465
  303.000  105.035    0.511    0.268    3.466
  303.250  105.653    0.518    0.276    3.468
  303.500  104.492    0.516    0.258    3.470
  303.750  103.915    0.502    0.250    3.472
  304.000  103.938    0.472    0.248    3.473
  304.250  104.557    0.464    0.253    3.475
  304.500  103.991    0.460    0.259    3.476
  304.750  102.818    0.461    0.262    3.478
  305.000  102.247    0.466    0.242    3.480
  305.250  101.092    0.474    0.239    3.482
  305.500   98.729    0.484    0.245    3.483
  305.750   95.194    0.489    0.253    3.421
  306.000   94.016    0.488    0.265    3.423
  306.250   95.229    0.475    0.273    3.488
  306.500   98.228    0.461    0.268    3.828
  306.750   95.877    0.466    0.262    4.439
  307.000   91.134    0.480    0.258    6.917
  307.250   47.123    0.484    0.404   16.182
  307.500   42.981    0.454    0.421   63.470
  307.750   42.421    0.122    0.396  108.482
  308.000   42.433    0.142    0.400   98.963
  308.250   41.861    0.155    0.429   80.823
  308.500   39.504    0.164    0.435   82.369
  308.750   38.938    0.161    0.432   85.508
  309.000   41.336    0.158    0.426   82.458
  309.250   43.740    0.154    0.423   80.969
  309.500   43.180    0.156    0.427   75.250
  309.750   43.198    0.161    0.436   67.400
  310.000   43.822    0.165    0.438   62.624
  310.250   46.821    0.172    0.434   54.051
  310.500   52.194    0.185    0.395   45.798
  310.750   56.978    0.233    0.385   36.043
  311.000   64.148    0.310    0.280   27.847
  311.250   68.931    0.327    0.278   19.983
  311.500   73.715    0.327    0.287   14.607
  311.750   70.174    0.325    0.302   11.496
  312.000   67.812    0.318    0.310   12.383
  312.250   63.075    0.300    0.347   14.098
  312.500   58.337    0.263    0.376   16.966
  312.750   54.196    0.228    0.402   18.618
  313.000   51.839    0.229    0.354   17.299
  313.250   63.769    0.247    0.262   14.931
  313.500   73.314    0.334    0.265   12.651
  313.750   74.527    0.430    0.280   13.627
  314.000   51.343    0.438    0.324   15.804
  314.250   44.821    0.424    0.329   17.341
  314.500   49.016    0.404    0.333   18.681
  314.750   50.229    0.401    0.337   17.360
  315.000   50.253    0.406    0.339   16.432
  315.250   53.245    0.413    0.346   15.268
  315.500   59.225    0.399    0.313   13.930
  315.750   65.800    0.398    0.280   12.475
  316.000   65.229    0.396    0.281   11.174
  316.250   64.651    0.396    0.280   10.006
  316.500   64.680    0.398    0.273    9.128
  316.750   70.053    0.399    0.260    8.026
  317.000   77.819    0.400    0.235    7.457
  317.250   82.007    0.407    0.227    6.931
  317.500   86.196    0.427    0.232    6.933
  317.750   90.385    0.441    0.240    8.343
  318.000   77.317    0.438    0.274   11.217
  318.250   68.415    0.427    0.301   13.749
  318.500   55.942    0.429    0.311   15.945
  318.750   54.787    0.437    0.319   15.093
  319.000   57.780    0.433    0.317   13.270
  319.250   64.938    0.433    0.306   11.884
  319.500   83.414    0.464    0.306   10.257
  319.750   91.768    0.521    0.311    8.532
  320.000   95.368    0.531    0.319    7.229
  320.250   94.195    0.487    0.325    8.863
  320.500   89.458    0.461    0.320   11.272
  320.750   72.820    0.436    0.317   13.318
  321.000   57.967    0.426    0.306   14.344
  321.250   59.776    0.411    0.277   15.454
  321.500   78.258    0.406    0.265   15.177
  321.750   81.251    0.410    0.254   14.101
  322.000   87.225    0.414    0.260   12.171
  322.250   91.425    0.413    0.262    9.757
  322.500   92.032    0.415    0.269    8.423
  322.750   91.460    0.422    0.275    7.827
  323.000   87.919    0.425    0.279    7.408
  323.250   83.783    0.425    0.284    7.980
  323.500   79.641    0.418    0.288    8.919
  323.750   77.879    0.409    0.296    9.969
  324.000   78.498    0.416    0.302   10.938
  324.250   79.116    0.424    0.296   11.569
  324.500   79.740    0.437    0.290   11.573
  324.750   80.347    0.443    0.288   11.582
  325.000   80.966    0.439    0.293   11.586
  325.250   80.989    0.425    0.300   12.252
  325.500   79.822    0.425    0.311   13.195
  325.750   80.447    0.428    0.321   15.303
  326.000   82.255    0.427    0.331   17.106
  326.250   81.094    0.425    0.337   17.760
  326.500   78.732    0.430    0.340   18.439
  326.750   76.375    0.435    0.333   18.789
  327.000   76.398    0.429    0.330   19.146
  327.250   79.397    0.416    0.330   19.155
  327.500   83.592    0.416    0.320   19.165
  327.750   86.596    0.420    0.313   19.176
  328.000   88.399    0.421    0.317   19.183
  328.250   90.809    0.416    0.329   18.843
  328.500   92.016    0.414    0.336   18.510
  328.750   92.046    0.414    0.344   18.182
  329.000   90.278    0.413    0.349   18.187
  329.250   86.743    0.413    0.350   17.863
  329.500   85.564    0.413    0.353   17.871
  329.750   87.385    0.413    0.362   17.552
  330.000   88.592    0.416    0.352   16.926
  330.250   88.622    0.418    0.344   16.623
  330.500   86.866    0.418    0.334   15.738
  330.750   86.288    0.414    0.327   14.899
  331.000   85.116    0.408    0.319   14.364
  331.250   93.470    0.406    0.292   13.595
  331.500  104.216    0.402    0.285   12.404
  331.750  106.019    0.392    0.273   11.314
  332.000  106.643    0.376    0.240   10.322
  332.250  103.685    0.381    0.218    8.747
  332.500   95.378    0.395    0.212    7.690
  332.750   96.592    0.418    0.187    7.014
  333.000  100.786    0.436    0.172    6.400
  333.250  101.994    0.447    0.174    6.286
  333.500  106.200    0.445    0.180    6.289
  333.750  107.408    0.457    0.187    6.064
  334.000  109.211    0.478    0.198    5.956
  334.250  111.614    0.484    0.216    5.850
  334.500  116.404    0.500    0.225    5.853
  334.750  118.213    0.506    0.221    5.856
  335.000  117.040    0.510    0.213    5.859
  335.250  112.309    0.484    0.188    5.861
  335.500  108.173    0.472    0.187    5.447
  335.750  109.386    0.464    0.192    4.969
  336.000  110.594    0.462    0.206    4.618
  336.250  113.604    0.493    0.221    4.291
  336.500  114.812    0.514    0.231    3.843
  336.750  117.222    0.517    0.237    3.638
  337.000  118.429    0.528    0.246    3.508
  337.250  120.845    0.534    0.259    3.920
  337.500  121.451    0.513    0.269    6.824
  337.750  121.475    0.482    0.280   10.061
  338.000  117.333    0.465    0.294   12.797
  338.250  113.191    0.436    0.314   13.786
  338.500  107.264    0.422    0.287   13.793
  338.750  101.932    0.422    0.290   13.299
  339.000   98.986    0.426    0.292   12.823
  339.250   96.635    0.433    0.299   12.138
  339.500   94.861    0.437    0.306   11.702
  339.750   90.719    0.439    0.312   10.101
  340.000   87.767    0.431    0.283    8.881
  340.250   84.816    0.414    0.252    7.665
  340.500   99.126    0.415    0.239    6.740
  340.750  108.075    0.425    0.214    6.870
  341.000  111.669    0.444    0.211    7.000
  341.250  114.668    0.443    0.214    7.540
  341.500  117.667    0.434    0.217    7.827
  341.750  117.702    0.427    0.224    8.589
  342.000  115.934    0.427    0.235    8.916
  342.250  111.798    0.435    0.251    9.256
  342.500  109.435    0.437    0.265    9.433
  342.750  107.079    0.436    0.274    9.439
  343.000  102.942    0.429    0.283    9.444
  343.250   99.990    0.424    0.294    9.447
