~VERSION INFORMATION
 VERS.                 2.0:   CWLS LOG ASCII STANDARD -VERSION 2.0
 WRAP.                  NO:   ONE LINE PER DEPTH STEP
~WELL INFORMATION BLOCK
#MNEM.UNIT           DATA                    DESCRIPTION OF MNEMONIC
#---------    -------------------            -------------------------------
# Generated from Intellog Unique Number	CW_76_78/WELL/619
WELL.         07-12-077-04W5                 : Well_name    - WELL
LOC .         00/07-12-077-04W5/0            : Location     - LOCATION
UWI .         00/07-12-077-04W5/0            : Uwi          - UNIQUE WELL ID
ENTR.         JAYE                           : Entered      - ENTERED BY
SRVC.         WESTERN ATLAS                  : Scn          - SERVICE COMPANY
STRT.M        435.864                        : top_depth    - START DEPTH
STOP.M        633.864                        : bot_depth    - STOP DEPTH
STEP.M        0.25                           : increment    - STEP LENGTH
 NULL. -999.2500:NULL Value
~CURVE INFORMATION BLOCK
#MNEM UNIT       ERCB CURVE CODE    CURVE DESCRIPTION
#-----------   ------------------   ----------------------------------
DEPT.M        00 001 00 00         : DEPTH        - DEPTH
ILD .OHMM     00 120 00 00         : RESD         - DEEP RESISTIVITY (DIL)
DPHI.V/V      00 890 00 00         : PHID         - DENSITY POROSITY (SANDSTONE)
NPHI.V/V      00 330 00 00         : PHIN         - NEUTRON POROSITY (SANDSTONE)
GR  .API      00 310 00 00         : GR           - GAMMA RAY
CALI.MM       00 280 01 00         : CAL          - CALIPER
~PARAMETER INFORMATION
#MNEM.UNIT           DATA             DESCRIPTION OF MNEMONIC
#---------         -----------     ------------------------------
GL  .M        719.938              : gl           - GROUND LEVEL ELEVATION
EREF.M        723.595              : kb           - ELEVATION OF DEPTH REFERENCE
DATM.M        719.938              : datum        - DATUM ELEVATION
TDD .M        694.944              : tdd          - TOTAL DEPTH DRILLER
RUN .         ONE                  : Run          - RUN NUMBER
ENG .         SKOWOEODKO           : Engineer     - RECORDING ENGINEER
WIT .         MIS/STEIDEL          : Witness      - WITNESSED BY
BASE.         EDM                  : Branch       - HOME BASE OF LOGGING UNIT
MUD .         GEL CHEM             : Mud_type     - MUD TYPE
MATR.         SANDSTONE            : Logunit      - NEUTRON MATRIX
TMAX.C        27.2222              : BHT          - MAXIMUM RECORDED TEMPERATURE
BHTD.M        695.858              : BHTDEP       - MAXIMUM RECORDED TEMPERATURE
RMT .C        15.5556              : MDTP         - TEMPERATURE OF MUD
MUDD.KG/M     0                    : MWT          - MUD DENSITY
NEUT.         1                    : NEUTRON      - NEUTRON TYPE
RESI.         0                    : RESIST       - RESISTIVITY TYPE
RM  .OHMM     3.35                 : RM           - RESISTIVITY OF MUD
RMC .OHMM     0                    : RMC          - RESISTIVITY OF MUD CAKE
RMF .OHMM     4.4                  : RMF          - RESISTIVITY OF MUD FILTRATE
SUFT.C        -17.7778             : SUFT         - SURFACE TEMPERATURE
~A  DEPTH     RESD     PHID     PHIN       GR      CAL
# ...
  472.364    6.859    0.462    0.573   55.561  166.210
  472.614    6.981    0.449    0.500   49.582  161.986
  472.864    6.701    0.338    0.409   52.776  160.247
  473.114    6.395    0.331    0.407   52.606  159.446
  473.364    6.345    0.333    0.433   53.232  159.468
  473.614    6.458    0.312    0.449   56.975  159.389
  473.864    6.574    0.326    0.441   57.907  159.514
  474.114    6.618    0.337    0.428   54.007  159.226
  474.364    6.589    0.343    0.420   51.513  158.733
  474.614    6.513    0.349    0.415   52.934  159.273
  474.864    6.485    0.351    0.413   53.802  159.606
  475.114    6.493    0.357    0.416   53.816  159.007
  475.364    6.489    0.360    0.418   52.241  158.101
  475.614    6.460    0.354    0.414   50.972  157.814
  475.864    6.444    0.349    0.407   51.169  157.318
  476.114    6.405    0.355    0.409   52.097  156.924
  476.364    6.343    0.360    0.418   53.885  156.743
  476.614    6.245    0.358    0.417   55.489  156.560
  476.864    6.162    0.349    0.412   56.908  156.684
  477.114    6.046    0.352    0.409   57.412  157.018
  477.364    5.954    0.358    0.411   55.102  157.147
  477.614    5.885    0.369    0.414   54.381  157.167
  477.864    5.903    0.375    0.420   55.803  157.090
  478.114    5.976    0.379    0.426   57.343  157.114
  478.364    6.050    0.371    0.422   58.091  157.032
  478.614    6.168    0.360    0.418   57.126  157.052
  478.864    6.245    0.360    0.413   55.551  156.871
  479.114    6.321    0.363    0.415   55.076  156.793
  479.364    6.399    0.357    0.418   54.599  156.709
  479.614    6.490    0.364    0.439   54.124  156.838
  479.864    6.594    0.361    0.426   53.832  156.961
  480.114    6.711    0.348    0.403   54.029  157.298
  480.364    6.819    0.332    0.393   55.265  157.319
  480.614    6.954    0.326    0.396   57.419  157.240
  480.864    7.170    0.329    0.403   59.512  157.158
  481.114    7.571    0.330    0.411   61.300  157.181
  481.364    8.099    0.317    0.413   62.903  157.208
  481.614    8.791    0.304    0.411   68.969  157.332
  481.864    9.335    0.306    0.408   74.058  157.256
  482.114    9.948    0.310    0.410   75.357  157.275
  482.364   10.352    0.314    0.413   74.881  157.506
  482.614   10.576    0.316    0.415   73.795  157.529
  482.864   10.785    0.315    0.409   71.423  157.447
  483.114   10.918    0.307    0.401   67.156  157.164
  483.364   11.112    0.298    0.396   58.793  157.184
  483.614   11.209    0.298    0.398   53.975  157.309
  483.864   11.284    0.305    0.407   53.378  157.646
  484.114   11.298    0.314    0.415   54.614  157.774
  484.364   11.206    0.314    0.420   58.174  157.692
  484.614   11.139    0.304    0.423   60.879  157.511
  484.864   11.111    0.303    0.423   61.076  157.217
  485.114   11.164    0.311    0.420   60.724  157.242
  485.364   11.261    0.318    0.419   59.268  156.851
  485.614   11.378    0.298    0.421   56.348  156.776
  485.864   11.476    0.307    0.415   54.405  156.486
  486.114   11.596    0.314    0.406   56.803  156.299
  486.364   11.847    0.310    0.415   58.591  156.323
  486.614   12.082    0.317    0.424   57.135  156.351
  486.864   12.457    0.322    0.416   54.461  156.371
  487.114   12.843    0.316    0.407   52.699  156.297
  487.364   13.145    0.299    0.407   52.652  156.315
  487.614   13.479    0.309    0.416   52.910  156.337
  487.864   13.545    0.321    0.405   52.679  156.053
  488.114   13.338    0.322    0.392   51.593  156.069
  488.364   13.039    0.313    0.388   51.422  156.299
  488.614   12.723    0.304    0.399   52.293  156.327
  488.864   12.414    0.313    0.416   53.468  156.452
  489.114   12.203    0.322    0.443   54.031  156.370
  489.364   11.973    0.329    0.420   52.089  156.399
  489.614   11.770    0.336    0.406   50.146  156.523
  489.864   11.549    0.317    0.414   49.181  156.646
  490.114   11.351    0.312    0.429   49.745  156.880
  490.364   11.219    0.316    0.434   49.758  157.007
  490.614   11.111    0.314    0.424   48.918  157.234
  490.864   10.981    0.317    0.421   48.257  157.462
  491.114   10.915    0.329    0.422   48.271  157.798
  491.364   10.867    0.315    0.426   49.753  157.929
  491.614   10.861    0.318    0.435   51.846  158.054
  491.864   10.933    0.321    0.442   52.287  158.179
  492.114   10.947    0.324    0.436   51.995  158.201
  492.364   10.980    0.330    0.424   51.519  158.224
  492.614   10.973    0.304    0.417   50.739  158.353
  492.864   10.865    0.292    0.410   50.079  158.270
  493.114   10.759    0.316    0.405   49.787  158.294
  493.364   10.634    0.330    0.421   49.740  158.317
  493.614   10.454    0.327    0.435   49.937  158.339
  493.864   10.257    0.318    0.429   50.195  158.370
  494.114    9.953    0.319    0.421   51.371  158.497
  494.364    9.658    0.328    0.416   52.669  158.414
  494.614    9.494    0.337    0.414   53.966  158.434
  494.864    9.436    0.341    0.417   55.325  158.458
  495.114    9.413    0.338    0.425   56.377  158.276
  495.364    9.441    0.321    0.431   57.432  158.198
  495.614    9.505    0.319    0.436   58.364  158.214
  495.864    9.533    0.323    0.441   58.927  158.240
  496.114    9.423    0.325    0.444   59.245  158.264
  496.364    9.144    0.323    0.446   59.382  158.291
  496.614    8.760    0.320    0.445   59.273  158.310
  496.864    8.377    0.330    0.440   59.287  158.539
  497.114    8.129    0.342    0.428   59.546  158.667
  497.364    8.079    0.353    0.418   60.108  158.793
  497.614    8.014    0.351    0.413   60.856  158.817
  497.864    7.994    0.329    0.422   61.909  159.049
  498.114    8.020    0.331    0.449   63.329  159.071
  498.364    8.193    0.336    0.445   67.012  159.095
  498.614    8.477    0.335    0.431   69.227  159.114
  498.864    8.645    0.347    0.427   70.096  158.827
  499.114    8.833    0.326    0.423   72.129  158.848
  499.364    9.041    0.286    0.407   74.465  159.189
  499.614    9.321    0.225    0.379   78.025  159.210
  499.864    9.524    0.121    0.335   78.895  159.233
  500.114    9.500    0.045    0.268   77.687  159.152
  500.364    8.903    0.074    0.293   77.517  159.280
  500.614    8.012    0.146    0.393   81.077  159.305
  500.864    7.041    0.219    0.411   87.387  159.426
  501.114    6.086    0.230    0.455   90.887  159.761
  501.364    5.251    0.250    0.452   90.594  159.785
  501.614    4.804    0.256    0.446   90.608  160.013
  501.864    4.611    0.260    0.441   91.478  160.142
  502.114    4.516    0.268    0.437   93.144  160.265
  502.364    4.546    0.270    0.435   94.136  160.190
  502.614    4.594    0.241    0.432   94.760  160.107
  502.864    4.649    0.238    0.430   95.079  160.340
  503.114    4.656    0.248    0.429   94.971  160.360
  503.364    4.577    0.232    0.428   95.474  160.386
  503.614    4.523    0.232    0.430   96.160  160.515
  503.864    4.479    0.239    0.437   97.275  160.436
  504.114    4.443    0.236    0.442   98.572  160.252
  504.364    4.408    0.217    0.434   97.913  160.068
  504.614    4.357    0.223    0.437   96.643  160.092
  504.864    4.299    0.233    0.447   95.677  160.108
  505.114    4.225    0.236    0.454   94.529  160.128
  505.364    4.161    0.234    0.448   93.871  160.155
  505.614    4.105    0.230    0.443   94.863  160.284
  505.864    4.065    0.232    0.433   96.895  160.303
  506.114    4.003    0.234    0.424   99.109  160.435
  506.364    3.964    0.230    0.423  101.997  160.457
  506.614    3.933    0.206    0.441  105.618  160.682
  506.864    3.908    0.208    0.457  109.791  160.707
  507.114    3.892    0.214    0.459  111.699  160.935
  507.364    3.875    0.225    0.450  111.958  163.133
  507.614    3.879    0.233    0.437  111.665  164.711
  507.864    3.898    0.225    0.428  110.212  166.182
  508.114    3.917    0.224    0.443  107.535  167.657
  508.364    3.937    0.218    0.450  105.347  168.920
  508.614    3.941    0.209    0.453  103.526  170.187
