~VERSION INFORMATION
 VERS.                 2.0:   CWLS LOG ASCII STANDARD -VERSION 2.0
 WRAP.                  NO:   ONE LINE PER DEPTH STEP
~WELL INFORMATION BLOCK
#MNEM.UNIT           DATA                    DESCRIPTION OF MNEMONIC
#---------    -------------------            -------------------------------
# Generated from Intellog Unique Number	CS_69_70/WELL/770
NULL.         -999.25                        : NULL_VALUE
WELL.         ET AL TWEEDIE                  : Well_name    - WELL              
LOC .         00/06-11-070-13W4/0            : Location     - LOCATION          
UWI .         00/06-11-070-13W4/0            : Uwi          - UNIQUE WELL ID    
ENTR.         SP                             : Entered      - ENTERED BY        
SRVC.         SCHLUMBERGER                   : Scn          - SERVICE COMPANY   
STRT.M        265                            : top_depth    - START DEPTH       
STOP.M        500                            : bot_depth    - STOP DEPTH        
STEP.M        0.25                           : increment    - STEP LENGTH       
~CURVE INFORMATION BLOCK
#MNEM UNIT       ERCB CURVE CODE    CURVE DESCRIPTION
#-----------   ------------------   ----------------------------------
DEPT.M        00 001 00 00         : DEPTH        - DEPTH                       
ILD .OHMM     00 120 00 00         : RESD         - DEEP RESISTIVITY (DIL)      
DPHI.V/V      00 890 00 00         : PHID         - DENSITY POROSITY (LIMESTONE)
NPHI.V/V      00 330 00 00         : PHIN         - NEUTRON POROSITY (LIMESTONE)
GR  .API      00 310 00 00         : GR           - GAMMA RAY                   
~PARAMETER INFORMATION       
#MNEM.UNIT           DATA             DESCRIPTION OF MNEMONIC
#---------         -----------     ------------------------------
GL  .M        579.7                : gl           - GROUND LEVEL ELEVATION      
EREF.M        583.3                : kb           - ELEVATION OF DEPTH REFERENCE
DATM.M        579.7                : datum        - DATUM ELEVATION             
TDD .M        511                  : tdd          - TOTAL DEPTH DRILLER         
RUN .         ONE                  : Run          - RUN NUMBER                  
ENG .         BILL                 : Engineer     - RECORDING ENGINEER          
WIT .         JIM                  : Witness      - WITNESSED BY                
MUD .         GEL                  : Mud_type     - MUD TYPE                    
MATR.         LIMESTONE            : Logunit      - NEUTRON MATRIX              
TMAX.C        26                   : BHT          - MAXIMUM RECORDED TEMPERATURE
BHTD.M        511                  : BHTDEP       - MAXIMUM RECORDED TEMPERATURE
MATR.         1                    : LOGUNIT      - NEUTRON MATRIX              
RMT .C        25                   : MDTP         - TEMPERATURE OF MUD          
NEUT.         1                    : NEUTRON      - NEUTRON TYPE                
RESI.         0                    : RESIST       - RESISTIVITY TYPE            
RMC .OHMM     0.25                 : RMC          - RESISTIVITY OF MUD CAKE     
RMF .OHMM     0.25                 : RMF          - RESISTIVITY OF MUD FILTRATE 
SUFT.C        15                   : SUFT         - SURFACE TEMPERATURE         
~A  DEPTH     RESD     PHID     PHIN       GR
  265.000    2.408    0.274    0.535   99.776
  265.250    2.468    0.290    0.553  100.999
  265.500    2.473    0.305    0.522   96.715
  265.750    2.487    0.301    0.502   97.695
  266.000    2.511    0.289    0.560   96.195
  266.250    2.474    0.280    0.601   94.816
  266.500    2.362    0.280    0.497   94.888
  266.750    2.456    0.289    0.477   94.598
  267.000    2.411    0.247    0.500   93.339
  267.250    2.350    0.233    0.519   92.443
  267.500    2.303    0.223    0.483   92.335
  267.750    2.261    0.261    0.471   93.193
  268.000    2.248    0.279    0.505   95.020
  268.250    2.265    0.285    0.532   97.393
  268.500    2.308    0.289    0.552   99.644
  268.750    2.309    0.292    0.553  100.503
  269.000    2.375    0.289    0.521   99.971
  269.250    2.479    0.278    0.493   97.562
  269.500    2.597    0.270    0.467   96.243
  269.750    2.701    0.266    0.465   98.675
  270.000    2.773    0.256    0.496  100.019
  270.250    2.847    0.246    0.529   97.187
  270.500    2.928    0.246    0.549   91.996
  270.750    2.967    0.227    0.496   90.254
  271.000    2.984    0.238    0.430   91.656
  271.250    2.924    0.225    0.394   97.659
  271.500    2.807    0.238    0.434  100.393
  271.750    2.655    0.276    0.484  101.313
  272.000    2.535    0.295    0.508   99.389
  272.250    2.456    0.298    0.513  102.911
  272.500    2.425    0.301    0.524  107.642
  272.750    2.403    0.301    0.516  110.196
  273.000    2.458    0.295    0.506  106.759
  273.250    2.453    0.299    0.472  102.233
  273.500    2.500    0.293    0.500   99.221
  273.750    2.436    0.304    0.524   95.663
  274.000    2.567    0.341    0.557   92.529
  274.250    2.611    0.365    0.581   91.330
  274.500    2.596    0.370    0.529   91.826
  274.750    2.525    0.345    0.485   93.532
  275.000    2.470    0.319    0.472   93.968
  275.250    2.503    0.296    0.471   93.374
  275.500    2.667    0.284    0.452   89.514
  275.750    2.879    0.374    0.490   77.970
  276.000    3.062    0.419    0.568   73.141
  276.250    3.184    0.421    0.563   68.858
  276.500    3.227    0.398    0.524   63.364
  276.750    3.144    0.358    0.475   56.659
  277.000    3.007    0.312    0.380   45.961
  277.250    2.792    0.310    0.357   37.563
  277.500    2.597    0.303    0.353   40.117
  277.750    2.484    0.298    0.355   42.004
  278.000    2.443    0.302    0.355   41.592
  278.250    2.457    0.317    0.347   43.601
  278.500    2.494    0.325    0.345   45.307
  278.750    2.585    0.312    0.352   49.615
  279.000    2.703    0.239    0.359   52.350
  279.250    2.962    0.180    0.347   52.242
  279.500    3.276    0.141    0.334   43.602
  279.750    3.549    0.134    0.327   39.317
  280.000    3.775    0.195    0.330   55.183
  280.250    3.720    0.243    0.337   67.660
  280.500    3.672    0.267    0.352   83.463
  280.750    3.877    0.239    0.358   92.431
  281.000    4.062    0.234    0.361   95.891
  281.250    4.154    0.230    0.364   96.025
  281.500    4.194    0.241    0.373   97.126
  281.750    4.156    0.238    0.373  102.039
  282.000    4.141    0.233    0.382  104.895
  282.250    4.111    0.230    0.400  105.997
  282.500    4.074    0.226    0.411  105.524
  282.750    4.052    0.223    0.416  104.084
  283.000    4.007    0.223    0.418  103.190
  283.250    3.971    0.229    0.407  101.630
  283.500    3.957    0.243    0.387   98.433
  283.750    3.987    0.260    0.375   92.757
  284.000    4.047    0.266    0.363   85.085
  284.250    4.071    0.281    0.365   79.288
  284.500    4.079    0.269    0.374   76.457
  284.750    3.990    0.266    0.380   76.045
  285.000    3.809    0.258    0.374   75.634
  285.250    3.569    0.253    0.361   73.710
  285.500    3.382    0.279    0.354   70.999
  285.750    3.314    0.309    0.350   69.377
  286.000    3.377    0.322    0.352   70.418
  286.250    3.467    0.314    0.355   74.485
  286.500    3.653    0.293    0.357   76.614
  286.750    3.835    0.269    0.356   79.228
  287.000    3.959    0.252    0.356   80.329
  287.250    4.041    0.251    0.356   80.219
  287.500    4.103    0.245    0.357   82.895
  287.750    4.188    0.246    0.358   88.898
  288.000    4.284    0.241    0.363   94.052
  288.250    4.316    0.244    0.371   98.057
  288.500    4.245    0.231    0.385   95.104
  288.750    3.854    0.222    0.384   92.878
  289.000    3.321    0.221    0.392   98.096
  289.250    2.949    0.226    0.404  103.915
  289.500    2.618    0.236    0.391  111.856
  289.750    2.408    0.241    0.436  115.194
  290.000    2.261    0.252    0.520  117.505
  290.250    2.240    0.251    0.549  113.887
  290.500    2.400    0.236    0.532  108.997
  290.750    2.704    0.237    0.454  102.051
  291.000    3.064    0.255    0.422   91.716
  291.250    3.333    0.272    0.411   79.808
  291.500    3.604    0.280    0.406   76.675
  291.750    3.905    0.264    0.409   73.539
  292.000    4.185    0.250    0.418   70.405
  292.250    4.376    0.239    0.434   67.876
  292.500    4.493    0.255    0.447   69.704
  292.750    4.536    0.273    0.438   73.769
  293.000    4.562    0.292    0.425   78.501
  293.250    4.554    0.297    0.412   78.756
  293.500    4.521    0.280    0.437   79.857
  293.750    4.406    0.268    0.454   87.674
  294.000    4.349    0.267    0.417   95.856
  294.250    4.270    0.265    0.409  101.071
  294.500    4.184    0.248    0.426  101.931
  294.750    4.138    0.239    0.452   98.251
  295.000    4.062    0.242    0.434   96.266
  295.250    4.033    0.254    0.419   99.666
  295.500    3.996    0.260    0.424  105.064
  295.750    3.916    0.255    0.450  108.766
  296.000    3.752    0.258    0.468  112.289
  296.250    3.589    0.241    0.459  113.813
  296.500    3.439    0.234    0.471  114.309
  296.750    3.364    0.225    0.469  114.564
  297.000    3.358    0.236    0.509  115.301
  297.250    3.519    0.254    0.494  115.859
  297.500    3.763    0.263    0.443  113.692
  297.750    4.017    0.260    0.432  114.491
  298.000    4.304    0.251    0.424  116.138
  298.250    4.435    0.240    0.397  116.452
  298.500    4.570    0.245    0.385  115.253
  298.750    4.562    0.257    0.378  110.970
  299.000    4.181    0.267    0.378  105.717
  299.250    3.845    0.281    0.385   98.770
  299.500    3.617    0.285    0.391   94.245
  299.750    3.466    0.287    0.378   91.534
  300.000    3.505    0.290    0.373   89.369
  300.250    3.585    0.291    0.376   88.534
  300.500    3.660    0.284    0.372   91.149
  300.750    3.702    0.269    0.376   93.034
  301.000    3.779    0.262    0.384   97.403
  301.250    3.887    0.259    0.389   97.235
  301.500    3.946    0.269    0.393   92.648
  301.750    3.690    0.308    0.399   85.158
  302.000    3.388    0.349    0.402   79.179
  302.250    3.211    0.367    0.405   75.137
  302.500    2.992    0.373    0.399   72.184
  302.750    2.877    0.323    0.391   74.436
  303.000    2.971    0.291    0.404   82.010
  303.250    3.237    0.269    0.398   89.525
  303.500    3.553    0.255    0.382   95.346
  303.750    3.850    0.241    0.372  100.198
  304.000    4.102    0.230    0.371  103.417
  304.250    4.315    0.221    0.370  106.456
  304.500    4.331    0.214    0.367  108.524
  304.750    4.373    0.208    0.370  109.262
  305.000    4.414    0.205    0.361  107.520
  305.250    4.415    0.205    0.363  106.321
  305.500    4.391    0.221    0.370  102.583
  305.750    4.271    0.239    0.379   97.512
  306.000    4.138    0.257    0.389   92.380
  306.250    3.995    0.281    0.383   87.795
  306.500    3.915    0.295    0.382   83.995
  306.750    4.042    0.302    0.384   83.886
  307.000    4.298    0.303    0.400   86.501
  307.250    4.437    0.298    0.458   87.722
  307.500    4.581    0.297    0.504   87.492
  307.750    4.633    0.302    0.479   87.202
  308.000    4.660    0.292    0.444   91.570
  308.250    4.600    0.282    0.432   94.305
