~VERSION INFORMATION
 VERS.                 2.0:   CWLS LOG ASCII STANDARD -VERSION 2.0
 WRAP.                  NO:   ONE LINE PER DEPTH STEP
~WELL INFORMATION BLOCK
#MNEM.UNIT           DATA                    DESCRIPTION OF MNEMONIC
#---------    -------------------            -------------------------------
# Generated from Intellog Unique Number	CW_73_75/WELL/620
WELL.         ANG ET AL FRANCIS 06-36        : Well_name    - WELL
LOC .         00/06-36-074-22W4/0            : Location     - LOCATION
UWI .         00/06-36-074-22W4/0            : Uwi          - UNIQUE WELL ID
ENTR.         JAYE                           : Entered      - ENTERED BY
SRVC.         SCHLUMBERGER                   : Scn          - SERVICE COMPANY
DATE.         27 MAR 88                      : Date         - LOG DATE
STRT.M        350                            : top_depth    - START DEPTH
STOP.M        560                            : bot_depth    - STOP DEPTH
STEP.M        0.25                           : increment    - STEP LENGTH
 NULL. -999.2500:NULL Value
~CURVE INFORMATION BLOCK
#MNEM UNIT       ERCB CURVE CODE    CURVE DESCRIPTION
#-----------   ------------------   ----------------------------------
DEPT.M        00 001 00 00         : DEPTH        - DEPTH
ILD .OHMM     00 120 00 00         : RESD         - DEEP RESISTIVITY (DIL)
DPHI.V/V      00 890 00 00         : PHID         - DENSITY POROSITY (SANDSTONE)
NPHI.V/V      00 330 00 00         : PHIN         - NEUTRON POROSITY (SANDSTONE)
GR  .API      00 310 00 00         : GR           - GAMMA RAY
CALI.MM       00 280 01 00         : CAL          - CALIPER
~PARAMETER INFORMATION
#MNEM.UNIT           DATA             DESCRIPTION OF MNEMONIC
#---------         -----------     ------------------------------
GL  .M        656.8                : gl           - GROUND LEVEL ELEVATION
EREF.M        660                  : kb           - ELEVATION OF DEPTH REFERENCE
DATM.M        656.8                : datum        - DATUM ELEVATION
TDD .M        620                  : tdd          - TOTAL DEPTH DRILLER
RUN .         ONE                  : Run          - RUN NUMBER
ENG .         POWELL               : Engineer     - RECORDING ENGINEER
WIT .         LIEHTENBELT          : Witness      - WITNESSED BY
BASE.         EDM                  : Branch       - HOME BASE OF LOGGING UNIT
MUD .         GEL CHEM             : Mud_type     - MUD TYPE
MATR.         SANDSTONE            : Logunit      - NEUTRON MATRIX
TMAX.C        47                   : BHT          - MAXIMUM RECORDED TEMPERATURE
BHTD.M        619.5                : BHTDEP       - MAXIMUM RECORDED TEMPERATURE
RMT .C        18                   : MDTP         - TEMPERATURE OF MUD
MUDD.KG/M     1170                 : MWT          - MUD DENSITY
NEUT.         1                    : NEUTRON      - NEUTRON TYPE
RESI.         0                    : RESIST       - RESISTIVITY TYPE
RM  .OHMM     1.26                 : RM           - RESISTIVITY OF MUD
RMC .OHMM     0                    : RMC          - RESISTIVITY OF MUD CAKE
RMF .OHMM     3.44                 : RMF          - RESISTIVITY OF MUD FILTRATE
SUFT.C        0                    : SUFT         - SURFACE TEMPERATURE
~A  DEPTH     RESD     PHID     PHIN       GR      CAL
# ...
  386.500    9.453    0.197    0.361   76.597  164.568
  386.750    9.617    0.184    0.343   80.720  164.212
  387.000    9.636    0.166    0.346   84.357  169.150
  387.250    9.600    0.187    0.365   77.482  173.783
  387.500    9.456    0.194    0.363   73.297  170.678
  387.750    9.139    0.208    0.357   74.061  165.844
  388.000    8.766    0.188    0.348   74.825  164.669
  388.250    8.111    0.147    0.336   79.866  165.942
  388.500    7.691    0.144    0.330   81.669  167.928
  388.750    7.434    0.144    0.334   82.311  170.120
  389.000    7.308    0.147    0.355   71.954  170.274
  389.250    7.199    0.226    0.445   60.007  163.517
  389.500    7.213    0.272    0.454   42.256  161.717
  389.750    7.310    0.316    0.431   31.411  159.532
  390.000    7.408    0.328    0.403   24.109  158.870
  390.250    7.408    0.326    0.389   19.435  158.512
  390.500    7.353    0.313    0.367   21.359  158.563
  390.750    7.312    0.307    0.376   23.714  158.922
  391.000    7.312    0.319    0.376   25.271  159.580
  391.250    7.299    0.309    0.371   25.303  160.863
  391.500    7.258    0.298    0.374   23.256  162.028
  391.750    7.217    0.315    0.372   23.776  162.179
  392.000    7.163    0.330    0.362   25.946  161.418
  392.250    7.150    0.323    0.372   27.992  161.569
  392.500    7.096    0.299    0.392   29.917  161.121
  392.750    7.030    0.309    0.406   29.824  160.458
  393.000    6.977    0.327    0.395   26.922  160.194
  393.250    6.912    0.338    0.388   22.737  160.352
  393.500    6.886    0.345    0.381   19.956  160.602
  393.750    6.860    0.353    0.383   19.685  160.659
  394.000    6.887    0.339    0.393   20.445  160.400
  394.250    6.900    0.344    0.393   21.882  159.738
  394.500    6.927    0.336    0.390   24.356  159.587
  394.750    6.928    0.322    0.386   29.826  160.051
  395.000    6.994    0.308    0.390   35.967  160.101
  395.250    7.251    0.296    0.414   40.214  160.263
  395.500    7.691    0.297    0.430   45.991  160.305
  395.750    8.050    0.315    0.409   50.604  160.456
  396.000    8.158    0.290    0.400   54.850  160.911
  396.250    8.005    0.267    0.387   57.080  160.863
  396.500    7.825    0.250    0.382   59.982  160.201
  396.750    7.535    0.244    0.370   56.654  159.645
  397.000    7.324    0.240    0.340   55.828  159.596
  397.250    7.173    0.234    0.402   68.630  160.660
  397.500    7.269    0.234    0.437   77.460  164.479
  397.750    7.367    0.235    0.463   74.191  166.873
  398.000    7.480    0.236    0.455   66.216  168.450
  398.250    7.581    0.238    0.414   57.572  161.581
  398.500    7.581    0.242    0.426   57.114  158.066
  398.750    7.553    0.246    0.438   58.671  157.708
  399.000    7.454    0.244    0.434   57.602  157.962
  399.250    7.342    0.244    0.426   58.733  157.912
  399.500    7.287    0.243    0.418   61.757  157.759
  399.750    7.191    0.243    0.412   62.829  157.712
  400.000    7.083    0.244    0.415   62.613  157.760
  400.250    6.990    0.248    0.427   65.884  158.015
  400.500    6.912    0.254    0.427   64.936  158.070
  400.750    6.886    0.259    0.428   62.828  158.125
  401.000    6.886    0.258    0.443   61.577  158.272
  401.250    6.887    0.254    0.456   61.178  158.526
  401.500    6.848    0.249    0.448   59.986  158.588
  401.750    6.810    0.245    0.440   62.523  158.627
  402.000    6.810    0.239    0.441   62.738  159.191
  402.250    6.798    0.237    0.454   64.356  159.853
  402.500    6.734    0.246    0.443   69.276  160.718
  402.750    6.709    0.254    0.437   73.462  161.684
  403.000    6.671    0.255    0.452   70.621  162.662
  403.250    6.659    0.248    0.454   68.635  163.425
  403.500    6.622    0.241    0.445   69.828  164.183
  403.750    6.597    0.227    0.443   70.285  164.952
  404.000    6.548    0.220    0.455   67.445  165.099
  404.250    6.511    0.233    0.462   64.604  165.153
  404.500    6.474    0.255    0.467   61.639  164.385
  404.750    6.426    0.310    0.451   57.270  163.022
  405.000    6.366    0.335    0.455   56.934  161.948
  405.250    6.294    0.332    0.461   60.754  161.181
  405.500    6.176    0.316    0.463   66.836  160.925
  405.750    6.107    0.306    0.455   71.571  160.776
  406.000    5.958    0.305    0.449   74.473  160.929
  406.250    5.759    0.284    0.464   75.054  160.983
  406.500    5.482    0.286    0.468   74.718  161.037
  406.750    5.298    0.296    0.454   78.171  161.187
  407.000    5.189    0.289    0.448   85.228  161.639
  407.250    5.150    0.247    0.450   95.280  163.015
  407.500    5.229    0.204    0.459   98.857  167.548
  407.750    5.289    0.203    0.458   99.744  172.079
  408.000    5.412    0.207    0.455   99.527  174.679
  408.250    5.484    0.205    0.464   98.521  175.239
  408.500    5.558    0.213    0.483   95.800  174.575
  408.750    5.601    0.216    0.488   92.350  173.711
  409.000    5.601    0.195    0.483   92.989  172.947
  409.250    5.655    0.189    0.467   92.959  173.101
  409.500    5.677    0.184    0.472   90.977  173.761
  409.750    5.720    0.177    0.485   89.479  173.814
  410.000    5.624    0.230    0.505   85.474  172.549
  410.250    5.354    0.271    0.504   62.286  171.167
  410.500    5.096    0.293    0.493   57.000  166.126
  410.750    4.463    0.310    0.475   63.386  162.305
  411.000    3.930    0.286    0.449   72.460  162.361
  411.250    3.741    0.267    0.499   81.595  163.437
  411.500    3.946    0.275    0.531   89.081  165.212
  411.750    4.209    0.294    0.556   87.890  170.354
  412.000    4.576    0.300    0.564   85.354  173.566
  412.250    4.984    0.284    0.562   79.825  173.922
  412.500    5.532    0.305    0.530   71.545  170.916
  412.750    5.868    0.321    0.496   64.671  166.486
  413.000    5.802    0.326    0.479   57.614  160.630
  413.250    5.682    0.338    0.470   54.772  158.139
  413.500    5.618    0.340    0.451   56.025  157.788
  413.750    5.619    0.337    0.446   57.888  157.839
  414.000    5.683    0.335    0.443   55.965  158.300
  414.250    5.760    0.327    0.447   53.491  158.753
  414.500    5.804    0.331    0.441   52.666  159.109
  414.750    5.826    0.338    0.447   53.125  159.158
  415.000    5.961    0.345    0.453   52.606  159.729
  415.250    6.122    0.337    0.453   51.110  159.977
  415.500    6.383    0.320    0.447   51.322  160.029
  415.750    6.668    0.307    0.447   51.906  160.389
  416.000    6.914    0.315    0.432   52.484  160.733
  416.250    6.862    0.318    0.439   50.130  160.991
  416.500    6.784    0.313    0.450   50.284  161.246
  416.750    6.545    0.304    0.444   50.866  161.406
  417.000    6.290    0.297    0.434   49.797  161.556
  417.250    5.841    0.305    0.427   49.461  161.805
  417.500    5.550    0.307    0.427   51.202  161.863
  417.750    5.395    0.315    0.441   53.675  162.117
  418.000    5.234    0.328    0.459   55.784  162.367
  418.250    5.136    0.325    0.461   57.100  162.725
  418.500    5.020    0.315    0.454   58.110  162.882
  418.750    4.908    0.326    0.446   58.141  163.029
  419.000    4.770    0.331    0.440   57.740  163.083
  419.250    4.672    0.325    0.447   56.732  162.728
  419.500    4.473    0.324    0.463   59.515  162.266
  419.750    4.258    0.317    0.453   62.172  161.405
  420.000    4.107    0.301    0.440   64.462  161.150
  420.250    4.186    0.277    0.451   67.243  162.014
  420.500    4.415    0.251    0.453   72.040  163.699
  420.750    4.763    0.214    0.450   74.334  166.394
  421.000    4.986    0.214    0.469   73.691  169.099
  421.250    5.189    0.244    0.480   69.749  169.245
  421.500    5.451    0.275    0.485   65.625  165.533
  421.750    5.727    0.322    0.472   62.050  160.999
  422.000    6.017    0.334    0.463   57.865  158.403
  422.250    6.443    0.331    0.453   58.203  158.249
  422.500    6.795    0.313    0.445   60.186  158.713
  422.750    6.592    0.304    0.437   60.035  159.270
