~VERSION INFORMATION
 VERS.                 2.0:   CWLS LOG ASCII STANDARD -VERSION 2.0
 WRAP.                  NO:   ONE LINE PER DEPTH STEP
~WELL INFORMATION BLOCK
#MNEM.UNIT           DATA                    DESCRIPTION OF MNEMONIC
#---------    -------------------            -------------------------------
# Generated from Intellog Unique Number	CX_WELLS/WELL/3803
WELL.         06-26-086-18W4                 : Well_name    - WELL
LOC .         00/06-26-086-18W4/0            : Location     - LOCATION
UWI .         00/06-26-086-18W400            : Uwi          - UNIQUE WELL ID
ENTR.         T                              : Entered      - ENTERED BY
SRVC.         SCHLUMBERGER                   : Scn          - SERVICE COMPANY
DATE.         03/04/92                       : Date         - LOG DATE
STRT.M        75                             : top_depth    - START DEPTH
STOP.M        230                            : bot_depth    - STOP DEPTH
STEP.M        0.25                           : increment    - STEP LENGTH
 NULL. -999.2500:NULL Value
~CURVE INFORMATION BLOCK
#MNEM UNIT       ERCB CURVE CODE    CURVE DESCRIPTION
#-----------   ------------------   ----------------------------------
DEPT.M        00 001 00 00         : DEPTH        - DEPTH
GR  .API      00 310 00 00         : GR           - GAMMA RAY
NPHI.V/V      00 330 00 00         : PHIN         - NEUTRON POROSITY (SANDSTONE)
DPHI.V/V      00 890 00 00         : PHID         - DENSITY POROSITY (SANDSTONE)
ILD .OHMM     00 120 00 00         : RESD         - DEEP RESISTIVITY (DIL)
~PARAMETER INFORMATION
#MNEM.UNIT           DATA             DESCRIPTION OF MNEMONIC
#---------         -----------     ------------------------------
GL  .M        510.9                : gl           - GROUND LEVEL ELEVATION
EREF.M        510.9                : kb           - ELEVATION OF DEPTH REFERENCE
DATM.M        510.9                : datum        - DATUM ELEVATION
TDD .M        245                  : tdd          - TOTAL DEPTH DRILLER
RUN .         ONE                  : Run          - RUN NUMBER
ENG .         JO                   : Engineer     - RECORDING ENGINEER
WIT .         TIM                  : Witness      - WITNESSED BY
MUD .         GEL                  : Mud_type     - MUD TYPE
MATR.         SANDSTONE            : Logunit      - NEUTRON MATRIX
TMAX.C        22                   : BHT          - MAXIMUM RECORDED TEMPERATURE
BHTD.M        245                  : BHTDEP       - MAXIMUM RECORDED TEMPERATURE
RMT .C        20                   : MDTP         - TEMPERATURE OF MUD
MUDD.KG/M     1                    : MWT          - MUD DENSITY
NEUT.         1                    : NEUTRON      - NEUTRON TYPE
RESI.         0                    : RESIST       - RESISTIVITY TYPE
RM  .OHMM     5                    : RM           - RESISTIVITY OF MUD
RMC .OHMM     4.5                  : RMC          - RESISTIVITY OF MUD CAKE
RMF .OHMM     4.5                  : RMF          - RESISTIVITY OF MUD FILTRATE
SUFT.C        4                    : SUFT         - SURFACE TEMPERATURE
~A  DEPTH       GR     PHIN     PHID     RESD
   75.000   67.039    0.370    0.348   19.139
   75.250   67.073    0.377    0.360   19.170
   75.500   67.726    0.379    0.358   19.201
   75.750   68.355    0.381    0.355   19.576
   76.000   68.390    0.382    0.351   20.744
   76.250   69.030    0.382    0.350   21.968
   76.500   69.053    0.384    0.348   22.404
   76.750   69.100    0.383    0.344   23.726
   77.000   69.729    0.385    0.340   25.126
   77.250   69.799    0.386    0.334   26.116
   77.500   70.416    0.388    0.331   27.665
   77.750   70.474    0.389    0.325   28.214
   78.000   71.103    0.390    0.321   29.326
   78.250   71.732    0.394    0.318   29.927
   78.500   72.361    0.398    0.313   30.531
   78.750   72.408    0.396    0.311   31.157
   79.000   73.048    0.396    0.309   31.197
   79.250   73.083    0.396    0.309   31.816
   79.500   72.535    0.395    0.315   31.268
   79.750   72.023    0.392    0.323   30.729
   80.000   72.046    0.391    0.326   29.102
   80.250   71.533    0.387    0.334   27.552
   80.500   70.985    0.386    0.340   27.069
   80.750   70.449    0.384    0.347   26.110
   81.000   69.342    0.384    0.348   26.144
   81.250   68.794    0.385    0.346   26.178
   81.500   67.117    0.387    0.343   27.209
   81.750   66.569    0.386    0.337   27.776
   82.000   66.021    0.386    0.332   27.803
   82.250   66.068    0.386    0.322   27.839
   82.500   65.543    0.386    0.303   27.884
   82.750   65.007    0.387    0.298   27.911
   83.000   65.065    0.393    0.289   27.965
   83.250   64.517    0.398    0.285   27.983
   83.500   64.552    0.406    0.279   28.029
   83.750   64.611    0.417    0.273   28.585
   84.000   64.657    0.424    0.270   29.162
   84.250   65.892    0.430    0.266   29.759
   84.500   66.509    0.431    0.264   30.360
   84.750   67.126    0.427    0.260   30.972
   85.000   67.755    0.430    0.255   32.193
   85.250   66.637    0.436    0.252   34.125
   85.500   66.683    0.442    0.246   34.136
   85.750   67.312    0.448    0.245   35.481
   86.000   67.359    0.451    0.243   36.197
   86.250   66.823    0.453    0.243   36.244
   86.500   66.287    0.450    0.242   36.291
   86.750   66.927    0.448    0.248   35.665
   87.000   68.710    0.444    0.279   33.152
   87.250   68.185    0.443    0.302   30.235
   87.500   67.078    0.441    0.325   28.086
   87.750   65.948    0.437    0.349   25.150
   88.000   63.676    0.434    0.360   23.802
   88.250   63.140    0.429    0.367   22.959
   88.500   63.198    0.424    0.370   21.744
   88.750   63.815    0.416    0.355   20.974
   89.000   63.862    0.412    0.353   20.237
   89.250   64.502    0.408    0.351   19.876
   89.500   65.108    0.403    0.351   19.172
   89.750   66.902    0.404    0.354   18.493
   90.000   69.291    0.404    0.363   16.565
   90.250   73.427    0.410    0.372   15.973
   90.500   75.232    0.426    0.372   15.122
   90.750   75.255    0.436    0.362   13.546
   91.000   75.302    0.447    0.358   13.062
   91.250   76.525    0.456    0.353   11.916
   91.500   79.473    0.465    0.352   11.278
   91.750   83.014    0.467    0.348   10.677
   92.000   87.733    0.469    0.345   10.105
   92.250   91.857    0.479    0.339    9.748
   92.500   87.243    0.489    0.333    9.408
   92.750   75.627    0.504    0.326    9.595
   93.000   72.178    0.512    0.320    9.785
   93.250   64.652    0.480    0.311   10.562
   93.500   57.708    0.475    0.300   11.399
   93.750   57.766    0.470    0.350   11.622
   94.000   58.395    0.465    0.359   12.307
   94.250   58.430    0.462    0.339   13.038
   94.500   57.323    0.462    0.316   13.811
   94.750   57.358    0.461    0.311   14.355
   95.000   56.822    0.458    0.304   14.640
   95.250   55.715    0.448    0.297   14.940
   95.500   54.013    0.441    0.292   15.247
   95.750   51.741    0.428    0.315   15.257
   96.000   51.205    0.409    0.344   15.574
   96.250   50.669    0.434    0.361   15.590
   96.500   50.121    0.439    0.383   15.615
   96.750   48.432    0.448    0.400   15.630
   97.000   47.302    0.449    0.400   15.940
   97.250   45.041    0.439    0.397   15.966
   97.500   44.482    0.436    0.393   16.288
   97.750   43.946    0.436    0.390   16.617
   98.000   43.992    0.436    0.386   16.638
   98.250   45.215    0.436    0.380   16.979
   98.500   45.844    0.434    0.375   16.996
   98.750   46.474    0.436    0.374   17.018
   99.000   47.091    0.438    0.378   17.367
   99.250   47.731    0.440    0.381   17.389
   99.500   48.372    0.445    0.382   17.406
   99.750   48.990    0.449    0.379   17.434
  100.000   49.630    0.456    0.377   17.462
  100.250   49.677    0.459    0.376   17.474
  100.500   49.712    0.461    0.380   17.508
  100.750   49.758    0.461    0.384   17.212
  101.000   49.804    0.461    0.385   17.223
  101.250   49.874    0.458    0.383   16.937
  101.500   49.909    0.456    0.379   16.948
  101.750   49.967    0.454    0.374   16.667
  102.000   49.990    0.455    0.370   16.678
  102.250   50.060    0.457    0.367   16.395
  102.500   50.095    0.463    0.367   16.113
  102.750   50.747    0.475    0.366   16.134
  103.000   50.770    0.502    0.365   15.861
  103.250   51.399    0.506    0.364   15.876
  103.500   52.052    0.485    0.367   15.598
  103.750   52.086    0.460    0.370   15.334
  104.000   52.121    0.450    0.377   15.349
  104.250   52.168    0.451    0.379   15.089
  104.500   51.061    0.461    0.380   14.834
  104.750   50.513    0.472    0.380   14.579
  105.000   49.977    0.482    0.381   14.323
  105.250   48.299    0.475    0.385   14.076
  105.500   48.334    0.473    0.387   13.582
  105.750   48.392    0.470    0.388   13.348
  106.000   49.021    0.470    0.386   13.118
  106.250   49.650    0.467    0.382   13.135
  106.500   51.456    0.465    0.374   12.909
  106.750   52.062    0.461    0.367   12.686
  107.000   55.032    0.463    0.360   12.463
  107.250   58.003    0.467    0.353   12.249
  107.500   59.786    0.473    0.352   12.038
  107.750   60.986    0.476    0.359   11.830
  108.000   62.803    0.478    0.365   11.626
  108.250   63.420    0.480    0.360   11.430
  108.500   65.237    0.481    0.357   11.229
  108.750   65.855    0.483    0.352   10.838
  109.000   67.055    0.484    0.346   10.451
  109.250   69.466    0.486    0.345   10.081
  109.500   70.084    0.492    0.346    9.200
  109.750   71.272    0.502    0.347    8.872
  110.000   73.078    0.506    0.349    8.555
  110.250   74.289    0.516    0.351    8.252
  110.500   74.918    0.532    0.350    7.815
  110.750   75.559    0.530    0.350    7.678
  111.000   75.594    0.525    0.350    7.269
  111.250   76.234    0.515    0.350    7.011
  111.500   76.269    0.513    0.349    6.893
  111.750   75.745    0.500    0.344    6.772
  112.000   74.638    0.475    0.319    6.780
  112.250   74.079    0.466    0.314    7.456
  112.500   72.960    0.454    0.286    7.896
  112.750   72.435    0.455    0.263    8.680
  113.000   71.317    0.457    0.261    9.192
  113.250   70.792    0.455    0.277    9.925
  113.500   69.674    0.434    0.269   10.507
  113.750   68.567    0.405    0.247   10.715
  114.000   68.019    0.401    0.241   11.355
  114.250   65.735    0.390    0.231   11.580
  114.500   62.858    0.369    0.219   11.591
  114.750   60.574    0.355    0.204   11.829
  115.000   58.302    0.339    0.211   11.844
  115.250   58.337    0.318    0.207   12.079
  115.500   58.395    0.299    0.183   12.095
  115.750   58.441    0.269    0.177   12.579
  116.000   59.059    0.256    0.146   12.596
  116.250   59.688    0.282    0.122   13.096
  116.500   60.899    0.303    0.092   13.109
  116.750   62.134    0.308    0.123   13.126
  117.000   62.169    0.353    0.152   12.896
  117.250   62.786    0.384    0.216   12.217
  117.500   61.691    0.437    0.247   12.006
  117.750   60.549    0.410    0.250   11.796
  118.000   58.265    0.405    0.225   11.811
  118.250   54.828    0.375    0.181   13.229
