~VERSION INFORMATION
 VERS.                 2.0:   CWLS LOG ASCII STANDARD -VERSION 2.0
 WRAP.                  NO:   ONE LINE PER DEPTH STEP
~WELL INFORMATION BLOCK
#MNEM.UNIT           DATA                    DESCRIPTION OF MNEMONIC
#---------    -------------------            -------------------------------
# Generated from Intellog Unique Number	CS_73_76/WELL/2389
WELL.         CAVALIER ENERGY INC.           : Well_name    - WELL
LOC .         00/07-24-075-16W4/0            : Location     - LOCATION
UWI .         00/07-24-075-16W4/0            : Uwi          - UNIQUE WELL ID
ENTR.         SP                             : Entered      - ENTERED BY
SRVC.         SCHLUMBERGER                   : Scn          - SERVICE COMPANY
STRT.M        362.712                        : top_depth    - START DEPTH
STOP.M        566.712                        : bot_depth    - STOP DEPTH
STEP.M        0.25                           : increment    - STEP LENGTH
 NULL. -999.2500:NULL Value
~CURVE INFORMATION BLOCK
#MNEM UNIT       ERCB CURVE CODE    CURVE DESCRIPTION
#-----------   ------------------   ----------------------------------
DEPT.M        00 001 00 00         : DEPTH        - DEPTH
GR  .API      00 310 00 00         : GR           - GAMMA RAY
DPHI.V/V      00 890 00 00         : PHID         - DENSITY POROSITY (SANDSTONE)
NPHI.V/V      00 330 00 00         : PHIN         - NEUTRON POROSITY (SANDSTONE)
ILD .OHMM     00 120 00 00         : RESD         - DEEP RESISTIVITY (DIL)
~PARAMETER INFORMATION
#MNEM.UNIT           DATA             DESCRIPTION OF MNEMONIC
#---------         -----------     ------------------------------
GL  .M        726.948              : gl           - GROUND LEVEL ELEVATION
EREF.M        729.691              : kb           - ELEVATION OF DEPTH REFERENCE
DATM.M        726.948              : datum        - DATUM ELEVATION
TDD .M        566.014              : tdd          - TOTAL DEPTH DRILLER
RUN .         ONE                  : Run          - RUN NUMBER
ENG .         BILL                 : Engineer     - RECORDING ENGINEER
WIT .         JIM                  : Witness      - WITNESSED BY
MUD .         GEL                  : Mud_type     - MUD TYPE
MATR.         SANDSTONE            : Logunit      - NEUTRON MATRIX
TMAX.C        23.3333              : BHT          - MAXIMUM RECORDED TEMPERATURE
BHTD.M        566.014              : BHTDEP       - MAXIMUM RECORDED TEMPERATURE
MATR.         1                    : LOGUNIT      - NEUTRON MATRIX
RMT .C        25                   : MDTP         - TEMPERATURE OF MUD
NEUT.         1                    : NEUTRON      - NEUTRON TYPE
RESI.         0                    : RESIST       - RESISTIVITY TYPE
RMC .OHMM     0.25                 : RMC          - RESISTIVITY OF MUD CAKE
RMF .OHMM     0.25                 : RMF          - RESISTIVITY OF MUD FILTRATE
SUFT.C        15                   : SUFT         - SURFACE TEMPERATURE
~A  DEPTH       GR     PHID     PHIN     RESD
  362.712  110.540    0.240    0.567    2.609
  362.962  109.251    0.240    0.571    2.649
  363.212  107.452    0.231    0.579    2.896
  363.462  108.246    0.236    0.555    3.077
  363.712  106.895    0.221    0.552    3.169
  363.962  107.861    0.213    0.535    3.166
  364.212  110.388    0.233    0.523    3.090
  364.462  113.156    0.220    0.522    3.008
  364.712  114.294    0.222    0.534    2.922
  364.962  113.693    0.232    0.540    2.778
  365.212  114.862    0.241    0.544    2.768
  365.462  115.536    0.234    0.552    2.767
  365.712  113.061    0.226    0.544    2.761
  365.962  109.534    0.218    0.547    2.879
  366.212  107.929    0.233    0.554    2.924
  366.462  104.230    0.247    0.564    3.011
  366.712  101.714    0.239    0.553    3.003
  366.962  100.225    0.231    0.531    3.008
  367.212   99.769    0.218    0.513    2.918
  367.462   97.047    0.207    0.515    2.930
  367.712   94.450    0.221    0.529    3.132
  367.962   85.135    0.218    0.532    3.420
  368.212   74.093    0.204    0.505    3.815
  368.462   66.112    0.181    0.488    4.191
  368.712   62.574    0.234    0.474    4.795
  368.962   63.377    0.233    0.454    5.299
  369.212   66.614    0.216    0.447    5.878
  369.462   69.385    0.254    0.452    6.307
  369.712   71.182    0.288    0.454    6.618
  369.962   70.527    0.318    0.448    7.057
  370.212   70.085    0.318    0.452    7.294
  370.462   70.083    0.305    0.467    7.429
  370.712   70.058    0.309    0.472    7.342
  370.962   70.799    0.324    0.466    7.350
  371.212   72.318    0.336    0.465    7.400
  371.462   72.158    0.338    0.472    7.598
  371.712   70.162    0.327    0.474    7.672
  371.962   69.656    0.313    0.471    7.858
  372.212   70.168    0.311    0.471    8.007
  372.462   72.075    0.314    0.469    8.141
  372.712   72.491    0.326    0.467    8.137
  372.962   77.416    0.332    0.462    8.111
  373.212   82.546    0.317    0.456    7.910
  373.462   86.403    0.310    0.448    7.740
  373.712   92.345    0.313    0.442    7.575
  373.962   94.825    0.303    0.438    7.502
  374.212   93.919    0.291    0.450    7.618
  374.462   90.558    0.277    0.457    7.837
  374.712   86.734    0.279    0.449    8.017
  374.962   89.671    0.274    0.463    8.286
  375.212   92.106    0.281    0.475    8.460
  375.462   94.704    0.286    0.479    8.588
  375.712   96.704    0.271    0.479    8.703
  375.962   98.066    0.264    0.475    8.695
  376.212   99.729    0.258    0.462    8.649
  376.462  100.617    0.265    0.452    8.619
  376.712  100.124    0.263    0.443    8.613
  376.962   96.826    0.260    0.456    8.762
  377.212   91.969    0.282    0.460    9.118
  377.462   88.590    0.295    0.444    9.425
  377.712   85.044    0.302    0.422    9.933
  377.962   74.593    0.295    0.385   10.450
  378.212   68.204    0.289    0.327   10.680
  378.462   65.803    0.309    0.303   10.213
  378.712   69.682    0.272    0.296    9.651
  378.962   72.964    0.236    0.352    8.918
  379.212   74.675    0.213    0.415    8.053
  379.462   74.018    0.193    0.430    7.760
  379.712   72.471    0.251    0.421    7.662
  379.962   70.270    0.242    0.418    7.662
  380.212   67.338    0.262    0.435    7.804
  380.462   63.606    0.268    0.441    7.827
  380.712   60.693    0.295    0.448    7.735
  380.962   58.521    0.313    0.449    7.038
  381.212   66.852    0.318    0.433    6.170
  381.462   83.517    0.283    0.431    5.287
  381.712  102.817    0.241    0.457    4.708
  381.962  111.381    0.197    0.504    4.269
  382.212  115.970    0.159    0.524    4.037
  382.462  119.606    0.135    0.526    3.819
  382.712  123.842    0.144    0.525    3.694
  382.962  124.512    0.162    0.540    3.634
  383.212  127.383    0.164    0.556    3.627
  383.462  129.654    0.151    0.564    3.719
  383.712  132.480    0.168    0.551    3.780
  383.962  128.294    0.188    0.539    3.793
  384.212  122.849    0.177    0.536    3.796
  384.462  127.189    0.138    0.536    3.689
  384.712  130.045    0.105    0.551    3.418
  384.962  136.059    0.184    0.575    3.242
  385.212  132.828    0.216    0.588    3.429
  385.462  130.135    0.223    0.573    3.858
  385.712  128.930    0.227    0.542    4.242
  385.962  126.319    0.243    0.509    4.870
  386.212  120.233    0.238    0.475    5.714
  386.462  117.201    0.231    0.458    6.482
  386.712  118.677    0.225    0.449    7.238
  386.962  118.672    0.222    0.446    7.686
  387.212  115.418    0.239    0.446    7.694
  387.462  115.009    0.224    0.448    7.579
  387.712  117.150    0.217    0.450    7.186
  387.962  111.686    0.209    0.450    6.958
  388.212  105.799    0.201    0.463    6.651
  388.462  101.322    0.184    0.471    6.329
  388.712   97.196    0.128    0.464    6.010
  388.962  100.811    0.059    0.464    5.945
  389.212  106.711    0.018    0.478    6.142
  389.462  108.350    0.130    0.484    6.523
  389.712  103.870    0.225    0.490    7.136
  389.962  100.727    0.255    0.475    7.853
  390.212  101.428    0.271    0.459    8.512
  390.462  103.871    0.279    0.451    8.775
  390.712  106.388    0.290    0.456    8.675
  390.962  108.784    0.282    0.458    8.071
  391.212  111.593    0.276    0.451    7.510
  391.462  113.567    0.279    0.467    7.032
  391.712  115.736    0.261    0.480    6.731
  391.962  117.608    0.247    0.491    6.487
  392.212  118.587    0.260    0.481    6.405
  392.462  119.519    0.248    0.470    6.317
  392.712  116.445    0.253    0.456    6.320
  392.962  109.750    0.241    0.469    6.445
  393.212   98.316    0.245    0.480    6.579
  393.462   87.106    0.258    0.496    6.821
  393.712   77.248    0.279    0.486    7.397
  393.962   71.642    0.304    0.468    7.680
  394.212   67.029    0.324    0.470    8.098
  394.462   65.012    0.313    0.471    8.474
  394.712   67.692    0.306    0.473    8.617
  394.962   70.038    0.321    0.480    8.565
  395.212   72.165    0.319    0.487    8.519
  395.462   72.559    0.305    0.492    8.528
  395.712   71.805    0.289    0.495    8.732
  395.962   68.815    0.272    0.497    9.148
  396.212   64.240    0.276    0.455    9.462
  396.462   61.373    0.282    0.423    9.924
  396.712   57.055    0.263    0.396   10.301
  396.962   53.983    0.220    0.384   10.581
  397.212   56.241    0.174    0.390   10.546
  397.462   58.454    0.192    0.444   10.274
  397.712   59.979    0.289    0.487    9.830
  397.962   62.652    0.316    0.500    9.419
  398.212   65.013    0.330    0.486    9.028
  398.462   66.822    0.325    0.476    8.665
  398.712   68.035    0.317    0.480    7.998
  398.962   71.624    0.323    0.480    7.493
  399.212   73.790    0.304    0.483    6.835
  399.462   76.754    0.288    0.489    6.282
  399.712   78.261    0.286    0.499    5.817
  399.962   80.821    0.302    0.506    5.577
  400.212   83.848    0.297    0.503    5.455
  400.462   88.281    0.300    0.506    5.593
  400.712   91.197    0.306    0.486    5.740
  400.962   96.359    0.283    0.476    6.003
  401.212   98.649    0.265    0.470    6.356
  401.462   99.424    0.252    0.470    6.497
  401.712   95.025    0.262    0.459    6.704
  401.962   89.810    0.253    0.449    6.801
  402.212   89.698    0.260    0.443    6.789
  402.462   91.520    0.259    0.444    6.656
  402.712   94.395    0.246    0.455    6.555
  402.962   98.037    0.267    0.463    6.561
  403.212   97.797    0.256    0.483    6.561
  403.462   95.816    0.266    0.494    6.562
  403.712   94.884    0.253    0.509    6.561
  403.962   93.237    0.240    0.522    6.514
  404.212   93.091    0.243    0.517    6.381
  404.462   90.935    0.214    0.511    6.248
  404.712   85.386    0.233    0.504    6.262
  404.962   79.088    0.253    0.501    6.687
  405.212   71.818    0.250    0.497    7.056
  405.462   62.577    0.277    0.486    7.767
  405.712   56.395    0.278    0.474    8.284
  405.962   52.030    0.281    0.462    8.971
