~VERSION INFORMATION
 VERS.                 2.0:   CWLS LOG ASCII STANDARD -VERSION 2.0
 WRAP.                  NO:   ONE LINE PER DEPTH STEP
~WELL INFORMATION BLOCK
#MNEM.UNIT           DATA                    DESCRIPTION OF MNEMONIC
#---------    -------------------            -------------------------------
# Generated from Intellog Unique Number	CW_73_75/WELL/2729
WELL.         MANNVILLE ET AL MITSUE 07-20   : Well_name    - WELL
LOC .         00/07-20-073-02W5/0            : Location     - LOCATION
UWI .         00/07-20-073-02W5/0            : Uwi          - UNIQUE WELL ID
ENTR.         JAYE                           : Entered      - ENTERED BY
SRVC.         SCHLUMBERGER                   : Scn          - SERVICE COMPANY
DATE.         21 MAR 78                      : Date         - LOG DATE
STRT.M        393.192                        : top_depth    - START DEPTH
STOP.M        603.442                        : bot_depth    - STOP DEPTH
STEP.M        0.25                           : increment    - STEP LENGTH
 NULL. -999.2500:NULL Value
~CURVE INFORMATION BLOCK
#MNEM UNIT       ERCB CURVE CODE    CURVE DESCRIPTION
#-----------   ------------------   ----------------------------------
DEPT.M        00 001 00 00         : DEPTH        - DEPTH
DPHI.V/V      00 890 00 00         : PHID         - DENSITY POROSITY (SANDSTONE)
NPHI.V/V      00 330 00 00         : PHIN         - NEUTRON POROSITY (SANDSTONE)
GR  .API      00 310 00 00         : GR           - GAMMA RAY
CALI.MM       00 280 01 00         : CAL          - CALIPER
ILD .OHMM     00 120 00 00         : RESD         - DEEP RESISTIVITY (DIL)
~PARAMETER INFORMATION
#MNEM.UNIT           DATA             DESCRIPTION OF MNEMONIC
#---------         -----------     ------------------------------
GL  .M        627.583              : gl           - GROUND LEVEL ELEVATION
EREF.M        630.631              : kb           - ELEVATION OF DEPTH REFERENCE
DATM.M        627.583              : datum        - DATUM ELEVATION
TDD .M        606.552              : tdd          - TOTAL DEPTH DRILLER
RUN .         ONE                  : Run          - RUN NUMBER
ENG .         DEROCHIE             : Engineer     - RECORDING ENGINEER
WIT .         RILEY                : Witness      - WITNESSED BY
MUD .         GEL GELEX            : Mud_type     - MUD TYPE
MATR.         SANDSTONE            : Logunit      - NEUTRON MATRIX
TMAX.C        17.2222              : BHT          - MAXIMUM RECORDED TEMPERATURE
BHTD.M        607.466              : BHTDEP       - MAXIMUM RECORDED TEMPERATURE
RMT .C        16.1111              : MDTP         - TEMPERATURE OF MUD
MUDD.KG/M     1188                 : MWT          - MUD DENSITY
NEUT.         1                    : NEUTRON      - NEUTRON TYPE
RESI.         0                    : RESIST       - RESISTIVITY TYPE
RM  .OHMM     4.53                 : RM           - RESISTIVITY OF MUD
RMC .OHMM     0                    : RMC          - RESISTIVITY OF MUD CAKE
RMF .OHMM     0                    : RMF          - RESISTIVITY OF MUD FILTRATE
SUFT.C        -17.7778             : SUFT         - SURFACE TEMPERATURE
~A  DEPTH     PHID     PHIN       GR      CAL     RESD
  393.192    0.179    0.529  106.241  174.690    1.942
  393.442    0.194    0.515  102.122  174.292    2.014
  393.692    0.183    0.510   99.817  171.983    2.110
  393.942    0.128    0.534   93.690  167.767    2.210
  394.192    0.111    0.529   87.185  163.443    2.363
  394.442    0.190    0.514   93.099  161.455    2.470
  394.692    0.191    0.471   94.621  160.531    2.632
  394.942    0.173    0.432   94.639  160.776    2.773
  395.192    0.188    0.451  100.176  164.095    2.926
  395.442    0.216    0.436   99.065  173.156    3.042
  395.692    0.251    0.412   95.886  169.784    3.167
  395.942    0.272    0.393   91.700  167.803    3.206
  396.192    0.237    0.400   97.929  168.787    3.141
  396.442    0.217    0.421   96.630  169.774    3.071
  396.692    0.218    0.451   93.322  170.227    2.913
  396.942    0.228    0.459   87.821  168.981    2.827
  397.192    0.249    0.442   79.122  165.613    2.828
  397.442    0.233    0.426   76.256  166.068    2.906
  397.692    0.215    0.413   83.360  168.757    3.085
  397.942    0.206    0.422   89.022  171.227    3.262
  398.192    0.198    0.442   94.685  174.769    3.429
  398.442    0.185    0.464   98.967  177.553    3.626
  398.692    0.201    0.494  100.992  181.519    3.863
  398.942    0.209    0.516   99.254  183.241    3.749
  399.192    0.227    0.531  100.651  184.761    3.384
  399.442    0.249    0.547   99.540  184.047    2.991
  399.692    0.275    0.555   93.726  177.281    2.624
  399.942    0.289    0.474   87.536  171.256    2.297
  400.192    0.285    0.428   82.598  165.872    2.089
  400.442    0.265    0.413   75.216  162.612    2.235
  400.692    0.241    0.420   76.553  161.471    2.540
  400.942    0.245    0.423   75.315  161.077    2.960
  401.192    0.249    0.401   71.318  161.534    3.463
  401.442    0.240    0.400   68.075  161.565    4.137
  401.692    0.268    0.411   63.454  161.596    4.677
  401.942    0.298    0.407   60.461  161.950    4.973
  402.192    0.307    0.406   62.800  162.189    5.289
  402.442    0.230    0.417   64.136  162.964    5.518
  402.692    0.195    0.410   63.022  163.628    5.891
  402.942    0.161    0.396   64.546  164.191    6.253
  403.192    0.211    0.384   69.141  164.540    6.413
  403.442    0.247    0.398   74.490  164.888    6.295
  403.692    0.248    0.430   80.343  164.810    5.758
  403.942    0.238    0.468   83.308  164.203    5.308
  404.192    0.225    0.479   86.585  163.706    4.754
  404.442    0.188    0.476   90.619  165.434    4.332
  404.692    0.188    0.471   97.597  170.351    3.800
  404.942    0.205    0.484  109.156  175.584    3.289
  405.192    0.195    0.481  111.870  174.128    3.026
  405.442    0.176    0.459  114.962  172.563    2.865
  405.692    0.169    0.457  120.435  171.214    2.883
  405.942    0.169    0.448  121.081  169.441    2.962
  406.192    0.185    0.439  110.122  167.028    3.079
  406.442    0.199    0.422  100.482  164.828    3.231
  406.692    0.214    0.409   92.662  163.372    3.502
  406.942    0.217    0.396   86.533  162.656    3.796
  407.192    0.223    0.381   76.204  162.588    4.083
  407.442    0.253    0.369   67.879  162.617    4.384
  407.692    0.287    0.374   61.062  162.653    4.653
  407.942    0.322    0.388   55.560  162.461    4.967
  408.192    0.316    0.387   57.273  161.961    5.173
  408.442    0.294    0.386   61.743  161.569    5.285
  408.692    0.272    0.392   65.586  160.646    5.349
  408.942    0.256    0.403   68.678  160.254    5.250
  409.192    0.249    0.419   66.815  160.062    4.980
  409.442    0.296    0.429   60.058  159.779    4.573
  409.692    0.287    0.416   56.188  159.809    4.288
  409.942    0.266    0.398   59.782  159.837    3.878
  410.192    0.243    0.372   63.749  159.655    3.685
  410.442    0.234    0.376   67.783  159.371    3.462
  410.692    0.254    0.395   69.995  159.290    3.490
  410.942    0.272    0.417   66.939  159.744    3.580
  411.192    0.290    0.428   62.820  162.859    3.657
  411.442    0.286    0.428   60.331  166.921    3.787
  411.692    0.271    0.402   59.469  167.696    3.869
  411.942    0.252    0.400   60.992  163.584    3.938
  412.192    0.260    0.405   69.537  160.854    3.993
  412.442    0.272    0.409   70.811  160.036    4.003
  412.692    0.281    0.399   72.772  159.856    4.005
  412.942    0.273    0.383   77.118  159.671    4.022
  413.192    0.249    0.387   83.281  160.128    4.009
  413.442    0.240    0.394   89.634  161.111    4.026
  413.692    0.241    0.402   97.428  163.798    4.052
  413.942    0.188    0.417  114.191  166.803    4.069
  414.192    0.157    0.453  128.696  168.743    4.102
  414.442    0.166    0.486  128.841  170.476    4.027
  414.692    0.177    0.530  125.346  171.567    3.683
  414.942    0.165    0.529  123.170  172.130    3.306
  415.192    0.170    0.433  118.483  171.522    2.961
  415.442    0.204    0.338  107.903  168.681    2.719
  415.692    0.260    0.257   89.293  165.953    2.970
  415.942    0.296    0.225   71.625  164.069    3.281
  416.192    0.331    0.195   55.713  163.993    3.773
  416.442    0.329    0.218   50.400  164.240    5.655
  416.692    0.313    0.259   50.982  165.650    7.824
  416.942    0.280    0.292   55.517  166.103   10.068
  417.192    0.271    0.350   62.120  165.607   11.338
  417.442    0.288    0.393   64.772  165.424   11.672
  417.692    0.276    0.383   59.648  164.930    9.855
  417.942    0.274    0.374   58.974  164.425    7.995
  418.192    0.261    0.370   65.203  164.032    6.933
  418.442    0.259    0.355   74.941  163.950    5.865
  418.692    0.260    0.364   81.795  164.405    5.417
  418.942    0.229    0.382   87.645  164.656    5.079
  419.192    0.193    0.384   95.816  164.893    4.753
  419.442    0.191    0.388  105.681  165.241    4.466
  419.692    0.193    0.403  113.037  165.702    4.236
  419.942    0.181    0.418  117.759  166.364    4.010
  420.192    0.188    0.434  117.400  166.710    3.855
  420.442    0.198    0.444  120.804  166.857    3.726
  420.692    0.208    0.446  119.444  166.888    3.736
  420.942    0.216    0.437  115.637  166.698    3.824
  421.192    0.210    0.429  113.143  166.514    3.959
  421.442    0.199    0.421  116.111  166.761    4.171
  421.692    0.190    0.428  122.212  166.999    4.352
  421.942    0.161    0.461  127.938  168.626    4.329
  422.192    0.162    0.498  130.650  169.932    4.114
  422.442    0.174    0.495  131.421  170.917    3.547
  422.692    0.181    0.497  130.059  172.005    2.877
  422.942    0.207    0.508  126.315  170.873    2.505
  423.192    0.228    0.538  120.313  169.625    2.214
  423.442    0.221    0.491  114.685  168.489    2.153
  423.692    0.204    0.468  108.685  167.457    2.208
  423.942    0.185    0.451  105.503  166.319    2.299
  424.192    0.215    0.433  101.256  165.816    2.521
  424.442    0.217    0.417   96.193  164.893    2.877
  424.692    0.227    0.422   89.690  164.075    3.202
  424.942    0.248    0.412   83.122  163.571    3.682
  425.192    0.271    0.425   77.181  162.967    4.037
  425.442    0.295    0.449   72.810  162.573    4.109
  425.692    0.301    0.430   70.759  162.390    4.057
  425.942    0.288    0.441   73.225  162.205    3.945
  426.192    0.280    0.454   76.376  161.925    3.850
  426.442    0.268    0.451   80.407  161.737    3.743
  426.692    0.254    0.444   85.193  161.242    3.667
  426.942    0.242    0.442   86.778  161.059    3.621
  427.192    0.227    0.438   87.234  160.980    3.602
  427.442    0.231    0.440   88.821  160.584    3.590
  427.692    0.236    0.434   94.482  160.618    3.599
  427.942    0.223    0.441   94.187  160.220    3.607
  428.192    0.239    0.461   89.690  159.933    3.644
  428.442    0.253    0.483   86.132  159.751    3.695
  428.692    0.255    0.457   85.774  159.887    3.739
  428.942    0.251    0.435   89.052  160.663    3.762
  429.192    0.263    0.447   92.961  160.804    3.786
  429.442    0.273    0.436   96.489  161.362    3.795
