~VERSION INFORMATION
 VERS.                 2.0:   CWLS LOG ASCII STANDARD -VERSION 2.0
 WRAP.                  NO:   ONE LINE PER DEPTH STEP
~WELL INFORMATION BLOCK
#MNEM.UNIT           DATA                    DESCRIPTION OF MNEMONIC
#---------    -------------------            -------------------------------
# Generated from Intellog Unique Number	CX_WELLS/WELL/3124
WELL.         UNIVERSAL                      : Well_name    - WELL
LOC .         00/06-09-083-03W4/0            : Location     - LOCATION
UWI .         00/06-09-083-03W400            : Uwi          - UNIQUE WELL ID
ENTR.         TIM                            : Entered      - ENTERED BY
SRVC.         SCHLUMBERGER                   : Scn          - SERVICE COMPANY
STRT.F        300                            : top_depth    - START DEPTH
STOP.F        979.954                        : bot_depth    - STOP DEPTH
STEP.F        0.82                           : increment    - STEP LENGTH
 NULL. -999.2500:NULL Value
~CURVE INFORMATION BLOCK
#MNEM UNIT       ERCB CURVE CODE    CURVE DESCRIPTION
#-----------   ------------------   ----------------------------------
DEPT.F        00 001 00 00         : DEPTH        - DEPTH
GR  .API      00 310 00 00         : GR           - GAMMA RAY
NPHI.V/V      00 330 00 00         : PHIN         - NEUTRON POROSITY (SANDSTONE)
DPHI.V/V      00 890 00 00         : PHID         - DENSITY POROSITY (SANDSTONE)
ILD .OHMM     00 120 00 00         : RESD         - DEEP RESISTIVITY (OTHER)
~PARAMETER INFORMATION
#MNEM.UNIT           DATA             DESCRIPTION OF MNEMONIC
#---------         -----------     ------------------------------
GL  .F        1568                 : gl           - GROUND LEVEL ELEVATION
EREF.F        1578.5               : kb           - ELEVATION OF DEPTH REFERENCE
DATM.F        1578.5               : datum        - DATUM ELEVATION
TDD .F        1000                 : tdd          - TOTAL DEPTH DRILLER
RUN .         ONE                  : Run          - RUN NUMBER
ENG .         BILL                 : Engineer     - RECORDING ENGINEER
WIT .         JIM                  : Witness      - WITNESSED BY
MUD .         GEL                  : Mud_type     - MUD TYPE
MATR.         SANDSTONE            : Logunit      - NEUTRON MATRIX
TMAX.F        68                   : BHT          - MAXIMUM RECORDED TEMPERATURE
BHTD.F        1000                 : BHTDEP       - MAXIMUM RECORDED TEMPERATURE
MATR.         1                    : LOGUNIT      - NEUTRON MATRIX
RMT .F        68                   : MDTP         - TEMPERATURE OF MUD
NEUT.         1                    : NEUTRON      - NEUTRON TYPE
RESI.         5.65                 : RESIST       - RESISTIVITY TYPE
RMC .OHMM     6.4                  : RMC          - RESISTIVITY OF MUD CAKE
RMF .OHMM     5.2                  : RMF          - RESISTIVITY OF MUD FILTRATE
SUFT.F        37.4                 : SUFT         - SURFACE TEMPERATURE
~A  DEPTH       GR     PHIN     PHID     RESD
# ...
  585.433   87.997    0.563    0.288    4.085
  586.253   89.442    0.574    0.314    4.093
  587.073   90.201    0.595    0.322    4.255
  587.894   90.916    0.607    0.330    4.424
  588.714   90.992    0.602    0.346    4.510
  589.534   89.015    0.589    0.347    4.602
  590.354   88.376    0.553    0.340    4.525
  591.175   87.068    0.532    0.326    4.208
  591.995   87.813    0.511    0.322    3.636
  592.815   89.926    0.520    0.323    3.509
  593.635   94.776    0.532    0.326    3.714
  594.455  101.709    0.548    0.328    4.318
  595.276  103.123    0.579    0.318    4.658
  596.096  105.252    0.597    0.301    5.118
  596.916  103.244    0.593    0.290    5.417
  597.736   96.462    0.525    0.278    5.958
  598.556   94.470    0.508    0.265    5.967
  599.377   95.245    0.506    0.260    5.869
  600.197   95.275    0.503    0.263    5.876
  601.017   93.968    0.498    0.266    5.778
  601.837   89.923    0.497    0.267    5.681
  602.657   84.524    0.499    0.274    5.690
  603.478   81.848    0.531    0.286    5.806
  604.298   79.856    0.557    0.299    5.813
  605.118   77.848    0.566    0.318    5.933
  605.938   75.187    0.565    0.329    6.054
  606.759   73.195    0.522    0.339    6.179
  607.579   73.255    0.506    0.337    6.305
  608.399   73.301    0.507    0.332    6.315
  609.219   74.061    0.507    0.322    6.325
  610.039   74.821    0.505    0.313    6.335
  610.860   76.934    0.499    0.306    6.346
  611.680   79.047    0.504    0.315    6.239
  612.500   80.476    0.531    0.337    6.134
  613.320   80.522    0.547    0.331    6.147
  614.140   80.582    0.523    0.298    6.154
  614.961   79.974    0.516    0.278    6.166
  615.781   80.034    0.503    0.271    6.174
  616.601   80.779    0.506    0.275    6.189
  617.421   81.524    0.513    0.279    6.194
  618.241   82.268    0.502    0.283    6.208
  619.062   83.713    0.496    0.289    6.213
  619.882   83.089    0.487    0.282    6.112
  620.702   79.728    0.482    0.286    6.009
  621.522   76.367    0.477    0.302    5.802
  622.343   75.059    0.478    0.320    5.497
  623.163   75.819    0.478    0.320    5.208
  623.983   76.549    0.475    0.315    4.580
  624.803   77.309    0.481    0.310    3.673
  625.623   77.339    0.493    0.308    3.290
  626.444   76.716    0.537    0.318    2.842
  627.264   75.423    0.571    0.336    2.596
  628.084   72.761    0.608    0.352    2.506
  628.904   72.123    0.642    0.359    2.604
  629.724   70.130    0.631    0.368    2.915
  630.545   68.153    0.622    0.376    3.263
  631.365   68.883    0.625    0.380    3.653
  632.185   70.312    0.613    0.394    4.167
  633.005   72.425    0.594    0.406    3.874
  633.825   74.538    0.553    0.404    4.179
  634.646   76.652    0.518    0.364    4.425
  635.466   79.464    0.504    0.326    4.515
  636.286   82.961    0.504    0.325    4.607
  637.106   83.691    0.507    0.340    4.702
  637.927   84.436    0.535    0.352    4.624
  638.747   82.444    0.538    0.355    4.462
  639.567   82.504    0.495    0.299    4.150
  640.387   84.617    0.492    0.279    3.860
  641.207   86.046    0.491    0.286    3.590
  642.028   87.506    0.516    0.297    3.279
  642.848   88.250    0.524    0.312    3.164
  643.668   87.612    0.546    0.332    3.230
  644.488   85.619    0.565    0.352    3.295
  645.308   83.657    0.578    0.358    3.300
  646.129   83.003    0.582    0.341    3.366
  646.949   82.380    0.587    0.327    3.437
  647.769   82.455    0.587    0.316    3.376
  648.589   82.501    0.585    0.313    3.321
  649.409   82.576    0.585    0.323    3.268
  650.230   82.637    0.589    0.330    3.272
  651.050   83.397    0.602    0.335    3.276
  651.870   84.841    0.598    0.328    3.285
  652.690   86.255    0.594    0.313    3.289
  653.510   87.669    0.589    0.305    3.293
  654.331   89.797    0.589    0.304    3.299
  655.151   91.226    0.588    0.306    3.302
  655.971   91.287    0.582    0.313    3.434
  656.791   91.347    0.584    0.314    3.704
  657.612   88.671    0.586    0.314    3.923
  658.432   82.558    0.569    0.309    4.003
  659.252   77.160    0.566    0.302    4.085
  660.072   78.589    0.560    0.296    4.168
  660.892   81.386    0.555    0.297    4.252
  661.713   82.146    0.548    0.295    4.506
  662.533   82.207    0.552    0.288    4.680
  663.353   82.267    0.556    0.287    5.050
  664.173   82.328    0.551    0.283    5.346
  664.993   80.351    0.529    0.279    5.768
  665.814   79.013    0.503    0.273    6.220
  666.634   75.682    0.483    0.270    7.642
  667.454   73.660    0.405    0.280    8.714
  668.274   69.615    0.362    0.301    9.400
  669.094   61.464    0.329    0.326    7.399
  669.915   51.261    0.271    0.349    5.933
  670.735   38.990    0.233    0.366    4.847
  671.555   22.629    0.182    0.388    3.229
  672.375   14.493    0.173    0.415    2.637
  673.196   13.855    0.218    0.433    2.592
  674.016   15.968    0.293    0.417    2.503
  674.836   17.397    0.334    0.385    2.461
  675.656   20.210    0.370    0.359    2.420
  676.476   22.323    0.407    0.354    2.424
  677.297   24.436    0.419    0.337    2.428
  678.117   25.181    0.431    0.344    2.431
  678.937   24.557    0.451    0.350    2.436
  679.757   23.264    0.464    0.360    2.440
  680.577   21.257    0.453    0.363    2.443
  681.398   19.295    0.428    0.355    2.403
  682.218   18.656    0.418    0.345    2.409
  683.038   18.048    0.393    0.340    2.367
  683.858   18.078    0.384    0.336    2.327
  684.678   16.101    0.384    0.332    2.288
  685.499   14.109    0.384    0.327    2.250
  686.319   11.432    0.383    0.326    2.212
  687.139   11.508    0.381    0.326    2.217
  687.959   12.952    0.379    0.328    2.178
  688.780   13.682    0.378    0.330    2.181
  689.600   15.780    0.376    0.329    2.185
  690.420   19.976    0.372    0.324    2.273
  691.240   21.375    0.369    0.320    2.318
  692.060   26.940    0.368    0.320    2.501
  692.881   31.775    0.365    0.320    2.799
  693.701   43.467    0.364    0.319    3.438
  694.521   57.912    0.361    0.277    4.302
  695.341   82.621    0.366    0.275    5.002
  696.161   93.629    0.446    0.293    5.006
  696.982  100.547    0.480    0.301    5.110
  697.802   99.924    0.486    0.300    5.212
  698.622   99.300    0.497    0.298    5.222
  699.442   99.360    0.522    0.296    5.235
  700.262   99.436    0.553    0.285    5.239
  701.083  100.850    0.556    0.276    5.247
  701.903  102.294    0.555    0.278    5.256
  702.723  104.392    0.556    0.282    5.266
  703.543  105.836    0.558    0.286    5.272
  704.364  106.581    0.563    0.291    5.285
  705.184  105.273    0.565    0.297    5.291
  706.004  103.980    0.565    0.296    5.207
  706.824  104.026    0.581    0.295    5.211
  707.644  104.086    0.591    0.294    5.128
  708.465  104.831    0.589    0.294    5.037
  709.285  105.591    0.589    0.297    5.046
  710.105  106.336    0.589    0.298    4.961
  710.925  106.381    0.589    0.298    4.880
  711.745  106.442    0.585    0.297    4.885
  712.566  104.495    0.578    0.294    4.803
  713.386  104.525    0.569    0.286    4.726
  714.206  104.601    0.552    0.281    4.732
  715.026  104.661    0.548    0.276    4.571
  715.846  103.369    0.555    0.272    4.576
  716.667  102.715    0.562    0.273    4.338
  717.487  100.722    0.557    0.273    4.261
  718.307   98.730    0.548    0.272    4.037
  719.127   95.370    0.530    0.271    3.897
  719.948   94.761    0.520    0.268    3.978
  720.768   99.596    0.540    0.267    4.212
  721.588  101.071    0.565    0.265    4.296
  722.408   99.747    0.568    0.263    4.635
  723.228   96.402    0.572    0.263    4.820
  724.049   93.710    0.531    0.259    4.916
  724.869   91.019    0.505    0.254    4.928
  725.689   92.478    0.492    0.248    4.932
  726.509   93.192    0.472    0.240    4.940
  727.329   93.253    0.469    0.235    4.948
