~VERSION INFORMATION
 VERS.                 2.0:   CWLS LOG ASCII STANDARD -VERSION 2.0
 WRAP.                  NO:   ONE LINE PER DEPTH STEP
~WELL INFORMATION BLOCK
#MNEM.UNIT           DATA                    DESCRIPTION OF MNEMONIC
#---------    -------------------            -------------------------------
# Generated from Intellog Unique Number	CW_79_81/WELL/549
WELL.         07-16-079-24W4                 : Well_name    - WELL
LOC .         00/07-16-079-24W4/0            : Location     - LOCATION
UWI .         00/07-16-079-24W4/0            : Uwi          - UNIQUE WELL ID
ENTR.         MAX                            : Entered      - ENTERED BY
SRVC.         SCHLUMBERGER                   : Scn          - SERVICE COMPANY
STRT.M        198.12                         : top_depth    - START DEPTH
STOP.M        457.12                         : bot_depth    - STOP DEPTH
STEP.M        0.25                           : increment    - STEP LENGTH
 NULL. -999.2500:NULL Value
~CURVE INFORMATION BLOCK
#MNEM UNIT       ERCB CURVE CODE    CURVE DESCRIPTION
#-----------   ------------------   ----------------------------------
DEPT.M        00 001 00 00         : DEPTH        - DEPTH
ILD .OHMM     00 120 00 00         : RESD         - DEEP RESISTIVITY (DIL)
NPHI.V/V      00 330 00 00         : PHIN         - NEUTRON POROSITY (SANDSTONE)
DPHI.V/V      00 890 00 00         : PHID         - DENSITY POROSITY (SANDSTONE)
CALI.MM       00 280 01 00         : CAL          - CALIPER
GR  .API      00 310 00 00         : GR           - GAMMA RAY
~PARAMETER INFORMATION
#MNEM.UNIT           DATA             DESCRIPTION OF MNEMONIC
#---------         -----------     ------------------------------
GL  .M        557.479              : gl           - GROUND LEVEL ELEVATION
EREF.M        561.137              : kb           - ELEVATION OF DEPTH REFERENCE
DATM.M        557.479              : datum        - DATUM ELEVATION
TDD .M        353.568              : tdd          - TOTAL DEPTH DRILLER
RUN .         ONE                  : Run          - RUN NUMBER
ENG .         BILL                 : Engineer     - RECORDING ENGINEER
WIT .         JIM                  : Witness      - WITNESSED BY
MUD .         GEL                  : Mud_type     - MUD TYPE
MATR.         SANDSTONE            : Logunit      - NEUTRON MATRIX
TMAX.C        20                   : BHT          - MAXIMUM RECORDED TEMPERATURE
BHTD.M        445.008              : BHTDEP       - MAXIMUM RECORDED TEMPERATURE
RMT .C        17.7778              : MDTP         - TEMPERATURE OF MUD
MUDD.KG/M     10400                : MWT          - MUD DENSITY
NEUT.         1                    : NEUTRON      - NEUTRON TYPE
RESI.         0                    : RESIST       - RESISTIVITY TYPE
RM  .OHMM     10.7                 : RM           - RESISTIVITY OF MUD
RMC .OHMM     0.25                 : RMC          - RESISTIVITY OF MUD CAKE
RMF .OHMM     0.25                 : RMF          - RESISTIVITY OF MUD FILTRATE
SUFT.C        -23.3333             : SUFT         - SURFACE TEMPERATURE
~A  DEPTH     RESD     PHIN     PHID      CAL       GR
  198.120    7.779    0.488    0.278  235.557   77.049
  198.370    7.249    0.477    0.282  236.080   80.589
  198.620    6.816    0.492    0.268  237.096   80.608
  198.870    6.238    0.500    0.273  238.118   80.621
  199.120    5.865    0.529    0.270  238.140   82.695
  199.370    5.515    0.559    0.273  238.140   85.059
  199.620    5.328    0.584    0.284  238.197   86.542
  199.870    5.290    0.594    0.289  237.716   85.969
  200.120    5.300    0.580    0.294  237.742   84.511
  200.370    5.308    0.567    0.310  238.262   84.230
  200.620    5.365    0.538    0.314  238.285   84.541
  200.870    5.573    0.517    0.297  238.308   83.671
  201.120    6.221    0.519    0.288  237.835   82.803
  201.370    8.550    0.537    0.282  237.360   80.169
  201.620   12.633    0.535    0.295  236.387   71.658
  201.870   18.167    0.516    0.319  236.410   64.612
  202.120   20.649    0.502    0.329  235.937   62.273
  202.370   22.435    0.467    0.335  235.960   59.640
  202.620   23.733    0.443    0.346  235.988   56.420
  202.870   23.989    0.424    0.346  236.005   52.907
  203.120   24.034    0.428    0.333  235.536   50.275
  203.370   23.852    0.411    0.336  235.558   48.522
  203.620   23.897    0.401    0.330  236.079   47.654
  203.870   24.154    0.402    0.334  237.098   48.255
  204.120   24.858    0.439    0.337  238.614   50.035
  204.370   25.821    0.471    0.333  240.134   51.814
  204.620   27.064    0.482    0.338  240.159   49.767
  204.870   27.064    0.469    0.339  240.677   46.254
  205.120   27.401    0.455    0.331  241.200   42.742
  205.370   29.770    0.434    0.311  241.226   40.987
  205.620   30.382    0.419    0.304  241.249   39.236
  205.870   30.153    0.416    0.302  241.271   38.075
  206.120   29.669    0.419    0.313  240.301   37.795
  206.370   29.451    0.420    0.328  239.325   39.870
  206.620   29.506    0.417    0.347  237.356   41.354
  206.870   29.284    0.418    0.358  235.890   40.781
  207.120   29.075    0.438    0.358  235.913   40.791
  207.370   30.201    0.424    0.345  235.933   44.338
  207.620   31.635    0.416    0.319  236.459   45.526
  207.870   34.690    0.423    0.346  236.980   46.127
  208.120   39.084    0.442    0.348  237.996   47.614
  208.370   43.238    0.448    0.333  241.510   49.095
  208.620   46.996    0.455    0.321  248.003   50.874
  208.870   48.367    0.458    0.217  253.503   51.182
  209.120   48.012    0.416    0.173  251.537   50.315
  209.370   45.978    0.320    0.157  248.077   46.507
  209.620   44.013    0.249    0.174  244.113   42.403
  209.870   42.916    0.271    0.194  243.145   40.360
  210.120   42.997    0.272    0.199  244.659   40.076
  210.370   44.242    0.262    0.178  247.171   40.094
  210.620   46.812    0.263    0.206  250.685   40.694
  210.870   48.605    0.286    0.227  253.696   42.180
  211.120   51.874    0.318    0.261  257.207   43.957
  211.370   54.360    0.349    0.280  260.712   45.440
  211.620   55.934    0.385    0.318  265.714   46.631
  211.870   55.558    0.411    0.355  271.217   46.644
  212.120   51.761    0.437    0.420  277.218   46.364
  212.370   26.807    0.441    0.418  281.722   44.028
  212.620   18.539    0.424    0.389  283.740   44.922
  212.870   12.145    0.390    0.320  278.282   47.582
  213.120    8.176    0.369    0.245  280.302   47.597
  213.370    4.895    0.405    0.270  275.844   48.786
  213.620    4.438    0.411    0.262  269.894   55.269
  213.870    3.882    0.438    0.228  264.433   63.812
  214.120    3.396    0.487    0.216  279.400   75.885
  214.370    3.081    0.547    0.247  275.436   80.308
  214.620    2.949    0.577    0.268  261.517   86.204
  214.870    2.850    0.587    0.274  256.068   88.276
  215.120    2.803    0.588    0.258  254.102   88.879
  215.370    2.834    0.584    0.248  249.139   88.597
  215.620    2.839    0.575    0.241  244.680   89.494
  215.870    2.844    0.571    0.234  241.721   92.448
  216.120    2.875    0.588    0.233  239.752   93.345
  216.370    2.933    0.586    0.230  237.780   92.186
  216.620    2.964    0.568    0.240  236.312   90.431
  216.870    3.023    0.563    0.235  235.837   91.332
  217.120    3.085    0.568    0.229  235.862   92.224
  217.370    3.089    0.577    0.228  235.862   90.769
  217.620    3.122    0.579    0.235  235.910   89.902
  217.870    3.157    0.576    0.241  234.937   90.208
  218.120    3.191    0.564    0.236  234.462   91.107
  218.370    3.196    0.551    0.221  234.485   92.300
  218.620    3.230    0.545    0.213  234.015   93.190
  218.870    3.295    0.544    0.212  234.041   95.266
  219.120    3.331    0.541    0.210  234.058   94.985
  219.370    3.367    0.537    0.222  234.083   94.703
  219.620    3.373    0.555    0.236  234.607   95.894
  219.870    3.379    0.559    0.227  234.627   94.437
  220.120    3.384    0.565    0.233  234.652   93.572
  220.370    3.390    0.582    0.228  234.652   94.760
  220.620    3.427    0.581    0.215  234.709   95.069
  220.870    3.434    0.570    0.222  233.727   94.496
  221.120    3.472    0.557    0.224  233.258   93.333
  221.370    3.476    0.542    0.214  233.275   93.346
  221.620    3.483    0.546    0.211  233.795   92.477
  221.870    3.457    0.549    0.212  233.821   90.725
  222.120    3.558    0.529    0.215  233.846   88.975
  222.370    3.902    0.527    0.209  233.368   85.460
  222.620    4.316    0.511    0.168  233.394   79.886
  222.870    4.819    0.455    0.161  233.419   71.372
  223.120    4.784    0.411    0.164  233.439   65.800
  223.370    4.748    0.442    0.220  232.967   69.048
  223.620    4.632    0.513    0.239  232.992   76.121
  223.870    4.557    0.541    0.250  233.012   78.781
  224.120    4.442    0.557    0.257  233.038   81.441
  224.370    4.291    0.557    0.263  233.066   82.044
  224.620    4.147    0.559    0.263  233.083   82.645
  224.870    4.116    0.589    0.258  233.109   82.659
  225.120    4.161    0.596    0.246  233.134   82.674
  225.370    4.283    0.583    0.229  233.154   83.863
  225.620    4.367    0.560    0.220  233.182   82.702
  225.870    4.496    0.532    0.203  230.715   79.187
  226.120    4.544    0.515    0.180  228.744   75.084
  226.370    4.594    0.499    0.186  228.271   73.627
  226.620    4.560    0.495    0.201  228.795   75.994
  226.870    4.447    0.522    0.222  228.820   78.654
  227.120    4.375    0.569    0.241  228.843   80.729
  227.370    4.304    0.585    0.238  228.863   81.626
  227.620    4.233    0.572    0.233  228.387   80.754
  227.870    4.089    0.528    0.224  228.416   77.827
  228.120    3.916    0.504    0.224  228.439   75.490
  228.370    3.887    0.500    0.226  228.959   78.740
  228.620    4.224    0.527    0.232  229.978   82.576
  228.870    5.351    0.521    0.249  231.494   83.471
  229.120    7.836    0.509    0.254  232.018   82.014
  229.370   12.443    0.502    0.253  232.043   79.381
  229.620   15.206    0.493    0.272  231.568   72.341
  229.870   17.924    0.480    0.284  229.602   69.118
  230.120   19.125    0.462    0.281  227.630   63.544
  230.370   20.046    0.453    0.285  225.661   57.088
  230.620   21.007    0.477    0.299  224.688   52.692
  230.870   22.050    0.450    0.308  224.713   53.000
  231.120   23.073    0.457    0.306  224.736   53.307
  231.370   25.996    0.464    0.301  225.262   51.264
  231.620   28.244    0.461    0.289  226.278   51.867
  231.870   31.822    0.466    0.283  226.799   52.469
  232.120   34.902    0.464    0.307  227.322   52.480
  232.370   35.597    0.461    0.308  227.846   53.672
  232.620   36.306    0.466    0.308  229.365   57.215
  232.870   36.697    0.470    0.305  230.386   59.875
  233.120   36.435    0.469    0.298  231.399   59.302
  233.370   35.201    0.473    0.293  232.421   58.728
  233.620   34.016    0.476    0.277  233.940   58.449
  233.870   34.381    0.470    0.278  234.458   58.460
  234.120   37.355    0.466    0.289  235.476   58.768
  234.370   41.333    0.457    0.290  236.498   59.371
