~VERSION INFORMATION
 VERS.                 2.0:   CWLS LOG ASCII STANDARD -VERSION 2.0
 WRAP.                  NO:   ONE LINE PER DEPTH STEP
~WELL INFORMATION BLOCK
#MNEM.UNIT           DATA                    DESCRIPTION OF MNEMONIC
#---------    -------------------            -------------------------------
# Generated from Intellog Unique Number	CS_73_76/WELL/956
WELL.         CANADIAN WORLDWIDE ENERGY      : Well_name    - WELL
LOC .         00/02-26-076-04W4/0            : Location     - LOCATION
UWI .         00/02-26-076-04W4/0            : Uwi          - UNIQUE WELL ID
ENTR.         SP                             : Entered      - ENTERED BY
SRVC.         SCHLUMBERGER                   : Scn          - SERVICE COMPANY
STRT.M        200                            : top_depth    - START DEPTH
STOP.M        450                            : bot_depth    - STOP DEPTH
STEP.M        0.25                           : increment    - STEP LENGTH
 NULL. -999.2500:NULL Value
~CURVE INFORMATION BLOCK
#MNEM UNIT       ERCB CURVE CODE    CURVE DESCRIPTION
#-----------   ------------------   ----------------------------------
DEPT.M        00 001 00 00         : DEPTH        - DEPTH
ILD .OHMM     00 120 00 00         : RESD         - DEEP RESISTIVITY (DIL)
GR  .API      00 310 00 00         : GR           - GAMMA RAY
NPHI.V/V      00 330 00 00         : PHIN         - NEUTRON POROSITY (LIMESTONE)
DPHI.V/V      00 890 00 00         : PHID         - DENSITY POROSITY (LIMESTONE)
~PARAMETER INFORMATION
#MNEM.UNIT           DATA             DESCRIPTION OF MNEMONIC
#---------         -----------     ------------------------------
GL  .M        587.6                : gl           - GROUND LEVEL ELEVATION
EREF.M        591.1                : kb           - ELEVATION OF DEPTH REFERENCE
DATM.M        587.6                : datum        - DATUM ELEVATION
TDD .M        460                  : tdd          - TOTAL DEPTH DRILLER
RUN .         ONE                  : Run          - RUN NUMBER
ENG .         BILL                 : Engineer     - RECORDING ENGINEER
WIT .         JIM                  : Witness      - WITNESSED BY
MUD .         GEL                  : Mud_type     - MUD TYPE
MATR.         LIMESTONE            : Logunit      - NEUTRON MATRIX
TMAX.C        23                   : BHT          - MAXIMUM RECORDED TEMPERATURE
BHTD.M        460                  : BHTDEP       - MAXIMUM RECORDED TEMPERATURE
MATR.         1                    : LOGUNIT      - NEUTRON MATRIX
RMT .C        25                   : MDTP         - TEMPERATURE OF MUD
NEUT.         1                    : NEUTRON      - NEUTRON TYPE
RESI.         0                    : RESIST       - RESISTIVITY TYPE
RMC .OHMM     0.25                 : RMC          - RESISTIVITY OF MUD CAKE
RMF .OHMM     0.25                 : RMF          - RESISTIVITY OF MUD FILTRATE
SUFT.C        15                   : SUFT         - SURFACE TEMPERATURE
~A  DEPTH     RESD       GR     PHIN     PHID
# ...
  374.000    8.683   35.299    0.304    0.319
  374.250    8.526   46.463    0.294    0.328
  374.500    8.535   54.526    0.290    0.309
  374.750    8.539   57.012    0.290    0.285
  375.000    8.710   58.265    0.292    0.272
  375.250    8.716   48.357    0.298    0.266
  375.500    9.058   38.451    0.315    0.262
  375.750    9.235   33.502    0.322    0.266
  376.000    9.596   38.473    0.320    0.314
  376.250   10.356   42.822    0.314    0.331
  376.500   10.964   38.493    0.309    0.321
  376.750   11.831   35.403    0.305    0.309
  377.000   12.527   33.556    0.301    0.321
  377.250   13.518   34.184    0.300    0.332
  377.500   14.312   40.394    0.301    0.342
  377.750   16.037   49.701    0.306    0.323
  378.000   16.978   60.248    0.321    0.290
  378.250   18.671   63.361    0.323    0.258
  378.500   20.920   57.789    0.327    0.246
  378.750   22.997   42.924    0.344    0.254
  379.000   26.256   33.638    0.353    0.272
  379.250   30.545   29.310    0.355    0.281
  379.500   34.222   28.078    0.348    0.295
  379.750   34.900   31.189    0.346    0.310
  380.000   33.009   52.892    0.344    0.305
  380.250   26.854   67.780    0.348    0.290
  380.500   22.266   73.988    0.356    0.284
  380.750   19.902   68.422    0.362    0.269
  381.000   20.683   53.554    0.371    0.263
  381.250   23.173   39.928    0.377    0.271
  381.500   27.994   38.079    0.387    0.291
  381.750   33.188   39.328    0.388    0.313
  382.000   37.176   35.619    0.381    0.325
  382.250   41.650   30.671    0.384    0.336
  382.500   50.331   28.822    0.388    0.341
  382.750   55.326   26.353    0.374    0.334
  383.000   63.159   26.985    0.357    0.328
  383.250   70.760   29.474    0.344    0.325
  383.500   80.790   29.483    0.342    0.324
  383.750   88.825   28.259    0.341    0.323
  384.000   94.059   28.268    0.341    0.318
  384.250   99.596   28.275    0.336    0.315
  384.500  103.501   27.666    0.333    0.314
  384.750  107.556   28.919    0.330    0.315
  385.000  109.682   28.925    0.331    0.318
  385.250  111.837   28.935    0.331    0.310
  385.500  116.212   30.185    0.328    0.315
  385.750  116.308   31.438    0.325    0.309
  386.000  116.389   30.826    0.326    0.305
  386.250  123.263   30.218    0.337    0.300
  386.500  132.998   28.990    0.347    0.304
  386.750  143.497   26.519    0.343    0.316
  387.000  154.825   25.908    0.334    0.323
  387.250  163.944   26.541    0.331    0.313
  387.500  164.085   27.788    0.327    0.311
  387.750  149.447   29.040    0.329    0.318
  388.000  138.715   31.530    0.338    0.320
  388.250  131.201   34.022    0.347    0.315
  388.500  126.449   34.029    0.351    0.313
  388.750  126.539   34.039    0.351    0.311
  389.000  129.043   32.191    0.351    0.313
  389.250  139.263   30.962    0.351    0.311
  389.500  153.143   29.111    0.348    0.310
  389.750  159.074   27.884    0.347    0.314
  390.000  168.450   26.652    0.349    0.320
  390.250  181.815   27.904    0.354    0.320
  390.500  185.395   27.914    0.350    0.319
  390.750  185.509   27.303    0.347    0.325
  391.000  189.176   28.554    0.343    0.325
  391.250  189.321   27.325    0.341    0.317
  391.500  193.034   26.714    0.338    0.301
  391.750  193.197   29.204    0.333    0.303
  392.000  189.720   27.976    0.329    0.309
  392.250  193.462   26.744    0.327    0.314
  392.500  190.022   27.375    0.342    0.317
  392.750  193.789   27.384    0.339    0.320
  393.000  193.938   27.396    0.336    0.318
  393.250  194.051   27.407    0.333    0.317
  393.500  194.197   28.037    0.333    0.323
  393.750  194.368   28.047    0.338    0.326
  394.000  194.485   28.676    0.338    0.321
  394.250  191.063   28.686    0.337    0.313
  394.500  191.159   27.458    0.342    0.312
  394.750  187.725   26.848    0.350    0.310
  395.000  180.923   28.098    0.343    0.311
  395.250  174.376   31.208    0.339    0.311
  395.500  168.061   32.457    0.332    0.307
  395.750  158.986   33.707    0.328    0.300
  396.000  150.377   33.096    0.324    0.294
  396.250  144.944   30.631    0.328    0.296
  396.500  145.006   30.018    0.330    0.295
  396.750  139.780   30.033    0.329    0.287
  397.000  137.280   30.039    0.329    0.284
  397.250  137.354   30.055    0.329    0.285
  397.500  132.387   30.061    0.328    0.286
  397.750  130.024   30.692    0.325    0.287
  398.000  125.321   31.322    0.320    0.289
  398.250  120.759   31.954    0.317    0.291
  398.500  114.235   32.584    0.313    0.284
  398.750  108.045   32.590    0.311    0.279
  399.000  100.281   32.604    0.309    0.276
  399.250   91.341   32.611    0.308    0.281
  399.500   83.201   32.002    0.310    0.282
  399.750   75.780   31.391    0.314    0.281
  400.000   70.368   32.022    0.344    0.291
  400.250   77.370   33.274    0.347    0.301
  400.500   81.905   33.284    0.341    0.295
  400.750   88.351   32.675    0.332    0.286
  401.000   93.538   32.686    0.317    0.284
  401.250   99.041   32.697    0.324    0.286
  401.500  104.849   32.708    0.316    0.283
  401.750  110.999   32.716    0.304    0.275
  402.000  111.049   32.730    0.297    0.269
  402.250  113.230   32.736    0.299    0.267
  402.500  109.098   38.325    0.308    0.269
  402.750  105.133   43.912    0.313    0.262
  403.000   99.425   40.825    0.306    0.256
  403.250  101.366   37.118    0.300    0.247
  403.500  107.310   34.649    0.297    0.257
  403.750  113.612   31.556    0.298    0.271
  404.000  120.295   30.947    0.303    0.274
  404.250  122.639   32.820    0.306    0.276
  404.500  120.403   33.448    0.307    0.281
  404.750  113.867   33.458    0.308    0.281
  405.000  109.728   32.230    0.309    0.278
  405.250  109.791   31.619    0.312    0.266
  405.500  109.866   31.013    0.311    0.260
  405.750  109.918   31.020    0.309    0.257
  406.000  112.063   30.416    0.306    0.254
  406.250  114.246   30.425    0.301    0.253
  406.500  116.487   30.432    0.297    0.255
  406.750  118.775   30.442    0.292    0.259
  407.000  118.844   29.834    0.295    0.264
  407.250  121.175   29.843    0.298    0.270
  407.500  121.242   31.093    0.307    0.275
  407.750  121.317   32.962    0.310    0.280
  408.000  121.370   32.972    0.310    0.276
  408.250  121.466   31.746    0.315    0.272
  408.500  119.243   31.133    0.319    0.271
  408.750  117.079   31.142    0.317    0.267
  409.000  114.959   31.155    0.312    0.265
  409.250  112.887   31.165    0.313    0.271
  409.500  108.766   32.417    0.307    0.277
  409.750  104.806   32.424    0.303    0.265
  410.000   99.114   31.814    0.302    0.261
  410.250   95.501   31.825    0.304    0.270
  410.500   86.986   32.455    0.305    0.276
  410.750   82.254   33.085    0.305    0.266
  411.000   77.778   33.715    0.304    0.270
  411.250   74.950   33.105    0.299    0.278
  411.500   74.981   32.498    0.298    0.275
  411.750   75.041   31.266    0.295    0.266
  412.000   76.508   31.896    0.292    0.263
  412.250   79.490   32.526    0.287    0.257
  412.500   82.592   33.778    0.279    0.252
  412.750   84.187   34.409    0.279    0.244
  413.000   85.836   33.177    0.281    0.240
  413.250   87.513   30.712    0.286    0.247
  413.500   89.240   30.099    0.289    0.249
  413.750   89.291   30.110    0.288    0.249
  414.000   89.326   30.739    0.284    0.250
  414.250   86.076   31.989    0.287    0.251
  414.500   81.396   32.620    0.294    0.260
  414.750   74.126   32.010    0.296    0.264
  415.000   63.804   34.501    0.301    0.256
  415.250   58.105   38.230    0.306    0.257
  415.500   52.920   42.578    0.311    0.260
  415.750   50.986   41.349    0.316    0.261
  416.000   49.140   39.500    0.312    0.261
  416.250   52.023   38.274    0.305    0.258
  416.500   55.072   36.421    0.300    0.253
  416.750   59.409   33.955    0.301    0.243
  417.000   64.089   33.963    0.299    0.235
  417.250   66.594   34.593    0.293    0.236
