~VERSION INFORMATION
 VERS.                 2.0:   CWLS LOG ASCII STANDARD -VERSION 2.0
 WRAP.                  NO:   ONE LINE PER DEPTH STEP
~WELL INFORMATION BLOCK
#MNEM.UNIT           DATA                    DESCRIPTION OF MNEMONIC
#---------    -------------------            -------------------------------
# Generated from Intellog Unique Number	CW_76_78/WELL/2800
WELL.         07-25-076-26W4                 : Well_name    - WELL
LOC .         00/07-25-076-26W4/0            : Location     - LOCATION
UWI .         00/07-25-076-26W4/0            : Uwi          - UNIQUE WELL ID
ENTR.         JJ                             : Entered      - ENTERED BY
SRVC.         SCHLUMBERGER                   : Scn          - SERVICE COMPANY
DATE.         22 NOV 68                      : Date         - LOG DATE
STRT.M        591.312                        : top_depth    - START DEPTH
STOP.M        719.312                        : bot_depth    - STOP DEPTH
STEP.M        0.25                           : increment    - STEP LENGTH
 NULL. -999.2500:NULL Value
~CURVE INFORMATION BLOCK
#MNEM UNIT       ERCB CURVE CODE    CURVE DESCRIPTION
#-----------   ------------------   ----------------------------------
DEPT.M        00 001 00 00         : DEPTH        - DEPTH
DELT.US/F     00 520 00 00         : DELT         - SONIC TRAVEL TIME
GR  .API      00 310 00 00         : GR           - GAMMA RAY
ILD .OHMM     00 120 00 00         : RESD         - DEEP RESISTIVITY (DIL)
~PARAMETER INFORMATION
#MNEM.UNIT           DATA             DESCRIPTION OF MNEMONIC
#---------         -----------     ------------------------------
GL  .M        832.805              : gl           - GROUND LEVEL ELEVATION
EREF.M        836.28               : kb           - ELEVATION OF DEPTH REFERENCE
DATM.M        836.28               : datum        - DATUM ELEVATION
TDD .M        720.547              : tdd          - TOTAL DEPTH DRILLER
RUN .         ONE                  : Run          - RUN NUMBER
ENG .         LANG                 : Engineer     - RECORDING ENGINEER
BASE.         EDM                  : Branch       - HOME BASE OF LOGGING UNIT
MUD .         GEL                  : Mud_type     - MUD TYPE
MATR.         SANDSTONE            : Logunit      - NEUTRON MATRIX
TMAX.C        21.1111              : BHT          - MAXIMUM RECORDED TEMPERATURE
BHTD.M        721.157              : BHTDEP       - MAXIMUM RECORDED TEMPERATURE
RMT .C        19.4444              : MDTP         - TEMPERATURE OF MUD
MUDD.KG/M     960                  : MWT          - MUD DENSITY
NEUT.         1                    : NEUTRON      - NEUTRON TYPE
RESI.         0                    : RESIST       - RESISTIVITY TYPE
RM  .OHMM     5.67                 : RM           - RESISTIVITY OF MUD
RMC .OHMM     0                    : RMC          - RESISTIVITY OF MUD CAKE
RMF .OHMM     0                    : RMF          - RESISTIVITY OF MUD FILTRATE
SUFT.C        5                    : SUFT         - SURFACE TEMPERATURE
~A  DEPTH     DELT       GR     RESD
  591.312  321.683   58.613    6.718
  591.562  337.943   54.129    7.382
  591.812  355.314   50.335    7.624
  592.062  363.078   46.195    7.203
  592.312  341.497   44.079    6.298
  592.562  333.054   42.754    5.776
  592.812  397.544   43.552    5.093
  593.062  400.472   45.240    4.873
  593.312  399.346   45.989    5.014
  593.562  394.629   45.552    5.477
  593.812  382.525   44.968    6.021
  594.062  366.762   44.482    6.967
  594.312  342.175   44.194    7.813
  594.562  319.420   43.807    8.940
  594.812  300.517   44.013    9.222
  595.062  296.520   45.207    8.881
  595.312  312.387   46.745    7.956
  595.562  334.659   48.482    6.670
  595.812  359.872   49.773    5.725
  596.062  368.028   51.017    5.264
  596.312  379.516   49.741    5.465
  596.562  330.554   48.416    6.371
  596.812  308.582   47.387    7.177
  597.062  287.721   48.037    7.821
  597.312  307.445   48.095    8.606
  597.562  322.920   48.251    9.049
  597.812  321.403   48.358    8.587
  598.062  314.266   48.810    8.005
  598.312  321.116   49.164    7.543
  598.562  339.532   49.074    7.081
  598.812  331.871   49.231    6.639
  599.062  323.036   49.535    6.097
  599.312  340.668   48.459    5.515
  599.562  379.083   47.479    5.194
  599.812  402.465   46.895    4.873
  600.062  405.327   47.002    4.672
  600.312  404.791   47.454    4.653
  600.562  401.314   48.351    4.734
  600.812  395.420   49.000    4.855
  601.062  388.936   49.404    4.957
  601.312  383.695   48.918    4.978
  601.562  379.041   48.729    5.039
  601.812  374.582   49.626    5.039
  602.062  371.302   50.918    5.020
  602.312  367.565   51.617    4.961
  602.562  362.780   51.181    5.022
  602.812  371.982   49.658    5.123
  603.062  381.312   48.877    5.506
  603.312  388.293   46.366    6.130
  603.562  427.427   39.708    7.036
  603.812  450.614   35.471    7.700
  604.062  467.788   38.393    8.143
  604.312  464.442   46.745    8.184
  604.562  459.789   51.493    7.702
  604.812  458.011   55.255    6.838
  605.062  447.214   58.126    6.075
  605.312  426.222   62.827    4.849
  605.562  403.662   63.525    4.327
  605.812  393.976   63.583    4.187
  606.062  397.557   63.937    4.187
  606.312  403.555   65.130    4.329
  606.562  403.085   66.916    4.470
  606.812  398.368   69.689    4.713
  607.062  398.027   70.587    4.794
  607.312  406.378   69.707    4.855
  607.562  411.856   67.838    4.876
  607.812  408.444   66.118    4.897
  608.062  400.916   66.175    4.917
  608.312  394.759   67.221    4.918
  608.562  399.451   67.476    4.919
  608.812  407.607   68.027    4.980
  609.062  404.456   69.813    4.920
  609.312  402.221   71.401    4.901
  609.562  409.918   71.557    4.922
  609.812  410.887   70.431    4.842
  610.062  405.188   68.612    4.843
  610.312  392.168   67.534    4.824
  610.562  396.665   66.999    4.925
  610.812  401.683   66.513    4.966
  611.062  394.089   65.631    5.107
  611.312  393.684   64.257    5.289
  611.562  403.931   61.995    5.572
  611.812  399.997   59.879    5.834
  612.062  369.399   57.567    6.015
  612.312  360.955   54.267    6.298
  612.562  363.489   53.239    6.419
  612.812  378.050   54.579    6.279
  613.062  387.448   56.957    5.978
  613.312  392.466   61.164    5.617
  613.562  384.611   64.430    5.216
  613.812  387.278   69.871    5.015
  614.062  399.746   74.373    4.915
  614.312  404.766   76.850    4.856
  614.562  399.132   75.228    4.877
  614.812  399.902   70.843    4.897
  615.062  404.529   68.776    4.978
  615.312  391.446   67.302    5.140
  615.562  378.166   65.040    5.503
  615.812  377.825   63.566    5.866
  616.062  391.014   61.897    6.329
  616.312  400.017   59.781    6.450
  616.562  372.557   55.690    6.411
  616.812  359.080   51.698    6.211
  617.062  383.052   48.201    6.010
  617.312  426.303   54.184    5.649
  617.562  435.309   59.426    5.288
  617.812  413.008   62.644    5.067
  618.062  399.600   64.282    5.028
  618.312  394.553   66.562    5.230
  618.562  398.657   70.075    5.391
  618.812  393.350   69.639    5.513
  619.062  386.868   64.512    5.654
  619.312  373.065   62.199    5.755
  619.562  371.285   63.345    5.998
  619.812  378.985   65.969    6.059
  620.062  393.481   70.174    6.100
  620.312  388.238   68.948    6.221
  620.562  377.770   67.524    6.302
  620.812  377.363   66.349    6.243
  621.062  371.009   65.517    6.223
  621.312  364.005   63.204    6.103
  621.562  363.860   63.508    6.124
  621.812  359.730   65.393    6.065
  622.062  359.913   67.920    6.005
  622.312  379.179   71.779    5.986
  622.562  405.438   75.886    5.926
  622.812  385.033   71.451    5.746
  623.062  365.936   64.841    5.385
  623.312  379.778   61.986    5.084
  623.562  391.530   65.254    4.883
  623.812  399.294   66.546    4.703
  624.062  394.182   66.308    4.644
  624.312  386.130   65.871    4.604
  624.562  390.756   67.804    4.444
  624.812  401.070   69.541    3.901
  625.062  405.369   68.464    3.299
  625.312  402.155   67.088    3.179
  625.562  402.728   67.195    3.140
  625.812  407.683   72.091    3.201
  626.062  401.461   73.878    3.423
  626.312  393.343   72.653    3.745
  626.562  399.865   72.117    4.088
  626.812  405.277   73.013    4.229
  627.062  405.656   74.453    4.411
  627.312  402.895   74.759    4.392
  627.562  399.356   74.223    4.111
  627.812  384.441   72.553    3.870
  628.062  397.629   71.870    3.750
  628.312  414.216   73.359    3.952
  628.562  402.373   74.898    4.395
  628.812  379.290   73.622    5.080
  629.062  358.953   71.853    5.764
  629.312  344.627   70.084    6.489
  629.562  337.491   68.808    7.093
  629.812  321.727   68.718    7.054
  630.062  304.003   70.108    6.693
  630.312  316.603   73.869    6.251
  630.562  365.407   76.840    5.950
  630.812  372.843   79.465    5.730
  631.062  376.557   77.992    5.650
  631.312  369.615   74.149    5.651
  631.562  348.298   70.651    5.752
  631.812  339.004   67.598    5.793
  632.062  357.224   65.581    5.854
  632.312  370.544   68.010    5.774
  632.562  370.138   69.795    5.594
  632.812  363.001   70.841    5.474
  633.062  361.353   71.638    5.435
  633.312  372.712   72.387    5.496
  633.562  375.836   73.482    5.657
  633.812  368.044   72.800    5.960
  634.062  359.667   71.722    6.363
  634.312  361.547   69.853    6.906
  634.562  365.130   67.589    7.088
  634.812  316.167   60.042    7.210
  635.062  309.423   58.917    7.271
  635.312  345.811   63.418    7.292
  635.562  364.881   66.783    7.232
  635.812  359.835   68.321    7.193
  636.062  336.817   67.343    7.053
  636.312  324.649   65.672    6.933
  636.562  345.745   66.470    6.833
  636.812  368.279   70.182    6.773
  637.062  377.609   71.178    6.653
  637.312  369.296   69.113    6.574
  637.562  363.989   66.848    6.574
  637.812  362.473   65.671    6.716
  638.062  365.791   67.062    6.878
  638.312  367.283   70.774    6.959
  638.562  364.460   74.784    7.161
  638.812  360.915   77.111    7.624
  639.062  348.945   73.070    8.127
  639.312  312.399   67.104    8.611
  639.562  290.558   63.656    9.074
  639.812  302.308   65.639    9.477
  640.062  326.083   67.968    9.377
  640.312  333.913   65.162    8.795
  640.562  345.989   61.715    8.776
  640.812  332.315   59.352    9.038
  641.062  319.365   57.040    9.602
  641.312  306.411   55.468    9.944
  641.562  307.834   56.413   10.367
  641.812  307.626   60.619   10.348
  642.062  336.956   62.899    9.927
  642.312  355.177   65.870    9.465
  642.562  332.028   65.335    9.123
  642.812  327.832   61.342    9.325
  643.062  335.074   56.808   10.211
  643.312  333.426   56.125   11.620
  643.562  303.873   55.246   13.450
  643.812  284.450   53.723   15.503
  644.062  250.583   51.212   17.656
  644.312  255.864   49.294   18.722
  644.562  263.823   49.352   16.752
  644.812  259.626   50.941   13.474
  645.062  254.125   54.456   10.458
  645.312  255.550   56.783    8.589
