~VERSION INFORMATION
 VERS.                 2.0:   CWLS LOG ASCII STANDARD -VERSION 2.0
 WRAP.                  NO:   ONE LINE PER DEPTH STEP
~WELL INFORMATION BLOCK
#MNEM.UNIT           DATA                    DESCRIPTION OF MNEMONIC
#---------    -------------------            -------------------------------
# Generated from Intellog Unique Number	CS_73_76/WELL/781
WELL.         MAYNARD ENERGY                 : Well_name    - WELL
LOC .         00/07-36-073-13W4/0            : Location     - LOCATION
UWI .         00/07-36-073-13W4/0            : Uwi          - UNIQUE WELL ID
ENTR.         SP                             : Entered      - ENTERED BY
SRVC.         SCHLUMBERGER                   : Scn          - SERVICE COMPANY
STRT.M        300                            : top_depth    - START DEPTH
STOP.M        525                            : bot_depth    - STOP DEPTH
STEP.M        0.25                           : increment    - STEP LENGTH
 NULL. -999.2500:NULL Value
~CURVE INFORMATION BLOCK
#MNEM UNIT       ERCB CURVE CODE    CURVE DESCRIPTION
#-----------   ------------------   ----------------------------------
DEPT.M        00 001 00 00         : DEPTH        - DEPTH
GR  .API      00 310 00 00         : GR           - GAMMA RAY
NPHI.V/V      00 330 00 00         : PHIN         - NEUTRON POROSITY (LIMESTONE)
DPHI.V/V      00 890 00 00         : PHID         - DENSITY POROSITY (LIMESTONE)
ILD .OHMM     00 120 00 00         : RESD         - DEEP RESISTIVITY (DIL)
~PARAMETER INFORMATION
#MNEM.UNIT           DATA             DESCRIPTION OF MNEMONIC
#---------         -----------     ------------------------------
GL  .M        662.29               : gl           - GROUND LEVEL ELEVATION
EREF.M        665.74               : kb           - ELEVATION OF DEPTH REFERENCE
DATM.M        662.29               : datum        - DATUM ELEVATION
TDD .M        540                  : tdd          - TOTAL DEPTH DRILLER
RUN .         ONE                  : Run          - RUN NUMBER
ENG .         BILL                 : Engineer     - RECORDING ENGINEER
WIT .         JIM                  : Witness      - WITNESSED BY
MUD .         GEL                  : Mud_type     - MUD TYPE
MATR.         LIMESTONE            : Logunit      - NEUTRON MATRIX
TMAX.C        21                   : BHT          - MAXIMUM RECORDED TEMPERATURE
BHTD.M        540                  : BHTDEP       - MAXIMUM RECORDED TEMPERATURE
MATR.         1                    : LOGUNIT      - NEUTRON MATRIX
RMT .C        25                   : MDTP         - TEMPERATURE OF MUD
NEUT.         1                    : NEUTRON      - NEUTRON TYPE
RESI.         0                    : RESIST       - RESISTIVITY TYPE
RMC .OHMM     0.25                 : RMC          - RESISTIVITY OF MUD CAKE
RMF .OHMM     0.25                 : RMF          - RESISTIVITY OF MUD FILTRATE
SUFT.C        15                   : SUFT         - SURFACE TEMPERATURE
~A  DEPTH       GR     PHIN     PHID     RESD
# ...
  474.000  106.736    0.450    0.180    3.688
  474.250  103.071    0.427    0.171    4.339
  474.500  102.455    0.413    0.166    4.828
  474.750  102.450    0.406    0.171    5.887
  475.000  106.712    0.415    0.156    7.108
  475.250  107.316    0.396    0.120    7.841
  475.500  105.480    0.361    0.107    8.981
  475.750   96.936    0.330    0.098   10.771
  476.000   92.052    0.322    0.112   12.073
  476.250   88.387    0.325    0.133   13.132
  476.500   84.723    0.331    0.171   13.865
  476.750   80.449    0.332    0.196   14.679
  477.000   76.783    0.329    0.216   15.494
  477.250   77.387    0.338    0.214   16.064
  477.500   81.648    0.348    0.195   14.846
  477.750   84.692    0.356    0.176   13.465
  478.000   90.171    0.358    0.182   11.922
  478.250   93.825    0.361    0.195   10.623
  478.500   96.870    0.361    0.189   10.055
  478.750  104.180    0.361    0.189    9.813
  479.000  107.833    0.362    0.192    9.733
  479.250  107.827    0.362    0.188    9.734
  479.500  107.820    0.362    0.184    9.655
  479.750  109.035    0.362    0.182    9.412
  480.000  111.468    0.363    0.192    9.088
  480.250  111.462    0.367    0.200    8.683
  480.500  109.626    0.372    0.195    8.196
  480.750  113.279    0.378    0.189    8.035
  481.000  119.979    0.388    0.192    8.281
  481.250  126.681    0.393    0.186    8.689
  481.500  127.284    0.393    0.175    9.178
  481.750  116.303    0.392    0.159   10.074
  482.000  109.589    0.388    0.151   11.376
  482.250  107.144    0.379    0.154   12.841
  482.500  108.357    0.367    0.165   14.387
  482.750  113.839    0.356    0.176   16.015
  483.000  117.492    0.350    0.191   24.755
  483.250  110.779    0.347    0.203   24.836
  483.500   99.797    0.358    0.219   24.901
  483.750   92.474    0.369    0.267   24.175
  484.000   88.808    0.382    0.243   23.424
  484.250   89.413    0.374    0.227   22.663
  484.500   91.234    0.366    0.204   18.302
  484.750   91.839    0.358    0.196   18.059
  485.000   89.394    0.349    0.213   18.711
  485.250   86.340    0.347    0.223   19.444
  485.500   85.723    0.345    0.213   19.771
  485.750   85.716    0.338    0.202   19.691
  486.000   83.882    0.325    0.197   19.611
  486.250   80.218    0.313    0.187   19.694
  486.500   79.602    0.306    0.180   19.695
  486.750   80.816    0.302    0.194   19.778
  487.000   84.468    0.318    0.201   19.779
  487.250   87.511    0.338    0.214   19.781
  487.500   84.454    0.355    0.221   19.213
  487.750   83.840    0.366    0.224   18.808
  488.000   86.880    0.360    0.217   19.379
  488.250   88.706    0.340    0.215   26.056
  488.500   91.749    0.316    0.228   29.447
  488.750   91.133    0.298    0.244   33.660
  489.000   81.370    0.290    0.272   41.131
  489.250   63.072    0.313    0.284   46.166
  489.500   53.309    0.339    0.284   47.947
  489.750   50.254    0.348    0.279   45.639
  490.000   54.516    0.349    0.278   40.093
  490.250   61.217    0.350    0.277   32.125
  490.500   66.089    0.351    0.266   26.575
  490.750   70.352    0.361    0.247   11.345
  491.000   77.662    0.370    0.219    8.745
  491.250   85.583    0.398    0.202    6.795
  491.500   95.944    0.441    0.158    5.577
  491.750  113.011    0.462    0.125    5.172
  492.000  130.688    0.469    0.108    5.499
  492.250  130.071    0.452    0.105    6.313
  492.500  123.357    0.431    0.133    7.697
  492.750  120.303    0.369    0.163   12.170
  493.000  115.420    0.338    0.221   34.136
  493.250   97.120    0.321    0.245  112.917
  493.500   89.188    0.312    0.263  129.134
  493.750   69.059    0.306    0.270  136.403
  494.000   59.297    0.321    0.270  129.848
  494.250   58.681    0.336    0.282  121.677
  494.500   62.334    0.342    0.287  111.062
  494.750   67.814    0.345    0.294   97.195
  495.000   71.467    0.349    0.292   86.575
  495.250   72.681    0.352    0.277   79.225
  495.500   72.675    0.354    0.271   67.792
  495.750   74.497    0.358    0.270   57.996
  496.000   76.931    0.364    0.264   50.638
  496.250   80.582    0.360    0.254   40.824
  496.500   82.406    0.352    0.233   36.729
  496.750   83.620    0.344    0.207   29.362
  497.000   83.004    0.339    0.204    1.787
  497.250   83.608    0.337    0.213   12.359
  497.500   86.040    0.334    0.222   11.140
  497.750   90.302    0.341    0.189   10.085
  498.000   96.392    0.359    0.170    9.111
  498.250  103.094    0.374    0.148    8.543
  498.500  107.968    0.382    0.132    8.219
  498.750  114.058    0.405    0.135    8.058
  499.000  117.103    0.403    0.142    8.060
  499.250  119.536    0.394    0.144    8.142
  499.500  118.309    0.384    0.147    8.387
  499.750  112.815    0.376    0.147    8.714
  500.000  114.028    0.375    0.162    9.285
  500.250  115.243    0.371    0.172    9.611
  500.500  117.673    0.370    0.191   10.182
  500.750  118.888    0.373    0.193   10.915
  501.000  119.492    0.370    0.188   11.730
  501.250  115.827    0.358    0.189   12.463
  501.500  106.066    0.351    0.189   13.765
  501.750   95.694    0.346    0.185   15.393
  502.000   93.858    0.341    0.195   17.264
  502.250   95.072    0.336    0.216   18.729
  502.500   88.358    0.333    0.231   19.787
  502.750   80.426    0.332    0.242   19.870
  503.000   76.151    0.337    0.252   19.221
  503.250   78.581    0.346    0.225   21.184
  503.500   81.015    0.341    0.198   22.064
  503.750   82.840    0.337    0.176   24.608
  504.000   85.882    0.337    0.199   26.298
  504.250   87.097    0.338    0.220   28.014
  504.500   82.212    0.350    0.241   27.291
  504.750   74.279    0.363    0.252   25.736
  505.000   72.443    0.374    0.251   15.574
  505.250   77.314    0.384    0.248   12.079
  505.500   86.455    0.385    0.243   10.211
  505.750   99.254    0.377    0.228    9.399
  506.000  109.615    0.375    0.211    9.075
  506.250  119.974    0.372    0.179   10.459
  506.500  124.237    0.362    0.139   13.387
  506.750  118.743    0.357    0.160   24.490
  507.000  107.151    0.350    0.179   34.286
  507.250   93.730    0.345    0.210   40.816
  507.500   79.090    0.341    0.233   43.265
  507.750   68.717    0.343    0.251   43.265
  508.000   58.956    0.348    0.261   40.000
  508.250   52.852    0.351    0.263   34.286
  508.500   52.236    0.357    0.261   20.229
  508.750   52.230    0.362    0.254   17.384
  509.000   57.708    0.363    0.258   13.321
  509.250   60.142    0.357    0.253   11.208
  509.500   61.966    0.352    0.247    9.990
  509.750   63.182    0.347    0.251    9.178
  510.000   55.858    0.345    0.254    8.367
  510.250   50.972    0.342    0.257    8.043
  510.500   49.138    0.342    0.243    8.044
  510.750   54.618    0.346    0.239    8.046
  511.000   59.491    0.357    0.228    8.047
  511.250   63.755    0.362    0.210    8.130
  511.500   69.237    0.365    0.203    8.132
  511.750   74.718    0.361    0.203    8.133
  512.000   78.979    0.361    0.203    8.134
  512.250   80.804    0.361    0.204    8.055
  512.500   84.455    0.367    0.199    7.893
  512.750   87.498    0.371    0.196    7.732
  513.000   86.883    0.373    0.191    7.490
  513.250   88.704    0.373    0.181    7.247
  513.500   91.748    0.372    0.175    7.086
  513.750   94.791    0.368    0.166    7.006
  514.000   94.786    0.361    0.163    6.926
  514.250   89.291    0.354    0.180    6.847
  514.500   83.795    0.347    0.191    6.848
  514.750   81.353    0.343    0.199    6.850
  515.000   80.127    0.341    0.182    6.933
  515.250   79.511    0.341    0.157    7.015
  515.500   79.505    0.341    0.142    7.098
  515.750   83.766    0.340    0.138    7.018
  516.000   89.857    0.338    0.153    7.019
  516.250   95.949    0.335    0.152    6.777
  516.500  102.650    0.337    0.148    6.209
  516.750  107.523    0.339    0.165    5.885
  517.000  111.176    0.346    0.179    4.992
  517.250  105.681    0.353    0.193    4.506
