~VERSION INFORMATION
 VERS.                 2.0:   CWLS LOG ASCII STANDARD -VERSION 2.0
 WRAP.                  NO:   ONE LINE PER DEPTH STEP
~WELL INFORMATION BLOCK
#MNEM.UNIT           DATA                    DESCRIPTION OF MNEMONIC
#---------    -------------------            -------------------------------
# Generated from Intellog Unique Number	CS_69_70/WELL/699
NULL.         -999.25                        : NULL_VALUE
WELL.         HUSKY AEC FISHER               : Well_name    - WELL              
LOC .         00/05-09-070-05W4/0            : Location     - LOCATION          
UWI .         00/05-09-070-05W4/0            : Uwi          - UNIQUE WELL ID    
ENTR.         SP                             : Entered      - ENTERED BY        
SRVC.         SCHLUMBERGER                   : Scn          - SERVICE COMPANY   
STRT.M        315                            : top_depth    - START DEPTH       
STOP.M        545                            : bot_depth    - STOP DEPTH        
STEP.M        0.25                           : increment    - STEP LENGTH       
~CURVE INFORMATION BLOCK
#MNEM UNIT       ERCB CURVE CODE    CURVE DESCRIPTION
#-----------   ------------------   ----------------------------------
DEPT.M        00 001 00 00         : DEPTH        - DEPTH                       
ILD .OHMM     00 120 00 00         : RESD         - DEEP RESISTIVITY (DIL)      
DPHI.V/V      00 890 00 00         : PHID         - DENSITY POROSITY (SANDSTONE)
NPHI.V/V      00 330 00 00         : PHIN         - NEUTRON POROSITY (SANDSTONE)
GR  .API      00 310 00 00         : GR           - GAMMA RAY                   
~PARAMETER INFORMATION       
#MNEM.UNIT           DATA             DESCRIPTION OF MNEMONIC
#---------         -----------     ------------------------------
GL  .M        678.3                : gl           - GROUND LEVEL ELEVATION      
EREF.M        682                  : kb           - ELEVATION OF DEPTH REFERENCE
DATM.M        678.3                : datum        - DATUM ELEVATION             
TDD .M        551.5                : tdd          - TOTAL DEPTH DRILLER         
RUN .         ONE                  : Run          - RUN NUMBER                  
ENG .         BILL                 : Engineer     - RECORDING ENGINEER          
WIT .         JIM                  : Witness      - WITNESSED BY                
MUD .         GEL                  : Mud_type     - MUD TYPE                    
MATR.         SANDSTONE            : Logunit      - NEUTRON MATRIX              
TMAX.C        25                   : BHT          - MAXIMUM RECORDED TEMPERATURE
BHTD.M        551.5                : BHTDEP       - MAXIMUM RECORDED TEMPERATURE
MATR.         1                    : LOGUNIT      - NEUTRON MATRIX              
RMT .C        25                   : MDTP         - TEMPERATURE OF MUD          
NEUT.         1                    : NEUTRON      - NEUTRON TYPE                
RESI.         0                    : RESIST       - RESISTIVITY TYPE            
RMC .OHMM     0.25                 : RMC          - RESISTIVITY OF MUD CAKE     
RMF .OHMM     0.25                 : RMF          - RESISTIVITY OF MUD FILTRATE 
SUFT.C        15                   : SUFT         - SURFACE TEMPERATURE         
~A  DEPTH     RESD     PHID     PHIN       GR
  315.000    3.354    0.254    0.490  -18.064
  315.250    3.172    0.246    0.484   92.177
  315.500    3.171    0.239    0.493   92.188
  315.750    3.480    0.235    0.502   90.391
  316.000    3.611    0.236    0.510   94.619
  316.250    3.679    0.214    0.517   89.207
  316.500    3.678    0.201    0.525   83.194
  316.750    3.677    0.188    0.517   81.395
  317.000    3.609    0.193    0.523   86.225
  317.250    3.412    0.240    0.503   89.246
  317.500    3.287    0.243    0.497   92.870
  317.750    3.476    0.255    0.489   93.483
  318.000    3.540    0.256    0.477   95.903
  318.250    3.540    0.250    0.501   97.118
  318.500    3.539    0.243    0.530   93.513
  318.750    3.473    0.247    0.556   93.529
  319.000    3.538    0.249    0.573   94.740
  319.250    3.537    0.255    0.501   93.543
  319.500    3.537    0.222    0.481   91.144
  319.750    3.536    0.216    0.473   89.349
  320.000    3.536    0.228    0.470   90.565
  320.250    3.602    0.244    0.489   90.571
  320.500    3.601    0.244    0.507   89.377
  320.750    3.601    0.230    0.458   95.411
  321.000    3.600    0.218    0.444   99.638
  321.250    3.533    0.210    0.463   94.830
  321.500    3.341    0.210    0.477   92.429
  321.750    3.159    0.218    0.486   90.032
  322.000    3.043    0.232    0.492   89.438
  322.250    3.277    0.239    0.504   90.051
  322.500    3.530    0.247    0.531   91.866
  322.750    4.021    0.264    0.544   90.673
  323.000    5.027    0.276    0.416   82.248
  323.250    6.523    0.287    0.369   75.030
  323.500    8.004    0.317    0.410   71.427
  323.750    9.464    0.352    0.445   69.630
  324.000   11.399    0.291    0.479   70.241
  324.250   13.476    0.239    0.372   72.660
  324.500   15.066    0.196    0.347   73.273
  324.750   16.228    0.146    0.315   63.646
  325.000   16.842    0.220    0.258   58.233
  325.250   13.467    0.261    0.283   62.462
  325.500   10.769    0.277    0.319   71.508
  325.750    9.452    0.290    0.332   78.143
  326.000    8.772    0.237    0.339   81.767
  326.250    8.450    0.240    0.355   80.573
  326.500    7.990    0.261    0.364   79.379
  326.750    7.696    0.277    0.388   79.991
  327.000    8.446    0.285    0.393   81.205
  327.250    8.289    0.285    0.393   83.625
  327.500    8.135    0.286    0.403   84.839
  327.750    8.287    0.287    0.399   83.644
  328.000    8.600    0.284    0.413   87.270
  328.250    8.439    0.280    0.421   90.290
  328.500    8.130    0.283    0.399   93.312
  328.750    7.545    0.286    0.386   92.720
  329.000    7.003    0.288    0.377   98.753
  329.250    6.746    0.276    0.370  104.185
  329.500    6.745    0.266    0.398  100.581
  329.750    7.401    0.249    0.417   96.977
  330.000    7.681    0.225    0.424   93.975
  330.250    7.824    0.220    0.383   91.576
  330.500    7.679    0.206    0.372   89.777
  330.750    7.822    0.189    0.398   92.802
  331.000    8.117    0.181    0.405   92.812
  331.250    8.269    0.189    0.398   91.615
  331.500    8.581    0.213    0.397   92.227
  331.750    8.579    0.234    0.402   94.046
  332.000    8.578    0.259    0.408  104.296
  332.250    8.419    0.275    0.424  114.546
  332.500    7.669    0.268    0.439  118.171
  332.750    6.731    0.196    0.418  107.940
  333.000    5.908    0.155    0.406  102.530
  333.250    5.382    0.116    0.418  103.142
  333.500    4.995    0.090    0.425  108.574
  333.750    4.811    0.116    0.443  113.403
  334.000    4.635    0.157    0.457  113.412
  334.250    4.382    0.178    0.476  113.422
  334.500    4.143    0.193    0.489  116.448
  334.750    3.991    0.199    0.506  118.866
  335.000    3.774    0.202    0.518  121.284
  335.250    3.569    0.203    0.514  118.282
  335.500    3.437    0.207    0.505  119.498
  335.750    3.437    0.213    0.497  122.520
  336.000    3.702    0.224    0.501  124.336
  336.250    4.296    0.235    0.502  119.527
  336.500    5.371    0.227    0.474  110.501
  336.750    5.894    0.189    0.441  106.897
  337.000    6.713    0.161    0.413  105.702
  337.250    7.367    0.210    0.466   85.832
  337.500    7.646    0.252    0.396   56.927
  337.750    8.083    0.285    0.362   38.866
  338.000    8.234    0.310    0.342   29.237
  338.250    7.932    0.331    0.348   32.861
  338.500    7.931    0.330    0.338   38.898
  338.750    7.783    0.327    0.327   45.534
  339.000    7.638    0.325    0.358   52.774
  339.250    7.496    0.325    0.385   56.395
  339.500    7.495    0.330    0.391   58.815
  339.750    7.634    0.334    0.389   59.426
  340.000    7.923    0.330    0.383   59.440
  340.250    8.070    0.321    0.388   59.447
  340.500    8.375    0.318    0.391   63.073
  340.750    8.532    0.311    0.393   66.698
  341.000    8.691    0.306    0.395   69.115
  341.250    8.853    0.303    0.394   56.474
  341.500    8.852    0.302    0.387   64.315
  341.750    8.850    0.283    0.353   82.399
  342.000    8.525    0.268    0.330   86.024
  342.250    8.212    0.248    0.364   81.817
  342.500    8.060    0.238    0.385   50.501
  342.750    8.210    0.279    0.394   43.886
  343.000    8.362    0.327    0.375   47.512
  343.250    8.518    0.314    0.364   54.751
  343.500    8.518    0.298    0.369   61.989
  343.750    8.676    0.277    0.377   67.418
  344.000    8.515    0.263    0.372   71.647
  344.250    8.202    0.271    0.368   73.462
  344.500    7.901    0.292    0.374   67.448
  344.750    7.754    0.303    0.384   62.037
  345.000    7.609    0.320    0.396   61.447
  345.250    7.608    0.329    0.392   62.660
  345.500    7.750    0.323    0.386   65.081
  345.750    8.505    0.318    0.395   64.487
  346.000    8.664    0.308    0.415   63.292
  346.250    8.825    0.302    0.386   72.342
  346.500    8.990    0.279    0.362   75.360
  346.750    9.158    0.242    0.349   78.984
  347.000    9.156    0.232    0.368   82.009
  347.250    9.154    0.235    0.370   83.224
  347.500    9.153    0.245    0.361   79.016
  347.750    9.499    0.255    0.370   74.205
  348.000    9.858    0.259    0.366   69.397
  348.250   10.230    0.242    0.358   64.586
  348.500   10.421    0.160    0.348   65.802
  348.750   10.227    0.201    0.366   70.633
  349.000    9.670    0.234    0.401   73.654
  349.250    9.143    0.279    0.412   75.470
  349.500    8.808    0.278    0.412   78.492
  349.750    8.328    0.271    0.411   83.323
  350.000    8.022    0.267    0.414   88.758
  350.250    7.728    0.256    0.418   91.173
  350.500    7.172    0.252    0.422   95.400
  350.750    6.656    0.242    0.424   95.412
  351.000    6.412    0.231    0.440   99.640
  351.250    6.411    0.231    0.440  103.261
  351.500    6.292    0.227    0.431  106.886
  351.750    6.291    0.223    0.440  108.702
  352.000    6.529    0.217    0.457  106.307
  352.250    6.650    0.219    0.445  105.711
  352.500    6.902    0.228    0.439   99.095
  352.750    7.162    0.239    0.415   94.287
  353.000    7.161    0.244    0.413   95.501
  353.250    7.160    0.238    0.446   97.921
  353.500    6.897    0.215    0.462   97.931
  353.750    6.896    0.206    0.452   96.736
  354.000    6.895    0.218    0.465   94.339
  354.250    6.894    0.223    0.482   92.538
  354.500    6.893    0.222    0.470   89.536
  354.750    6.892    0.220    0.462   91.959
  355.000    6.891    0.223    0.461   93.773
  355.250    7.019    0.237    0.460   96.796
  355.500    7.560    0.247    0.470   98.615
  355.750    7.846    0.251    0.479   99.228
  356.000    8.451    0.249    0.446   98.635
  356.250    8.609    0.249    0.415   93.224
  356.500    8.934    0.263    0.400   91.423
  356.750    9.101    0.276    0.388   87.219
  357.000    9.100    0.282    0.383   86.625
  357.250    8.930    0.274    0.403   89.049
  357.500    8.764    0.265    0.396   90.258
  357.750    8.601    0.257    0.391   88.465
  358.000    8.599    0.253    0.383   87.871
  358.250    8.599    0.248    0.380   90.291
