~VERSION INFORMATION
 VERS.                 2.0:   CWLS LOG ASCII STANDARD -VERSION 2.0
 WRAP.                  NO:   ONE LINE PER DEPTH STEP
~WELL INFORMATION BLOCK
#MNEM.UNIT           DATA                    DESCRIPTION OF MNEMONIC
#---------    -------------------            -------------------------------
# Generated from Intellog Unique Number	CW_70_72/WELL/2903
NULL.         -999.25                        : NULL_VALUE
WELL.         PETROMA ET AL RICHMOND         : Well_name    - WELL              
LOC .         07-14-070-19W4                 : Location     - LOCATION          
UWI .         00/07-14-070-19W4/0            : Uwi          - UNIQUE WELL ID    
ENTR.         MAX                            : Entered      - ENTERED BY        
SRVC.         SCHLUMBERGER                   : Scn          - SERVICE COMPANY   
DATE.         07 FEB 76                      : Date         - LOG DATE
STRT.M        335.28                         : top_depth    - START DEPTH       
STOP.M        487.78                         : bot_depth    - STOP DEPTH        
STEP.M        0.25                           : increment    - STEP LENGTH       
~CURVE INFORMATION BLOCK
#MNEM UNIT       ERCB CURVE CODE    CURVE DESCRIPTION
#-----------   ------------------   ----------------------------------
DEPT.M        00 001 00 00         : DEPTH        - DEPTH                       
ILD .OHMM     00 120 00 00         : RESD         - DEEP RESISTIVITY (DIL)      
NPHI.V/V      00 330 00 00         : PHIN         - NEUTRON POROSITY (SANDSTONE)
DPHI.V/V      00 890 00 00         : PHID         - DENSITY POROSITY (SANDSTONE)
CALI.MM       00 280 01 00         : CAL          - CALIPER                     
GR  .API      00 310 00 00         : GR           - GAMMA RAY                   
~PARAMETER INFORMATION       
#MNEM.UNIT           DATA             DESCRIPTION OF MNEMONIC
#---------         -----------     ------------------------------
GL  .M        560.497              : gl           - GROUND LEVEL ELEVATION      
EREF.M        564.185              : kb           - ELEVATION OF DEPTH REFERENCE
DATM.M        560.497              : datum        - DATUM ELEVATION             
TDD .M        513.893              : tdd          - TOTAL DEPTH DRILLER         
RUN .         ONE                  : Run          - RUN NUMBER                  
ENG .         BILL                 : Engineer     - RECORDING ENGINEER          
WIT .         JIM                  : Witness      - WITNESSED BY                
MUD .         GEL                  : Mud_type     - MUD TYPE                    
MATR.         SANDSTONE            : Logunit      - NEUTRON MATRIX              
TMAX.C        23.8889              : BHT          - MAXIMUM RECORDED TEMPERATURE
BHTD.M        513.893              : BHTDEP       - MAXIMUM RECORDED TEMPERATURE
RMT .C        18.8889              : MDTP         - TEMPERATURE OF MUD          
MUDD.KG/M     9900                 : MWT          - MUD DENSITY                 
NEUT.         1                    : NEUTRON      - NEUTRON TYPE                
RESI.         0                    : RESIST       - RESISTIVITY TYPE            
RM  .OHMM     3.74                 : RM           - RESISTIVITY OF MUD          
RMC .OHMM     1.86                 : RMC          - RESISTIVITY OF MUD CAKE     
RMF .OHMM     2.12                 : RMF          - RESISTIVITY OF MUD FILTRATE 
SUFT.C        -12.2222             : SUFT         - SURFACE TEMPERATURE         
~A  DEPTH     RESD     PHIN     PHID      CAL       GR
# ...
  371.780    4.408    0.441    0.302  146.927   69.608
  372.030    3.813    0.432    0.301  146.927   71.119
  372.280    3.677    0.435    0.304  146.925   72.328
  372.530    3.644    0.436    0.304  146.924   71.720
  372.780    3.711    0.436    0.304  147.954   70.205
  373.030    3.779    0.435    0.304  148.983   72.927
  373.280    3.779    0.432    0.300  150.012   74.438
  373.530    3.779    0.429    0.297  150.011   73.528
  373.780    3.780    0.425    0.291  149.495   72.012
  374.030    3.780    0.423    0.280  148.978   74.432
  374.280    3.613    0.440    0.234  148.977   83.813
  374.530    3.360    0.459    0.215  149.491   91.377
  374.780    3.211    0.463    0.189  150.005   97.731
  375.030    3.241    0.472    0.227  150.004   96.518
  375.280    3.391    0.487    0.244  149.488   93.490
  375.530    3.713    0.499    0.257  148.971   90.763
  375.780    3.992    0.513    0.285  147.940   87.432
  376.030    4.293    0.443    0.314  146.908   84.403
  376.280    4.411    0.422    0.288  146.391   81.374
  376.530    4.574    0.430    0.280  146.905   80.767
  376.780    4.743    0.446    0.282  147.935   80.764
  377.030    4.700    0.443    0.281  148.449   79.855
  377.280    4.452    0.436    0.286  148.448   78.944
  377.530    4.141    0.431    0.286  148.447   79.850
  377.780    3.922    0.433    0.274  147.930   79.545
  378.030    3.817    0.433    0.271  147.929   75.608
  378.280    3.887    0.420    0.267  148.958   72.882
  378.530    4.030    0.386    0.244  149.472   73.183
  378.780    4.535    0.346    0.206  149.471   76.208
  379.030    4.702    0.320    0.140  149.986   82.259
  379.280    4.832    0.364    0.165  150.500   88.613
  379.530    4.745    0.459    0.254  151.014   91.940
  379.780    4.454    0.451    0.253  151.013   90.122
  380.030    4.105    0.457    0.255  151.012   87.093
  380.280    3.853    0.448    0.256  150.495   83.459
  380.530    3.784    0.428    0.263  150.494   87.089
  380.780    3.819    0.434    0.257  149.978   89.811
  381.030    4.032    0.436    0.255  148.945   87.690
  381.280    4.069    0.420    0.256  148.944   85.872
  381.530    4.181    0.418    0.258  148.428   85.869
  381.780    4.258    0.426    0.256  147.912   85.565
  382.030    4.182    0.438    0.256  146.364   84.352
  382.280    4.070    0.450    0.261  145.332   82.837
  382.530    3.925    0.447    0.270  145.331   79.808
  382.780    3.684    0.437    0.287  145.846   76.476
  383.030    3.553    0.434    0.289  147.390   78.896
  383.280    3.427    0.445    0.275  149.966   82.525
  383.530    3.365    0.463    0.278  150.995   81.313
  383.780    3.365    0.447    0.291  150.994   82.219
  384.030    3.427    0.433    0.291  150.993   82.519
  384.280    3.522    0.427    0.290  150.992   82.214
  384.530    3.586    0.421    0.290  150.991   84.331
  384.780    3.619    0.417    0.287  150.990   89.474
  385.030    3.652    0.413    0.280  151.504   97.644
  385.280    3.619    0.409    0.268  153.048  103.999
  385.530    3.587    0.423    0.247  155.108  112.471
  385.780    3.428    0.442    0.228  158.199  112.469
  386.030    3.189    0.445    0.221  159.744  105.506
  386.280    2.993    0.448    0.267  156.136   97.029
  386.530    2.835    0.514    0.309  161.803   94.908
  386.780    2.784    0.530    0.290  164.379   93.392
  387.030    2.809    0.506    0.337  164.377   92.179
  387.280    2.861    0.457    0.343  158.192   90.361
  387.530    3.621    0.442    0.297  153.553   90.359
  387.780    4.037    0.435    0.268  152.521   91.265
  388.030    4.263    0.431    0.245  152.004   91.263
  388.280    4.420    0.436    0.231  152.004   91.564
  388.530    4.381    0.420    0.258  151.487   92.167
  388.780    4.187    0.421    0.260  151.486   93.980
  389.030    4.001    0.425    0.236  151.485   94.281
  389.280    4.112    0.421    0.223  151.484   91.555
  389.530    4.543    0.390    0.210  151.483   81.262
  389.780    5.205    0.329    0.175  151.997   71.574
  390.030    5.963    0.264    0.152  151.996   74.296
  390.280    6.296    0.292    0.054  151.479   83.980
  390.530    6.240    0.353    0.094  151.993   92.755
  390.780    5.856    0.413    0.169  151.992   94.871
  391.030    5.497    0.422    0.221  151.991   96.685
  391.280    5.021    0.433    0.258  152.505   98.802
  391.530    4.586    0.433    0.250  153.019  103.340
  391.780    4.423    0.427    0.224  153.534  103.943
  392.030    4.423    0.429    0.204  153.532  101.520
  392.280    4.586    0.429    0.217  153.016   97.886
  392.530    4.799    0.431    0.230  152.499   97.278
  392.780    4.932    0.433    0.217  152.498   95.460
  393.030    4.932    0.424    0.213  153.012   99.998
  393.280    4.932    0.421    0.208  153.526  105.747
  393.530    4.932    0.426    0.195  154.040  108.771
  393.780    4.933    0.435    0.191  154.040  107.861
  394.030    4.978    0.432    0.179  154.553  106.648
  394.280    5.069    0.425    0.184  154.553  104.528
  394.530    5.115    0.430    0.188  154.036  103.315
  394.780    5.116    0.436    0.186  153.520  103.312
  395.030    5.116    0.434    0.186  151.973  101.494
  395.280    5.116    0.441    0.182  150.940  101.795
  395.530    5.116    0.434    0.181  150.939  100.279
  395.780    5.116    0.426    0.191  150.938   97.553
  396.030    5.210    0.429    0.186  151.452   92.709
  396.280    5.602    0.385    0.153  151.966   87.864
  396.530    5.969    0.323    0.116  151.965   82.413
  396.780    6.477    0.240    0.063  152.480   75.752
  397.030    7.221    0.235    0.035  152.478   77.869
  397.280    7.488    0.257    0.036  152.477   86.039
  397.530    7.625    0.327    0.123  152.476   96.933
  397.780    7.157    0.385    0.161  152.475  101.471
  398.030    6.191    0.403    0.174  151.958  103.588
  398.280    4.591    0.431    0.188  151.957  104.493
  398.530    3.563    0.434    0.189  151.956  108.729
  398.780    3.531    0.419    0.188  151.955  110.543
  399.030    3.661    0.421    0.190  152.469  107.211
  399.280    4.082    0.417    0.193  151.953  102.064
  399.530    4.719    0.412    0.190  151.952   99.943
  399.780    4.893    0.414    0.198  151.950  100.546
  400.030    4.893    0.427    0.208  151.434  100.544
  400.280    4.894    0.434    0.207  151.948   97.515
  400.530    4.763    0.448    0.208  152.462   93.881
  400.780    4.635    0.446    0.217  151.946   91.760
  401.030    4.470    0.433    0.225  150.914   91.455
  401.280    4.390    0.436    0.234  150.397   90.242
  401.530    4.234    0.440    0.236  150.396   92.359
  401.780    4.158    0.437    0.232  150.395   98.108
  402.030    3.938    0.436    0.238  149.879  101.435
  402.280    3.730    0.420    0.263  148.331   99.011
  402.530    3.630    0.418    0.268  147.300   93.561
  402.780    3.630    0.434    0.261  146.783   88.716
  403.030    3.765    0.432    0.247  146.782   84.174
  403.280    4.513    0.400    0.222  147.296   81.145
  403.530    4.765    0.353    0.197  148.325   78.116
  403.780    5.977    0.277    0.139  148.840   75.693
  404.030    6.910    0.272    0.097  149.354   76.296
  404.280    8.283    0.268    0.093  149.353   77.505
  404.530   10.203    0.263    0.091  149.352   78.107
  404.780   10.580    0.262    0.086  149.866   78.409
  405.030    9.663    0.256    0.087  150.380   79.012
  405.280    8.062    0.372    0.109  150.379   82.339
  405.530    5.561    0.442    0.211  149.347   82.337
  405.780    4.988    0.453    0.257  148.831   81.426
  406.030    4.237    0.454    0.267  147.283   79.609
  406.280    3.836    0.452    0.264  145.736   79.001
  406.530    3.633    0.439    0.262  143.674   79.907
  406.780    3.504    0.425    0.262  142.642   82.024
  407.030    3.379    0.441    0.262  144.702   82.930
  407.280    3.259    0.447    0.269  147.278   86.257
  407.530    3.230    0.433    0.264  147.276   86.557
  407.780    3.259    0.431    0.259  147.791   86.555
  408.030    3.349    0.441    0.258  148.820   88.066
