~VERSION INFORMATION
 VERS.                 2.0:   CWLS LOG ASCII STANDARD -VERSION 2.0
 WRAP.                  NO:   ONE LINE PER DEPTH STEP
~WELL INFORMATION BLOCK
#MNEM.UNIT           DATA                    DESCRIPTION OF MNEMONIC
#---------    -------------------            -------------------------------
# Generated from Intellog Unique Number	CS_71_72/WELL/641
WELL.         MAYUNARD ET AL BEHAN           : Well_name    - WELL
LOC .         00/04-21-072-11W4/0            : Location     - LOCATION
UWI .         00/04-21-072-11W4/0            : Uwi          - UNIQUE WELL ID
ENTR.         SP                             : Entered      - ENTERED BY
SRVC.         SCHLUMBERGER                   : Scn          - SERVICE COMPANY
STRT.M        300                            : top_depth    - START DEPTH
STOP.M        522.5                          : bot_depth    - STOP DEPTH
STEP.M        0.25                           : increment    - STEP LENGTH
 NULL. -999.2500:NULL Value
~CURVE INFORMATION BLOCK
#MNEM UNIT       ERCB CURVE CODE    CURVE DESCRIPTION
#-----------   ------------------   ----------------------------------
DEPT.M        00 001 00 00         : DEPTH        - DEPTH
ILD .OHMM     00 120 00 00         : RESD         - DEEP RESISTIVITY (DIL)
DPHI.V/V      00 890 00 00         : PHID         - DENSITY POROSITY (LIMESTONE)
NPHI.V/V      00 330 00 00         : PHIN         - NEUTRON POROSITY (LIMESTONE)
GR  .API      00 310 00 00         : GR           - GAMMA RAY
~PARAMETER INFORMATION
#MNEM.UNIT           DATA             DESCRIPTION OF MNEMONIC
#---------         -----------     ------------------------------
GL  .M        645.8                : gl           - GROUND LEVEL ELEVATION
EREF.M        649.15               : kb           - ELEVATION OF DEPTH REFERENCE
DATM.M        645.8                : datum        - DATUM ELEVATION
TDD .M        530                  : tdd          - TOTAL DEPTH DRILLER
RUN .         ONE                  : Run          - RUN NUMBER
ENG .         BILL                 : Engineer     - RECORDING ENGINEER
WIT .         JIM                  : Witness      - WITNESSED BY
MUD .         GEL                  : Mud_type     - MUD TYPE
MATR.         LIMESTONE            : Logunit      - NEUTRON MATRIX
TMAX.C        29                   : BHT          - MAXIMUM RECORDED TEMPERATURE
BHTD.M        530                  : BHTDEP       - MAXIMUM RECORDED TEMPERATURE
MATR.         1                    : LOGUNIT      - NEUTRON MATRIX
RMT .C        25                   : MDTP         - TEMPERATURE OF MUD
NEUT.         1                    : NEUTRON      - NEUTRON TYPE
RESI.         0                    : RESIST       - RESISTIVITY TYPE
RMC .OHMM     0.25                 : RMC          - RESISTIVITY OF MUD CAKE
RMF .OHMM     0.25                 : RMF          - RESISTIVITY OF MUD FILTRATE
SUFT.C        15                   : SUFT         - SURFACE TEMPERATURE
~A  DEPTH     RESD     PHID     PHIN       GR
# ...
  474.000    7.388    0.207    0.426  100.550
  474.250    7.552    0.212    0.421   95.137
  474.500    7.876    0.220    0.415   95.146
  474.750    8.040    0.219    0.410  100.578
  475.000    8.608    0.222    0.416  104.805
  475.250    8.851    0.225    0.397   96.380
  475.500    9.257    0.227    0.388   85.546
  475.750    9.581    0.230    0.372   76.520
  476.000    9.905    0.242    0.365   74.118
  476.250   10.311    0.249    0.371   74.732
  476.500   10.315    0.256    0.384   77.152
  476.750   10.078    0.249    0.390   78.967
  477.000    9.760    0.245    0.396   83.796
  477.250    9.282    0.240    0.394   87.421
  477.500    9.045    0.235    0.387   89.235
  477.750    9.289    0.239    0.373   80.814
  478.000   10.096    0.246    0.366   74.797
  478.250   11.143    0.256    0.350   69.383
  478.500   12.835    0.256    0.343   66.381
  478.750   13.721    0.250    0.339   68.799
  479.000   14.528    0.246    0.373   71.222
  479.250   15.014    0.255    0.393   71.228
  479.500   15.178    0.257    0.401   70.034
  479.750   14.137    0.246    0.405   71.249
  480.000   12.936    0.234    0.397   76.077
  480.250   11.735    0.222    0.391   82.715
  480.500   10.696    0.216    0.379   87.543
  480.750   10.136    0.210    0.371   88.153
  481.000    9.578    0.199    0.357   83.947
  481.250   10.305    0.216    0.347   79.138
  481.500   11.513    0.230    0.339   74.928
  481.750   13.042    0.246    0.331   70.118
  482.000   14.814    0.264    0.332   67.116
  482.250   15.942    0.279    0.375   67.732
  482.500   17.230    0.275    0.400   68.339
  482.750   18.198    0.269    0.408   67.144
  483.000   17.077    0.258    0.414   67.758
  483.250   14.832    0.248    0.423   73.790
  483.500   12.426    0.242    0.432   83.440
  483.750    9.699    0.228    0.443   91.278
  484.000    7.132    0.193    0.462  110.567
  484.250    5.369    0.166    0.477  115.997
  484.500    4.890    0.155    0.494  113.598
  484.750    4.573    0.149    0.487  107.582
  485.000    4.577    0.162    0.455   97.954
  485.250    4.902    0.193    0.387   90.130
  485.500    5.307    0.234    0.320   79.898
  485.750    6.114    0.295    0.280   69.065
  486.000    7.082    0.307    0.272   55.820
  486.250    7.969    0.304    0.332   54.628
  486.500    9.258    0.294    0.364   58.853
  486.750   10.627    0.284    0.380   60.668
  487.000   11.916    0.282    0.386   59.472
  487.250   13.124    0.281    0.390   65.508
  487.500   14.091    0.280    0.394   66.720
  487.750   13.693    0.283    0.398   63.115
  488.000   11.930    0.283    0.397   63.126
  488.250   10.409    0.283    0.393   69.764
  488.500    9.769    0.292    0.393   72.783
  488.750    9.291    0.287    0.400   77.013
  489.000    9.134    0.259    0.404   78.826
  489.250    8.898    0.241    0.414   82.451
  489.500    8.820    0.226    0.419   83.061
  489.750    8.422    0.218    0.411   79.458
  490.000    7.783    0.219    0.398   76.458
  490.250    7.065    0.222    0.391   75.861
  490.500    6.746    0.221    0.387   83.102
  490.750    6.589    0.216    0.386   87.330
  491.000    6.514    0.208    0.385   88.540
  491.250    6.517    0.199    0.383   91.564
  491.500    6.681    0.191    0.383   94.583
  491.750    6.845    0.186    0.384  100.016
  492.000    6.849    0.181    0.389  103.642
  492.250    6.692    0.178    0.397  106.662
  492.500    6.534    0.182    0.401  107.875
  492.750    6.218    0.188    0.403  107.883
  493.000    6.061    0.194    0.403  108.495
  493.250    6.063    0.203    0.403  102.482
  493.500    6.067    0.205    0.400   91.646
  493.750    6.314    0.205    0.390   73.583
  494.000    6.396    0.194    0.384   72.388
  494.250    6.561    0.174    0.381   86.257
  494.500    6.565    0.165    0.381   91.082
  494.750    6.649    0.170    0.381   98.321
  495.000    6.654    0.179    0.382  101.342
  495.250    6.577    0.188    0.390  101.955
  495.500    6.581    0.198    0.401  100.758
  495.750    6.663    0.205    0.407   96.551
  496.000    6.667    0.208    0.402   92.948
  496.250    6.752    0.208    0.406   94.163
  496.500    6.675    0.176    0.411  101.398
  496.750    6.597    0.145    0.413  109.842
  497.000    6.441    0.132    0.413  114.671
  497.250    6.364    0.145    0.407  105.041
  497.500    6.447    0.161    0.395   94.210
  497.750    6.773    0.181    0.382   88.796
  498.000    7.178    0.203    0.370   83.986
  498.250    8.227    0.218    0.365   78.576
  498.500    8.954    0.219    0.353   74.365
  498.750    9.841    0.217    0.366   72.569
  499.000   10.326    0.207    0.374   75.589
  499.250   10.811    0.200    0.371   77.405
  499.500   11.136    0.201    0.366   73.199
  499.750   11.301    0.206    0.363   70.195
  500.000   11.545    0.208    0.368   72.014
  500.250   11.790    0.206    0.373   76.241
  500.500   12.196    0.199    0.379   77.452
  500.750   12.359    0.201    0.384   72.042
  501.000   12.604    0.204    0.378   70.845
  501.250   12.768    0.210    0.372   70.254
  501.500   12.611    0.218    0.384   67.851
  501.750   11.812    0.227    0.387   63.643
  502.000   10.691    0.231    0.373   54.015
  502.250    9.168    0.240    0.367   44.385
  502.500    6.280    0.263    0.361   34.155
  502.750    4.758    0.275    0.357   31.754
  503.000    3.799    0.298    0.372   30.557
  503.250    3.400    0.299    0.380   29.968
  503.500    3.003    0.278    0.379   31.785
  503.750    2.927    0.272    0.369   32.395
  504.000    2.850    0.280    0.362   33.608
  504.250    2.853    0.286    0.368   34.825
  504.500    2.779    0.287    0.371   34.836
  504.750    2.782    0.286    0.367   34.243
  505.000    2.786    0.283    0.357   33.044
  505.250    2.709    0.276    0.353   30.042
  505.500    2.712    0.271    0.348   29.448
  505.750    2.634    0.269    0.353   31.263
  506.000    2.557    0.270    0.368   36.697
  506.250    2.482    0.273    0.375   40.921
  506.500    2.404    0.279    0.381   48.767
  506.750    2.409    0.282    0.386   50.579
  507.000    2.492    0.282    0.386   46.979
  507.250    2.415    0.289    0.381   44.574
  507.500    2.419    0.301    0.380   34.342
  507.750    2.264    0.313    0.389   31.340
  508.000    2.185    0.319    0.398   29.541
  508.250    2.029    0.324    0.395   28.948
  508.500    1.952    0.324    0.388   28.958
  508.750    1.955    0.323    0.389   28.968
  509.000    1.960    0.331    0.384   28.377
  509.250    1.962    0.326    0.388   28.385
  509.500    2.129    0.316    0.399   28.995
  509.750    2.131    0.320    0.400   29.609
  510.000    2.216    0.314    0.395   30.221
  510.250    2.220    0.320    0.389   29.627
  510.500    2.221    0.325    0.384   29.639
  510.750    2.307    0.319    0.382   30.249
  511.000    2.311    0.311    0.381   31.462
  511.250    2.313    0.304    0.384   34.489
  511.500    2.317    0.298    0.382   35.100
  511.750    2.323    0.295    0.373   35.709
  512.000    2.325    0.298    0.366   35.115
  512.250    2.328    0.309    0.365   34.522
  512.500    2.252    0.314    0.371   34.532
  512.750    2.255    0.323    0.379   33.941
  513.000    2.259    0.324    0.391   34.552
  513.250    2.182    0.307    0.400   34.562
  513.500    2.106    0.302    0.400   35.174
  513.750    2.031    0.308    0.399   35.183
  514.000    2.034    0.314    0.394   34.587
  514.250    2.037    0.320    0.388   35.200
  514.500    2.040    0.319    0.385   38.825
  514.750    1.964    0.308    0.397   43.049
  515.000    1.969    0.302    0.401   46.675
  515.250    1.972    0.305    0.400   46.684
  515.500    1.975    0.310    0.397   43.077
  515.750    2.058    0.316    0.399   40.077
  516.000    2.062    0.317    0.401   42.494
  516.250    2.067    0.325    0.402   44.312
  516.500    2.070    0.330    0.400   37.697
  516.750    2.073    0.334    0.396   34.691
  517.000    2.078    0.336    0.401   32.293
  517.250    2.163    0.325    0.408   31.098
