~VERSION INFORMATION
 VERS.                 2.0:   CWLS LOG ASCII STANDARD -VERSION 2.0
 WRAP.                  NO:   ONE LINE PER DEPTH STEP
~WELL INFORMATION BLOCK
#MNEM.UNIT           DATA                    DESCRIPTION OF MNEMONIC
#---------    -------------------            -------------------------------
# Generated from Intellog Unique Number	CS_67_68/WELL/2165
WELL.         GEOG et al HYLO                : Well_name    - WELL
LOC .         00/06-03-067-14W4/0            : Location     - LOCATION
UWI .         00/06-03-067-14W4/0            : Uwi          - UNIQUE WELL ID
ENTR.         SP                             : Entered      - ENTERED BY
SRVC.         SCHLUMBERGER                   : Scn          - SERVICE COMPANY
STRT.M        335                            : top_depth    - START DEPTH
STOP.M        520                            : bot_depth    - STOP DEPTH
STEP.M        0.25                           : increment    - STEP LENGTH
 NULL. -999.2500:NULL Value
~CURVE INFORMATION BLOCK
#MNEM UNIT       ERCB CURVE CODE    CURVE DESCRIPTION
#-----------   ------------------   ----------------------------------
DEPT.M        00 001 00 00         : DEPTH        - DEPTH
ILD .OHMM     00 120 00 00         : RESD         - DEEP RESISTIVITY (DIL)
DPHI.V/V      00 890 00 00         : PHID         - DENSITY POROSITY (LIMESTONE)
NPHI.V/V      00 330 00 00         : PHIN         - NEUTRON POROSITY (LIMESTONE)
GR  .API      00 310 00 00         : GR           - GAMMA RAY
CALI.MM       00 280 01 00         : CAL          - CALIPER
~PARAMETER INFORMATION
#MNEM.UNIT           DATA             DESCRIPTION OF MNEMONIC
#---------         -----------     ------------------------------
GL  .M        598.4                : gl           - GROUND LEVEL ELEVATION
EREF.M        601.36               : kb           - ELEVATION OF DEPTH REFERENCE
DATM.M        601.36               : datum        - DATUM ELEVATION
TDD .M        520                  : tdd          - TOTAL DEPTH DRILLER
RUN .         ONE                  : Run          - RUN NUMBER
ENG .         BILL                 : Engineer     - RECORDING ENGINEER
WIT .         JIM                  : Witness      - WITNESSED BY
MUD .         GEL                  : Mud_type     - MUD TYPE
MATR.         LIMESTONE            : Logunit      - NEUTRON MATRIX
TMAX.C        16.7                 : BHT          - MAXIMUM RECORDED TEMPERATURE
BHTD.M        521.2                : BHTDEP       - MAXIMUM RECORDED TEMPERATURE
MATR.         1                    : LOGUNIT      - NEUTRON MATRIX
RMT .C        25                   : MDTP         - TEMPERATURE OF MUD
NEUT.         1                    : NEUTRON      - NEUTRON TYPE
RESI.         0                    : RESIST       - RESISTIVITY TYPE
RMC .OHMM     0.25                 : RMC          - RESISTIVITY OF MUD CAKE
RMF .OHMM     0.25                 : RMF          - RESISTIVITY OF MUD FILTRATE
SUFT.C        15                   : SUFT         - SURFACE TEMPERATURE
~A  DEPTH     RESD     PHID     PHIN       GR      CAL
# ...
  444.500    1.207    0.317    0.379   51.902  183.939
  444.750    1.287    0.313    0.372   52.694  183.240
  445.000    1.346    0.326    0.369   52.032  182.236
  445.250    1.417    0.322    0.383   51.673  181.738
  445.500    1.471    0.323    0.383   52.767  182.149
  445.750    1.520    0.326    0.400   54.892  182.156
  446.000    1.583    0.319    0.403   55.805  181.961
  446.250    1.598    0.312    0.400   54.295  181.262
  446.500    1.559    0.306    0.395   55.389  181.066
  446.750    1.519    0.310    0.390   58.423  181.074
  447.000    1.477    0.315    0.385   60.063  181.385
  447.250    1.466    0.316    0.377   61.157  181.290
  447.500    1.496    0.319    0.382   61.344  180.792
  447.750    1.538    0.315    0.404   60.742  180.395
  448.000    1.596    0.317    0.412   58.444  179.696
  448.250    1.641    0.322    0.420   57.600  179.602
  448.500    1.656    0.329    0.413   58.573  179.407
  448.750    1.640    0.341    0.414   59.244  179.313
  449.000    1.574    0.349    0.404   54.886  178.816
  449.250    1.525    0.358    0.396   53.558  179.327
  449.500    1.480    0.337    0.388   54.653  178.829
  449.750    1.458    0.332    0.382   56.172  178.735
  450.000    1.564    0.334    0.383   57.449  179.348
  450.250    1.748    0.335    0.383   57.816  179.759
  450.500    1.961    0.329    0.379   57.941  180.372
  450.750    2.228    0.324    0.375   58.187  181.187
  451.000    2.504    0.325    0.366   58.131  182.910
  451.250    2.757    0.321    0.353   57.954  184.836
  451.500    2.986    0.312    0.330   56.928  186.156
  451.750    5.952    0.300    0.312   57.962  185.255
  452.000    7.366    0.276    0.297   58.027  185.766
  452.250   10.189    0.148    0.278   57.971  188.602
  452.500   11.472    0.025    0.248   57.309  189.921
  452.750    6.127    0.015    0.213   55.556  190.533
  453.000    3.719    0.030    0.186   50.835  190.843
  453.250    2.938    0.070    0.185   47.446  190.851
  453.500    2.454    0.147    0.264   45.330  190.352
  453.750    2.187    0.196    0.303   43.820  188.341
  454.000    1.997    0.229    0.327   43.279  186.025
  454.250    1.902    0.255    0.350   46.010  183.609
  454.500    1.867    0.273    0.372   51.406  182.909
  454.750    1.849    0.285    0.383   54.984  182.613
  455.000    1.852    0.284    0.372   56.200  182.014
  455.250    1.904    0.281    0.368   58.083  181.617
  455.500    1.961    0.278    0.366   59.965  181.424
  455.750    2.047    0.295    0.364   61.180  181.430
  456.000    2.128    0.306    0.388   61.064  181.337
  456.250    2.175    0.308    0.394   60.583  181.141
  456.500    2.171    0.309    0.393   59.982  181.249
  456.750    2.130    0.315    0.392   60.652  181.660
  457.000    2.083    0.307    0.395   61.323  181.566
  457.250    2.033    0.298    0.384   60.661  181.472
  457.500    1.948    0.287    0.379   59.938  181.580
  457.750    1.873    0.281    0.376   60.063  181.791
  458.000    1.832    0.288    0.370   60.674  181.796
  458.250    1.798    0.298    0.370   61.526  181.804
  458.500    1.777    0.304    0.378   62.500  181.608
  458.750    1.767    0.308    0.384   63.413  182.121
  459.000    1.793    0.309    0.389   64.204  182.127
  459.250    1.820    0.309    0.386   63.118  182.134
  459.500    1.843    0.307    0.381   63.062  182.748
  459.750    1.885    0.315    0.381   62.884  183.158
  460.000    1.934    0.318    0.382   59.194  183.671
  460.250    2.014    0.312    0.389   58.592  184.182
  460.500    2.082    0.305    0.400   61.746  186.411
  460.750    2.136    0.296    0.405   64.416  188.134
  461.000    2.188    0.277    0.408   64.178  188.545
  461.250    2.196    0.260    0.420   65.939  189.461
  461.500    2.179    0.245    0.421   70.668  190.983
  461.750    2.135    0.233    0.422   79.397  193.111
  462.000    2.061    0.240    0.436   89.034  194.228
  462.250    1.996    0.243    0.447   94.248  196.356
  462.500    1.938    0.236    0.456   97.524  197.574
  462.750    1.916    0.235    0.459   98.982  198.591
  463.000    1.908    0.252    0.455  100.077  198.902
  463.250    1.933    0.246    0.449  102.747  198.707
  463.500    2.006    0.231    0.457  104.084  198.815
  463.750    2.116    0.220    0.459  103.664  198.922
  464.000    2.262    0.231    0.456  101.548  199.031
  464.250    2.440    0.257    0.451  100.583  199.240
  464.500    2.599    0.269    0.445  101.435  199.449
  464.750    2.742    0.211    0.443  100.592  199.658
  465.000    2.793    0.184    0.442   99.202  199.463
  465.250    2.850    0.170    0.444   99.085  199.268
  465.500    2.930    0.183    0.444   99.453  197.659
  465.750    3.068    0.199    0.403   98.912  195.546
  466.000    3.341    0.212    0.391   96.674  195.250
  466.250    3.685    0.199    0.380   94.134  193.540
  466.500    4.043    0.179    0.380   91.533  192.538
  466.750    4.402    0.164    0.382   88.690  192.545
  467.000    4.741    0.151    0.385   86.271  192.451
  467.250    4.837    0.141    0.383   83.973  192.256
  467.500    4.609    0.157    0.385   82.887  192.465
  467.750    4.375    0.171    0.381   84.406  192.878
  468.000    4.153    0.174    0.374   86.410  192.985
  468.250    3.971    0.178    0.366   87.928  193.193
  468.500    3.898    0.182    0.357   88.962  193.099
  468.750    3.919    0.173    0.355   89.875  193.106
  469.000    4.089    0.166    0.353   90.303  193.316
  469.250    4.403    0.160    0.343   89.702  193.727
  469.500    5.003    0.148    0.330   88.374  194.642
  469.750    5.868    0.115    0.308   86.439  195.962
  470.000    7.578    0.000    0.277   75.599  196.878
  470.250    9.292    0.000    0.240   70.636  197.592
  470.500   10.657    0.000    0.214   66.036  197.195
  470.750   11.412    0.000    0.246   61.799  196.899
  471.000   10.975    0.003    0.278   61.864  196.805
  471.250    9.618    0.055    0.298   67.381  196.913
  471.500    7.974    0.105    0.314   75.140  197.324
  471.750    6.873    0.149    0.330   84.050  198.240
  472.000    6.057    0.177    0.341   89.688  198.853
  472.250    5.602    0.181    0.349   89.632  199.568
  472.500    5.249    0.175    0.362   89.636  200.181
  472.750    5.162    0.170    0.371   90.307  200.693
  473.000    5.066    0.164    0.376   91.098  201.204
  473.250    5.000    0.166    0.385   90.800  201.413
  473.500    4.916    0.169    0.379   91.956  201.723
  473.750    4.852    0.175    0.373   93.595  201.628
  474.000    4.779    0.179    0.381   94.266  201.434
  474.250    4.717    0.174    0.374   93.241  201.643
  474.500    4.647    0.171    0.382   93.002  201.852
  474.750    4.629    0.175    0.390   94.157  201.759
  475.000    4.619    0.172    0.383   94.343  201.766
  475.250    4.627    0.160    0.373   93.318  201.772
  475.500    4.643    0.139    0.366   93.019  201.780
  475.750    4.730    0.117    0.374   92.418  201.484
  476.000    4.773    0.143    0.375   91.513  199.673
  476.250    4.907    0.162    0.387   92.851  197.156
  476.500    5.206    0.168    0.387   95.762  195.345
  476.750    5.452    0.202    0.391   98.008  191.414
  477.000    5.926    0.226    0.397   96.740  189.402
  477.250    6.346    0.236    0.397   94.321  190.722
  477.500    6.833    0.221    0.384   91.660  191.840
  477.750    7.454    0.196    0.376   91.967  192.857
  478.000    8.147    0.164    0.368   98.877  193.873
  478.250    8.375    0.145    0.360  111.119  194.284
  478.500    7.906    0.212    0.360  121.968  194.293
  478.750    7.285    0.197    0.348  128.152  194.298
  479.000    6.713    0.170    0.336  117.675  194.407
  479.250    6.117    0.154    0.347  107.198  195.020
  479.500    5.616    0.159    0.380  103.144  195.935
  479.750    5.165    0.152    0.388  100.664  196.851
  480.000    4.921    0.134    0.382   98.124  197.969
  480.250    5.154    0.154    0.379   96.311  198.077
  480.500    5.509    0.177    0.377   95.770  198.185
  480.750    5.498    0.192    0.379   96.320  198.293
