~VERSION INFORMATION
 VERS.                 2.0:   CWLS LOG ASCII STANDARD -VERSION 2.0
 WRAP.                  NO:   ONE LINE PER DEPTH STEP
~WELL INFORMATION BLOCK
#MNEM.UNIT           DATA                    DESCRIPTION OF MNEMONIC
#---------    -------------------            -------------------------------
# Generated from Intellog Unique Number	CS_71_72/WELL/737
WELL.         KISSINGER ET AL CORRIGAL       : Well_name    - WELL
LOC .         00/06-07-072-11W4/0            : Location     - LOCATION
UWI .         00/06-07-072-11W4/0            : Uwi          - UNIQUE WELL ID
ENTR.         SP                             : Entered      - ENTERED BY
SRVC.         SCHLUMBERGER                   : Scn          - SERVICE COMPANY
STRT.M        300                            : top_depth    - START DEPTH
STOP.M        529                            : bot_depth    - STOP DEPTH
STEP.M        0.25                           : increment    - STEP LENGTH
 NULL. -999.2500:NULL Value
~CURVE INFORMATION BLOCK
#MNEM UNIT       ERCB CURVE CODE    CURVE DESCRIPTION
#-----------   ------------------   ----------------------------------
DEPT.M        00 001 00 00         : DEPTH        - DEPTH
ILD .OHMM     00 120 00 00         : RESD         - DEEP RESISTIVITY (DIL)
DPHI.V/V      00 890 00 00         : PHID         - DENSITY POROSITY (LIMESTONE)
NPHI.V/V      00 330 00 00         : PHIN         - NEUTRON POROSITY (LIMESTONE)
GR  .API      00 310 00 00         : GR           - GAMMA RAY
~PARAMETER INFORMATION
#MNEM.UNIT           DATA             DESCRIPTION OF MNEMONIC
#---------         -----------     ------------------------------
GL  .M        641.09               : gl           - GROUND LEVEL ELEVATION
EREF.M        644.99               : kb           - ELEVATION OF DEPTH REFERENCE
DATM.M        641.09               : datum        - DATUM ELEVATION
TDD .M        513                  : tdd          - TOTAL DEPTH DRILLER
RUN .         ONE                  : Run          - RUN NUMBER
ENG .         BILL                 : Engineer     - RECORDING ENGINEER
WIT .         JIM                  : Witness      - WITNESSED BY
MUD .         GEL                  : Mud_type     - MUD TYPE
MATR.         LIMESTONE            : Logunit      - NEUTRON MATRIX
TMAX.C        30                   : BHT          - MAXIMUM RECORDED TEMPERATURE
BHTD.M        513                  : BHTDEP       - MAXIMUM RECORDED TEMPERATURE
MATR.         1                    : LOGUNIT      - NEUTRON MATRIX
RMT .C        25                   : MDTP         - TEMPERATURE OF MUD
NEUT.         1                    : NEUTRON      - NEUTRON TYPE
RESI.         0                    : RESIST       - RESISTIVITY TYPE
RMC .OHMM     0.25                 : RMC          - RESISTIVITY OF MUD CAKE
RMF .OHMM     0.25                 : RMF          - RESISTIVITY OF MUD FILTRATE
SUFT.C        15                   : SUFT         - SURFACE TEMPERATURE
~A  DEPTH     RESD     PHID     PHIN       GR
# ...
  343.500    4.853    0.203    0.415   88.135
  343.750    5.013    0.201    0.399   86.318
  344.000    5.334    0.193    0.423   83.292
  344.250    5.816    0.189    0.447   82.688
  344.500    5.976    0.193    0.416   86.343
  344.750    6.217    0.209    0.435   88.777
  345.000    6.297    0.213    0.459   93.647
  345.250    6.457    0.217    0.451   94.868
  345.500    6.618    0.231    0.427   96.088
  345.750    7.019    0.238    0.411   90.022
  346.000    7.260    0.249    0.404   84.564
  346.250    7.661    0.260    0.389   81.533
  346.500    7.822    0.248    0.374   78.509
  346.750    7.982    0.239    0.391   77.908
  347.000    8.062    0.232    0.393   79.737
  347.250    7.981    0.239    0.379   81.564
  347.500    7.901    0.244    0.366   83.398
  347.750    7.901    0.246    0.349   84.011
  348.000    7.820    0.246    0.385   84.016
  348.250    7.739    0.243    0.396   82.810
  348.500    7.739    0.239    0.389   80.389
  348.750    7.739    0.241    0.384   79.178
  349.000    7.739    0.250    0.401   76.150
  349.250    7.899    0.244    0.416   72.513
  349.500    8.300    0.249    0.399   68.271
  349.750    8.862    0.272    0.389   65.241
  350.000    9.505    0.287    0.365   62.212
  350.250   10.067    0.289    0.345   60.398
  350.500   11.271    0.290    0.396   63.444
  350.750   11.914    0.310    0.431   64.664
  351.000   12.395    0.308    0.423   64.067
  351.250   12.796    0.296    0.402   63.465
  351.500   12.957    0.291    0.385   62.258
  351.750   12.957    0.287    0.367   66.515
  352.000   13.037    0.284    0.349   75.633
  352.250   13.036    0.275    0.331   85.358
  352.500   12.956    0.258    0.356   89.613
  352.750   11.269    0.233    0.383   94.479
  353.000    9.823    0.233    0.366   87.203
  353.250    8.859    0.242    0.355   84.782
  353.500    8.136    0.246    0.389   83.573
  353.750    7.814    0.247    0.403   82.970
  354.000    8.055    0.251    0.396   81.765
  354.250    8.135    0.242    0.385   80.557
  354.500    8.375    0.231    0.395   78.743
  354.750    8.937    0.228    0.415   75.714
  355.000    9.258    0.276    0.408   70.867
  355.250    9.820    0.302    0.389   69.656
  355.500   10.141    0.302    0.375   68.448
  355.750   10.382    0.297    0.373   72.105
  356.000   10.864    0.287    0.396   73.325
  356.250   11.185    0.282    0.387   73.938
  356.500   11.425    0.279    0.392   74.553
  356.750   11.586    0.275    0.408   74.561
  357.000   11.586    0.271    0.393   74.567
  357.250   11.585    0.269    0.373   74.578
  357.500   11.585    0.287    0.382   74.583
  357.750   11.585    0.297    0.407   74.587
  358.000   11.585    0.282    0.417   75.204
  358.250   11.664    0.275    0.390   75.820
  358.500   11.664    0.270    0.348   76.433
  358.750   11.825    0.265    0.334   77.050
  359.000   11.824    0.257    0.312   78.270
  359.250   11.904    0.246    0.288   79.494
  359.500   11.904    0.230    0.273   80.106
  359.750   11.904    0.211    0.296   80.719
  360.000   11.904    0.226    0.320   79.517
  360.250   11.903    0.237    0.348   79.521
  360.500   11.823    0.230    0.360   80.136
  360.750   11.742    0.223    0.347   81.357
  361.000   11.742    0.224    0.343   81.971
  361.250   11.420    0.229    0.375   83.806
  361.500   11.099    0.231    0.391   83.808
  361.750   10.777    0.229    0.403   78.352
  362.000   10.456    0.233    0.378   72.288
  362.250   10.295    0.265    0.359   69.863
  362.500   10.214    0.261    0.364   75.337
  362.750   10.375    0.245    0.383   71.095
  363.000   10.696    0.275    0.395   68.670
  363.250   10.936    0.297    0.404   66.248
  363.500   11.177    0.277    0.405   70.510
  363.750   11.418    0.259    0.371   72.945
  364.000   11.498    0.242    0.340   75.382
  364.250   11.498    0.230    0.325   71.744
  364.500   11.417    0.248    0.341   65.072
  364.750   11.417    0.265    0.353   61.435
  365.000   11.577    0.273    0.360   57.193
  365.250   11.818    0.288    0.367   55.377
  365.500   11.978    0.300    0.371   57.210
  365.750   12.058    0.317    0.395   58.430
  366.000   12.138    0.319    0.416   59.042
  366.250   12.138    0.313    0.396   58.448
  366.500   12.137    0.307    0.367   58.456
  366.750   12.137    0.298    0.343   59.675
  367.000   12.057    0.291    0.345   64.542
  367.250   11.816    0.279    0.353   66.976
  367.500   11.414    0.267    0.359   72.451
  367.750   10.530    0.256    0.362   74.886
  368.000    9.887    0.245    0.366   74.285
  368.250    9.646    0.255    0.411   71.256
  368.500    9.405    0.261    0.404   71.870
  368.750    9.244    0.261    0.382   72.487
  369.000    9.243    0.257    0.372   73.099
  369.250    9.163    0.252    0.377   73.714
  369.500    9.243    0.257    0.379   73.116
  369.750    9.484    0.267    0.385   70.085
  370.000    9.805    0.291    0.414   62.805
  370.250   10.126    0.306    0.437   56.132
  370.500   10.607    0.325    0.435   53.103
  370.750   11.089    0.313    0.443   51.291
  371.000   11.651    0.305    0.429   48.870
  371.250   11.972    0.293    0.422   47.661
  371.500   12.373    0.291    0.412   46.453
  371.750   12.694    0.292    0.408   49.497
  372.000   12.855    0.295    0.420   53.152
  372.250   12.935    0.301    0.449   53.764
  372.500   12.854    0.304    0.436   52.558
  372.750   12.774    0.305    0.397   50.744
  373.000   12.693    0.305    0.400   50.141
  373.250   12.773    0.299    0.385   51.972
  373.500   12.853    0.294    0.377   52.589
  373.750   12.853    0.288    0.392   52.594
  374.000   12.933    0.300    0.414   50.779
  374.250   13.093    0.305    0.406   47.751
  374.500   13.334    0.299    0.372   45.935
  374.750   13.575    0.292    0.363   44.122
  375.000   13.976    0.288    0.373   42.915
  375.250   14.136    0.299    0.378   42.922
  375.500   14.297    0.306    0.387   42.928
  375.750   14.618    0.308    0.377   44.759
  376.000   14.778    0.304    0.373   46.592
  376.250   15.019    0.302    0.408   47.204
  376.500   15.259    0.299    0.416   46.605
  376.750   15.340    0.310    0.391   46.608
  377.000   15.339    0.308    0.383   44.795
  377.250   15.339    0.301    0.369   46.020
  377.500   15.178    0.298    0.396   48.455
  377.750   15.258    0.312    0.420   50.890
  378.000   15.499    0.318    0.441   53.331
  378.250   15.739    0.326    0.449   53.336
  378.500   15.900    0.332    0.436   52.129
  378.750   15.980    0.328    0.416   50.921
  379.000   15.980    0.326    0.401   50.926
  379.250   15.899    0.323    0.385   50.331
  379.500   15.819    0.321    0.396   50.338
  379.750   15.818    0.317    0.414   50.344
  380.000   15.818    0.316    0.426   50.959
  380.250   15.737    0.322    0.415   50.965
  380.500   15.737    0.328    0.402   51.583
  380.750   15.737    0.322    0.425   50.980
  381.000   15.656    0.313    0.433   50.385
  381.250   15.656    0.311    0.427   49.784
  381.500   15.656    0.312    0.442   49.184
  381.750   15.655    0.319    0.451   48.585
  382.000   15.655    0.321    0.448   47.985
  382.250   15.655    0.321    0.428   47.384
  382.500   15.655    0.322    0.416   47.389
  382.750   15.654    0.328    0.394   46.790
  383.000   15.574    0.329    0.385   48.009
  383.250   15.573    0.322    0.392   50.448
  383.500   15.493    0.316    0.402   51.669
  383.750   15.412    0.316    0.419   50.460
  384.000   15.412    0.322    0.409   50.468
  384.250   15.331    0.320    0.404   51.693
  384.500   15.331    0.316    0.422   53.521
  384.750   15.331    0.310    0.431   54.741
  385.000   15.411    0.302    0.440   55.968
  385.250   15.411    0.300    0.463   55.972
  385.500   15.411    0.302    0.486   55.979
  385.750   15.410    0.307    0.469   54.163
  386.000   15.330    0.308    0.404   55.386
  386.250   15.329    0.303    0.375   57.824
  386.500   15.329    0.299    0.357   58.439
  386.750   15.329    0.297    0.347   57.839
