~VERSION INFORMATION
 VERS.                 2.0:   CWLS LOG ASCII STANDARD -VERSION 2.0
 WRAP.                  NO:   ONE LINE PER DEPTH STEP
~WELL INFORMATION BLOCK
#MNEM.UNIT           DATA                    DESCRIPTION OF MNEMONIC
#---------    -------------------            -------------------------------
# Generated from Intellog Unique Number	CW_73_75/WELL/3520
WELL.         MANNVILLE OIL                  : Well_name    - WELL
LOC .         00/07-08-073-03W5/0            : Location     - LOCATION
UWI .         00/07-08-073-03W5/0            : Uwi          - UNIQUE WELL ID
ENTR.         TIM                            : Entered      - ENTERED BY
SRVC.         SCHLUMBERGER                   : Scn          - SERVICE COMPANY
DATE.         05\15\92                       : Date         - LOG DATE
STRT.M        350                            : top_depth    - START DEPTH
STOP.M        620                            : bot_depth    - STOP DEPTH
STEP.M        0.25                           : increment    - STEP LENGTH
 NULL. -999.2500:NULL Value
~CURVE INFORMATION BLOCK
#MNEM UNIT       ERCB CURVE CODE    CURVE DESCRIPTION
#-----------   ------------------   ----------------------------------
DEPT.M        00 001 00 00         : DEPTH        - DEPTH
GR  .API      00 310 00 00         : GR           - GAMMA RAY
NPHI.V/V      00 330 00 00         : PHIN         - NEUTRON POROSITY (SANDSTONE)
DPHI.V/V      00 890 00 00         : PHID         - DENSITY POROSITY (SANDSTONE)
ILD .OHMM     00 120 00 00         : RESD         - DEEP RESISTIVITY (DIL)
~PARAMETER INFORMATION
#MNEM.UNIT           DATA             DESCRIPTION OF MNEMONIC
#---------         -----------     ------------------------------
GL  .M        590                  : gl           - GROUND LEVEL ELEVATION
EREF.M        593.5                : kb           - ELEVATION OF DEPTH REFERENCE
DATM.M        593.5                : datum        - DATUM ELEVATION
TDD .M        621                  : tdd          - TOTAL DEPTH DRILLER
RUN .         ONE                  : Run          - RUN NUMBER
ENG .         JO                   : Engineer     - RECORDING ENGINEER
WIT .         TIM                  : Witness      - WITNESSED BY
MUD .         GEL                  : Mud_type     - MUD TYPE
MATR.         SANDSTONE            : Logunit      - NEUTRON MATRIX
TMAX.C        28                   : BHT          - MAXIMUM RECORDED TEMPERATURE
BHTD.M        620                  : BHTDEP       - MAXIMUM RECORDED TEMPERATURE
RMT .C        15                   : MDTP         - TEMPERATURE OF MUD
MUDD.KG/M     1080                 : MWT          - MUD DENSITY
NEUT.         1                    : NEUTRON      - NEUTRON TYPE
RESI.         0                    : RESIST       - RESISTIVITY TYPE
RM  .OHMM     2.53                 : RM           - RESISTIVITY OF MUD
RMC .OHMM     2.78                 : RMC          - RESISTIVITY OF MUD CAKE
RMF .OHMM     2.33                 : RMF          - RESISTIVITY OF MUD FILTRATE
SUFT.C        4                    : SUFT         - SURFACE TEMPERATURE
~A  DEPTH       GR     PHIN     PHID     RESD
# ...
  393.500   55.420    0.227    0.075    5.928
  393.750   65.951    0.347    0.037    5.200
  394.000   84.737    0.391    0.101    4.563
  394.250   90.560    0.438    0.246    3.722
  394.500   85.789    0.475    0.248    3.449
  394.750   83.945    0.469    0.252    3.438
  395.000   82.690    0.462    0.265    3.432
  395.250   79.669    0.448    0.284    3.427
  395.500   78.460    0.402    0.295    3.481
  395.750   82.517    0.410    0.261    3.469
  396.000   80.689    0.423    0.257    3.463
  396.250   75.918    0.424    0.261    3.460
  396.500   68.761    0.393    0.268    3.452
  396.750   64.595    0.419    0.273    3.382
  397.000   58.647    0.424    0.283    3.249
  397.250   49.151    0.434    0.299    3.185
  397.500   46.146    0.442    0.316    3.120
  397.750   47.245    0.453    0.329    3.057
  398.000   46.594    0.423    0.329    2.995
  398.250   46.531    0.390    0.326    2.934
  398.500   46.453    0.382    0.317    2.874
  398.750   47.551    0.380    0.307    2.867
  399.000   48.697    0.373    0.297    2.808
  399.250   50.988    0.376    0.302    2.802
  399.500   53.295    0.391    0.309    2.745
  399.750   52.040    0.402    0.318    2.735
  400.000   47.858    0.397    0.323    2.733
  400.250   42.498    0.392    0.329    2.727
  400.500   38.316    0.396    0.339    2.718
  400.750   40.003    0.400    0.344    2.714
  401.000   41.706    0.395    0.333    2.759
  401.250   42.820    0.388    0.318    2.803
  401.500   45.111    0.382    0.308    2.901
  401.750   47.419    0.369    0.302    3.113
  402.000   53.830    0.362    0.299    3.226
  402.250   64.949    0.368    0.293    3.399
  402.500   68.991    0.388    0.273    3.520
  402.750   70.121    0.388    0.250    3.711
  403.000   73.001    0.365    0.205    3.910
  403.250   79.427    0.364    0.161    3.973
  403.500   94.078    0.393    0.173    3.822
  403.750  101.666    0.413    0.191    3.678
  404.000  105.739    0.437    0.207    3.225
  404.250  109.176    0.476    0.202    2.992
  404.500  110.306    0.494    0.206    2.826
  404.750  112.025    0.502    0.217    2.923
  405.000  112.551    0.479    0.230    2.972
  405.250  104.233    0.432    0.227    3.075
  405.500   98.285    0.384    0.211    3.066
  405.750   84.670    0.385    0.238    3.007
  406.000   69.290    0.390    0.246    2.787
  406.250   45.670    0.378    0.308    2.584
  406.500   29.112    0.367    0.338    2.439
  406.750   36.112    0.349    0.334    2.346
  407.000   39.596    0.341    0.333    2.300
  407.250   33.044    0.350    0.333    2.253
  407.500   30.611    0.358    0.333    2.207
  407.750   29.372    0.359    0.333    2.161
  408.000   26.955    0.351    0.334    2.158
  408.250   25.715    0.348    0.335    2.151
  408.500   25.652    0.346    0.334    2.107
  408.750   27.928    0.341    0.333    2.102
  409.000   30.251    0.336    0.330    2.137
  409.250   37.839    0.334    0.323    2.173
  409.500   48.959    0.326    0.271    2.333
  409.750   65.979    0.329    0.237    2.694
  410.000   81.807    0.367    0.220    3.000
  410.250   84.703    0.385    0.228    3.279
  410.500   86.978    0.392    0.227    3.398
  410.750   86.343    0.372    0.206    3.646
  411.000   85.087    0.398    0.197    3.710
  411.250   86.790    0.412    0.175    3.697
  411.500   90.863    0.391    0.180    3.691
  411.750   95.509    0.381    0.239    3.549
  412.000  101.920    0.408    0.227    3.352
  412.250  109.508    0.454    0.234    2.996
  412.500  117.096    0.519    0.258    2.831
  412.750  118.799    0.539    0.283    2.483
  413.000  111.086    0.518    0.292    2.345
  413.250   95.705    0.486    0.290    2.426
  413.500   87.992    0.448    0.275    2.559
  413.750   90.283    0.407    0.249    2.849
  414.000   95.517    0.394    0.254    3.173
  414.250  100.751    0.432    0.257    3.407
  414.500   99.511    0.461    0.259    3.589
  414.750   80.600    0.446    0.257    3.585
  415.000   66.397    0.426    0.261    3.578
  415.250   55.740    0.451    0.291    3.568
  415.500   57.443    0.415    0.305    3.495
  415.750   60.896    0.388    0.315    3.422
  416.000   60.833    0.408    0.319    3.357
  416.250   60.182    0.437    0.322    3.287
  416.500   61.296    0.461    0.326    3.279
  416.750   62.983    0.470    0.323    3.335
  417.000   64.129    0.452    0.295    3.448
  417.250   67.582    0.423    0.230    3.572
  417.500   74.009    0.396    0.219    3.694
  417.750   83.951    0.398    0.226    3.752
  418.000   84.477    0.414    0.235    3.817
  418.250   79.706    0.450    0.243    3.808
  418.500   73.169    0.461    0.253    3.798
  418.750   65.424    0.461    0.281    3.653
  419.000   66.555    0.437    0.300    3.579
  419.250   67.080    0.416    0.298    3.443
  419.500   66.429    0.442    0.298    3.311
  419.750   66.366    0.455    0.300    3.304
  420.000   68.642    0.434    0.303    3.299
  420.250   67.402    0.402    0.305    3.290
  420.500   63.808    0.398    0.307    3.283
  420.750   62.569    0.404    0.307    3.272
  421.000   63.079    0.403    0.308    3.266
  421.250   61.251    0.455    0.308    3.261
  421.500   59.422    0.473    0.309    3.191
  421.750   58.771    0.435    0.303    3.188
  422.000   61.651    0.404    0.271    3.240
  422.250   65.119    0.389    0.248    3.602
  422.500   67.427    0.397    0.235    3.733
  422.750   72.661    0.407    0.239    3.863
  423.000   79.645    0.416    0.259    3.716
  423.250   81.348    0.418    0.284    3.641
  423.500   78.358    0.424    0.290    3.567
  423.750   71.821    0.430    0.301    3.494
  424.000   67.623    0.453    0.306    3.421
  424.250   67.560    0.475    0.315    3.414
  424.500   69.263    0.472    0.317    3.468
  424.750   70.982    0.424    0.304    3.464
  425.000   73.273    0.382    0.292    3.518
  425.250   76.726    0.375    0.282    3.577
  425.500   79.622    0.386    0.278    3.632
  425.750   84.267    0.422    0.274    3.626
  426.000   83.616    0.439    0.262    3.684
  426.250   81.199    0.433    0.257    3.676
  426.500   80.517    0.434    0.259    3.736
  426.750   80.454    0.458    0.264    3.797
  427.000   79.803    0.481    0.273    3.791
  427.250   77.990    0.523    0.288    3.778
  427.500   74.985    0.522    0.297    3.768
  427.750   71.375    0.500    0.311    3.764
  428.000   67.781    0.481    0.316    3.751
  428.250   65.349    0.466    0.319    3.747
  428.500   64.124    0.439    0.324    3.737
  428.750   59.338    0.448    0.332    3.663
  429.000   58.114    0.456    0.334    3.653
  429.250   57.462    0.467    0.338    3.581
  429.500   53.249    0.461    0.346    3.504
  429.750   49.066    0.448    0.360    3.500
  430.000   46.665    0.424    0.355    3.425
  430.250   47.779    0.411    0.340    3.420
  430.500   51.248    0.403    0.336    3.347
  430.750   55.893    0.414    0.338    3.343
  431.000   65.247    0.423    0.342    3.336
  431.250   70.481    0.427    0.350    3.326
  431.500   66.299    0.411    0.358    3.321
  431.750   63.882    0.394    0.361    3.252
  432.000   61.465    0.417    0.362    3.246
  432.250   59.637    0.442    0.365    3.175
  432.500   61.928    0.447    0.370    3.112
  432.750   69.517    0.438    0.370    3.109
  433.000   68.261    0.416    0.370    3.041
  433.250   66.417    0.425    0.376    3.036
  433.500   65.209    0.462    0.387    3.029
  433.750   63.349    0.477    0.409    3.078
  434.000   62.109    0.504    0.425    3.128
  434.250   61.458    0.506    0.392    3.179
  434.500   64.354    0.497    0.371    3.231
  434.750   67.806    0.489    0.360    3.285
  435.000   67.171    0.480    0.355    3.278
  435.250   63.546    0.424    0.352    3.269
  435.500   61.733    0.444    0.351    3.262
  435.750   58.727    0.469    0.353    3.196
  436.000   56.899    0.472    0.355    3.189
  436.250   55.659    0.473    0.351    3.180
  436.500   58.508    0.443    0.351    3.175
  436.750   59.654    0.420    0.350    3.286
