~VERSION INFORMATION
 VERS.                 2.0:   CWLS LOG ASCII STANDARD -VERSION 2.0
 WRAP.                  NO:   ONE LINE PER DEPTH STEP
~WELL INFORMATION BLOCK
#MNEM.UNIT           DATA                    DESCRIPTION OF MNEMONIC
#---------    -------------------            -------------------------------
# Generated from Intellog Unique Number	CS_73_76/WELL/2913
WELL.         BOW VALLEY EXPLORATION         : Well_name    - WELL
LOC .         00/07-33-076-17W4/0            : Location     - LOCATION
UWI .         00/07-33-076-17W4/0            : Uwi          - UNIQUE WELL ID
ENTR.         SP                             : Entered      - ENTERED BY
SRVC.         SCHLUMBERGER                   : Scn          - SERVICE COMPANY
STRT.M        340                            : top_depth    - START DEPTH
STOP.M        563                            : bot_depth    - STOP DEPTH
STEP.M        0.25                           : increment    - STEP LENGTH
 NULL. -999.2500:NULL Value
~CURVE INFORMATION BLOCK
#MNEM UNIT       ERCB CURVE CODE    CURVE DESCRIPTION
#-----------   ------------------   ----------------------------------
DEPT.M        00 001 00 00         : DEPTH        - DEPTH
GR  .API      00 310 00 00         : GR           - GAMMA RAY
NPHI.V/V      00 330 00 00         : PHIN         - NEUTRON POROSITY (LIMESTONE)
DPHI.V/V      00 890 00 00         : PHID         - DENSITY POROSITY (LIMESTONE)
ILD .OHMM     00 120 00 00         : RESD         - DEEP RESISTIVITY (DIL)
~PARAMETER INFORMATION
#MNEM.UNIT           DATA             DESCRIPTION OF MNEMONIC
#---------         -----------     ------------------------------
GL  .M        704.76               : gl           - GROUND LEVEL ELEVATION
EREF.M        709.26               : kb           - ELEVATION OF DEPTH REFERENCE
DATM.M        704.76               : datum        - DATUM ELEVATION
TDD .M        564                  : tdd          - TOTAL DEPTH DRILLER
RUN .         ONE                  : Run          - RUN NUMBER
ENG .         BILL                 : Engineer     - RECORDING ENGINEER
WIT .         JIM                  : Witness      - WITNESSED BY
MUD .         GEL                  : Mud_type     - MUD TYPE
MATR.         LIMESTONE            : Logunit      - NEUTRON MATRIX
TMAX.C        20                   : BHT          - MAXIMUM RECORDED TEMPERATURE
BHTD.M        564                  : BHTDEP       - MAXIMUM RECORDED TEMPERATURE
MATR.         1                    : LOGUNIT      - NEUTRON MATRIX
RMT .C        25                   : MDTP         - TEMPERATURE OF MUD
NEUT.         1                    : NEUTRON      - NEUTRON TYPE
RESI.         0                    : RESIST       - RESISTIVITY TYPE
RMC .OHMM     0.25                 : RMC          - RESISTIVITY OF MUD CAKE
RMF .OHMM     0.25                 : RMF          - RESISTIVITY OF MUD FILTRATE
SUFT.C        15                   : SUFT         - SURFACE TEMPERATURE
~A  DEPTH       GR     PHIN     PHID     RESD
# ...
  427.000   42.873    0.406    0.326   10.922
  427.250   46.595    0.410    0.333   10.925
  427.500   48.456    0.381    0.345   10.927
  427.750   49.698    0.375    0.335   10.930
  428.000   50.320    0.395    0.336   10.932
  428.250   49.702    0.396    0.335   11.146
  428.500   49.705    0.390    0.325   11.363
  428.750   49.706    0.386    0.313   11.585
  429.000   47.229    0.384    0.313   12.038
  429.250   44.752    0.389    0.307   12.996
  429.500   45.994    0.396    0.268   14.857
  429.750   47.235    0.410    0.273   16.984
  430.000   49.097    0.419    0.293   19.049
  430.250   47.859    0.369    0.351   21.775
  430.500   43.523    0.324    0.287   32.516
  430.750   40.425    0.265    0.246   39.361
  431.000   38.568    0.180    0.170   37.896
  431.250   38.570    0.150    0.023   35.122
  431.500   36.093    0.141    0.000   18.014
  431.750   35.475    0.142    0.019   13.533
  432.000   38.576    0.230    0.052    9.975
  432.250   47.876    0.274    0.175    9.069
  432.500   51.597    0.310    0.242    8.090
  432.750   60.277    0.407    0.270    7.789
  433.000   60.279    0.405    0.282    8.094
  433.250   55.942    0.411    0.231    8.573
  433.500   59.043    0.397    0.249    9.080
  433.750   62.765    0.383    0.267    9.436
  434.000   62.767    0.372    0.273    9.260
  434.250   61.529    0.362    0.288    8.915
  434.500   62.151    0.369    0.288    8.583
  434.750   62.153    0.388    0.282    8.423
  435.000   63.395    0.402    0.247    8.753
  435.250   64.637    0.418    0.256    8.924
  435.500   66.498    0.432    0.271    9.097
  435.750   69.600    0.437    0.287    9.453
  436.000   71.461    0.429    0.315    9.277
  436.250   71.463    0.417    0.324    9.103
  436.500   70.225    0.411    0.340    8.766
  436.750   67.749    0.404    0.329    8.601
  437.000   68.990    0.408    0.299    8.281
  437.250   70.232    0.395    0.246    7.973
  437.500   69.614    0.382    0.211    7.389
  437.750   65.897    0.355    0.197    7.114
  438.000   62.180    0.419    0.190    6.720
  438.250   67.761    0.401    0.187    6.470
  438.500   76.441    0.390    0.199    6.349
  438.750   82.641    0.393    0.219    6.230
  439.000   83.883    0.416    0.221    5.999
  439.250   85.125    0.425    0.195    5.887
  439.500   81.407    0.422    0.193    5.888
  439.750   80.790    0.417    0.210    5.669
  440.000   83.271    0.413    0.182    5.671
  440.250   86.992    0.406    0.151    5.564
  440.500   85.755    0.394    0.197    5.460
  440.750   83.277    0.383    0.239    5.461
  441.000   82.660    0.404    0.204    5.359
  441.250   82.042    0.411    0.187    5.259
  441.500   80.185    0.416    0.201    5.161
  441.750   78.947    0.443    0.251    5.163
  442.000   78.950    0.439    0.224    5.164
  442.250   80.191    0.432    0.224    5.469
  442.500   83.912    0.428    0.242    5.904
  442.750   85.154    0.419    0.221    6.622
  443.000   83.296    0.397    0.203    6.881
  443.250   81.439    0.406    0.240    7.572
  443.500   80.821    0.418    0.246    8.332
  443.750   77.724    0.387    0.253    8.494
  444.000   74.007    0.375    0.268    8.660
  444.250   67.811    0.396    0.311    8.499
  444.500   64.713    0.401    0.300    8.501
  444.750   62.236    0.394    0.283    8.503
  445.000   63.478    0.358    0.261    8.505
  445.250   63.480    0.387    0.212    8.346
  445.500   65.961    0.417    0.246    7.734
  445.750   71.542    0.412    0.288    6.153
  446.000   74.643    0.430    0.309    4.449
  446.250   70.927    0.418    0.315    2.869
  446.500   68.449    0.438    0.329    2.464
  446.750   72.170    0.466    0.290    1.887
  447.000   80.231    0.551    0.258    1.887
  447.250   86.431    0.578    0.262    2.419
  447.500   84.574    0.555    0.268    2.873
  447.750   90.155    0.527    0.258    3.161
  448.000   93.875    0.510    0.246    3.683
  448.250   97.596    0.493    0.259    4.545
  448.500   93.879    0.449    0.261    5.397
  448.750   87.683    0.430    0.243    5.827
  449.000   82.726    0.427    0.235    5.198
  449.250   79.629    0.415    0.205    4.296
  449.500   77.772    0.404    0.228    3.760
  449.750   77.154    0.384    0.216    3.620
  450.000   78.396    0.383    0.204    3.552
  450.250   83.356    0.408    0.188    3.621
  450.500   90.177    0.465    0.186    3.985
  450.750   92.658    0.510    0.201    5.307
  451.000   90.801    0.496    0.201    5.952
  451.250   84.605    0.423    0.201    6.935
  451.500   72.829    0.384    0.205    7.206
  451.750   66.014    0.404    0.211    7.488
  452.000   66.016    0.426    0.269    7.491
  452.250   65.398    0.409    0.298    7.350
  452.500   65.400    0.389    0.304    6.944
  452.750   66.642    0.390    0.312    6.945
  453.000   68.503    0.400    0.323    6.815
  453.250   67.266    0.397    0.312    6.688
  453.500   67.268    0.398    0.272    6.690
  453.750   69.129    0.416    0.221    6.692
  454.000   70.991    0.425    0.253    6.693
  454.250   67.894    0.412    0.281    6.694
  454.500   67.276    0.405    0.278    6.696
  454.750   72.858    0.405    0.267    6.697
  455.000   74.719    0.398    0.273    6.573
  455.250   75.340    0.394    0.297    6.575
  455.500   74.103    0.394    0.227    6.576
  455.750   72.246    0.387    0.233    6.577
  456.000   70.388    0.394    0.267    6.579
  456.250   67.910    0.409    0.268    6.580
  456.500   64.194    0.418    0.288    6.581
  456.750   59.857    0.425    0.297    6.710
  457.000   56.760    0.420    0.297    6.711
  457.250   54.902    0.413    0.330    6.842
  457.500   53.665    0.408    0.332    6.976
  457.750   57.386    0.404    0.320    7.249
  458.000   61.727    0.399    0.307    7.533
  458.250   64.828    0.393    0.300    7.979
  458.500   62.351    0.383    0.289    8.613
  458.750   55.535    0.369    0.312   10.036
  459.000   53.057    0.349    0.326   11.694
  459.250   55.539    0.312    0.134   12.386
  459.500   54.922    0.227    0.050    9.853
  459.750   53.064    0.253    0.078    8.143
  460.000   51.207    0.295    0.116    7.547
  460.250   52.448    0.341    0.274    6.861
  460.500   53.070    0.380    0.322    6.482
  460.750   54.312    0.413    0.318    6.240
  461.000   54.314    0.414    0.313    6.008
  461.250   53.696    0.400    0.328    6.009
  461.500   54.318    0.387    0.348    6.127
  461.750   58.659    0.393    0.360    6.367
  462.000   61.761    0.393    0.345    6.491
  462.250   63.002    0.392    0.341    7.007
  462.500   59.905    0.398    0.320    7.565
  462.750   60.526    0.393    0.297    8.167
  463.000   62.388    0.320    0.276    8.816
  463.250   64.870    0.259    0.160    9.162
  463.500   60.533    0.259    0.028    9.164
  463.750   54.957    0.276    0.006    8.992
  464.000   53.099    0.276    0.026    8.022
  464.250   56.200    0.390    0.138    7.577
  464.500   60.541    0.414    0.298    6.889
  464.750   67.982    0.416    0.284    6.760
  465.000   69.223    0.415    0.268    6.510
  465.250   68.606    0.411    0.273    6.511
  465.500   68.607    0.410    0.269    6.512
  465.750   68.610    0.406    0.284    6.513
  466.000   68.612    0.406    0.295    6.641
  466.250   67.374    0.408    0.276    6.642
  466.500   66.757    0.405    0.269    6.518
  466.750   69.238    0.394    0.261    6.157
  467.000   71.100    0.370    0.268    5.816
  467.250   71.101    0.419    0.276    5.707
  467.500   69.864    0.442    0.287    5.819
  467.750   71.726    0.438    0.293    5.820
  468.000   74.207    0.410    0.286    5.934
  468.250   76.068    0.396    0.266    5.935
  468.500   77.930    0.394    0.242    6.051
  468.750   79.172    0.440    0.263    6.052
  469.000   77.314    0.502    0.249    5.939
  469.250   79.796    0.617    0.223    5.940
  469.500   82.897    0.570    0.235    5.942
  469.750   81.040    0.499    0.249    5.944
  470.000   80.422    0.469    0.219    5.945
  470.250   81.664    0.437    0.161    5.946
