~VERSION INFORMATION
 VERS.                 2.0:   CWLS LOG ASCII STANDARD -VERSION 2.0
 WRAP.                  NO:   ONE LINE PER DEPTH STEP
~WELL INFORMATION BLOCK
#MNEM.UNIT           DATA                    DESCRIPTION OF MNEMONIC
#---------    -------------------            -------------------------------
# Generated from Intellog Unique Number	CW_70_72/WELL/901
NULL.         -999.25                        : NULL_VALUE
WELL.         HOME ALMX MITSUE 07-15         : Well_name    - WELL              
LOC .         07-15-071-04W5                 : Location     - LOCATION          
UWI .         00/07-15-071-04W5/0            : Uwi          - UNIQUE WELL ID    
ENTR.         JAYE                           : Entered      - ENTERED BY        
SRVC.         SCHLUMBERGER                   : Scn          - SERVICE COMPANY   
DATE.         4 MAR 74                       : Date         - LOG DATE          
STRT.M        502.92                         : top_depth    - START DEPTH       
STOP.M        716.17                         : bot_depth    - STOP DEPTH        
STEP.M        0.25                           : increment    - STEP LENGTH       
~CURVE INFORMATION BLOCK
#MNEM UNIT       ERCB CURVE CODE    CURVE DESCRIPTION
#-----------   ------------------   ----------------------------------
DEPT.M        00 001 00 00         : DEPTH        - DEPTH                       
DPHI.V/V      00 890 00 00         : PHID         - DENSITY POROSITY (SANDSTONE)
NPHI.V/V      00 330 00 00         : PHIN         - NEUTRON POROSITY (SANDSTONE)
GR  .API      00 310 00 00         : GR           - GAMMA RAY                   
CALI.MM       00 280 01 00         : CAL          - CALIPER                     
ILD .OHMM     00 120 00 00         : RESD         - DEEP RESISTIVITY (DIL)      
~PARAMETER INFORMATION       
#MNEM.UNIT           DATA             DESCRIPTION OF MNEMONIC
#---------         -----------     ------------------------------
GL  .M        667.36               : gl           - GROUND LEVEL ELEVATION      
EREF.M        671.474              : kb           - ELEVATION OF DEPTH REFERENCE
DATM.M        667.36               : datum        - DATUM ELEVATION             
TDD .M        759.866              : tdd          - TOTAL DEPTH DRILLER         
RUN .         ONE                  : Run          - RUN NUMBER                  
ENG .         SIROIS               : Engineer     - RECORDING ENGINEER          
WIT .         HOLAN                : Witness      - WITNESSED BY                
BASE.         EDM                  : Branch       - HOME BASE OF LOGGING UNIT   
MUD .         GEL CHEM             : Mud_type     - MUD TYPE                    
MATR.         SANDSTONE            : Logunit      - NEUTRON MATRIX              
TMAX.C        28.3333              : BHT          - MAXIMUM RECORDED TEMPERATURE
BHTD.M        758.952              : BHTDEP       - MAXIMUM RECORDED TEMPERATURE
RMT .C        13.8889              : MDTP         - TEMPERATURE OF MUD          
MUDD.KG/M     1080                 : MWT          - MUD DENSITY                 
NEUT.         1                    : NEUTRON      - NEUTRON TYPE                
RESI.         0                    : RESIST       - RESISTIVITY TYPE            
RM  .OHMM     6.28                 : RM           - RESISTIVITY OF MUD          
RMC .OHMM     3.8                  : RMC          - RESISTIVITY OF MUD CAKE     
RMF .OHMM     7.5                  : RMF          - RESISTIVITY OF MUD FILTRATE 
SUFT.C        -17.7778             : SUFT         - SURFACE TEMPERATURE         
~A  DEPTH     PHID     PHIN       GR      CAL     RESD
# ...
  685.420    0.081    0.358   91.468  166.949    5.399
  685.670    0.101    0.356   89.331  167.471    5.415
  685.920    0.131    0.358   86.337  170.375    5.401
  686.170    0.109    0.370   83.465  173.382    5.388
  686.420    0.100    0.383   81.022  174.525    5.373
  686.670    0.092    0.393   83.287  175.151    5.340
  686.920    0.071    0.386   90.200  175.880    5.316
  687.170    0.079    0.377   94.605  176.195    5.321
  687.420    0.082    0.372   97.176  176.510    5.396
  687.670    0.092    0.368   98.034  176.618    5.521
  687.920    0.107    0.359   97.670  176.933    5.765
  688.170    0.142    0.345   94.554  177.352    5.964
  688.420    0.126    0.319   91.254  177.874    6.204
  688.670    0.079    0.315   90.034  178.292    6.279
  688.920    0.045    0.317   90.098  178.607    5.961
  689.170    0.030    0.330   93.953  178.716    5.913
  689.420    0.061    0.344  100.193  178.617    5.343
  689.670    0.080    0.360  108.817  178.621    4.278
  689.920    0.085    0.381  111.572  178.728    3.196
  690.170    0.157    0.404  108.823  179.665    2.281
  690.420    0.193    0.475  101.487  185.157    1.742
  690.670    0.243    0.499   91.155  195.205    1.408
  690.920    0.331    0.626   84.737  220.682    1.281
  691.170    0.384    0.691   81.071  255.479    1.246
  691.420    0.376    0.666   80.279  271.118    1.277
  691.670    0.334    0.632   81.321  280.753    1.368
  691.920    0.342    0.602   82.791  288.834    1.514
  692.170    0.293    0.577   84.995  255.806    1.707
  692.420    0.237    0.551   88.422  207.144    1.873
  692.670    0.225    0.553   89.464  223.716    2.025
  692.920    0.247    0.618   88.305  236.457    2.270
  693.170    0.267    0.539   86.045  253.960    2.820
  693.420    0.233    0.350   86.169  251.065    3.701
  693.670    0.068    0.329   90.269  171.960    4.734
  693.920    0.088    0.354   91.373  173.621    4.478
  694.170    0.081    0.367   91.131  175.904    4.098
  694.420    0.110    0.346   90.522  176.736    4.065
  694.670    0.099    0.343   92.053  177.259    4.291
  694.920    0.089    0.369   92.973  177.884    4.664
  695.170    0.100    0.410   93.098  178.923    5.999
  695.420    0.118    0.443   94.017  179.756    3.921
  695.670    0.144    0.403   95.549  180.072    2.738
  695.920    0.118    0.370   95.674  180.076    2.465
  696.170    0.123    0.348   94.942  178.942    2.272
  696.420    0.093    0.328   91.765  176.357    2.205
  696.670    0.074    0.305   87.671  173.876    2.199
  696.920    0.051    0.325   89.997  174.502    2.247
  697.170    0.123    0.454   99.845  176.059    2.376
  697.420    0.161    0.427  103.027  179.999    2.458
  697.670    0.151    0.424   98.076  185.698    1.414
  697.920    0.144    0.435   92.698  192.019    0.836
  698.170    0.115    0.419   88.114  195.958    0.691
  698.420    0.125    0.388   85.059  190.888    0.516
  698.670    0.070    0.319   86.529  173.808    0.771
  698.920    0.038    0.335   89.284  172.362    1.098
  699.170    0.074    0.434   92.283  177.648    1.977
  699.420    0.136    0.456   96.016  184.900    3.817
  699.670    0.117    0.436   98.525  189.253    4.513
  699.920    0.118    0.378  101.096  188.637    5.435
  700.170    0.104    0.361   96.879  178.079    6.594
  700.420    0.063    0.344   92.907  169.386    6.960
  700.670    0.045    0.336   94.071  168.666    6.644
  700.920    0.034    0.336   96.276  169.084    6.103
  701.170    0.047    0.348   98.357  169.709    4.852
  701.420    0.076    0.351  100.622  170.542    3.950
  701.670    0.101    0.372   99.769  170.961    3.492
  701.920    0.115    0.395   95.185  170.965    3.327
  702.170    0.077    0.414   93.598  170.970    3.205
  702.420    0.088    0.437   94.946  171.181    3.081
  702.670    0.121    0.469   96.844  173.049    2.905
  702.920    0.143    0.547   96.785  188.482    2.793
  703.170    0.154    0.602   93.119  194.285    2.710
  703.420    0.223    0.378   64.626  181.139    2.649
  703.670    0.231    0.354   50.625  167.164    2.585
  703.920    0.199    0.351   41.272  163.648    2.531
  704.170    0.239    0.359   39.562  163.653    2.475
  704.420    0.224    0.361   41.277  164.796    2.424
  704.670    0.216    0.354   43.909  166.043    2.399
  704.920    0.231    0.343   45.012  166.772    2.407
  705.170    0.239    0.335   44.587  166.880    2.477
  705.420    0.220    0.351   44.528  165.435    2.466
  705.670    0.210    0.365   47.343  164.403    2.481
  705.920    0.202    0.363   50.648  164.201    2.516
  706.170    0.205    0.346   52.852  163.687    2.560
  706.420    0.203    0.352   53.711  163.278    2.615
  706.670    0.190    0.359   55.059  163.800    2.676
  706.920    0.206    0.352   56.346  163.804    2.744
  707.170    0.206    0.348   59.467  164.326    2.818
  707.420    0.225    0.360   57.696  165.781    2.899
  707.670    0.235    0.367   56.537  167.235    2.956
  707.920    0.234    0.369   58.679  168.793    3.014
  708.170    0.226    0.366   64.369  169.831    3.084
  708.420    0.198    0.339   67.979  169.525    3.155
  708.670    0.159    0.351   72.324  168.494    3.337
  708.920    0.150    0.359   72.754  167.670    3.601
  709.170    0.172    0.354   70.922  166.639    4.691
  709.420    0.164    0.330   72.393  166.229    5.221
  709.670    0.109    0.327   80.406  167.373    5.718
  709.920    0.090    0.321   84.995  171.312    6.458
  710.170    0.049    0.273   78.882  166.243    7.511
  710.420    0.006    0.188   71.058  162.933    8.499
  710.670   -0.006    0.179   63.906  162.213    9.256
  710.920   -0.012    0.176   60.545  162.424    9.665
  711.170   -0.015    0.174   58.836  163.258    9.764
  711.420   -0.018    0.167   57.065  163.884    9.773
  711.670   -0.018    0.162   58.229  164.613    9.660
  711.920   -0.013    0.167   60.739  164.927    9.581
  712.170    0.005    0.178   63.432  164.931    9.556
  712.420    0.028    0.229   65.636  164.832    9.707
  712.670    0.049    0.225   65.638  164.837   10.341
  712.920    0.037    0.205   60.993  164.634   11.448
  713.170    0.021    0.178   54.636  164.431   13.861
  713.420    0.026    0.156   47.913  164.332   19.535
  713.670   -0.001    0.142   42.901  164.336   19.343
  713.920    0.005    0.119   34.465  164.444   18.264
  714.170    0.043    0.104   41.561  164.656   17.120
  714.420    0.017    0.119   51.409  165.385   15.583
  714.670   -0.005    0.197   66.332  166.217   13.798
  714.920    0.005    0.208   72.572  166.947   10.790
  715.170   -0.002    0.200   75.020  167.677    9.769
  715.420   -0.005    0.194   76.735  168.095    9.412
  715.670   -0.006    0.197   77.166  167.167    9.352
  715.920   -0.007    0.203   77.413  165.929    9.553
  716.170   -0.002    0.207   77.783  165.001    9.812
