~VERSION INFORMATION
 VERS.                 2.0:   CWLS LOG ASCII STANDARD -VERSION 2.0
 WRAP.                  NO:   ONE LINE PER DEPTH STEP
~WELL INFORMATION BLOCK
#MNEM.UNIT           DATA                    DESCRIPTION OF MNEMONIC
#---------    -------------------            -------------------------------
# Generated from Intellog Unique Number	CX_WELLS/WELL/3729
NULL.         -999.25                        : NULL_VALUE
WELL.         PARAMOUNT ET AL LIVOCK         : Well_name    - WELL              
LOC .         06-23-085-18W4                 : Location     - LOCATION          
UWI .         00/06-23-085-18W400            : Uwi          - UNIQUE WELL ID    
ENTR.         T                              : Entered      - ENTERED BY        
SRVC.         SCHLUMBERGER                   : Scn          - SERVICE COMPANY   
DATE.         03/04/92                       : Date         - LOG DATE          
STRT.F        620                            : top_depth    - START DEPTH       
STOP.F        849.659                        : bot_depth    - STOP DEPTH        
STEP.F        0.82                           : increment    - STEP LENGTH       
~CURVE INFORMATION BLOCK
#MNEM UNIT       ERCB CURVE CODE    CURVE DESCRIPTION
#-----------   ------------------   ----------------------------------
DEPT.F        00 001 00 00         : DEPTH        - DEPTH                       
GR  .API      00 310 00 00         : GR           - GAMMA RAY                   
NPHI.V/V      00 330 00 00         : PHIN         - NEUTRON POROSITY (SANDSTONE)
DPHI.V/V      00 890 00 00         : PHID         - DENSITY POROSITY (SANDSTONE)
ILD .OHMM     00 120 00 00         : RESD         - DEEP RESISTIVITY (DIL)      
~PARAMETER INFORMATION       
#MNEM.UNIT           DATA             DESCRIPTION OF MNEMONIC
#---------         -----------     ------------------------------
GL  .F        1657                 : gl           - GROUND LEVEL ELEVATION      
EREF.F        1668                 : kb           - ELEVATION OF DEPTH REFERENCE
DATM.F        1668                 : datum        - DATUM ELEVATION             
TDD .F        850                  : tdd          - TOTAL DEPTH DRILLER         
RUN .         ONE                  : Run          - RUN NUMBER                  
ENG .         JO                   : Engineer     - RECORDING ENGINEER          
WIT .         TIM                  : Witness      - WITNESSED BY                
MUD .         GEL                  : Mud_type     - MUD TYPE                    
MATR.         SANDSTONE            : Logunit      - NEUTRON MATRIX              
TMAX.F        57                   : BHT          - MAXIMUM RECORDED TEMPERATURE
BHTD.F        850                  : BHTDEP       - MAXIMUM RECORDED TEMPERATURE
RMT .F        50                   : MDTP         - TEMPERATURE OF MUD          
MUDD.LB/G     1                    : MWT          - MUD DENSITY                 
NEUT.         1                    : NEUTRON      - NEUTRON TYPE                
RESI.         0                    : RESIST       - RESISTIVITY TYPE            
RM  .OHMM     2.5                  : RM           - RESISTIVITY OF MUD          
RMC .OHMM     2.5                  : RMC          - RESISTIVITY OF MUD CAKE     
RMF .OHMM     3.4                  : RMF          - RESISTIVITY OF MUD FILTRATE 
SUFT.F        39.2                 : SUFT         - SURFACE TEMPERATURE         
~A  DEPTH       GR     PHIN     PHID     RESD
  620.000   82.638    0.569    0.285    7.346
  620.820   82.647    0.567    0.261    7.432
  621.640   84.425    0.562    0.246    7.518
  622.461   87.387    0.556    0.245    7.445
  623.281   89.757    0.554    0.238    7.449
  624.101   92.126    0.554    0.237    7.373
  624.921   93.907    0.549    0.233    7.379
  625.741   96.866    0.541    0.229    7.383
  626.562  100.418    0.546    0.228    7.470
  627.382  103.376    0.555    0.224    7.635
  628.202  103.976    0.561    0.223    7.879
  629.022  101.031    0.551    0.227    8.124
  629.843   95.729    0.540    0.224    8.528
  630.663   95.740    0.547    0.225    8.932
  631.483   96.928    0.551    0.227    9.895
  632.303   93.985    0.545    0.228   10.778
  633.123   90.450    0.530    0.232   11.822
  633.944   84.560    0.506    0.240   13.344
  634.764   81.615    0.475    0.250   15.984
  635.584   82.806    0.469    0.275   16.868
  636.404   83.402    0.489    0.280   15.196
  637.224   84.593    0.494    0.290   14.562
  638.045   83.421    0.513    0.284   13.849
  638.865   84.019    0.518    0.273   12.737
  639.685   82.849    0.524    0.272   12.024
  640.505   79.904    0.530    0.269   11.549
  641.325   75.784    0.535    0.267   11.235
  642.146   78.158    0.529    0.252   11.082
  642.966   78.754    0.520    0.227   11.167
  643.786   78.170    0.507    0.216   11.331
  644.606   76.998    0.489    0.244   11.496
  645.427   78.187    0.479    0.255   11.583
  646.247   79.378    0.462    0.241   11.749
  647.067   78.796    0.417    0.213   12.071
  647.887   77.621    0.338    0.155   13.755
  648.707   71.139    0.240    0.118   14.078
  649.528   66.423    0.141    0.015   15.999
  650.348   59.350    0.087   -0.022   18.160
  651.168   59.951    0.154   -0.053   19.602
  651.988   71.764    0.261    0.025   21.045
  652.808   74.131    0.304    0.078   22.647
  653.629   77.681    0.338    0.135   23.132
  654.449   71.789    0.314    0.090   22.179
  655.269   66.485    0.282    0.057   21.785
  656.089   67.085    0.224    0.031   22.189
  656.909   72.404    0.196    0.078   22.754
  657.730   85.992    0.242    0.171   22.598
  658.550   89.540    0.398    0.225   15.259
  659.370   93.682    0.461    0.232   13.667
  660.190   93.695    0.492    0.238   12.717
  661.010   93.697    0.515    0.245   12.722
  661.831   93.119    0.513    0.250   12.806
  662.651   91.947    0.519    0.252   13.131
  663.471   89.594    0.526    0.246   13.295
  664.291   86.061    0.522    0.242   13.460
  665.112   84.296    0.511    0.236   13.464
  665.932   84.899    0.496    0.228   13.391
  666.752   90.217    0.500    0.217   13.477
  667.572   95.540    0.511    0.231   13.562
  668.392   94.365    0.522    0.235   13.327
  669.213   93.197    0.530    0.230   12.932
  670.033   93.204    0.526    0.226   12.459
  670.853   94.394    0.524    0.222   12.383
  671.673   93.814    0.523    0.208   12.152
  672.493   92.638    0.516    0.199   11.998
  673.314   92.648    0.507    0.204   11.842
  674.134   93.837    0.505    0.208   11.608
  674.954   94.438    0.511    0.203   11.375
  675.774   91.497    0.518    0.193   11.299
  676.594   90.322    0.517    0.187   11.304
  677.415   88.564    0.513    0.185   11.307
  678.235   88.568    0.508    0.190   11.394
  679.055   89.759    0.509    0.194   11.400
  679.875   92.126    0.510    0.208   11.324
  680.696   96.857    0.512    0.221   11.172
  681.516  101.589    0.518    0.222   11.015
  682.336  101.007    0.520    0.218   10.702
  683.156   98.068    0.524    0.212   10.389
  683.976   96.892    0.516    0.205   10.154
  684.797   96.312    0.522    0.212   10.079
  685.617   96.912    0.528    0.215    9.925
  686.437   96.330    0.531    0.216    9.850
  687.257   95.156    0.530    0.214    9.854
  688.077   90.446    0.527    0.211    9.860
  688.898   89.272    0.524    0.200    9.945
  689.718   92.236    0.524    0.191    9.870
  690.538   93.420    0.524    0.184    9.559
  691.358   97.565    0.522    0.190    9.403
  692.178   98.751    0.520    0.203    9.170
  692.999   99.940    0.519    0.208    9.016
  693.819   99.948    0.519    0.203    9.099
  694.639   98.776    0.522    0.198    9.185
  695.459  100.559    0.524    0.192    9.188
  696.280  101.746    0.526    0.187    9.035
  697.100  103.527    0.524    0.192    9.040
  697.920  102.945    0.523    0.207    9.446
  698.740  100.592    0.520    0.211    9.851
  699.560   98.240    0.516    0.212   10.013
  700.381   95.296    0.512    0.218   10.021
  701.201   94.126    0.501    0.208   10.104
  702.021   94.135    0.496    0.195   10.431
  702.841   94.733    0.502    0.195   10.833
  703.661   95.332    0.504    0.196   12.115
  704.482   95.340    0.503    0.201   12.760
  705.302   95.938    0.492    0.202   13.244
  706.122   98.900    0.479    0.204   13.808
  706.942  100.679    0.446    0.190   14.692
  707.762   97.144    0.413    0.156   15.495
  708.583   84.759    0.332    0.124   17.258
  709.403   73.552    0.249    0.072   20.296
  710.223   68.248    0.198    0.026   23.655
  711.043   72.388    0.186    0.046   24.059
  711.864   84.204    0.232    0.113   23.026
  712.684   88.341    0.250    0.150   19.439
  713.504   94.254    0.329    0.185   17.289
  714.324   98.985    0.382    0.208   15.299
  715.144   97.814    0.404    0.223   14.587
  715.965   95.462    0.428    0.228   14.592
  716.785   93.699    0.463    0.233   14.517
  717.605   94.300    0.485    0.235   14.121
  718.425   95.487    0.483    0.237   13.248
  719.245   97.266    0.475    0.239   12.535
  720.066   96.684    0.468    0.240   10.704
  720.886   96.106    0.474    0.240   10.230
  721.706   96.112    0.486    0.231    9.517
  722.526   97.895    0.498    0.223    8.804
  723.346   98.492    0.515    0.218    8.092
  724.167   98.500    0.517    0.214    7.698
  724.987  100.869    0.522    0.211    7.305
  725.807  103.238    0.527    0.206    7.227
  726.627  103.841    0.533    0.202    7.155
  727.448  102.074    0.540    0.200    7.480
  728.268   92.050    0.535    0.197    8.282
  729.088   89.107    0.519    0.192   12.279
  729.908   84.984    0.476    0.190   14.680
  730.728   82.631    0.435    0.186   15.802
  731.549   85.593    0.419    0.181   17.086
  732.369   87.372    0.444    0.178   13.418
  733.189   90.926    0.490    0.182   10.390
  734.009   91.520    0.504    0.179    9.916
  734.829   93.891    0.524    0.180    7.686
  735.650   95.670    0.537    0.182    7.133
  736.470   98.042    0.537    0.186    6.819
  737.290   98.050    0.534    0.189    6.904
  738.110   98.648    0.534    0.188    7.308
  738.930  101.610    0.537    0.189    7.474
  739.751  103.387    0.539    0.194    7.399
  740.571  104.576    0.535    0.207    7.325
  741.391  105.174    0.527    0.210    7.250
  742.211  107.546    0.532    0.206    7.254
  743.031  108.733    0.535    0.201    7.100
  743.852  109.923    0.535    0.200    6.944
  744.672  111.114    0.529    0.200    6.792
  745.492  111.713    0.522    0.199    6.956
  746.312  111.721    0.510    0.192    7.360
  747.133  109.958    0.496    0.186    8.003
  747.953  104.062    0.470    0.174    9.846
  748.773   92.858    0.452    0.160   11.687
  749.593   98.180    0.477    0.160   14.806
  750.413  107.042    0.477    0.173   15.130
  751.234  108.231    0.477    0.183   14.737
  752.054  103.519    0.479    0.185   14.503
  752.874   99.396    0.483    0.186   14.428
  753.694   97.041    0.472    0.188   14.195
  754.514   97.049    0.473    0.192   14.119
  755.335   97.058    0.467    0.193   13.886
  756.155   95.887    0.457    0.193   13.891
  756.975   92.944    0.463    0.193   14.218
  757.795   88.823    0.466    0.195   14.541
  758.615   85.290    0.462    0.200   14.864
  759.436   84.705    0.455    0.200   15.108
  760.256   88.259    0.451    0.211   15.674
  761.076   90.036    0.450    0.220   16.160
  761.896   91.815    0.440    0.232   16.322
