~VERSION INFORMATION
 VERS.                 2.0:   CWLS LOG ASCII STANDARD -VERSION 2.0
 WRAP.                  NO:   ONE LINE PER DEPTH STEP
~WELL INFORMATION BLOCK
#MNEM.UNIT           DATA                    DESCRIPTION OF MNEMONIC
#---------    -------------------            -------------------------------
# Generated from Intellog Unique Number	CS_77_79/WELL/914
WELL.         PCI PCEJ CHARD                 : Well_name    - WELL
LOC .         00/07-32-079-06W4/0            : Location     - LOCATION
UWI .         00/07-32-079-06W4/0            : Uwi          - UNIQUE WELL ID
ENTR.         JHS                            : Entered      - ENTERED BY
SRVC.         SCHLUMBERGER                   : Scn          - SERVICE COMPANY
STRT.M        120                            : top_depth    - START DEPTH
STOP.M        360                            : bot_depth    - STOP DEPTH
STEP.M        0.25                           : increment    - STEP LENGTH
 NULL. -999.2500:NULL Value
~CURVE INFORMATION BLOCK
#MNEM UNIT       ERCB CURVE CODE    CURVE DESCRIPTION
#-----------   ------------------   ----------------------------------
DEPT.M        00 001 00 00         : DEPTH        - DEPTH
DPHI.V/V      00 890 00 00         : PHID         - DENSITY POROSITY (LIMESTONE)
NPHI.V/V      00 330 00 00         : PHIN         - NEUTRON POROSITY (LIMESTONE)
GR  .API      00 310 00 00         : GR           - GAMMA RAY
ILD .OHMM     00 120 00 00         : RESD         - DEEP RESISTIVITY (DIL)
RHOB.KG/M3    00 350 00 00         : DENS         - BULK DENSITY
~PARAMETER INFORMATION
#MNEM.UNIT           DATA             DESCRIPTION OF MNEMONIC
#---------         -----------     ------------------------------
GL  .M        547.4                : gl           - GROUND LEVEL ELEVATION
EREF.M        550.5                : kb           - ELEVATION OF DEPTH REFERENCE
DATM.M        550.5                : datum        - DATUM ELEVATION
TDD .M        365                  : tdd          - TOTAL DEPTH DRILLER
RUN .         ONE                  : Run          - RUN NUMBER
ENG .         BILL                 : Engineer     - RECORDING ENGINEER
WIT .         JIM                  : Witness      - WITNESSED BY
MUD .         GEL                  : Mud_type     - MUD TYPE
MATR.         LIMESTONE            : Logunit      - NEUTRON MATRIX
TMAX.C        20                   : BHT          - MAXIMUM RECORDED TEMPERATURE
BHTD.M        365                  : BHTDEP       - MAXIMUM RECORDED TEMPERATURE
MATR.         1                    : LOGUNIT      - NEUTRON MATRIX
RMT .C        25                   : MDTP         - TEMPERATURE OF MUD
NEUT.         1                    : NEUTRON      - NEUTRON TYPE
RESI.         0                    : RESIST       - RESISTIVITY TYPE
RMC .OHMM     0.25                 : RMC          - RESISTIVITY OF MUD CAKE
RMF .OHMM     0.25                 : RMF          - RESISTIVITY OF MUD FILTRATE
SUFT.C        15                   : SUFT         - SURFACE TEMPERATURE
~A  DEPTH     PHID     PHIN       GR     RESD     DENS
# ...
  266.000    0.253    0.437   70.428    6.382 2277.390
  266.250    0.243    0.447   75.923    6.269 2294.240
  266.500    0.257    0.468   81.425    6.043 2271.340
  266.750    0.263    0.485   83.275    5.716 2261.030
  267.000    0.256    0.498   83.916    5.112 2271.560
  267.250    0.256    0.519   82.735    4.487 2271.660
  267.500    0.279    0.521   82.764    4.166 2232.080
  267.750    0.281    0.514   83.400    3.941 2230.090
  268.000    0.267    0.521   83.434    3.799 2253.200
  268.250    0.259    0.530   81.639    3.949 2267.920
  268.500    0.255    0.520   80.454    4.102 2274.300
  268.750    0.269    0.519   82.306    4.344 2249.350
  269.000    0.257    0.516   84.165    4.686 2270.340
  269.250    0.250    0.478   84.197    5.056 2282.980
  269.500    0.262    0.464   85.437    5.456 2262.210
  269.750    0.262    0.455   89.125    5.669 2262.280
  270.000    0.245    0.435   89.146    6.117 2291.660
  270.250    0.237    0.418   85.537    6.354 2304.290
  270.500    0.258    0.406   83.742    6.604 2268.890
  270.750    0.269    0.406   87.423    6.734 2250.180
  271.000    0.252    0.436   87.457    6.493 2279.550
  271.250    0.237    0.456   85.657    6.142 2304.730
  271.500    0.231    0.474   82.049    5.001 2315.280
  271.750    0.255    0.501   80.862    4.471 2273.600
  272.000    0.281    0.520   80.288    3.641 2229.850
  272.250    0.294    0.619   80.319    3.078 2206.960
  272.500    0.305    0.613   77.929    2.804 2188.250
  272.750    0.306    0.603   76.133    2.508 2186.300
  273.000    0.306    0.585   74.946    2.329 2186.370
  273.250    0.311    0.565   73.155    2.244 2178.120
  273.500    0.316    0.570   72.575    2.164 2169.870
  273.750    0.317    0.557   72.607    2.206 2167.890
  274.000    0.305    0.548   74.462    2.293 2188.900
  274.250    0.296    0.580   77.532    2.338 2203.640
  274.500    0.285    0.613   76.346    2.477 2222.540
  274.750    0.267    0.569   77.599    2.573 2253.990
  275.000    0.248    0.480   81.272    2.775 2285.470
  275.250    0.260    0.493   83.725    3.228 2264.650
  275.500    0.249    0.507   87.399    3.685 2283.580
  275.750    0.253    0.517   87.433    3.975 2277.400
  276.000    0.271    0.490   84.432    4.538 2246.170
  276.250    0.268    0.424   80.813    5.179 2252.560
  276.500    0.260    0.423   75.985    5.694 2265.200
  276.750    0.254    0.437   74.198    5.806 2275.750
  277.000    0.244    0.457   79.693    5.703 2292.580
  277.250    0.249    0.488   84.580    5.198 2284.330
  277.500    0.246    0.482   87.046    4.917 2288.630
  277.750    0.240    0.481   87.692    4.564 2299.180
  278.000    0.237    0.493   87.104    4.160 2305.540
  278.250    0.234    0.510   87.139    3.863 2309.830
  278.500    0.246    0.504   88.389    3.654 2289.040
  278.750    0.256    0.505   89.023    3.522 2272.430
  279.000    0.261    0.521   89.662    3.395 2264.170
  279.250    0.264    0.532   87.865    3.273 2258.010
  279.500    0.264    0.501   81.827    3.215 2258.120
  279.750    0.264    0.496   78.823    3.218 2258.250
  280.000    0.268    0.510   81.284    3.221 2252.070
  280.250    0.264    0.500   86.781    3.284 2258.440
  280.500    0.268    0.489   88.024    3.413 2252.280
  280.750    0.271    0.488   84.414    3.547 2246.110
  281.000    0.272    0.530   83.233    3.686 2244.140
  281.250    0.263    0.539   85.687    3.758 2260.950
  281.500    0.258    0.459   84.508    3.980 2269.430
  281.750    0.265    0.426   82.104    4.294 2256.990
  282.000    0.281    0.407   79.105    4.632 2229.930
  282.250    0.270    0.407   79.136    5.491 2248.860
  282.500    0.265    0.433   82.812    5.704 2257.310
  282.750    0.257    0.465   85.266    5.817 2269.960
  283.000    0.251    0.483   84.694    5.608 2280.510
  283.250    0.236    0.483   82.901    5.305 2305.700
  283.500    0.197    0.434   79.292    5.514 2372.670
  283.750    0.153    0.389   73.852    5.838 2448.000
  284.000    0.134    0.379   72.062    6.298 2481.540
  284.250    0.213    0.377   73.309    7.055 2345.830
  284.500    0.259    0.342   66.054    8.053 2266.530
  284.750    0.311    0.315   60.616    8.852 2178.880
  285.000    0.315    0.313   57.617    9.550 2170.620
  285.250    0.309    0.329   59.468   10.307    0.000
  285.500    0.296    0.334   63.148   10.312 2204.270
  285.750    0.283    0.326   65.597    9.942 2225.280
  286.000    0.277    0.326   68.059    9.406 2235.840
  286.250    0.297    0.293   60.198    9.066 2202.520
  286.500    0.398    0.134   51.724    8.906 2029.180
  286.750    0.407    0.066   43.251    9.790 2014.660
  287.000    0.404    0.051   23.250   12.275 2018.950
  287.250    0.402    0.067   23.878   19.641 2023.260
  287.500    0.395    0.106   39.095   36.518 2033.800
  287.750    0.395    0.122   45.812   54.219 2033.890
  288.000    0.414    0.095   42.801   61.875 2002.670
  288.250    0.423    0.079   39.189   68.026 1986.070
  288.500    0.423    0.060   38.006   76.205 1986.190
  288.750    0.429    0.054   36.215   88.632 1975.830
  289.000    0.438    0.060   33.209  105.035 1961.310
  289.250    0.429    0.074   33.846  113.315 1976.030
  289.500    0.410    0.093   42.992  105.212 2009.590
  289.750    0.395    0.120   50.316   82.496 2034.770
  290.000    0.384    0.147   56.423   56.723 2053.670
  290.250    0.372    0.204   59.478   42.050 2074.680
  290.500    0.368    0.220   63.764   33.594 2081.040
  290.750    0.367    0.231   69.260   25.852 2083.240
  291.000    0.352    0.250   73.552   21.049 2108.430
  291.250    0.352    0.247   72.365   18.131 2108.540
  291.500    0.388    0.204   70.570   17.811 2045.950
  291.750    0.407    0.189   68.778   17.824 2014.730
  292.000    0.396    0.196   68.210   18.521 2033.630
  292.250    0.392    0.202   68.843   19.613 2040.000
  292.500    0.408    0.194   65.833   20.382 2012.940
  292.750    0.399    0.217   65.862   19.645 2027.690
  293.000    0.351    0.284   71.968   17.239 2109.300
  293.250    0.318    0.322   79.895   13.774 2165.810
  293.500    0.275    0.387   87.217   10.600 2239.040
  293.750    0.245    0.404   94.532    8.470 2291.390
  294.000    0.230    0.417  101.861    7.718 2316.580
  294.250    0.250    0.428  101.277    7.581 2283.250
  294.500    0.308    0.378   97.054    7.730 2183.060
  294.750    0.370    0.300   85.548    8.660 2076.600
  295.000    0.376    0.273   61.894    9.520 2066.260
  295.250    0.334    0.274   60.715    9.893 2139.500
  295.500    0.291    0.336   64.992    9.536 2212.740
  295.750    0.268    0.355   69.887    8.855 2252.560
  296.000    0.250    0.358   69.313    8.378 2281.920
  296.250    0.244    0.360   70.554    8.545 2292.470
  296.500    0.238    0.365   74.227    9.047 2303.020
  296.750    0.235    0.367   73.046    9.579 2307.310
  297.000    0.261    0.369   64.571   10.530 2263.540
  297.250    0.287    0.378   51.241   11.575 2219.760
  297.500    0.273    0.388   48.844   12.260 2242.880
  297.750    0.269    0.368   57.985   12.039 2249.260
  298.000    0.254    0.360   72.590   10.973 2276.510
  298.250    0.238    0.360   84.771   10.377 2303.770
  298.500    0.258    0.371   82.379    9.457 2268.360
  298.750    0.273    0.384   79.365    8.946 2243.400
  299.000    0.248    0.369   73.931    8.307 2285.280
  299.250    0.214    0.350   78.823    8.007 2343.910
  299.500    0.175    0.372   86.746    7.866 2410.880
  299.750    0.158    0.427   84.351    7.871 2440.240
  300.000    0.308    0.396   57.074    8.711 2183.320
  300.250    0.303    0.405   57.046    9.945 2191.590
  300.500    0.297    0.407   57.031   11.570 2201.970
  300.750    0.291    0.395   56.406   12.720 2212.340
  301.000    0.306    0.401   53.349   13.986 2187.190
  301.250    0.317    0.407   49.686   14.262 2168.310
  301.500    0.297    0.396   50.271   13.746 2201.660
  301.750    0.242    0.358   67.253   12.756 2295.600
  302.000    0.214    0.345   78.161   11.619 2343.580
  302.250    0.222    0.348   82.394   10.581 2330.960
