~VERSION INFORMATION
 VERS.                 2.0:   CWLS LOG ASCII STANDARD -VERSION 2.0
 WRAP.                  NO:   ONE LINE PER DEPTH STEP
~WELL INFORMATION BLOCK
#MNEM.UNIT           DATA                    DESCRIPTION OF MNEMONIC
#---------    -------------------            -------------------------------
# Generated from Intellog Unique Number	CC_80_83/WELL/2317
NULL.         -999.25                        : NULL_VALUE
WELL.         CWWE THORNBURY                 : Well_name    - WELL
LOC .         08-02-080-13W4                 : Location     - LOCATION          
UWI .         00/08-02-080-13W4/0            : Uwi          - UNIQUE WELL ID    
ENTR.         DW                             : Entered      - ENTERED BY        
SRVC.         SCHLUMBERGER                   : Scn          - SERVICE COMPANY   
STRT.M        265                            : top_depth    - START DEPTH       
STOP.M        495.091                        : bot_depth    - STOP DEPTH        
STEP.M        0.3                            : increment    - STEP LENGTH       
~CURVE INFORMATION BLOCK
#MNEM UNIT       ERCB CURVE CODE    CURVE DESCRIPTION
#-----------   ------------------   ----------------------------------
DEPT.M        00 001 00 00         : DEPTH        - DEPTH                       
DPHI.V/V      00 890 00 00         : PHID         - DENSITY POROSITY (LIMESTONE)
NPHI.V/V      00 330 00 00         : PHIN         - NEUTRON POROSITY (LIMESTONE)
GR  .API      00 310 00 00         : GR           - GAMMA RAY                   
ILD .OHMM     00 120 00 00         : RESD         - DEEP RESISTIVITY (DIL)      
~PARAMETER INFORMATION       
#MNEM.UNIT           DATA             DESCRIPTION OF MNEMONIC
#---------         -----------     ------------------------------
GL  .M        686.67               : gl           - GROUND LEVEL ELEVATION      
EREF.M        692.7                : kb           - ELEVATION OF DEPTH REFERENCE
DATM.M        692.7                : datum        - DATUM ELEVATION             
TDD .M        502                  : tdd          - TOTAL DEPTH DRILLER         
RUN .         ONE                  : Run          - RUN NUMBER                  
ENG .         BILL                 : Engineer     - RECORDING ENGINEER          
WIT .         JIM                  : Witness      - WITNESSED BY                
MUD .         GEL                  : Mud_type     - MUD TYPE                    
MATR.         LIMESTONE            : Logunit      - NEUTRON MATRIX              
TMAX.C        21                   : BHT          - MAXIMUM RECORDED TEMPERATURE
BHTD.M        503                  : BHTDEP       - MAXIMUM RECORDED TEMPERATURE
MATR.         1                    : LOGUNIT      - NEUTRON MATRIX              
RMT .C        25                   : MDTP         - TEMPERATURE OF MUD          
NEUT.         1                    : NEUTRON      - NEUTRON TYPE                
RESI.         0                    : RESIST       - RESISTIVITY TYPE            
RMC .OHMM     0.25                 : RMC          - RESISTIVITY OF MUD CAKE     
RMF .OHMM     0.25                 : RMF          - RESISTIVITY OF MUD FILTRATE 
SUFT.C        15                   : SUFT         - SURFACE TEMPERATURE         
~A  DEPTH     PHID     PHIN       GR     RESD
# ...
  369.396    0.256    0.569  112.358    3.104
  369.696    0.251    0.554  108.021    3.042
  369.996    0.250    0.574  108.646    2.981
  370.296    0.253    0.583  109.268    2.978
  370.596    0.253    0.578  107.412    2.974
  370.896    0.254    0.594  102.455    3.030
  371.196    0.258    0.607  103.701    3.332
  371.496    0.266    0.615  103.703    3.736
  371.796    0.280    0.590   98.748    4.612
  372.096    0.286    0.560   96.271    5.692
  372.396    0.291    0.554   98.755    6.892
  372.696    0.259    0.497  104.339    7.581
  372.996    0.250    0.481   96.903    7.869
  373.296    0.254    0.462  100.007    7.564
  373.596    0.264    0.461   98.151    6.733
  373.896    0.277    0.465   91.334   11.526
  374.196    0.265    0.501   85.757   12.921
  374.496    0.182    0.514   88.241    8.617
  374.796    0.047    0.363   65.923    7.102
  375.096    0.088    0.368   62.207    6.322
  375.396    0.147    0.414   78.952    5.847
  375.695    0.274    0.455   90.737    5.006
  375.995    0.277    0.456   94.462    4.371
  376.295    0.266    0.457   99.426    3.966
  376.595    0.265    0.486  103.151    3.813
  376.895    0.255    0.513  104.394    3.666
  377.195    0.254    0.533  103.778    3.325
  377.495    0.268    0.533  103.163    2.960
  377.795    0.279    0.540  103.166    1.937
  378.095    0.281    0.546  103.170    1.342
  378.395    0.277    0.563  105.654    0.513
  378.695    0.266    0.553  102.557    0.348
  378.995    0.259    0.548  101.942    0.322
  379.295    0.263    0.596  110.626    0.335
  379.595    0.259    0.545  101.949    0.455
  379.895    0.259    0.537   98.233    1.166
  380.195    0.266    0.574  101.957    3.839
  380.495    0.280    0.590  101.962    5.117
  380.795    0.277    0.594  100.726    4.918
  381.095    0.270    0.512  101.349    4.463
  381.395    0.275    0.494   90.192    4.289
  381.695    0.277    0.498   91.436    4.369
  381.995    0.271    0.512   97.640    4.535
  382.295    0.271    0.510   96.405    4.988
  382.595    0.234    0.529   95.168    5.701
  382.895    0.208    0.499   91.452    6.516
  383.195    0.229    0.477   90.215    6.384
  383.495    0.233    0.458   90.839    6.135
  383.795    0.224    0.446   98.284    6.250
  384.095    0.225    0.471  110.069    6.487
  384.395    0.225    0.501  101.392    5.885
  384.695    0.184    0.455   89.615    5.994
  384.995    0.120    0.424   87.138    6.852
  385.295    0.156    0.417   93.963    8.297
  385.595    0.213    0.445   95.828    9.853
  385.895    0.228    0.481   92.731   10.632
  386.195    0.202    0.447   89.015   10.825
  386.495    0.176    0.381   87.159   10.405
  386.795    0.198    0.369   90.263   10.197
  387.095    0.262    0.388   91.507   10.188
  387.395    0.240    0.430   84.070   11.870
  387.695    0.195    0.405   79.114   15.224
  387.995    0.217    0.414   79.117   17.741
  388.295    0.202    0.425   80.361   22.323
  388.595    0.000    0.341   72.925   21.458
  388.895    0.000    0.205   53.707   16.693
  389.195    0.033    0.188   46.890   12.256
  389.495    0.081    0.225   54.955    9.352
  389.795    0.122    0.295   68.600    8.487
  390.095    0.223    0.354   81.005    7.550
  390.395    0.241    0.396   89.690    7.402
  390.695    0.244    0.415   92.174    7.392
  390.995    0.240    0.436   88.457    7.972
  391.295    0.246    0.460   89.081    8.122
  391.595    0.267    0.421   91.566    8.114
  391.895    0.272    0.424   89.089    7.085
  392.195    0.259    0.464   87.233    5.511
  392.495    0.210    0.461   88.478    4.812
  392.795    0.209    0.442   90.961    4.200
  393.095    0.225    0.456   95.306    4.036
  393.395    0.244    0.524   98.410    4.034
  393.695    0.249    0.551   99.034    4.270
  393.995    0.247    0.490   98.418    4.879
  394.295    0.244    0.476   97.181    6.505
  394.595    0.244    0.483   91.605    8.506
  394.895    0.189    0.499   79.207    8.830
  395.195    0.152    0.481   76.112    8.327
  395.495    0.199    0.347   84.796    6.994
  395.795    0.267    0.370   94.100    6.346
  396.095    0.231    0.420   99.685    6.100
  396.395    0.231    0.447  100.930    6.095
  396.695    0.238    0.485   98.453    5.973
  396.995    0.231    0.500   93.496    5.966
  397.295    0.246    0.474   92.881    6.950
  397.595    0.250    0.479   96.605    7.944
  397.895    0.233    0.495   95.988    8.738
  398.195    0.256    0.477   94.133    9.426
  398.495    0.265    0.448   96.617    9.599
  398.795    0.241    0.435  101.581    9.962
  399.095    0.236    0.416  102.825   10.343
  399.395    0.246    0.392  101.589   10.536
  399.695    0.236    0.384   97.252   10.522
  399.995    0.218    0.405   90.435    9.547
  400.294    0.177    0.418   84.239    8.664
  400.594    0.203    0.387   96.644    8.014
  400.894    0.250    0.415   94.788    7.557
  401.194    0.257    0.435   94.791    7.695
  401.494    0.262    0.449   96.036    8.302
  401.794    0.266    0.452   94.799    8.958
  402.094    0.220    0.426   92.323    9.476
  402.394    0.221    0.449   89.847    8.936
  402.694    0.262    0.436   86.131    8.425
  402.994    0.293    0.416   82.414    7.944
  403.294    0.291    0.431   78.077    7.787
  403.594    0.265    0.437   82.422    7.628
  403.894    0.255    0.427   84.906    7.770
  404.194    0.252    0.436   87.390    8.545
  404.494    0.258    0.433   96.075    9.220
  404.794    0.287    0.428   89.878    9.948
  405.094    0.303    0.430   79.341   10.326
  405.394    0.282    0.413   75.625   10.120
  405.694    0.286    0.406   74.389    9.723
  405.994    0.335    0.385   74.393    9.717
  406.294    0.302    0.369   70.056   10.284
  406.594    0.257    0.405   66.340   11.982
  406.894    0.258    0.438   64.484   13.692
  407.194    0.313    0.433   75.028   13.415
  407.494    0.283    0.441   73.792   12.899
  407.794    0.154    0.377   63.875   11.045
  408.094    0.148    0.282   59.539    9.461
  408.394    0.271    0.314   76.904    8.259
  408.694    0.328    0.355   80.628    7.941
  408.994    0.325    0.415   71.331    9.615
  409.294    0.314    0.432   71.956   11.641
  409.594    0.299    0.474   72.580   13.564
  409.894    0.203    0.412   64.522   13.813
  410.194    0.035    0.237   57.706   13.278
  410.494    0.106    0.216   55.850    9.383
  410.794    0.235    0.270   70.116    8.189
  411.094    0.276    0.329   77.560    7.721
  411.394    0.299    0.427   76.324    7.715
  411.694    0.287    0.444   72.607    7.854
  411.994    0.271    0.431   71.371    7.552
  412.294    0.272    0.453   73.236    7.121
  412.594    0.266    0.468   73.859    6.714
  412.894    0.252    0.448   81.304    6.706
  413.194    0.260    0.441   86.888    6.831
  413.494    0.287    0.426   86.272    6.824
  413.794    0.278    0.420   80.695    6.686
  414.094    0.282    0.432   77.599    6.549
  414.394    0.288    0.436   76.982    6.420
  414.694    0.296    0.424   85.668    6.291
  414.994    0.298    0.431   84.431    5.708
  415.294    0.267    0.447   80.094    5.179
  415.594    0.236    0.452   78.859    4.979
  415.894    0.256    0.453   81.343    4.879
  416.194    0.261    0.480   90.027    6.504
  416.494    0.236    0.498   97.472    8.029
  416.794    0.243    0.474  103.056    9.002
  417.094    0.272    0.444   96.240    9.710
  417.394    0.219    0.426   80.742    9.516
  417.694    0.126    0.392   76.406    9.325
  417.994    0.179    0.365   77.029    8.625
  418.294    0.207    0.396   80.754    8.131
  418.594    0.217    0.422   88.819    7.966
  418.894    0.224    0.433   83.242    7.810
  419.194    0.229    0.432   85.106    7.952
  419.494    0.237    0.434   91.931    8.256
  419.794    0.230    0.433   89.455    8.405
  420.094    0.226    0.434   87.598    8.238
  420.394    0.232    0.436   86.362    8.071
  420.694    0.240    0.423   85.747    8.063
  420.994    0.241    0.414   87.610    8.211
  421.294    0.220    0.422   91.954    8.526
