~VERSION INFORMATION
 VERS.                 2.0:   CWLS LOG ASCII STANDARD -VERSION 2.0
 WRAP.                  NO:   ONE LINE PER DEPTH STEP
~WELL INFORMATION BLOCK
#MNEM.UNIT           DATA                    DESCRIPTION OF MNEMONIC
#---------    -------------------            -------------------------------
# Generated from Intellog Unique Number	CS_73_76/WELL/2213
WELL.         PRECAMBRIAN SHIELD RESOURC     : Well_name    - WELL
LOC .         00/07-20-076-09W4/0            : Location     - LOCATION
UWI .         00/07-20-076-09W4/0            : Uwi          - UNIQUE WELL ID
ENTR.         SP                             : Entered      - ENTERED BY
SRVC.         SCHLUMBERGER                   : Scn          - SERVICE COMPANY
STRT.M        245                            : top_depth    - START DEPTH
STOP.M        495                            : bot_depth    - STOP DEPTH
STEP.M        0.25                           : increment    - STEP LENGTH
 NULL. -999.2500:NULL Value
~CURVE INFORMATION BLOCK
#MNEM UNIT       ERCB CURVE CODE    CURVE DESCRIPTION
#-----------   ------------------   ----------------------------------
DEPT.M        00 001 00 00         : DEPTH        - DEPTH
ILD .OHMM     00 120 00 00         : RESD         - DEEP RESISTIVITY (DIL)
DPHI.V/V      00 890 00 00         : PHID         - DENSITY POROSITY (LIMESTONE)
NPHI.V/V      00 330 00 00         : PHIN         - NEUTRON POROSITY (LIMESTONE)
GR  .API      00 310 00 00         : GR           - GAMMA RAY
~PARAMETER INFORMATION
#MNEM.UNIT           DATA             DESCRIPTION OF MNEMONIC
#---------         -----------     ------------------------------
GL  .M        677.49               : gl           - GROUND LEVEL ELEVATION
EREF.M        681.99               : kb           - ELEVATION OF DEPTH REFERENCE
DATM.M        677.49               : datum        - DATUM ELEVATION
TDD .M        498                  : tdd          - TOTAL DEPTH DRILLER
RUN .         ONE                  : Run          - RUN NUMBER
ENG .         BILL                 : Engineer     - RECORDING ENGINEER
WIT .         JIM                  : Witness      - WITNESSED BY
MUD .         GEL                  : Mud_type     - MUD TYPE
MATR.         LIMESTONE            : Logunit      - NEUTRON MATRIX
TMAX.C        20                   : BHT          - MAXIMUM RECORDED TEMPERATURE
BHTD.M        498                  : BHTDEP       - MAXIMUM RECORDED TEMPERATURE
MATR.         1                    : LOGUNIT      - NEUTRON MATRIX
RMT .C        25                   : MDTP         - TEMPERATURE OF MUD
NEUT.         1                    : NEUTRON      - NEUTRON TYPE
RESI.         0                    : RESIST       - RESISTIVITY TYPE
RMC .OHMM     0.25                 : RMC          - RESISTIVITY OF MUD CAKE
RMF .OHMM     0.25                 : RMF          - RESISTIVITY OF MUD FILTRATE
SUFT.C        15                   : SUFT         - SURFACE TEMPERATURE
~A  DEPTH     RESD     PHID     PHIN       GR
# ...
  288.500   15.568    0.172    0.333   61.299
  288.750   14.172    0.223    0.353   66.816
  289.000   12.662    0.223    0.363   75.397
  289.250   11.746    0.207    0.380   78.463
  289.500   10.900    0.202    0.390   77.859
  289.750   10.904    0.208    0.401   72.968
  290.000   11.117    0.215    0.390   72.978
  290.250   11.121    0.219    0.375   74.820
  290.500   11.126    0.220    0.381   68.706
  290.750   11.131    0.218    0.399   58.304
  291.000   12.239    0.282    0.428   47.903
  291.250   13.458    0.318    0.407   43.625
  291.500   13.720    0.324    0.375   47.919
  291.750   12.732    0.282    0.379   55.274
  292.000   12.264    0.273    0.402   65.077
  292.250   11.814    0.207    0.416   74.880
  292.500   10.962    0.186    0.403   69.990
  292.750   10.761    0.200    0.380   65.710
  293.000   10.973    0.236    0.369   66.946
  293.250   11.185    0.247    0.368   67.564
  293.500   12.298    0.255    0.370   66.957
  293.750   13.021    0.262    0.379   62.679
  294.000   11.858    0.269    0.377   66.362
  294.250   11.639    0.257    0.371   70.042
  294.500   11.866    0.273    0.423   58.417
  294.750   14.891    0.304    0.445   44.342
  295.000   16.370    0.315    0.396   36.390
  295.250   20.156    0.322    0.375   35.172
  295.500   24.822    0.327    0.361   36.404
  295.750   26.779    0.325    0.340   40.087
  296.000   26.794    0.323    0.344   45.604
  296.250   26.808    0.335    0.355   53.571
  296.500   26.820    0.316    0.365   62.149
  296.750   27.349    0.305    0.371   52.974
  297.000   27.357    0.317    0.356   52.982
  297.250   26.862    0.330    0.348   58.500
  297.500   26.869    0.337    0.365   62.178
  297.750   26.387    0.345    0.361   59.740
  298.000   25.904    0.350    0.372   57.910
  298.250   25.433    0.349    0.380   53.019
  298.500   24.966    0.358    0.372   49.964
  298.750   24.056    0.359    0.381   49.361
  299.000   23.613    0.354    0.401   53.040
  299.250   23.185    0.352    0.408   57.333
  299.500   22.338    0.353    0.413   51.832
  299.750   22.345    0.359    0.410   48.779
  300.000   21.939    0.355    0.409   48.171
  300.250   21.541    0.347    0.398   48.793
  300.500   20.754    0.342    0.391   49.416
  300.750   20.762    0.348    0.398   50.032
  301.000   20.006    0.348    0.402   52.489
  301.250   19.271    0.340    0.403   54.944
  301.500   18.221    0.338    0.403   56.790
  301.750   17.224    0.330    0.395   59.858
  302.000   15.681    0.305    0.389   64.762
  302.250   14.009    0.292    0.397   76.402
  302.500   12.280    0.282    0.408   86.206
  302.750   10.367    0.266    0.405  102.744
  303.000    8.428    0.220    0.403  115.608
  303.250    7.529    0.195    0.429  112.559
  303.500    6.601    0.181    0.466  111.950
  303.750    6.009    0.174    0.484  110.733
  304.000    5.899    0.191    0.475  111.967
  304.250    6.246    0.203    0.482  115.035
  304.500    6.999    0.210    0.475  116.878
  304.750    8.144    0.223    0.461  115.050
  305.000    8.953    0.242    0.414  110.770
  305.250   10.031    0.251    0.405  104.658
  305.500   11.030    0.264    0.421  101.603
  305.750   12.127    0.270    0.421   99.773
  306.000   13.588    0.282    0.417   97.332
  306.250   13.856    0.299    0.421   94.278
  306.500   14.123    0.271    0.420   91.836
  306.750   13.354    0.253    0.411   92.457
  307.000   12.388    0.238    0.409   93.689
  307.250   11.936    0.248    0.427   93.082
  307.500   11.720    0.265    0.441   96.153
  307.750   11.725    0.276    0.444   99.221
  308.000   11.952    0.267    0.432  101.064
  308.250   11.959    0.254    0.417  104.133
  308.500   11.741    0.239    0.406  105.364
  308.750   11.971    0.231    0.407  102.311
  309.000   12.435    0.260    0.409   87.012
  309.250   13.933    0.294    0.417   74.163
  309.500   16.213    0.316    0.405   62.537
  309.750   17.826    0.339    0.404   55.810
  310.000   19.235    0.346    0.410   52.755
  310.250   19.244    0.340    0.415   55.212
  310.500   17.857    0.316    0.405   60.117
  310.750   17.528    0.302    0.400   65.636
  311.000   15.955    0.283    0.394   71.153
  311.250   12.972    0.257    0.394   76.058
  311.500   11.587    0.237    0.401   84.638
  311.750    9.969    0.229    0.391   94.441
  312.000    8.739    0.220    0.398  104.244
  312.250    7.956    0.204    0.427  106.702
  312.500    8.267    0.187    0.445   98.750
  312.750    9.262    0.191    0.449   98.145
  313.000    9.992    0.253    0.422   93.867
  313.250   11.197    0.266    0.385   82.854
  313.500   11.854    0.271    0.375   79.800
  313.750   11.421    0.252    0.371   85.930
  314.000   10.014    0.230    0.381   93.897
  314.250    9.466    0.216    0.403  102.476
  314.500    8.457    0.224    0.432  108.604
  314.750    8.148    0.234    0.448  108.613
  315.000    8.150    0.235    0.455  108.008
  315.250    8.794    0.238    0.459  103.729
  315.500    9.855    0.245    0.473   94.553
  315.750   11.041    0.252    0.480   86.602
  316.000   12.370    0.254    0.463   81.099
  316.250   13.346    0.235    0.444   77.432
  316.500   13.607    0.227    0.435   79.890
  316.750   13.359    0.219    0.446   84.796
  317.000   12.630    0.233    0.442   86.641
  317.250   11.716    0.252    0.441   89.097
  317.500   11.288    0.257    0.445   91.552
  317.750   11.294    0.265    0.440   91.558
  318.000   11.957    0.272    0.426   90.954
  318.250   12.902    0.272    0.415   87.287
  318.500   13.661    0.276    0.404   82.399
  318.750   13.412    0.283    0.402   83.018
  319.000   12.680    0.288    0.404   86.701
  319.250   11.988    0.280    0.399   89.157
  319.500   11.768    0.257    0.393   91.000
  319.750   10.917    0.246    0.415   93.456
  320.000    9.940    0.247    0.425   95.300
  320.250    9.050    0.243    0.423   98.369
  320.500    8.718    0.238    0.420   98.987
  320.750    9.585    0.238    0.423   94.098
  321.000   11.581    0.327    0.463   62.881
  321.250   19.288    0.385    0.578   45.744
  321.500   22.870    0.562    0.633   36.568
  321.750   24.675    0.539    0.675   39.024
  322.000   25.637    0.264    0.583   48.215
  322.250   25.171    0.269    0.366   53.734
  322.500   24.247    0.275    0.363   51.905
  322.750   22.925    0.270    0.363   52.524
  323.000   22.935    0.270    0.367   55.594
  323.250   22.947    0.274    0.374   52.539
  323.500   23.848    0.279    0.384   49.484
  323.750   24.311    0.290    0.387   48.880
  324.000   24.784    0.303    0.383   51.340
  324.250   24.796    0.309    0.380   51.346
  324.500   25.279    0.308    0.382   51.352
  324.750   25.297    0.301    0.382   52.583
  325.000   25.305    0.300    0.379   50.144
  325.250   25.319    0.309    0.386   47.090
  325.500   24.859    0.307    0.386   45.875
  325.750   23.949    0.307    0.375   45.881
  326.000   23.957    0.308    0.368   46.498
  326.250   23.087    0.306    0.358   48.345
  326.500   23.095    0.303    0.353   49.575
  326.750   23.102    0.301    0.359   52.035
  327.000   23.117    0.298    0.369   53.263
  327.250   23.570    0.298    0.376   55.108
  327.500   24.025    0.302    0.375   54.503
  327.750   25.438    0.304    0.370   52.673
  328.000   25.936    0.304    0.364   54.520
  328.250   26.448    0.305    0.360   55.749
  328.500   26.457    0.313    0.364   56.369
  328.750   26.475    0.314    0.381   56.990
  329.000   26.987    0.314    0.383   56.996
  329.250   27.004    0.313    0.379   57.003
  329.500   27.526    0.313    0.373   57.010
  329.750   27.540    0.313    0.368   57.631
  330.000   26.534    0.314    0.370   55.803
  330.250   25.561    0.318    0.376   52.748
  330.500   25.098    0.323    0.376   51.533
  330.750   25.591    0.327    0.381   51.539
  331.000   25.599    0.331    0.387   52.771
  331.250   26.101    0.339    0.397   54.002
  331.500   26.110    0.335    0.405   53.399
  331.750   26.625    0.318    0.403   52.795
