~VERSION INFORMATION
 VERS.                 2.0:   CWLS LOG ASCII STANDARD -VERSION 2.0
 WRAP.                  NO:   ONE LINE PER DEPTH STEP
~WELL INFORMATION BLOCK
#MNEM.UNIT           DATA                    DESCRIPTION OF MNEMONIC
#---------    -------------------            -------------------------------
# Generated from Intellog Unique Number	CS_69_70/WELL/852
WELL.         HUSKEY OIL OPERATIONS          : Well_name    - WELL
LOC .         00/07-04-069-05W4/0            : Location     - LOCATION
UWI .         00/07-04-069-05W4/0            : Uwi          - UNIQUE WELL ID
ENTR.         SP                             : Entered      - ENTERED BY
SRVC.         SCHLUMBERGER                   : Scn          - SERVICE COMPANY
STRT.M        315                            : top_depth    - START DEPTH
STOP.M        555                            : bot_depth    - STOP DEPTH
STEP.M        0.25                           : increment    - STEP LENGTH
 NULL. -999.2500:NULL Value
~CURVE INFORMATION BLOCK
#MNEM UNIT       ERCB CURVE CODE    CURVE DESCRIPTION
#-----------   ------------------   ----------------------------------
DEPT.M        00 001 00 00         : DEPTH        - DEPTH
ILD .OHMM     00 120 00 00         : RESD         - DEEP RESISTIVITY (DIL)
DPHI.V/V      00 890 00 00         : PHID         - DENSITY POROSITY (LIMESTONE)
NPHI.V/V      00 330 00 00         : PHIN         - NEUTRON POROSITY (LIMESTONE)
GR  .API      00 310 00 00         : GR           - GAMMA RAY
~PARAMETER INFORMATION
#MNEM.UNIT           DATA             DESCRIPTION OF MNEMONIC
#---------         -----------     ------------------------------
GL  .M        680.2                : gl           - GROUND LEVEL ELEVATION
EREF.M        683.8                : kb           - ELEVATION OF DEPTH REFERENCE
DATM.M        680.2                : datum        - DATUM ELEVATION
TDD .M        564                  : tdd          - TOTAL DEPTH DRILLER
RUN .         ONE                  : Run          - RUN NUMBER
ENG .         BILL                 : Engineer     - RECORDING ENGINEER
WIT .         JIM                  : Witness      - WITNESSED BY
MUD .         GEL                  : Mud_type     - MUD TYPE
MATR.         LIMESTONE            : Logunit      - NEUTRON MATRIX
TMAX.C        32                   : BHT          - MAXIMUM RECORDED TEMPERATURE
BHTD.M        564                  : BHTDEP       - MAXIMUM RECORDED TEMPERATURE
MATR.         1                    : LOGUNIT      - NEUTRON MATRIX
RMT .C        25                   : MDTP         - TEMPERATURE OF MUD
NEUT.         1                    : NEUTRON      - NEUTRON TYPE
RESI.         0                    : RESIST       - RESISTIVITY TYPE
RMC .OHMM     0.25                 : RMC          - RESISTIVITY OF MUD CAKE
RMF .OHMM     0.25                 : RMF          - RESISTIVITY OF MUD FILTRATE
SUFT.C        15                   : SUFT         - SURFACE TEMPERATURE
~A  DEPTH     RESD     PHID     PHIN       GR
# ...
  445.500    4.381    0.303    0.506   78.159
  445.750    4.333    0.309    0.520   79.176
  446.000    4.434    0.298    0.500   84.344
  446.250    4.587    0.295    0.487   85.418
  446.500    4.791    0.304    0.467   83.965
  446.750    4.939    0.315    0.452   86.665
  447.000    5.082    0.307    0.426   87.560
  447.250    5.189    0.290    0.435   84.962
  447.500    4.954    0.275    0.461   84.292
  447.750    4.487    0.267    0.467   86.389
  448.000    4.064    0.257    0.469   88.788
  448.250    3.493    0.247    0.497   91.127
  448.500    3.025    0.270    0.521   92.805
  448.750    2.802    0.296    0.526   93.518
  449.000    2.505    0.296    0.541   93.931
  449.250    2.364    0.288    0.559   93.922
  449.500    2.295    0.285    0.553   93.733
  449.750    2.266    0.308    0.568   93.364
  450.000    2.246    0.342    0.585   92.572
  450.250    2.221    0.351    0.582   90.698
  450.500    2.210    0.357    0.573   88.884
  450.750    2.244    0.334    0.565   89.717
  451.000    2.313    0.301    0.550   90.431
  451.250    2.393    0.278    0.537   89.520
  451.500    2.481    0.294    0.526   89.331
  451.750    2.596    0.311    0.536   91.369
  452.000    2.753    0.293    0.555   92.204
  452.250    2.913    0.278    0.530   90.569
  452.500    3.200    0.277    0.486   86.829
  452.750    3.603    0.307    0.454   79.718
  453.000    4.164    0.325    0.446   70.740
  453.250    5.062    0.339    0.460   66.218
  453.500    6.282    0.344    0.453   62.357
  453.750    7.166    0.343    0.445   62.107
  454.000    8.112    0.343    0.446   63.964
  454.250    8.963    0.342    0.455   65.582
  454.500    9.610    0.344    0.454   65.391
  454.750   10.305    0.348    0.459   65.263
  455.000   10.783    0.351    0.460   64.893
  455.250   11.368    0.354    0.446   64.403
  455.500   12.075    0.351    0.461   60.421
  455.750   12.826    0.348    0.483   60.594
  456.000   13.779    0.342    0.473   61.188
  456.250   14.830    0.335    0.466   61.118
  456.500   15.752    0.327    0.467   60.026
  456.750   16.953    0.325    0.465   58.573
  457.000   18.042    0.308    0.407   58.204
  457.250   18.773    0.217    0.325   57.954
  457.500   19.063    0.151    0.274   58.367
  457.750   18.471    0.185    0.352   59.502
  458.000   16.825    0.252    0.441   61.119
  458.250   15.182    0.298    0.456   62.614
  458.500   13.547    0.326    0.448   62.847
  458.750   12.363    0.317    0.462   61.755
  459.000   11.604    0.335    0.475   59.820
  459.250   10.729    0.341    0.459   57.164
  459.500    9.976    0.292    0.452   50.774
  459.750    9.294    0.266    0.439   46.432
  460.000    8.339    0.277    0.425   64.541
  460.250    7.427    0.286    0.472   78.314
  460.500    6.407    0.290    0.491   80.174
  460.750    5.496    0.279    0.496   81.910
  461.000    4.941    0.271    0.486   82.744
  461.250    4.770    0.265    0.476   83.098
  461.500    4.727    0.263    0.457   84.834
  461.750    4.729    0.264    0.441   85.608
  462.000    4.757    0.260    0.435   86.382
  462.250    4.786    0.255    0.459   84.988
  462.500    4.806    0.249    0.481   83.234
  462.750    4.772    0.250    0.476   81.119
  463.000    4.764    0.244    0.466   79.787
  463.250    4.766    0.251    0.465   78.814
  463.500    4.759    0.258    0.478   78.927
  463.750    4.797    0.262    0.482   80.965
  464.000    4.889    0.267    0.484   81.679
  464.250    5.193    0.273    0.479   81.068
  464.500    6.104    0.280    0.475   78.471
  464.750    6.989    0.291    0.492   75.513
  465.000    7.809    0.311    0.503   71.894
  465.250    8.532    0.321    0.488   69.718
  465.500    9.028    0.295    0.466   71.876
  465.750    9.465    0.276    0.464   72.891
  466.000    9.979    0.278    0.473   69.451
  466.250   10.964    0.284    0.472   66.373
  466.500   12.228    0.259    0.467   62.993
  466.750   13.714    0.249    0.453   61.179
  467.000   15.555    0.280    0.442   60.809
  467.250   16.898    0.311    0.435   63.148
  467.500   17.000    0.254    0.426   64.946
  467.750   17.295    0.219    0.442   65.599
  468.000   17.564    0.225    0.471   62.521
  468.250   17.702    0.254    0.469   57.396
  468.500   17.380    0.056    0.332   53.716
  468.750   16.590    0.098    0.373   54.128
  469.000   14.098    0.182    0.412   60.561
  469.250   12.004    0.237    0.456   70.001
  469.500   10.591    0.292    0.482   77.035
  469.750    9.647    0.280    0.462   80.519
  470.000    8.787    0.285    0.436   79.005
  470.250    8.019    0.283    0.416   79.719
  470.500    6.663    0.265    0.421   83.262
  470.750    4.938    0.244    0.474   86.985
  471.000    4.020    0.253    0.517   85.712
  471.250    3.290    0.272    0.553   80.407
  471.500    2.475    0.297    0.559   76.967
  471.750    2.104    0.312    0.524   73.106
  472.000    2.008    0.302    0.543   74.180
  472.250    1.931    0.310    0.569   75.617
  472.500    1.907    0.319    0.591   77.053
  472.750    1.893    0.318    0.589   78.850
  473.000    1.894    0.313    0.568   79.805
  473.250    1.916    0.309    0.543   80.939
  473.500    1.994    0.302    0.522   80.269
  473.750    2.098    0.296    0.537   76.047
  474.000    2.224    0.294    0.554   74.713
  474.250    2.315    0.287    0.562   76.271
  474.500    2.373    0.281    0.539   76.262
  474.750    2.423    0.276    0.519   78.601
  475.000    2.442    0.273    0.528   83.225
  475.250    2.466    0.270    0.543   84.843
  475.500    2.504    0.285    0.555   84.835
  475.750    2.586    0.292    0.535   82.600
  476.000    2.686    0.300    0.513   81.868
  476.250    2.826    0.288    0.525   82.582
  476.500    2.974    0.285    0.517   81.551
  476.750    3.083    0.282    0.492   79.435
  477.000    3.173    0.265    0.476   83.940
  477.250    3.209    0.241    0.472   86.701
  477.500    3.229    0.224    0.481   89.341
  477.750    3.212    0.235    0.489   89.452
  478.000    3.049    0.245    0.496   87.577
  478.250    3.056    0.255    0.503   87.087
  478.500    3.168    0.255    0.518   87.982
  478.750    3.296    0.252    0.508   90.322
  479.000    3.475    0.250    0.499   92.961
  479.250    3.671    0.245    0.496   93.495
  479.500    3.841    0.243    0.488   90.295
  479.750    4.072    0.240    0.472   85.411
  480.000    4.269    0.181    0.445   81.189
  480.250    4.442    0.152    0.418   81.241
  480.500    4.562    0.163    0.406   86.829
  480.750    4.650    0.184    0.417   90.132
  481.000    4.669    0.204    0.427   93.374
  481.250    4.679    0.213    0.437   95.593
  481.500    4.699    0.216    0.440   96.848
  481.750    4.701    0.218    0.426   95.876
  482.000    4.702    0.216    0.411   94.484
  482.250    4.565    0.217    0.401   91.945
  482.500    4.309    0.221    0.431   90.011
  482.750    4.075    0.221    0.453   88.076
  483.000    4.280    0.223    0.478   85.841
  483.250    5.040    0.237    0.392   80.535
  483.500    5.957    0.250    0.354   71.680
  483.750    7.791    0.260    0.330   59.512
  484.000   10.077    0.057    0.306   54.688
  484.250   11.408    0.037    0.278   52.573
  484.500   11.915    0.021    0.283   56.173
  484.750   12.399    0.078    0.321   58.635
  485.000   12.852    0.125    0.355   58.987
  485.250   13.348    0.120    0.363   53.681
  485.500   14.887    0.207    0.408   49.459
  485.750   17.013    0.311    0.437   47.104
  486.000   18.797    0.332    0.431   47.757
  486.250   19.966    0.329    0.422   52.323
  486.500   11.233    0.324    0.417   58.274
  486.750    6.673    0.318    0.412   64.947
  487.000    4.836    0.301    0.407   71.620
  487.250    3.878    0.284    0.446   81.422
  487.500    4.020    0.272    0.500   91.345
  487.750    4.743    0.281    0.548   93.383
  488.000    5.919    0.296    0.515   81.336
  488.250    7.196    0.308    0.419   72.238
  488.500    9.254    0.321    0.385   69.520
  488.750   11.745    0.323    0.406   75.712
