~VERSION INFORMATION
 VERS.                 2.0:   CWLS LOG ASCII STANDARD -VERSION 2.0
 WRAP.                  NO:   ONE LINE PER DEPTH STEP
~WELL INFORMATION BLOCK
#MNEM.UNIT           DATA                    DESCRIPTION OF MNEMONIC
#---------    -------------------            -------------------------------
# Generated from Intellog Unique Number	CS_77_79/WELL/913
WELL.         NOVALTA VIOLET                 : Well_name    - WELL
LOC .         00/07-32-078-03W4/0            : Location     - LOCATION
UWI .         00/07-32-078-03W4/0            : Uwi          - UNIQUE WELL ID
ENTR.         JHS                            : Entered      - ENTERED BY
SRVC.         SCHLUMBERGER                   : Scn          - SERVICE COMPANY
STRT.M        135                            : top_depth    - START DEPTH
STOP.M        400                            : bot_depth    - STOP DEPTH
STEP.M        0.25                           : increment    - STEP LENGTH
 NULL. -999.2500:NULL Value
~CURVE INFORMATION BLOCK
#MNEM UNIT       ERCB CURVE CODE    CURVE DESCRIPTION
#-----------   ------------------   ----------------------------------
DEPT.M        00 001 00 00         : DEPTH        - DEPTH
DPHI.V/V      00 890 00 00         : PHID         - DENSITY POROSITY (LIMESTONE)
NPHI.V/V      00 330 00 00         : PHIN         - NEUTRON POROSITY (LIMESTONE)
GR  .API      00 310 00 00         : GR           - GAMMA RAY
ILD .OHMM     00 120 00 00         : RESD         - DEEP RESISTIVITY (DIL)
RHOB.KG/M3    00 350 00 00         : DENS         - BULK DENSITY
~PARAMETER INFORMATION
#MNEM.UNIT           DATA             DESCRIPTION OF MNEMONIC
#---------         -----------     ------------------------------
GL  .M        549.79               : gl           - GROUND LEVEL ELEVATION
EREF.M        552.8                : kb           - ELEVATION OF DEPTH REFERENCE
DATM.M        552.8                : datum        - DATUM ELEVATION
TDD .M        405                  : tdd          - TOTAL DEPTH DRILLER
RUN .         ONE                  : Run          - RUN NUMBER
ENG .         BILL                 : Engineer     - RECORDING ENGINEER
WIT .         JIM                  : Witness      - WITNESSED BY
MUD .         GEL                  : Mud_type     - MUD TYPE
MATR.         LIMESTONE            : Logunit      - NEUTRON MATRIX
TMAX.C        23                   : BHT          - MAXIMUM RECORDED TEMPERATURE
BHTD.M        405                  : BHTDEP       - MAXIMUM RECORDED TEMPERATURE
MATR.         1                    : LOGUNIT      - NEUTRON MATRIX
RMT .C        25                   : MDTP         - TEMPERATURE OF MUD
NEUT.         1                    : NEUTRON      - NEUTRON TYPE
RESI.         0                    : RESIST       - RESISTIVITY TYPE
RMC .OHMM     0.25                 : RMC          - RESISTIVITY OF MUD CAKE
RMF .OHMM     0.25                 : RMF          - RESISTIVITY OF MUD FILTRATE
SUFT.C        15                   : SUFT         - SURFACE TEMPERATURE
~A  DEPTH     PHID     PHIN       GR     RESD     DENS
# ...
  281.000    0.263    0.424   90.584    5.657 2259.450
  281.250    0.244    0.433   87.583    5.451 2292.770
  281.500    0.222    0.408   91.864    4.968 2330.250
  281.750    0.212    0.393   94.317    4.527 2346.970
  282.000    0.209    0.451   88.276    4.050 2353.320
  282.250    0.233    0.527   88.305    2.844 2311.900
  282.500    0.261    0.510   92.596    2.451 2264.240
  282.750    0.259    0.495   93.229    2.362 2266.410
  283.000    0.257    0.513   90.825    2.276 2270.670
  283.250    0.270    0.520   87.215    2.319 2247.930
  283.500    0.283    0.506   86.641    2.320 2225.230
  283.750    0.280    0.503   85.454    2.364 2231.550
  284.000    0.272    0.519   85.486    2.409 2244.090
  284.250    0.260    0.509   85.511    2.501 2265.000
  284.500    0.254    0.498   87.971    2.745 2275.460
  284.750    0.258    0.497   95.289    3.070 2269.340
  285.000    0.254    0.480   97.751    3.565 2275.680
  285.250    0.244    0.439   91.707    3.987 2292.410
  285.500    0.248    0.403   83.237    4.459 2286.310
  285.750    0.247    0.413   80.228    4.805 2288.480
  286.000    0.239    0.429   84.520    4.896 2301.020
  286.250    0.229    0.419   86.367    4.898 2317.750
  286.500    0.228    0.408   87.002    4.898 2319.920
  286.750    0.227    0.397   83.995    5.085 2322.130
  287.000    0.227    0.396   82.202    5.182 2322.210
  287.250    0.255    0.402   84.057    5.088 2274.560
  287.500    0.258    0.416   91.988    4.903 2268.450
  287.750    0.245    0.442   94.443    4.552 2291.410
  288.000    0.241    0.457   96.289    4.226 2297.720
  288.250    0.236    0.454   99.966    3.780 2306.160
  288.500    0.228    0.429  100.607    3.510 2320.790
  288.750    0.212    0.402   97.600    3.320 2347.910
  289.000    0.206    0.410   95.197    3.321 2358.390
  289.250    0.204    0.448   96.445    3.321 2360.560
  289.500    0.213    0.481   99.514    3.261 2346.170
  289.750    0.218    0.470  103.800    3.323 2337.970
  290.000    0.220    0.464  104.432    3.324 2333.890
  290.250    0.215    0.463  102.642    3.263 2342.340
  290.500    0.211    0.454  100.851    3.144 2348.660
  290.750    0.211    0.452  102.700    3.205 2348.760
  291.000    0.215    0.427  103.335    3.265 2342.640
  291.250    0.224    0.412  100.330    3.652 2326.110
  291.500    0.237    0.394   91.857    4.161 2305.450
  291.750    0.241    0.394   85.814    4.654 2297.270
  292.000    0.233    0.422   85.238    5.016 2311.920
  292.250    0.216    0.439   90.740    5.110 2341.120
  292.500    0.210    0.440   93.192    4.925 2351.570
  292.750    0.202    0.423   95.661    4.836 2364.130
  293.000    0.208    0.401   93.859    4.836 2353.870
  293.250    0.220    0.394   86.001    5.021 2333.200
  293.500    0.229    0.399   83.599    5.212 2318.790
  293.750    0.223    0.357   82.417    5.830 2329.260
  294.000    0.135    0.310   73.335    6.768 2478.900
  294.250    0.110    0.275   66.684    7.430 2522.610
  294.500    0.116    0.276   69.145    7.859 2512.330
  294.750    0.242    0.289   74.645    8.790 2296.460
  295.000    0.283    0.290   75.284    9.296 2225.950
  295.250    0.306    0.270   69.849    9.652 2186.630
  295.500    0.298    0.261   68.050    9.653 2201.240
  295.750    0.276    0.262   69.295    9.477 2238.750
  296.000    0.265    0.318   75.397    8.637 2257.550
  296.250    0.258    0.348   77.865    7.583 2268.030
  296.500    0.268    0.358   77.286    6.415 2251.510
  296.750    0.278    0.357   77.919    5.632 2235.030
  297.000    0.284    0.338   71.879    4.945 2224.770
  297.250    0.270    0.354   68.263    4.342 2247.710
  297.500    0.258    0.444   78.018    3.957 2268.560
  297.750    0.244    0.471   86.549    3.957 2293.610
  298.000    0.231    0.444   93.873    4.109 2314.470
  298.250    0.211    0.356   98.153    4.511 2349.880
  298.500    0.197    0.305   95.744    5.236 2372.830
  298.750    0.208    0.244   81.198    6.924 2354.250
  299.000    0.236    0.208   76.979   10.240 2306.580
  299.250    0.317    0.097   75.191   13.797 2167.550
  299.500    0.366    0.063   64.891   18.246 2084.590
  299.750    0.381    0.051   49.136   25.046 2057.700
  300.000    0.361    0.051   46.762   39.174 2091.870
  300.250    0.361    0.058   47.394   46.333 2091.970
  300.500    0.365    0.064   46.206   49.009 2085.800
  300.750    0.355    0.078   48.662   49.021 2102.550
  301.000    0.342    0.086   48.083   49.037 2125.520
  301.250    0.331    0.089   48.712   49.976 2144.340
  301.500    0.326    0.084   51.779   50.922 2152.750
  301.750    0.332    0.070   51.191   54.878 2142.440
  302.000    0.343    0.056   45.146   59.138 2123.790
  302.250    0.357    0.053   43.957   64.924 2098.920
  302.500    0.378    0.055   40.946   75.377 2063.630
  302.750    0.407    0.058   34.898   82.751 2013.760
  303.000    0.433    0.059   28.247   87.529 1970.150
  303.250    0.444    0.057   28.275   90.876 1951.510
  303.500    0.447    0.052   31.946   92.611 1945.380
  303.750    0.411    0.047   36.829   90.931 2007.890
  304.000    0.386    0.045   38.064   87.633 2049.590
  304.250    0.374    0.045   38.700   84.443 2070.490
  304.500    0.370    0.047   42.365   76.958 2076.820
  304.750    0.379    0.053   47.857   66.332 2062.340
  305.000    0.371    0.060   44.848   59.334 2074.920
  305.250    0.364    0.078   35.157   52.096 2087.500
  305.500    0.375    0.090   29.720   44.072 2068.850
  305.750    0.393    0.085   27.316   37.986 2037.720
  306.000    0.410    0.065   21.874   34.619 2008.680
  306.250    0.419    0.055   20.690   31.549 1994.190
  306.500    0.414    0.050   21.320   27.703 2002.610
  306.750    0.389    0.049   24.988   24.780 2044.320
  307.000    0.371    0.051   29.265   21.358 2075.620
  307.250    0.360    0.064   28.078   17.733 2094.440
  307.500    0.370    0.085   25.678   10.147 2077.880
  307.750    0.373    0.116   25.702    6.372 2071.740
  308.000    0.329    0.230   27.549    4.392 2146.720
  308.250    0.306    0.304   30.607    3.262 2186.360
  308.500    0.300    0.320   31.847    2.514 2196.850
  308.750    0.299    0.326   28.841    2.291 2199.010
  309.000    0.301    0.317   28.254    2.167 2194.940
  309.250    0.302    0.302   30.104    2.089 2192.960
  309.500    0.310    0.300   31.347    2.051 2180.580
  309.750    0.312    0.311   30.157    2.013 2176.480
  310.000    0.307    0.311   27.750    1.977 2184.890
  310.250    0.301    0.306   28.995    1.941 2195.390
  310.500    0.298    0.300   33.275    1.942 2199.630
  310.750    0.297    0.298   35.722    1.906 2201.800
  311.000    0.291    0.307   37.572    1.907 2212.300
  311.250    0.303    0.318   34.559    1.943 2191.580
  311.500    0.299    0.324   33.372    1.944 2197.920
  311.750    0.291    0.319   35.220    1.981 2212.570
  312.000    0.297    0.308   34.032    2.056 2202.250
  312.250    0.304    0.304   32.840    2.096 2189.850
  312.500    0.299    0.313   39.550    2.096 2198.260
  312.750    0.289    0.307   43.218    2.177 2215.010
  313.000    0.286    0.314   41.423    2.177 2221.350
  313.250    0.286    0.321   37.201    2.177 2221.410
  313.500    0.293    0.320   34.184    2.178 2209.020
  313.750    0.295    0.321   31.781    2.139 2204.950
  314.000    0.297    0.322   30.593    2.100 2202.960
  314.250    0.299    0.310   28.797    2.024 2198.890
  314.500    0.288    0.300   34.894    2.024 2217.700
  314.750    0.282    0.300   42.814    1.987 2228.200
  315.000    0.284    0.306   42.843    1.988 2224.130
  315.250    0.293    0.310   33.760    1.989 2209.640
  315.500    0.300    0.310   28.924    2.026 2197.250
  315.750    0.295    0.305   24.705    2.027 2205.650
  316.000    0.288    0.317   25.335    2.027 2218.220
  316.250    0.298    0.329   31.433    2.028 2199.580
  316.500    0.307    0.315   37.530    2.029 2185.110
  316.750    0.303    0.300   39.378    2.029 2191.430
  317.000    0.300    0.290   38.192    2.030 2197.770
  317.250    0.302    0.287   32.754    2.030 2193.690
