~VERSION INFORMATION
 VERS.                 2.0:   CWLS LOG ASCII STANDARD -VERSION 2.0
 WRAP.                  NO:   ONE LINE PER DEPTH STEP
~WELL INFORMATION BLOCK
#MNEM.UNIT           DATA                    DESCRIPTION OF MNEMONIC
#---------    -------------------            -------------------------------
# Generated from Intellog Unique Number	CS_69_70/WELL/812
WELL.         CANADIAN WORLDWIDE ENERGY      : Well_name    - WELL
LOC .         00/07-06-069-09W4/0            : Location     - LOCATION
UWI .         00/07-06-069-09W4/0            : Uwi          - UNIQUE WELL ID
ENTR.         SP                             : Entered      - ENTERED BY
SRVC.         SCHLUMBERGER                   : Scn          - SERVICE COMPANY
STRT.M        475                            : top_depth    - START DEPTH
STOP.M        685                            : bot_depth    - STOP DEPTH
STEP.M        0.25                           : increment    - STEP LENGTH
 NULL. -999.2500:NULL Value
~CURVE INFORMATION BLOCK
#MNEM UNIT       ERCB CURVE CODE    CURVE DESCRIPTION
#-----------   ------------------   ----------------------------------
DEPT.M        00 001 00 00         : DEPTH        - DEPTH
ILD .OHMM     00 120 00 00         : RESD         - DEEP RESISTIVITY (DIL)
DPHI.V/V      00 890 00 00         : PHID         - DENSITY POROSITY (LIMESTONE)
NPHI.V/V      00 330 00 00         : PHIN         - NEUTRON POROSITY (LIMESTONE)
GR  .API      00 310 00 00         : GR           - GAMMA RAY
~PARAMETER INFORMATION
#MNEM.UNIT           DATA             DESCRIPTION OF MNEMONIC
#---------         -----------     ------------------------------
GL  .M        785.99               : gl           - GROUND LEVEL ELEVATION
EREF.M        789.09               : kb           - ELEVATION OF DEPTH REFERENCE
DATM.M        785.99               : datum        - DATUM ELEVATION
TDD .M        680                  : tdd          - TOTAL DEPTH DRILLER
RUN .         ONE                  : Run          - RUN NUMBER
ENG .         BILL                 : Engineer     - RECORDING ENGINEER
WIT .         JIM                  : Witness      - WITNESSED BY
MUD .         GEL                  : Mud_type     - MUD TYPE
MATR.         LIMESTONE            : Logunit      - NEUTRON MATRIX
TMAX.C        25                   : BHT          - MAXIMUM RECORDED TEMPERATURE
BHTD.M        680                  : BHTDEP       - MAXIMUM RECORDED TEMPERATURE
MATR.         1                    : LOGUNIT      - NEUTRON MATRIX
RMT .C        25                   : MDTP         - TEMPERATURE OF MUD
NEUT.         1                    : NEUTRON      - NEUTRON TYPE
RESI.         0                    : RESIST       - RESISTIVITY TYPE
RMC .OHMM     0.25                 : RMC          - RESISTIVITY OF MUD CAKE
RMF .OHMM     0.25                 : RMF          - RESISTIVITY OF MUD FILTRATE
SUFT.C        15                   : SUFT         - SURFACE TEMPERATURE
~A  DEPTH     RESD     PHID     PHIN       GR
# ...
  649.000    4.963    0.211    0.354  100.007
  649.250    5.256    0.189    0.348  105.382
  649.500    5.588    0.166    0.343  111.307
  649.750    5.875    0.159    0.338  112.652
  650.000    6.060    0.156    0.341  110.209
  650.250    6.008    0.155    0.352  110.210
  650.500    5.867    0.154    0.357  111.982
  650.750    5.413    0.155    0.362  114.853
  651.000    4.910    0.157    0.364  117.419
  651.250    4.634    0.172    0.367   94.944
  651.500    4.474    0.191    0.374   74.912
  651.750    4.402    0.211    0.366   61.170
  652.000    4.431    0.237    0.319   51.582
  652.250    4.476    0.131    0.295   62.088
  652.500    4.576    0.157    0.331   68.440
  652.750    4.693    0.198    0.352   66.059
  653.000    4.877    0.233    0.333   69.724
  653.250    5.098    0.211    0.315   84.261
  653.500    5.452    0.177    0.314   94.094
  653.750    5.774    0.159    0.307   97.210
  654.000    6.175    0.147    0.301  101.425
  654.250    6.334    0.138    0.303  104.235
  654.500    6.303    0.144    0.322  103.625
  654.750    6.097    0.159    0.337  103.076
  655.000    5.887    0.149    0.331  105.764
  655.250    5.814    0.140    0.334  107.352
  655.500    5.699    0.129    0.343  105.948
  655.750    5.607    0.149    0.328   87.321
  656.000    5.507    0.236    0.313   81.947
  656.250    5.398    0.195    0.296   92.758
  656.500    5.361    0.165    0.308  105.279
  656.750    5.427    0.165    0.331   98.317
  657.000    5.609    0.190    0.326   85.920
  657.250    5.841    0.191    0.320   84.332
  657.500    6.036    0.179    0.330   84.333
  657.750    6.133    0.194    0.338   81.219
  658.000    6.138    0.190    0.342   79.204
  658.250    6.028    0.178    0.347   82.930
  658.500    5.942    0.173    0.336   87.084
  658.750    5.705    0.185    0.317   87.329
  659.000    5.477    0.190    0.311   80.428
  659.250    5.268    0.191    0.305   75.543
  659.500    5.019    0.201    0.301   72.490
  659.750    4.649    0.215    0.317   69.681
  660.000    4.387    0.224    0.313   69.865
  660.250    4.071    0.231    0.306   70.354
  660.500    3.835    0.230    0.298   67.973
  660.750    3.538    0.225    0.292   69.012
  661.000    3.371    0.241    0.307   72.188
  661.250    3.267    0.262    0.325   73.838
  661.500    3.190    0.276    0.338   70.113
  661.750    3.047    0.271    0.346   67.365
  662.000    2.970    0.265    0.351   65.167
  662.250    2.922    0.268    0.370   63.091
  662.500    2.902    0.289    0.350   62.542
  662.750    2.915    0.293    0.335   63.764
  663.000    2.967    0.287    0.341   65.781
  663.250    3.089    0.283    0.342   70.667
  663.500    3.229    0.266    0.331   72.744
  663.750    3.325    0.249    0.328   70.546
  664.000    3.353    0.262    0.340   68.715
  664.250    3.318    0.271    0.350   67.494
  664.500    3.252    0.281    0.359   66.090
  664.750    3.206    0.280    0.338   68.534
  665.000    3.043    0.264    0.311   69.511
  665.250    2.856    0.263    0.331   68.046
  665.500    2.690    0.274    0.339   63.466
  665.750    2.563    0.283    0.337   60.047
  666.000    2.475    0.290    0.335   57.360
  666.250    2.412    0.308    0.344   54.673
  666.500    2.396    0.308    0.357   54.796
  666.750    2.393    0.300    0.358   51.071
  667.000    2.382    0.287    0.353   46.308
  667.250    2.407    0.277    0.366   43.560
  667.500    2.440    0.290    0.382   41.607
  667.750    2.565    0.311    0.391   50.341
  668.000    2.759    0.323    0.371   59.869
  668.250    2.961    0.292    0.341   68.054
  668.500    3.137    0.252    0.325   73.124
  668.750    3.229    0.228    0.325   75.873
  669.000    3.331    0.210    0.320   70.988
  669.250    3.378    0.222    0.314   64.453
  669.500    3.324    0.240    0.320   61.034
  669.750    3.221    0.256    0.325   58.775
  670.000    3.105    0.254    0.328   59.813
  670.250    3.055    0.236    0.329   61.219
  670.500    3.040    0.252    0.328   62.075
  670.750    3.071    0.265    0.324   66.106
  671.000    3.103    0.270    0.315   69.405
  671.250    3.135    0.255    0.310   72.826
  671.500    3.167    0.264    0.321   74.842
  671.750    3.200    0.273    0.325   76.369
  672.000    3.197    0.266    0.327   78.447
  672.250    3.175    0.248    0.327   74.477
  672.500    3.118    0.231    0.325   65.622
  672.750    2.988    0.225    0.327   60.126
  673.000    2.901    0.244    0.325   60.127
  673.250    2.759    0.236    0.326   63.670
  673.500    2.644    0.246    0.338   59.700
  673.750    2.510    0.263    0.350   55.609
  674.000    2.418    0.275    0.353   53.106
  674.250    2.304    0.286    0.358   51.152
  674.500    2.166    0.274    0.347   51.458
  674.750    2.060    0.264    0.338   54.940
  675.000    1.967    0.255    0.342   53.597
  675.250    1.902    0.284    0.341   41.871
  675.500    1.857    0.329    0.334   37.474
  675.750    1.824    0.331    0.325   35.460
  676.000    1.802    0.320    0.319   34.483
  676.250    1.776    0.327    0.330   34.606
  676.500    1.758    0.337    0.340   36.683
  676.750    1.746    0.330    0.329   36.745
  677.000    1.715    0.337    0.332   35.524
  677.250    1.700    0.338    0.340   35.280
  677.500    1.691    0.331    0.332   38.274
  677.750    1.683    0.336    0.336   41.694
  678.000    1.697    0.343    0.344   46.154
  678.250    1.718    0.327    0.331   47.864
  678.500    1.746    0.316    0.321   50.247
  678.750    1.791    0.305    0.308   54.889
  679.000    1.802    0.300    0.378   61.791
  679.250    1.797    0.310    0.385   66.983
  679.500    1.768    0.323    0.387   56.846
  679.750    1.723    0.332    0.381   45.303
  680.000    1.794    0.340    0.374   35.593
  680.250    1.996    0.329    0.365   37.426
  680.500    2.740    0.303    0.356   47.870
  680.750    3.547    0.289    0.350   59.353
  681.000    4.943    0.273    0.358   77.310
  681.250    7.140    0.258    0.388   98.992
  681.500    9.225    0.214    0.407  110.169
  681.750   11.175    0.123    0.350   88.061
  682.000   12.672    0.077    0.293   46.164
  682.250   13.678    0.046    0.249   20.819
  682.500   14.709    0.086    0.216   14.956
  682.750   15.375    0.096    0.201   14.407
  683.000   15.951    0.085    0.188   14.469
  683.250   16.580    0.079    0.182   14.469
  683.500   17.006    0.078    0.176   14.592
  683.750   17.054    0.086    0.171   14.593
  684.000   15.323    0.076    0.166   14.044
  684.250   15.133    0.073    0.176   13.312
  684.500   15.818    0.091    0.184   12.213
  684.750   16.883    0.100    0.188   11.725
  685.000   17.985    0.092    0.184   11.970
