~VERSION INFORMATION
 VERS.                 2.0:   CWLS LOG ASCII STANDARD -VERSION 2.0
 WRAP.                  NO:   ONE LINE PER DEPTH STEP
~WELL INFORMATION BLOCK
#MNEM.UNIT           DATA                    DESCRIPTION OF MNEMONIC
#---------    -------------------            -------------------------------
# Generated from Intellog Unique Number	CW_76_78/WELL/3097
WELL.         04-30-078-23W4                 : Well_name    - WELL
LOC .         00/04-30-078-23W4/0            : Location     - LOCATION
UWI .         00/04-30-078-23W4/0            : Uwi          - UNIQUE WELL ID
ENTR.         MAX                            : Entered      - ENTERED BY
SRVC.         SCHLUMBERGER                   : Scn          - SERVICE COMPANY
DATE.         4 MAR 84                       : Date         - LOG DATE
STRT.M        270                            : top_depth    - START DEPTH
STOP.M        520                            : bot_depth    - STOP DEPTH
STEP.M        0.25                           : increment    - STEP LENGTH
 NULL. -999.2500:NULL Value
~CURVE INFORMATION BLOCK
#MNEM UNIT       ERCB CURVE CODE    CURVE DESCRIPTION
#-----------   ------------------   ----------------------------------
DEPT.M        00 001 00 00         : DEPTH        - DEPTH
GR  .API      00 310 00 00         : GR           - GAMMA RAY
ILD .OHMM     00 120 00 00         : RESD         - DEEP RESISTIVITY (DIL)
NPHI.V/V      00 330 00 00         : PHIN         - NEUTRON POROSITY (SANDSTONE)
DPHI.V/V      00 890 00 00         : PHID         - DENSITY POROSITY (SANDSTONE)
~PARAMETER INFORMATION
#MNEM.UNIT           DATA             DESCRIPTION OF MNEMONIC
#---------         -----------     ------------------------------
GL  .M        587.9                : gl           - GROUND LEVEL ELEVATION
EREF.M        591.6                : kb           - ELEVATION OF DEPTH REFERENCE
DATM.M        587.9                : datum        - DATUM ELEVATION
TDD .M        525                  : tdd          - TOTAL DEPTH DRILLER
RUN .         ONE                  : Run          - RUN NUMBER
MUD .         GEL CHEM             : Mud_type     - MUD TYPE
MATR.         SANDSTONE            : Logunit      - NEUTRON MATRIX
TMAX.C        11                   : BHT          - MAXIMUM RECORDED TEMPERATURE
BHTD.M        524                  : BHTDEP       - MAXIMUM RECORDED TEMPERATURE
RMT .C        11                   : MDTP         - TEMPERATURE OF MUD
MUDD.KG/M     1130                 : MWT          - MUD DENSITY
NEUT.         1                    : NEUTRON      - NEUTRON TYPE
RESI.         0                    : RESIST       - RESISTIVITY TYPE
RM  .OHMM     9                    : RM           - RESISTIVITY OF MUD
RMC .OHMM     13.8                 : RMC          - RESISTIVITY OF MUD CAKE
RMF .OHMM     13.8                 : RMF          - RESISTIVITY OF MUD FILTRATE
SUFT.C        4                    : SUFT         - SURFACE TEMPERATURE
~A  DEPTH       GR     RESD     PHIN     PHID
# ...
  313.500   63.575   20.940    0.431    0.327
  313.750   62.377   20.966    0.431    0.326
  314.000   61.185   20.986    0.433    0.325
  314.250   61.811   21.012    0.425    0.331
  314.500   62.453   21.441    0.420    0.334
  314.750   62.464   21.468    0.425    0.339
  315.000   62.485   21.892    0.435    0.339
  315.250   62.507   21.919    0.448    0.338
  315.500   63.144   21.947    0.461    0.333
  315.750   63.171   21.981    0.452    0.328
  316.000   63.187   21.994    0.438    0.324
  316.250   63.214   22.029    0.431    0.319
  316.500   63.241   22.464    0.426    0.314
  316.750   63.257   22.492    0.426    0.310
  317.000   63.273   22.527    0.423    0.303
  317.250   63.295   22.548    0.422    0.297
  317.500   63.322   22.994    0.420    0.302
  317.750   63.344   23.455    0.418    0.304
  318.000   63.980   23.911    0.416    0.298
  318.250   64.601   24.842    0.410    0.283
  318.500   60.965   24.858    0.394    0.200
  318.750   54.890   26.311    0.370    0.179
  319.000   53.082   25.388    0.304    0.217
  319.250   55.543   23.196    0.338    0.247
  319.500   58.003   20.060    0.361    0.273
  319.750   59.853   17.027    0.403    0.276
  320.000   69.025   12.261    0.424    0.258
  320.250   75.143    9.500    0.399    0.242
  320.500   76.994    7.923    0.401    0.225
  320.750   77.631    8.854    0.409    0.231
  321.000   76.427    9.193    0.424    0.247
  321.250   72.797   10.090    0.434    0.262
  321.500   70.374   10.874    0.436    0.283
  321.750   69.177   11.715    0.433    0.274
  322.000   68.594   12.392    0.430    0.254
  322.250   69.220   12.408    0.422    0.220
  322.500   71.070   12.886    0.421    0.217
  322.750   74.140   14.401    0.422    0.234
  323.000   75.996   15.233    0.423    0.261
  323.250   75.414   16.715    0.422    0.274
  323.500   73.606   17.681    0.411    0.259
  323.750   71.799   17.382    0.410    0.246
  324.000   70.596   17.731    0.415    0.255
  324.250   70.618   18.076    0.419    0.278
  324.500   73.083   18.098    0.428    0.281
  324.750   73.715   18.115    0.427    0.277
  325.000   73.736   17.496    0.402    0.270
  325.250   73.752   16.883    0.402    0.267
  325.500   74.389   16.301    0.402    0.260
  325.750   75.015   15.735    0.404    0.241
  326.000   74.427   15.188    0.409    0.245
  326.250   70.791   15.769    0.417    0.272
  326.500   63.496   18.286    0.430    0.270
  326.750   58.031   20.813    0.423    0.240
  327.000   53.176   22.009    0.369    0.248
  327.250   50.149   22.050    0.367    0.274
  327.500   47.732   22.064    0.381    0.283
  327.750   46.540   21.690    0.394    0.302
  328.000   47.781   21.323    0.404    0.309
  328.250   49.022   21.357    0.406    0.309
  328.500   49.653   21.390    0.409    0.309
  328.750   49.675   21.410    0.410    0.309
  329.000   49.702   21.450    0.410    0.309
  329.250   48.504   21.081    0.409    0.309
  329.500   47.911   21.107    0.407    0.310
  329.750   47.328   21.134    0.405    0.310
  330.000   46.735   21.949    0.407    0.311
  330.250   46.756   22.383    0.410    0.311
  330.500   46.783   22.832    0.412    0.310
  330.750   46.810   23.276    0.407    0.308
  331.000   46.821   23.298    0.397    0.305
  331.250   46.843   24.212    0.395    0.304
  331.500   50.528   24.683    0.396    0.299
  331.750   53.598   24.706    0.397    0.295
  332.000   53.010   25.210    0.396    0.291
  332.250   51.202   25.233    0.390    0.289
  332.500   50.609   25.740    0.387    0.289
  332.750   48.192   25.756    0.381    0.286
  333.000   45.775   26.767    0.376    0.285
  333.250   42.139   27.287    0.369    0.284
  333.500   40.337   27.835    0.348    0.246
  333.750   39.749   28.910    0.273    0.194
  334.000   37.941   28.937    0.255    0.167
  334.250   36.139   30.609    0.249    0.169
  334.500   34.338   30.647    0.259    0.182
  334.750   33.739   28.527    0.274    0.193
  335.000   36.819   26.064    0.283    0.206
  335.250   38.659   24.245    0.289    0.229
  335.500   41.119   22.985    0.297    0.240
  335.750   42.360   22.603    0.310    0.257
  336.000   42.992   22.207    0.362    0.288
  336.250   43.628   22.242    0.376    0.315
  336.500   43.650   22.269    0.384    0.309
  336.750   44.281   22.297    0.384    0.299
  337.000   44.303   22.745    0.375    0.276
  337.250   43.720   23.187    0.362    0.272
  337.500   43.132   23.638    0.341    0.274
  337.750   43.148   24.565    0.342    0.278
  338.000   42.566   25.993    0.358    0.283
  338.250   43.197   26.490    0.363    0.285
  338.500   43.219   28.021    0.355    0.283
  338.750   42.631   29.103    0.348    0.273
  339.000   44.476   29.678    0.335    0.248
  339.250   45.113   29.715    0.323    0.232
  339.500   45.134   30.312    0.310    0.226
  339.750   45.156   30.349    0.294    0.216
  340.000   43.349   30.378    0.285    0.217
  340.250   41.536   30.416    0.293    0.226
  340.500   40.953   28.835    0.302    0.241
  340.750   42.200   27.824    0.315    0.259
  341.000   43.430   25.899    0.333    0.282
  341.250   44.671   24.991    0.355    0.298
  341.500   45.917   23.692    0.364    0.303
  341.750   46.548   25.517    0.374    0.289
  342.000   46.570   29.043    0.379    0.262
  342.250   47.816   32.477    0.359    0.248
  342.500   51.496   31.927    0.341    0.228
  342.750   55.779   31.397    0.317    0.195
  343.000   60.678   30.846    0.328    0.158
  343.250   66.807   29.243    0.352    0.179
  343.500   66.219   27.220    0.370    0.225
  343.750   66.236   26.743    0.391    0.231
  344.000   65.647   25.345    0.409    0.235
  344.250   63.851   24.464    0.425    0.240
  344.500   62.648   23.199    0.429    0.250
  344.750   61.445   22.793    0.414    0.253
  345.000   60.247   22.407    0.412    0.262
  345.250   59.659   22.028    0.416    0.270
  345.500   59.077   22.062    0.426    0.278
  345.750   59.093   21.689    0.440    0.282
  346.000   59.114   21.709    0.453    0.287
  346.250   57.312   21.743    0.451    0.287
  346.500   55.505   21.764    0.443    0.286
  346.750   54.302   21.791    0.436    0.281
  347.000   54.939   22.221    0.430    0.275
  347.250   56.795   23.086    0.415    0.263
  347.500   57.415   24.428    0.401    0.253
  347.750   58.656   25.840    0.388    0.248
  348.000   59.897   26.351    0.384    0.243
  348.250   62.368   25.897    0.385    0.235
  348.500   63.604   25.458    0.390    0.244
  348.750   66.064   25.970    0.397    0.246
  349.000   70.968   25.538    0.405    0.243
  349.250   73.423   25.554    0.400    0.234
  349.500   75.894   25.122    0.395    0.224
  349.750   75.905   27.073    0.387    0.187
  350.000   75.322   28.118    0.363    0.156
  350.250   72.905   26.657    0.323    0.158
  350.500   69.264   25.714    0.322    0.173
  350.750   64.413   23.074    0.349    0.198
  351.000   66.264   20.699    0.376    0.218
  351.250   68.724   19.611    0.394    0.235
  351.500   70.575   17.923    0.393    0.243
  351.750   71.206   17.300    0.399    0.244
  352.000   69.399   17.002    0.404    0.248
  352.250   68.816   16.123    0.409    0.253
  352.500   68.223   15.841    0.408    0.260
  352.750   68.859   15.017    0.399    0.261
  353.000   71.320   14.500    0.400    0.254
  353.250   71.347   14.245    0.400    0.239
  353.500   70.748   14.009    0.391    0.212
  353.750   68.946   14.545    0.393    0.191
  354.000   67.139   16.555    0.396    0.184
  354.250   65.326   18.860    0.395    0.158
  354.500   64.738   19.582    0.373    0.126
  354.750   69.637   19.601    0.357    0.133
  355.000   73.926   19.631    0.375    0.159
  355.250   74.557   19.293    0.391    0.165
  355.500   73.969   17.964    0.407    0.195
  355.750   71.558   17.329    0.401    0.221
  356.000   71.585   15.837    0.390    0.223
  356.250   74.045   14.737    0.391    0.226
  356.500   75.901   13.717    0.397    0.235
  356.750   77.142   13.232    0.402    0.243
