~VERSION INFORMATION
 VERS.                 2.0:   CWLS LOG ASCII STANDARD -VERSION 2.0
 WRAP.                  NO:   ONE LINE PER DEPTH STEP
~WELL INFORMATION BLOCK
#MNEM.UNIT           DATA                    DESCRIPTION OF MNEMONIC
#---------    -------------------            -------------------------------
# Generated from Intellog Unique Number	CS_73_76/WELL/2173
WELL.         DOME PETROLEUM LTD.            : Well_name    - WELL
LOC .         00/07-19-074-04W4/0            : Location     - LOCATION
UWI .         00/07-19-074-04W4/0            : Uwi          - UNIQUE WELL ID
ENTR.         SP                             : Entered      - ENTERED BY
SRVC.         SCHLUMBERGER                   : Scn          - SERVICE COMPANY
STRT.M        250                            : top_depth    - START DEPTH
STOP.M        456                            : bot_depth    - STOP DEPTH
STEP.M        0.25                           : increment    - STEP LENGTH
 NULL. -999.2500:NULL Value
~CURVE INFORMATION BLOCK
#MNEM UNIT       ERCB CURVE CODE    CURVE DESCRIPTION
#-----------   ------------------   ----------------------------------
DEPT.M        00 001 00 00         : DEPTH        - DEPTH
ILD .OHMM     00 120 00 00         : RESD         - DEEP RESISTIVITY (DIL)
DPHI.V/V      00 890 00 00         : PHID         - DENSITY POROSITY (LIMESTONE)
NPHI.V/V      00 330 00 00         : PHIN         - NEUTRON POROSITY (LIMESTONE)
GR  .API      00 310 00 00         : GR           - GAMMA RAY
~PARAMETER INFORMATION
#MNEM.UNIT           DATA             DESCRIPTION OF MNEMONIC
#---------         -----------     ------------------------------
GL  .M        650.2                : gl           - GROUND LEVEL ELEVATION
EREF.M        654.7                : kb           - ELEVATION OF DEPTH REFERENCE
DATM.M        650.2                : datum        - DATUM ELEVATION
TDD .M        456.5                : tdd          - TOTAL DEPTH DRILLER
RUN .         ONE                  : Run          - RUN NUMBER
ENG .         BILL                 : Engineer     - RECORDING ENGINEER
WIT .         JIM                  : Witness      - WITNESSED BY
MUD .         GEL                  : Mud_type     - MUD TYPE
MATR.         LIMESTONE            : Logunit      - NEUTRON MATRIX
TMAX.C        21                   : BHT          - MAXIMUM RECORDED TEMPERATURE
BHTD.M        456.5                : BHTDEP       - MAXIMUM RECORDED TEMPERATURE
MATR.         1                    : LOGUNIT      - NEUTRON MATRIX
RMT .C        25                   : MDTP         - TEMPERATURE OF MUD
NEUT.         1                    : NEUTRON      - NEUTRON TYPE
RESI.         0                    : RESIST       - RESISTIVITY TYPE
RMC .OHMM     0.25                 : RMC          - RESISTIVITY OF MUD CAKE
RMF .OHMM     0.25                 : RMF          - RESISTIVITY OF MUD FILTRATE
SUFT.C        15                   : SUFT         - SURFACE TEMPERATURE
~A  DEPTH     RESD     PHID     PHIN       GR
# ...
  380.500    3.430    0.139    0.359   58.378
  380.750    3.184    0.117    0.263   55.351
  381.000    2.848    0.097    0.245   51.718
  381.250    2.744    0.093    0.233   48.692
  381.500    2.902    0.105    0.259   49.313
  381.750    3.125    0.139    0.380   56.611
  382.000    3.366    0.290    0.422   62.089
  382.250    3.429    0.328    0.458   68.784
  382.500    2.956    0.310    0.461   70.616
  382.750    2.365    0.307    0.449   69.413
  383.000    1.893    0.310    0.455   69.425
  383.250    1.725    0.301    0.448   72.472
  383.500    1.487    0.283    0.444   76.129
  383.750    1.433    0.266    0.451   79.176
  384.000    1.459    0.263    0.461   82.226
  384.250    1.572    0.267    0.473   86.489
  384.500    1.725    0.270    0.482   88.930
  384.750    1.790    0.259    0.474   88.941
  385.000    1.892    0.261    0.477   88.951
  385.250    1.928    0.252    0.465   88.356
  385.500    1.964    0.249    0.448   88.976
  385.750    2.038    0.254    0.440   88.381
  386.000    2.155    0.265    0.441   89.000
  386.250    2.195    0.260    0.438   90.834
  386.500    2.195    0.258    0.443   92.667
  386.750    2.155    0.260    0.449   91.464
  387.000    2.115    0.261    0.449   92.691
  387.250    2.115    0.257    0.458   93.308
  387.500    2.155    0.270    0.458   90.285
  387.750    2.155    0.232    0.448   89.085
  388.000    2.236    0.260    0.459   89.093
  388.250    2.278    0.292    0.471   90.319
  388.500    2.278    0.304    0.476   91.545
  388.750    2.278    0.282    0.493   90.951
  389.000    2.195    0.284    0.503   88.534
  389.250    2.115    0.286    0.478   90.366
  389.500    2.000    0.286    0.465   94.022
  389.750    1.892    0.294    0.477   90.389
  390.000    1.857    0.300    0.476   81.900
  390.250    1.823    0.316    0.462   75.233
  390.500    1.789    0.321    0.460   72.206
  390.750    1.692    0.301    0.449   78.293
  391.000    1.630    0.269    0.430   83.769
  391.250    1.630    0.264    0.436   84.388
  391.500    1.630    0.264    0.463   83.795
  391.750    1.661    0.261    0.475   85.019
  392.000    1.692    0.263    0.452   85.030
  392.250    1.789    0.268    0.429   84.434
  392.500    1.963    0.300    0.467   78.983
  392.750    2.154    0.364    0.510   75.957
  393.000    2.277    0.348    0.558   74.752
  393.250    2.277    0.318    0.574   76.587
  393.500    2.075    0.304    0.581   77.813
  393.750    1.891    0.291    0.578   78.432
  394.000    1.856    0.276    0.571   79.050
  394.250    1.788    0.278    0.554   79.669
  394.500    1.822    0.288    0.540   78.468
  394.750    1.822    0.298    0.534   81.516
  395.000    1.856    0.293    0.544   87.602
  395.250    1.891    0.265    0.561   90.648
  395.500    1.891    0.257    0.568   91.269
  395.750    1.926    0.252    0.578   89.460
  396.000    1.926    0.244    0.565   87.043
  396.250    1.926    0.232    0.548   87.052
  396.500    1.926    0.226    0.448   85.851
  396.750    2.036    0.228    0.464   84.647
  397.000    2.193    0.232    0.445   85.874
  397.250    2.451    0.241    0.436   85.883
  397.500    2.592    0.220    0.447   83.466
  397.750    2.740    0.206    0.462   84.694
  398.000    2.844    0.205    0.462   89.566
  398.250    2.897    0.223    0.471   91.398
  398.500    2.897    0.229    0.491   92.624
  398.750    2.844    0.232    0.504   92.635
  399.000    2.640    0.238    0.506   89.612
  399.250    2.544    0.240    0.475   85.371
  399.500    2.451    0.225    0.459   83.560
  399.750    2.406    0.207    0.454   86.611
  400.000    2.451    0.197    0.460   91.483
  400.250    2.544    0.214    0.458   93.923
  400.500    2.640    0.224    0.452   90.895
  400.750    2.689    0.228    0.460   87.871
  401.000    2.791    0.218    0.466   92.742
  401.250    2.791    0.211    0.460   97.611
  401.500    2.791    0.217    0.471  103.700
  401.750    2.739    0.249    0.488  106.137
  402.000    2.689    0.281    0.499   95.825
  402.250    2.639    0.270    0.506   88.549
  402.500    2.591    0.232    0.485   89.778
  402.750    2.543    0.229    0.483   92.823
  403.000    2.496    0.235    0.473   94.050
  403.250    2.450    0.237    0.453   88.595
  403.500    2.450    0.229    0.446   88.608
  403.750    2.496    0.234    0.454   88.012
  404.000    2.496    0.245    0.462   86.809
  404.250    2.496    0.243    0.462   88.645
  404.500    2.543    0.229    0.461   91.084
  404.750    2.543    0.223    0.461   90.489
  405.000    2.543    0.226    0.446   89.286
  405.250    2.542    0.237    0.448   88.690
  405.500    2.542    0.277    0.463   85.060
  405.750    2.590    0.287    0.397   80.212
  406.000    2.638    0.266    0.339   75.367
  406.250    2.638    0.143    0.285   71.125
  406.500    2.688    0.143    0.256   65.672
  406.750    2.789    0.230    0.266   67.507
  407.000    2.895    0.276    0.283   73.590
  407.250    5.244    0.288    0.295   78.460
  407.500    5.754    0.285    0.315   77.866
  407.750    5.862    0.310    0.307   76.661
  408.000    5.648    0.325    0.300   74.852
  408.250    5.244    0.333    0.285   72.435
  408.500    4.520    0.350    0.283   71.231
  408.750    3.969    0.351    0.326   74.887
  409.000    3.358    0.339    0.378   80.971
  409.250    2.949    0.320    0.399   79.770
  409.500    2.687    0.316    0.401   76.743
  409.750    2.449    0.305    0.389   76.148
  410.000    2.495    0.280    0.378   83.448
  410.250    2.589    0.203    0.368   91.356
  410.500    2.788    0.220    0.382   99.262
  410.750    2.894    0.231    0.391   96.236
  411.000    3.060    0.231    0.396   86.531
  411.250    3.117    0.248    0.405   76.219
  411.500    3.117    0.288    0.383   64.692
  411.750    3.059    0.299    0.363   53.773
  412.000    3.003    0.309    0.369   47.711
  412.250    2.894    0.314    0.366   44.078
  412.500    2.788    0.321    0.365   44.698
  412.750    2.737    0.325    0.374   51.999
  413.000    2.686    0.320    0.367   56.265
  413.250    2.737    0.315    0.367   58.094
  413.500    4.117    0.304    0.375   60.537
  413.750    5.969    0.302    0.372   62.369
  414.000    8.184    0.305    0.375   62.988
  414.250    9.495    0.306    0.378   65.431
  414.500   10.226    0.308    0.367   67.870
  414.750   10.418    0.282    0.347   69.096
  415.000    8.652    0.243    0.343   67.894
  415.250    7.186    0.240    0.367   58.190
  415.500    5.858    0.264    0.378   43.016
  415.750    5.858    0.300    0.361   46.066
  416.000    8.032    0.315    0.370   55.794
  416.250    9.493    0.302    0.385   65.525
  416.500   10.416    0.285    0.386   67.963
  416.750   10.810    0.271    0.390   69.192
  417.000   10.810    0.286    0.380   64.347
  417.250    9.492    0.303    0.353   58.891
  417.500    8.031    0.287    0.348   59.509
  417.750    7.052    0.268    0.344   63.164
  418.000    8.650    0.264    0.342   64.391
  418.250    9.491    0.264    0.336   63.187
  418.500    9.491    0.247    0.317   76.561
  418.750    9.145    0.224    0.304   89.326
  419.000    8.649    0.199    0.326   97.842
  419.250    7.318    0.224    0.377  102.103
  419.500    6.426    0.241    0.385  103.937
  419.750    5.539    0.245    0.372  102.128
  420.000    5.047    0.217    0.370   98.493
  420.250    4.515    0.224    0.365   91.825
  420.500    4.192    0.229    0.328   88.195
  420.750    4.039    0.218    0.329   90.027
  421.000    3.820    0.209    0.370   87.005
  421.250    3.820    0.218    0.395   79.730
  421.500    4.039    0.241    0.402   71.845
  421.750    4.350    0.304    0.410   63.353
  422.000    5.436    0.286    0.387   60.328
  422.250    6.190    0.265    0.352   72.488
  422.500    7.181    0.258    0.364   83.431
  422.750    7.592    0.252    0.361   90.730
  423.000    7.879    0.246    0.360   91.956
  423.250    8.027    0.240    0.387   90.149
  423.500    7.734    0.241    0.411   88.944
  423.750    6.305    0.240    0.355   85.919
