~VERSION INFORMATION
 VERS.                 2.0:   CWLS LOG ASCII STANDARD -VERSION 2.0
 WRAP.                  NO:   ONE LINE PER DEPTH STEP
~WELL INFORMATION BLOCK
#MNEM.UNIT           DATA                    DESCRIPTION OF MNEMONIC
#---------    -------------------            -------------------------------
# Generated from Intellog Unique Number	CS_67_68/WELL/799
WELL.         DOME PETROLEUM LIMITED         : Well_name    - WELL
LOC .         00/09-11-068-02W4/0            : Location     - LOCATION
UWI .         00/09-11-068-02W4/0            : Uwi          - UNIQUE WELL ID
ENTR.         SP                             : Entered      - ENTERED BY
SRVC.         SCHLUMBERGER                   : Scn          - SERVICE COMPANY
STRT.M        350                            : top_depth    - START DEPTH
STOP.M        605                            : bot_depth    - STOP DEPTH
STEP.M        0.25                           : increment    - STEP LENGTH
 NULL. -999.2500:NULL Value
~CURVE INFORMATION BLOCK
#MNEM UNIT       ERCB CURVE CODE    CURVE DESCRIPTION
#-----------   ------------------   ----------------------------------
DEPT.M        00 001 00 00         : DEPTH        - DEPTH
ILD .OHMM     00 120 00 00         : RESD         - DEEP RESISTIVITY (DIL)
DPHI.V/V      00 890 00 00         : PHID         - DENSITY POROSITY (LIMESTONE)
NPHI.V/V      00 330 00 00         : PHIN         - NEUTRON POROSITY (LIMESTONE)
GR  .API      00 310 00 00         : GR           - GAMMA RAY
~PARAMETER INFORMATION
#MNEM.UNIT           DATA             DESCRIPTION OF MNEMONIC
#---------         -----------     ------------------------------
GL  .M        681.9                : gl           - GROUND LEVEL ELEVATION
EREF.M        686                  : kb           - ELEVATION OF DEPTH REFERENCE
DATM.M        681.9                : datum        - DATUM ELEVATION
TDD .M        609                  : tdd          - TOTAL DEPTH DRILLER
RUN .         ONE                  : Run          - RUN NUMBER
ENG .         BILL                 : Engineer     - RECORDING ENGINEER
WIT .         JIM                  : Witness      - WITNESSED BY
MUD .         GEL                  : Mud_type     - MUD TYPE
MATR.         LIMESTONE            : Logunit      - NEUTRON MATRIX
TMAX.C        21.1                 : BHT          - MAXIMUM RECORDED TEMPERATURE
BHTD.M        609                  : BHTDEP       - MAXIMUM RECORDED TEMPERATURE
MATR.         1                    : LOGUNIT      - NEUTRON MATRIX
RMT .C        25                   : MDTP         - TEMPERATURE OF MUD
NEUT.         1                    : NEUTRON      - NEUTRON TYPE
RESI.         0                    : RESIST       - RESISTIVITY TYPE
RMC .OHMM     0.25                 : RMC          - RESISTIVITY OF MUD CAKE
RMF .OHMM     0.25                 : RMF          - RESISTIVITY OF MUD FILTRATE
SUFT.C        15                   : SUFT         - SURFACE TEMPERATURE
~A  DEPTH     RESD     PHID     PHIN       GR
# ...
  567.500    7.678    0.217    0.327   78.919
  567.750    7.614    0.220    0.322   79.458
  568.000    7.535    0.228    0.325   82.794
  568.250    7.445    0.220    0.327   86.375
  568.500    7.368    0.213    0.330   79.671
  568.750    7.345    0.210    0.340   74.793
  569.000    7.219    0.219    0.349   73.507
  569.250    7.183    0.222    0.352   73.497
  569.500    7.122    0.236    0.352   73.609
  569.750    6.996    0.250    0.351   75.911
  570.000    6.836    0.248    0.345   79.128
  570.250    6.676    0.242    0.337   81.734
  570.500    6.192    0.236    0.329   79.595
  570.750    5.946    0.252    0.340   76.237
  571.000    5.567    0.265    0.350   75.742
  571.250    5.508    0.276    0.349   78.592
  571.500    5.544    0.276    0.342   82.535
  571.750    5.622    0.268    0.337   84.232
  572.000    5.710    0.263    0.337   80.632
  572.250    5.788    0.259    0.352   76.850
  572.500    5.847    0.272    0.367   74.649
  572.750    5.853    0.282    0.368   76.404
  573.000    5.846    0.279    0.353   85.522
  573.250    5.873    0.265    0.338   92.997
  573.500    5.921    0.255    0.332   89.214
  573.750    5.959    0.248    0.341   83.120
  574.000    5.898    0.260    0.349   77.269
  574.250    5.647    0.269    0.353   81.702
  574.500    5.454    0.277    0.345   83.760
  574.750    5.229    0.295    0.333   80.526
  575.000    4.692    0.307    0.367   70.606
  575.250    4.659    0.286    0.347   73.031
  575.500    4.722    0.275    0.336   72.709
  575.750    4.813    0.274    0.331   65.747
  576.000    4.961    0.284    0.348   59.271
  576.250    5.019    0.296    0.356   57.671
  576.500    5.068    0.297    0.354   63.502
  576.750    5.137    0.297    0.349   63.058
  577.000    5.168    0.297    0.349   60.361
  577.250    5.208    0.302    0.356   57.725
  577.500    5.269    0.312    0.358   59.775
  577.750    5.390    0.299    0.354   62.991
  578.000    5.650    0.287    0.345   63.824
  578.250    5.922    0.281    0.331   62.957
  578.500    6.231    0.272    0.326   60.745
  578.750    6.555    0.248    0.315   65.236
  579.000    6.820    0.232    0.321   74.173
  579.250    7.017    0.216    0.336   78.120
  579.500    7.085    0.220    0.348   81.391
  579.750    7.061    0.241    0.342   70.470
  580.000    6.972    0.255    0.335   63.078
  580.250    6.936    0.264    0.335   60.627
  580.500    6.939    0.262    0.328   60.366
  580.750    7.033    0.253    0.323   62.416
  581.000    7.181    0.255    0.317   63.134
  581.250    7.614    0.248    0.310   79.445
  581.500    7.774    0.202    0.315   91.126
  581.750    7.997    0.177    0.330  100.918
  582.000    8.196    0.153    0.353  109.796
  582.250    8.370    0.165    0.384  110.935
  582.500    8.326    0.170    0.412  104.338
  582.750    8.221    0.169    0.422  110.657
  583.000    8.103    0.172    0.430  113.443
  583.250    7.897    0.180    0.443  111.472
  583.500    7.725    0.187    0.449  110.666
  583.750    7.500    0.194    0.420  111.500
  584.000    7.310    0.186    0.412  112.095
  584.250    7.271    0.176    0.408  110.127
  584.500    7.302    0.169    0.406  106.941
  584.750    7.331    0.168    0.411  101.685
  585.000    7.307    0.189    0.402   96.430
  585.250    7.215    0.206    0.393   94.220
  585.500    7.058    0.203    0.382   94.446
  585.750    6.866    0.192    0.377  103.446
  586.000    6.766    0.185    0.373  111.289
  586.250    6.619    0.180    0.397  118.215
  586.500    6.499    0.178    0.422  120.636
  586.750    6.346    0.170    0.445  120.313
  587.000    6.231    0.171    0.467  118.895
  587.250    6.130    0.182    0.429  118.636
  587.500    6.052    0.192    0.422  120.080
  587.750    6.009    0.192    0.435  121.100
  588.000    6.012    0.184    0.448  120.960
  588.250    6.059    0.180    0.449  119.418
  588.500    6.130    0.185    0.432  120.498
  588.750    6.155    0.189    0.413  121.580
  589.000    6.238    0.191    0.407  111.266
  589.250    6.394    0.202    0.443   90.778
  589.500    6.544    0.224    0.437   83.694
  589.750    6.581    0.226    0.395   77.950
  590.000    6.620    0.205    0.377   86.522
  590.250    6.660    0.193    0.370   92.720
  590.500    6.687    0.203    0.392  100.986
  590.750    6.678    0.205    0.409  106.819
  591.000    6.643    0.185    0.423  112.713
  591.250    6.720    0.176    0.421  115.986
  591.500    6.914    0.168    0.411  114.628
  591.750    7.074    0.170    0.408  111.322
  592.000    7.196    0.170    0.407  114.229
  592.250    7.266    0.169    0.412  115.916
  592.500    7.323    0.179    0.409  114.558
  592.750    7.368    0.188    0.403  110.095
  593.000    7.356    0.178    0.400  110.566
  593.250    7.291    0.170    0.409  118.587
  593.500    7.187    0.164    0.414  122.107
  593.750    7.042    0.163    0.401  124.467
  594.000    6.662    0.166    0.397  122.500
  594.250    6.289    0.169    0.406  120.899
  594.500    5.971    0.171    0.405  116.069
  594.750    5.472    0.185    0.405   71.088
  595.000    5.283    0.229    0.415   47.980
  595.250    5.149    0.298    0.394   36.022
  595.500    5.018    0.325    0.362   31.375
  595.750    4.818    0.330    0.341   30.748
  596.000    4.660    0.330    0.332   31.157
  596.250    4.576    0.327    0.331   31.137
  596.500    4.544    0.322    0.343   30.818
  596.750    4.545    0.314    0.351   31.228
  597.000    4.555    0.308    0.359   30.602
  597.250    4.583    0.311    0.378   30.768
  597.500    4.610    0.317    0.374   32.821
  597.750    4.708    0.323    0.358   38.896
  598.000    4.871    0.329    0.363   49.055
  598.250    5.021    0.281    0.373   64.085
  598.500    5.126    0.249    0.341   76.194
  598.750    5.353    0.218    0.325   89.943
  599.000    5.717    0.200    0.345   98.824
  599.250    6.163    0.212    0.367   97.222
  599.500    6.423    0.218    0.367   90.623
  599.750    6.720    0.226    0.361   84.634
  600.000    6.404    0.238    0.366   79.623
  600.250    5.686    0.258    0.379   43.843
  600.500    5.398    0.284    0.366   47.665
  600.750    5.330    0.294    0.339   58.432
  601.000    5.372    0.272    0.332   67.005
  601.250    5.405    0.265    0.351   71.435
  601.500    5.498    0.267    0.340   73.423
  601.750    5.573    0.272    0.343   74.321
  602.000    5.659    0.280    0.351   75.584
  602.250    5.756    0.270    0.355   75.997
  602.500    5.856    0.277    0.373   74.883
  602.750    5.612    0.285    0.401   72.369
  603.000    6.374    0.266    0.404   75.641
  603.250    8.517    0.209    0.360   80.254
  603.500   11.086    0.085    0.343   79.628
  603.750   13.542    0.046    0.357   74.370
  604.000   15.671    0.022    0.355   72.527
  604.250   16.988    0.018    0.349   73.058
  604.500   16.867    0.079    0.360   75.295
  604.750   15.807    0.124    0.368   73.817
  605.000   14.980    0.146    0.358   72.395
