~VERSION INFORMATION
 VERS.                 2.0:   CWLS LOG ASCII STANDARD -VERSION 2.0
 WRAP.                  NO:   ONE LINE PER DEPTH STEP
~WELL INFORMATION BLOCK
#MNEM.UNIT           DATA                    DESCRIPTION OF MNEMONIC
#---------    -------------------            -------------------------------
# Generated from Intellog Unique Number	CS_71_72/WELL/813
WELL.         BOW VALLEY EXPLORATION         : Well_name    - WELL
LOC .         00/07-24-071-17W4/0            : Location     - LOCATION
UWI .         00/07-24-071-17W4/0            : Uwi          - UNIQUE WELL ID
ENTR.         SP                             : Entered      - ENTERED BY
SRVC.         SCHLUMBERGER                   : Scn          - SERVICE COMPANY
STRT.M        274.320                        : top_depth    - START DEPTH
STOP.M        475.320                        : bot_depth    - STOP DEPTH
STEP.M        0.25                           : increment    - STEP LENGTH
 NULL. -999.2500:NULL Value
~CURVE INFORMATION BLOCK
#MNEM UNIT       ERCB CURVE CODE    CURVE DESCRIPTION
#-----------   ------------------   ----------------------------------
DEPT.M        00 001 00 00         : DEPTH        - DEPTH
GR  .API      00 310 00 00         : GR           - GAMMA RAY
DPHI.V/V      00 890 00 00         : PHID         - DENSITY POROSITY (SANDSTONE)
NPHI.V/V      00 330 00 00         : PHIN         - NEUTRON POROSITY (SANDSTONE)
ILD .OHMM     00 120 00 00         : RESD         - DEEP RESISTIVITY (DIL)
~PARAMETER INFORMATION
#MNEM.UNIT           DATA             DESCRIPTION OF MNEMONIC
#---------         -----------     ------------------------------
GL  .M        565.404              : gl           - GROUND LEVEL ELEVATION
EREF.M        568.452              : kb           - ELEVATION OF DEPTH REFERENCE
DATM.M        565.404              : datum        - DATUM ELEVATION
TDD .M        482.803              : tdd          - TOTAL DEPTH DRILLER
RUN .         ONE                  : Run          - RUN NUMBER
ENG .         BILL                 : Engineer     - RECORDING ENGINEER
WIT .         JIM                  : Witness      - WITNESSED BY
MUD .         GEL                  : Mud_type     - MUD TYPE
MATR.         SANDSTONE            : Logunit      - NEUTRON MATRIX
TMAX.C        18.3333              : BHT          - MAXIMUM RECORDED TEMPERATURE
BHTD.M        476.707              : BHTDEP       - MAXIMUM RECORDED TEMPERATURE
MATR.         1                    : LOGUNIT      - NEUTRON MATRIX
RMT .C        25                   : MDTP         - TEMPERATURE OF MUD
NEUT.         1                    : NEUTRON      - NEUTRON TYPE
RESI.         0                    : RESIST       - RESISTIVITY TYPE
RMC .OHMM     0.25                 : RMC          - RESISTIVITY OF MUD CAKE
RMF .OHMM     0.25                 : RMF          - RESISTIVITY OF MUD FILTRATE
SUFT.C        15                   : SUFT         - SURFACE TEMPERATURE
~A  DEPTH       GR     PHID     PHIN     RESD
# ...
  361.320   58.696    0.350    0.418    4.962
  361.570   59.945    0.363    0.426    4.816
  361.820   59.758    0.364    0.441    4.716
  362.070   59.744    0.362    0.438    4.708
  362.320   61.191    0.370    0.437    4.719
  362.570   60.999    0.362    0.450    4.749
  362.820   60.390    0.362    0.455    4.757
  363.070   60.282    0.367    0.451    4.778
  363.320   58.839    0.356    0.467    4.778
  363.570   57.604    0.347    0.466    4.744
  363.820   57.063    0.346    0.453    4.658
  364.070   57.487    0.348    0.439    4.539
  364.320   58.537    0.338    0.442    4.580
  364.570   58.431    0.334    0.442    4.699
  364.820   56.688    0.293    0.406    5.461
  365.070   53.898    0.225    0.288    7.289
  365.320   51.035    0.114    0.188    9.798
  365.570   49.511    0.058    0.166   12.710
  365.820   48.556    0.043    0.174   14.928
  366.070   50.197    0.067    0.216   15.423
  366.320   53.167    0.110    0.281   10.202
  366.570   58.765    0.280    0.396    7.556
  366.820   62.999    0.319    0.430    6.402
  367.070   66.900    0.348    0.448    5.662
  367.320   67.194    0.360    0.449    4.947
  367.570   66.894    0.340    0.438    4.573
  367.820   66.614    0.331    0.441    4.509
  368.070   66.730    0.350    0.449    4.503
  368.320   67.033    0.363    0.453    4.577
  368.570   67.191    0.350    0.454    4.675
  368.820   69.161    0.351    0.469    4.851
  369.070   70.540    0.360    0.486    4.967
  369.320   70.203    0.361    0.498    5.032
  369.570   69.652    0.356    0.499    5.089
  369.820   72.082    0.354    0.486    5.154
  370.070   73.240    0.352    0.488    4.710
  370.320   72.330    0.347    0.501    4.780
  370.570   70.657    0.341    0.507    4.902
  370.820   71.799    0.334    0.486    4.598
  371.070   73.842    0.327    0.462    4.714
  371.320   74.225    0.334    0.449    4.742
  371.570   70.869    0.346    0.442    4.739
  371.820   69.217    0.357    0.479    4.755
  372.070   70.980    0.363    0.496    4.785
  372.320   72.237    0.353    0.506    4.817
  372.570   71.404    0.345    0.510    4.874
  372.820   73.073    0.338    0.514    4.941
  373.070   75.342    0.337    0.522    5.003
  373.320   74.302    0.330    0.519    5.051
  373.570   72.288    0.330    0.487    5.050
  373.820   71.072    0.324    0.478    5.028
  374.070   72.397    0.320    0.470    5.012
  374.320   72.771    0.320    0.468    5.005
  374.570   71.731    0.314    0.459    4.931
  374.820   71.278    0.309    0.457    4.940
  375.070   72.259    0.304    0.460    4.900
  375.320   72.067    0.298    0.471    4.808
  375.570   70.391    0.306    0.487    4.703
  375.820   69.452    0.314    0.493    4.589
  376.070   70.355    0.318    0.489    4.502
  376.320   70.762    0.313    0.482    4.467
  376.570   70.055    0.313    0.491    4.437
  376.820   70.045    0.319    0.491    4.422
  377.070   70.460    0.325    0.472    4.408
  377.320   69.559    0.321    0.460    4.395
  377.570   67.906    0.328    0.454    4.374
  377.820   67.783    0.329    0.451    4.365
  378.070   69.490    0.332    0.454    4.397
  378.320   71.609    0.333    0.441    4.435
  378.570   73.305    0.326    0.430    4.460
  378.820   74.740    0.317    0.437    4.506
  379.070   75.555    0.308    0.454    4.578
  379.320   76.241    0.312    0.460    4.606
  379.570   76.796    0.318    0.449    4.667
  379.820   76.468    0.319    0.442    4.709
  380.070   75.249    0.316    0.440    4.738
  380.320   73.015    0.307    0.448    4.794
  380.570   71.410    0.305    0.454    4.822
  380.820   73.374    0.303    0.454    4.848
  381.070   75.927    0.299    0.466    4.855
  381.320   78.722    0.301    0.471    4.832
  381.570   80.518    0.304    0.450    4.860
  381.820   80.171    0.301    0.447    4.966
  382.070   78.996    0.295    0.453    5.116
  382.320   77.395    0.293    0.456    5.305
  382.570   76.054    0.301    0.452    5.598
  382.820   74.603    0.283    0.446    6.100
  383.070   72.709    0.253    0.411    6.604
  383.320   72.270    0.225    0.381    6.911
  383.570   72.933    0.181    0.351    7.023
  383.820   73.735    0.188    0.369    6.415
  384.070   74.623    0.246    0.424    5.877
  384.320   75.565    0.278    0.473    5.511
  384.570   77.417    0.295    0.481    5.117
  384.820   79.199    0.292    0.462    4.973
  385.070   81.093    0.300    0.452    4.821
  385.320   84.399    0.299    0.450    4.471
  385.570   88.664    0.299    0.468    3.951
  385.820   93.031    0.282    0.467    3.434
  386.070   97.032    0.251    0.491    3.011
  386.320  100.439    0.234    0.534    2.678
  386.570  102.166    0.241    0.548    2.507
  386.820  102.913    0.246    0.543    2.645
  387.070  100.790    0.240    0.522    2.907
  387.320   98.801    0.241    0.529    3.271
  387.570   99.456    0.245    0.501    4.003
  387.820   97.017    0.228    0.476    4.294
  388.070   90.884    0.232    0.459    4.789
  388.320   85.113    0.243    0.448    5.286
  388.570   86.017    0.249    0.455    5.704
  388.820   88.320    0.233    0.449    6.131
  389.070   88.456    0.222    0.453    6.780
  389.320   74.902    0.226    0.465    7.465
  389.570   65.737    0.150    0.401    7.863
  389.820   60.337    0.097    0.318    7.903
  390.070   71.608    0.073    0.308    7.770
  390.320   85.052    0.200    0.389    7.315
  390.570   92.332    0.216    0.433    6.615
  390.820   95.691    0.221    0.441    5.968
  391.070   97.867    0.234    0.444    5.448
  391.320   95.369    0.237    0.439    5.266
  391.570   90.261    0.242    0.435    5.296
  391.820   89.344    0.237    0.438    5.390
  392.070   90.048    0.231    0.456    5.483
  392.320   90.841    0.227    0.453    5.548
  392.570   91.089    0.219    0.445    5.601
  392.820   91.508    0.205    0.448    5.588
  393.070   90.519    0.210    0.460    5.433
  393.320   89.661    0.239    0.468    5.192
  393.570   87.472    0.249    0.476    5.041
  393.820   85.511    0.262    0.472    4.913
  394.070   85.770    0.264    0.462    4.847
  394.320   86.161    0.254    0.452    4.898
  394.570   86.156    0.252    0.448    5.081
  394.820   84.524    0.268    0.444    5.375
  395.070   80.995    0.250    0.439    5.926
  395.320   74.878    0.194    0.411    6.815
  395.570   69.258    0.160    0.368    8.154
  395.820   64.166    0.128    0.265   10.448
  396.070   61.247    0.095    0.248   15.553
  396.320   59.715    0.075    0.224   19.150
  396.570   57.640    0.042    0.215   21.341
  396.820   57.692    0.046    0.218   21.922
  397.070   61.591    0.049    0.234   21.851
  397.320   64.741    0.090    0.280   20.764
  397.570   64.357    0.126    0.309   15.284
  397.820   68.369    0.158    0.337   11.624
  398.070   72.096    0.188    0.362    8.398
  398.320   74.335    0.222    0.390    6.320
  398.570   75.686    0.258    0.419    5.523
  398.820   75.605    0.269    0.429    5.075
  399.070   75.216    0.267    0.427    4.886
  399.320   74.850    0.264    0.420    4.924
  399.570   74.902    0.255    0.415    5.000
  399.820   75.595    0.262    0.424    5.011
  400.070   76.351    0.283    0.426    5.062
  400.320   77.360    0.279    0.422    5.136
  400.570   76.576    0.281    0.419    5.159
  400.820   74.997    0.281    0.419    5.200
  401.070   72.300    0.273    0.424    5.246
  401.320   74.916    0.266    0.435    5.297
  401.570   76.838    0.265    0.451    5.329
  401.820   78.542    0.261    0.443    5.421
  402.070   79.411    0.272    0.442    5.492
  402.320   79.230    0.274    0.438    5.591
  402.570   76.810    0.268    0.428    5.709
  402.820   75.627    0.260    0.419    5.854
  403.070   76.261    0.254    0.403    5.972
  403.320   79.027    0.247    0.409    6.051
  403.570   80.928    0.241    0.403    6.065
  403.820   82.548    0.240    0.410    6.029
  404.070   83.527    0.245    0.414    5.938
  404.320   81.268    0.251    0.425    5.872
  404.570   76.458    0.255    0.423    5.816
