~VERSION INFORMATION
 VERS.                 2.0:   CWLS LOG ASCII STANDARD -VERSION 2.0
 WRAP.                  NO:   ONE LINE PER DEPTH STEP
~WELL INFORMATION BLOCK
#MNEM.UNIT           DATA                    DESCRIPTION OF MNEMONIC
#---------    -------------------            -------------------------------
# Generated from Intellog Unique Number	CS_73_76/WELL/2170
WELL.         BOW VALLEY EXPLORATION         : Well_name    - WELL
LOC .         00/06-32-074-16W4/0            : Location     - LOCATION
UWI .         00/06-32-074-16W4/0            : Uwi          - UNIQUE WELL ID
ENTR.         SP                             : Entered      - ENTERED BY
SRVC.         SCHLUMBERGER                   : Scn          - SERVICE COMPANY
STRT.M        305                            : top_depth    - START DEPTH
STOP.M        495                            : bot_depth    - STOP DEPTH
STEP.M        0.25                           : increment    - STEP LENGTH
 NULL. -999.2500:NULL Value
~CURVE INFORMATION BLOCK
#MNEM UNIT       ERCB CURVE CODE    CURVE DESCRIPTION
#-----------   ------------------   ----------------------------------
DEPT.M        00 001 00 00         : DEPTH        - DEPTH
ILD .OHMM     00 120 00 00         : RESD         - DEEP RESISTIVITY (DIL)
DPHI.V/V      00 890 00 00         : PHID         - DENSITY POROSITY (LIMESTONE)
NPHI.V/V      00 330 00 00         : PHIN         - NEUTRON POROSITY (LIMESTONE)
GR  .API      00 310 00 00         : GR           - GAMMA RAY
~PARAMETER INFORMATION
#MNEM.UNIT           DATA             DESCRIPTION OF MNEMONIC
#---------         -----------     ------------------------------
GL  .M        659.83               : gl           - GROUND LEVEL ELEVATION
EREF.M        662.86               : kb           - ELEVATION OF DEPTH REFERENCE
DATM.M        659.83               : datum        - DATUM ELEVATION
TDD .M        497                  : tdd          - TOTAL DEPTH DRILLER
RUN .         ONE                  : Run          - RUN NUMBER
ENG .         BILL                 : Engineer     - RECORDING ENGINEER
WIT .         JIM                  : Witness      - WITNESSED BY
MUD .         GEL                  : Mud_type     - MUD TYPE
MATR.         LIMESTONE            : Logunit      - NEUTRON MATRIX
TMAX.C        20                   : BHT          - MAXIMUM RECORDED TEMPERATURE
BHTD.M        497                  : BHTDEP       - MAXIMUM RECORDED TEMPERATURE
MATR.         1                    : LOGUNIT      - NEUTRON MATRIX
RMT .C        25                   : MDTP         - TEMPERATURE OF MUD
NEUT.         1                    : NEUTRON      - NEUTRON TYPE
RESI.         0                    : RESIST       - RESISTIVITY TYPE
RMC .OHMM     0.25                 : RMC          - RESISTIVITY OF MUD CAKE
RMF .OHMM     0.25                 : RMF          - RESISTIVITY OF MUD FILTRATE
SUFT.C        15                   : SUFT         - SURFACE TEMPERATURE
~A  DEPTH     RESD     PHID     PHIN       GR
# ...
  392.000    8.158    0.101    0.403   76.884
  392.250    8.309    0.133    0.369   74.472
  392.500    8.308    0.210    0.421   78.084
  392.750    7.432    0.284    0.435   87.720
  393.000    6.527    0.299    0.437   93.742
  393.250    5.839    0.271    0.443   95.546
  393.500    5.523    0.243    0.450   94.339
  393.750    5.224    0.235    0.466   97.348
  394.000    4.761    0.251    0.479   98.551
  394.250    4.673    0.242    0.473   99.151
  394.500    4.586    0.241    0.484   98.546
  394.750    4.585    0.233    0.480   97.942
  395.000    4.584    0.212    0.490   96.734
  395.250    4.499    0.213    0.469   96.129
  395.500    4.498    0.231    0.461   96.127
  395.750    4.497    0.241    0.445   97.330
  396.000    4.414    0.238    0.461   98.532
  396.250    4.413    0.230    0.473  100.337
  396.500    4.331    0.219    0.470  100.937
  396.750    4.331    0.220    0.480   99.127
  397.000    4.329    0.226    0.468   97.920
  397.250    4.329    0.223    0.460   96.712
  397.500    4.248    0.230    0.468   96.108
  397.750    4.248    0.230    0.483   96.105
  398.000    4.247    0.223    0.468   96.706
  398.250    4.092    0.220    0.473   97.306
  398.500    3.942    0.213    0.469   98.508
  398.750    3.798    0.210    0.480   99.711
  399.000    3.592    0.209    0.472  100.913
  399.250    3.397    0.220    0.472  102.116
  399.500    3.334    0.240    0.479  103.920
  399.750    3.212    0.256    0.484  103.918
  400.000    3.095    0.231    0.487  100.904
  400.250    3.038    0.241    0.492   98.492
  400.500    2.820    0.236    0.504  101.502
  400.750    2.570    0.220    0.515  104.511
  401.000    2.343    0.219    0.525  105.111
  401.250    2.215    0.226    0.538  104.506
  401.500    2.135    0.206    0.475  102.094
  401.750    2.095    0.227    0.497  100.285
  402.000    2.298    0.248    0.524   93.053
  402.250    2.664    0.269    0.534   85.822
  402.500    3.266    0.302    0.457   79.194
  402.750    4.473    0.328    0.436   71.963
  403.000    5.091    0.321    0.430   69.551
  403.250    5.584    0.315    0.436   68.344
  403.500    6.012    0.300    0.437   71.353
  403.750    6.238    0.298    0.426   74.965
  404.000    6.122    0.309    0.421   76.769
  404.250    6.121    0.304    0.421   76.768
  404.500    6.120    0.299    0.428   76.765
  404.750    6.119    0.294    0.431   74.353
  405.000    6.467    0.294    0.425   71.942
  405.250    7.093    0.272    0.415   67.722
  405.500    8.073    0.190    0.401   62.298
  405.750    9.536    0.105    0.363   57.477
  406.000   11.906    0.018    0.180   53.860
  406.250   14.325    0.029    0.177   50.846
  406.500   17.887    0.055    0.200   56.867
  406.750   19.619    0.087    0.241   62.286
  407.000   15.135    0.223    0.329   72.523
  407.250   11.676    0.281    0.368   76.136
  407.500    9.522    0.294    0.398   80.351
  407.750    8.209    0.291    0.414   82.758
  408.000    7.345    0.280    0.431   84.563
  408.250    6.694    0.277    0.444   82.150
  408.500    6.215    0.275    0.451   80.944
  408.750    6.100    0.281    0.455   78.532
  409.000    6.098    0.299    0.466   75.518
  409.250    5.985    0.299    0.459   76.720
  409.500    5.984    0.288    0.441   82.138
  409.750    5.983    0.281    0.432   84.546
  410.000    5.981    0.271    0.427   86.954
  410.250    5.980    0.262    0.435   88.759
  410.500    5.869    0.251    0.448   89.961
  410.750    5.868    0.243    0.454   89.356
  411.000    5.868    0.240    0.459   88.752
  411.250    5.758    0.251    0.467   85.135
  411.500    5.652    0.270    0.470   84.529
  411.750    5.651    0.277    0.474   85.732
  412.000    5.755    0.274    0.452   86.332
  412.250    5.754    0.263    0.447   84.523
  412.500    5.970    0.243    0.449   82.713
  412.750    5.969    0.240    0.438   83.314
  413.000    5.968    0.252    0.419   85.117
  413.250    5.967    0.258    0.412   85.718
  413.500    5.965    0.247    0.421   88.125
  413.750    5.855    0.243    0.438   91.135
  414.000    5.538    0.251    0.447   92.338
  414.250    5.435    0.259    0.455   92.938
  414.500    5.334    0.264    0.471   92.333
  414.750    5.235    0.260    0.472   89.921
  415.000    5.234    0.257    0.459   89.316
  415.250    5.233    0.252    0.471   91.121
  415.500    5.232    0.246    0.467   92.926
  415.750    5.231    0.244    0.450   92.321
  416.000    5.428    0.241    0.448   88.102
  416.250    5.737    0.259    0.461   80.871
  416.500    6.063    0.275    0.471   74.242
  416.750    6.408    0.287    0.452   70.625
  417.000    6.648    0.297    0.429   68.213
  417.250    6.647    0.308    0.421   68.211
  417.500    6.646    0.311    0.417   67.002
  417.750    6.645    0.319    0.415   66.398
  418.000    6.643    0.326    0.414   65.793
  418.250    6.642    0.332    0.408   65.792
  418.500    6.640    0.328    0.407   65.186
  418.750    6.639    0.326    0.414   65.787
  419.000    6.516    0.330    0.402   66.386
  419.250    6.278    0.336    0.406   66.384
  419.500    6.049    0.336    0.424   66.985
  419.750    5.827    0.333    0.434   67.585
  420.000    5.827    0.332    0.446   68.184
  420.250    5.719    0.334    0.448   67.580
  420.500    5.933    0.343    0.443   66.373
  420.750    6.271    0.334    0.436   66.370
  421.000    6.387    0.324    0.425   66.971
  421.250    6.627    0.320    0.423   69.376
  421.500    7.268    0.325    0.424   70.579
  421.750    7.971    0.330    0.424   72.385
  422.000    8.426    0.332    0.420   74.189
  422.250    9.071    0.330    0.407   74.790
  422.500    9.069    0.327    0.400   75.992
  422.750    8.738    0.324    0.419   76.593
  423.000    8.113    0.320    0.428   75.385
  423.250    6.994    0.320    0.435   75.382
  423.500    6.375    0.319    0.440   75.982
  423.750    6.029    0.319    0.440   76.582
  424.000    5.808    0.314    0.423   77.183
  424.250    5.701    0.309    0.414   77.180
  424.500    5.595    0.298    0.424   76.576
  424.750    5.594    0.286    0.431   77.778
  425.000    5.490    0.282    0.439   78.981
  425.250    5.388    0.293    0.443   79.581
  425.500    5.192    0.304    0.436   81.385
  425.750    5.002    0.315    0.435   83.190
  426.000    4.475    0.309    0.441   86.200
  426.250    4.078    0.286    0.445   89.811
  426.500    3.787    0.262    0.451   91.014
  426.750    3.515    0.250    0.453   92.216
  427.000    3.387    0.240    0.460   92.214
  427.250    3.386    0.231    0.480   92.815
  427.500    3.513    0.228    0.493   94.619
  427.750    3.578    0.232    0.479   97.026
  428.000    3.644    0.228    0.472   98.228
  428.250    3.781    0.238    0.466   99.430
  428.500    4.071    0.244    0.477   99.429
  428.750    4.147    0.249    0.487  100.631
  429.000    4.302    0.252    0.495  101.232
  429.250    4.302    0.252    0.489  102.433
  429.500    4.546    0.248    0.471  101.227
  429.750    4.717    0.244    0.451   98.212
  430.000    4.894    0.235    0.446   97.004
  430.250    4.984    0.228    0.434   97.002
  430.500    5.172    0.249    0.441   97.603
  430.750    5.170    0.237    0.447   98.202
  431.000    5.169    0.223    0.450   98.200
  431.250    5.168    0.217    0.454   98.198
  431.500    5.264    0.238    0.473   98.797
  431.750    5.263    0.244    0.454   99.398
  432.000    5.460    0.229    0.463   99.997
  432.250    5.459    0.211    0.471   99.996
  432.500    5.561    0.203    0.435   98.788
  432.750    5.663    0.228    0.427   96.979
  433.000    5.768    0.211    0.445   95.772
  433.250    5.984    0.187    0.452   96.974
  433.500    6.095    0.177    0.448   99.380
  433.750    6.094    0.173    0.434  100.583
  434.000    5.763    0.222    0.432  101.184
  434.250    5.657    0.249    0.444  101.181
  434.500    5.350    0.244    0.452  101.781
  434.750    5.154    0.239    0.461  103.586
  435.000    4.966    0.237    0.465  104.186
  435.250    4.874    0.231    0.464  104.184
