~VERSION INFORMATION
 VERS.                 2.0:   CWLS LOG ASCII STANDARD -VERSION 2.0
 WRAP.                  NO:   ONE LINE PER DEPTH STEP
~WELL INFORMATION BLOCK
#MNEM.UNIT           DATA                    DESCRIPTION OF MNEMONIC
#---------    -------------------            -------------------------------
# Generated from Intellog Unique Number	CW_70_72/WELL/620
NULL.         -999.25                        : NULL_VALUE
WELL.         SUNDANCE ET AL CALLS 06-11     : Well_name    - WELL              
LOC .         06-11-071-22W4                 : Location     - LOCATION          
UWI .         00/06-11-071-22W4/0            : Uwi          - UNIQUE WELL ID    
ENTR.         JAYE                           : Entered      - ENTERED BY        
SRVC.         SCHLUMBERGER                   : Scn          - SERVICE COMPANY   
DATE.         4 FEB 71                       : Date         - LOG DATE          
STRT.M        402.336                        : top_depth    - START DEPTH       
STOP.M        647.336                        : bot_depth    - STOP DEPTH        
STEP.M        0.25                           : increment    - STEP LENGTH       
~CURVE INFORMATION BLOCK
#MNEM UNIT       ERCB CURVE CODE    CURVE DESCRIPTION
#-----------   ------------------   ----------------------------------
DEPT.M        00 001 00 00         : DEPTH        - DEPTH                       
DPHI.V/V      00 890 00 00         : PHID         - DENSITY POROSITY (SANDSTONE)
NPHI.V/V      00 330 00 00         : PHIN         - NEUTRON POROSITY (SANDSTONE)
GR  .API      00 310 00 00         : GR           - GAMMA RAY                   
CALI.IN       00 280 01 00         : CAL          - CALIPER                     
ILD .OHMM     00 120 00 00         : RESD         - DEEP RESISTIVITY (DIL)      
~PARAMETER INFORMATION       
#MNEM.UNIT           DATA             DESCRIPTION OF MNEMONIC
#---------         -----------     ------------------------------
GL  .F        2232.5               : gl           - GROUND LEVEL ELEVATION      
EREF.F        2245                 : kb           - ELEVATION OF DEPTH REFERENCE
DATM.F        2232.5               : datum        - DATUM ELEVATION             
TDD .F        2156                 : tdd          - TOTAL DEPTH DRILLER         
RUN .         ONE                  : Run          - RUN NUMBER                  
ENG .         LANGTON/WILLIAMS     : Engineer     - RECORDING ENGINEER          
WIT .         GREENE               : Witness      - WITNESSED BY                
BASE.         EDM                  : Branch       - HOME BASE OF LOGGING UNIT   
MATR.         SANDSTONE            : Logunit      - NEUTRON MATRIX              
TMAX.C        24.4444              : BHT          - MAXIMUM RECORDED TEMPERATURE
BHTD.M        649.224              : BHTDEP       - MAXIMUM RECORDED TEMPERATURE
RMT .C        -17.7778             : MDTP         - TEMPERATURE OF MUD          
MUDD.KG/M     960                  : MWT          - MUD DENSITY                 
NEUT.         1                    : NEUTRON      - NEUTRON TYPE                
RESI.         0                    : RESIST       - RESISTIVITY TYPE            
RM  .OHMM     0                    : RM           - RESISTIVITY OF MUD          
RMC .OHMM     0                    : RMC          - RESISTIVITY OF MUD CAKE     
RMF .OHMM     0                    : RMF          - RESISTIVITY OF MUD FILTRATE 
SUFT.C        0                    : SUFT         - SURFACE TEMPERATURE         
~A  DEPTH     PHID     PHIN       GR      CAL     RESD
# ...
  438.836    0.289    0.540   99.900    8.373    2.859
  439.086    0.287    0.534   98.013    8.105    2.915
  439.336    0.281    0.535   95.823    7.793    2.941
  439.586    0.280    0.562   92.477    7.784    2.896
  439.836    0.296    0.584   90.773    7.991    2.873
  440.086    0.306    0.561   93.750    8.202    2.861
  440.336    0.297    0.537   94.357    8.335    2.843
  440.586    0.290    0.524   93.443    8.262    2.857
  440.836    0.285    0.529   92.772    8.137    2.883
  441.086    0.280    0.528   92.467    8.023    2.891
  441.336    0.272    0.518   91.978    7.954    2.900
  441.586    0.265    0.529   91.186    7.954    2.883
  441.836    0.256    0.547   89.908    8.027    2.865
  442.086    0.272    0.562   87.900    8.160    2.806
  442.336    0.314    0.571   85.648    8.262    2.733
  442.586    0.342    0.557   83.883    8.201    2.671
  442.836    0.367    0.549   81.754    8.148    2.626
  443.086    0.390    0.550   79.806    8.204    2.639
  443.336    0.430    0.573   78.102    8.492    2.772
  443.586    0.504    0.588   79.256    9.210    3.082
  443.836    0.490    0.579   80.957    9.323    3.562
  444.086    0.423    0.525   81.685    7.710    4.006
  444.336    0.373    0.488   81.622    7.341    4.364
  444.586    0.333    0.448   81.195    7.199    4.871
  444.836    0.289    0.445   80.524    7.174    5.201
  445.086    0.302    0.454   78.820    7.162    4.638
  445.336    0.409    0.497   76.082    7.174    4.045
  445.586    0.472    0.557   74.379    7.239    3.600
  445.836    0.535    0.597   76.201    7.502    3.424
  446.086    0.423    0.588   80.577    7.923    3.518
  446.336    0.398    0.535   82.886    9.071    3.681
  446.586    0.376    0.495   80.999    8.162    4.026
  446.836    0.319    0.465   77.897    7.887    4.485
  447.086    0.308    0.429   73.821    7.424    4.979
  447.336    0.316    0.401   68.469    7.108    5.277
  447.586    0.304    0.397   67.069    7.059    5.402
  447.836    0.270    0.413   69.013    7.043    5.388
  448.086    0.258    0.432   68.707    7.096    5.115
  448.336    0.249    0.426   65.361    7.083    4.715
  448.586    0.231    0.398   65.238    6.820    4.451
  448.836    0.226    0.391   69.249    6.852    4.148
  449.086    0.235    0.420   74.173    7.026    3.858
  449.336    0.240    0.445   73.989    7.148    3.993
  449.586    0.221    0.433   70.096    7.164    4.304
  449.836    0.209    0.403   66.932    7.160    4.521
  450.086    0.210    0.388   67.599    7.135    4.460
  450.336    0.223    0.430   71.003    7.196    4.133
  450.586    0.236    0.446   75.136    7.415    3.859
  450.836    0.248    0.429   79.573    7.305    3.637
  451.086    0.262    0.426   82.733    7.078    3.490
  451.336    0.254    0.442   85.954    7.070    3.393
  451.586    0.255    0.457   90.269    7.114    3.474
  451.836    0.264    0.477   91.058    7.126    3.661
  452.086    0.308    0.472   87.833    7.151    3.860
  452.336    0.342    0.449   85.035    7.199    3.922
  452.586    0.363    0.435   82.358    7.268    3.978
  452.836    0.383    0.448   80.532    7.361    4.028
  453.086    0.376    0.489   82.172    7.596    4.062
  453.336    0.349    0.487   89.953    7.628    4.105
  453.586    0.319    0.460   93.113    7.616    4.179
  453.836    0.290    0.467   91.592    7.827    4.246
  454.086    0.305    0.419   89.401    7.660    4.291
  454.336    0.285    0.403   86.785    6.992    4.345
  454.586    0.251    0.390   83.317    6.902    4.380
  454.836    0.231    0.385   78.999    6.858    4.411
  455.086    0.233    0.380   71.822    6.809    4.465
  455.336    0.249    0.370   60.511    6.809    4.496
  455.586    0.290    0.350   51.633    6.902    4.106
  455.836    0.318    0.337   42.146    6.926    3.471
  456.086    0.320    0.330   34.118    6.869    2.736
  456.336    0.314    0.334   33.447    6.845    2.321
  456.586    0.301    0.340   38.188    6.828    2.147
  456.836    0.281    0.347   45.726    6.796    2.251
  457.086    0.264    0.354   53.264    6.771    2.374
  457.336    0.249    0.363   59.951    6.747    2.474
  457.586    0.240    0.371   64.205    6.735    2.599
  457.836    0.240    0.373   64.386    6.686    2.735
  458.086    0.242    0.371   63.412    6.629    2.851
  458.336    0.235    0.376   65.599    6.629    2.929
  458.586    0.230    0.386   69.245    6.584    3.054
  458.836    0.241    0.398   72.710    6.645    3.238
  459.086    0.239    0.400   75.626    6.787    3.394
  459.336    0.230    0.397   78.057    6.941    3.565
  459.586    0.230    0.392   80.487    7.001    3.849
  459.836    0.236    0.384   83.465    7.030    4.065
  460.086    0.234    0.376   86.747    7.034    4.310
  460.336    0.225    0.374   90.150    7.033    4.518
  460.586    0.205    0.388   94.769    7.033    4.693
  460.836    0.213    0.387   99.936    7.037    4.893
  461.086    0.251    0.383  103.035    7.029    5.064
  461.336    0.275    0.385   98.777    7.029    5.251
  461.586    0.296    0.391   95.188    7.061    5.326
  461.836    0.338    0.404   92.633    7.134    5.111
  462.086    0.387    0.430   90.138    7.183    4.119
  462.336    0.433    0.499   88.434    7.292    3.394
  462.586    0.411    0.573   86.061    7.531    2.874
  462.836    0.389    0.638   84.053    8.034    2.572
  463.086    0.371    0.719   84.173    9.116    2.609
  463.336    0.345    0.732   87.211   11.150    2.832
  463.586    0.349    0.662   90.858   12.310    3.092
  463.836    0.373    0.612   94.748   12.026    3.388
  464.086    0.359    0.478   98.394   11.122    3.774
  464.336    0.335    0.424   93.832    7.510    4.151
  464.586    0.346    0.431   84.224    7.307    4.548
  464.836    0.378    0.481   76.987    7.449    5.048
  465.086    0.379    0.469   72.182    7.404    4.559
  465.336    0.384    0.469   78.929    7.226    4.187
  465.586    0.392    0.509   86.041    7.542    4.131
  465.836    0.398    0.529   88.411    8.227    4.174
  466.086    0.385    0.501   85.856    8.397    4.219
  466.336    0.328    0.470   82.266    8.547    4.270
  466.586    0.285    0.453   78.799    8.405    4.315
  466.836    0.259    0.445   78.676    7.464    4.369
  467.086    0.247    0.451   80.255    6.771    4.399
  467.336    0.233    0.455   81.956    6.807    4.421
  467.586    0.216    0.452   81.589    6.897    4.428
  467.836    0.207    0.447   80.371    6.986    4.431
  468.086    0.220    0.443   81.282    7.030    4.429
  468.336    0.227    0.441   84.077    7.002    4.467
  468.586    0.236    0.437   87.359    6.937    4.506
  468.836    0.232    0.436   87.357    6.855    4.495
  469.086    0.240    0.445   86.261    6.807    4.469
  469.336    0.252    0.451   83.219    6.790    4.433
  469.586    0.248    0.452   80.299    6.782    4.341
  469.836    0.266    0.464   76.953    6.786    4.182
  470.086    0.309    0.452   74.276    6.818    4.036
  470.336    0.325    0.432   73.788    6.879    3.909
  470.586    0.340    0.422   76.523    6.956    3.773
  470.836    0.351    0.429   81.021    7.086    3.648
  471.086    0.358    0.448   88.376    7.272    3.463
  471.336    0.369    0.466   94.941    7.450    3.397
  471.586    0.402    0.487   99.195    7.787    3.484
  471.836    0.424    0.486  102.660    8.111    3.605
  472.086    0.389    0.464  105.394    7.786    3.752
  472.336    0.339    0.426  107.095    7.150    3.934
  472.586    0.301    0.413  108.005    7.101    4.147
  472.836    0.272    0.424  109.889    7.117    4.301
  473.086    0.240    0.445  112.745    7.174    4.353
  473.336    0.229    0.458  108.183    7.247    4.295
  473.586    0.246    0.467   99.425    7.311    3.974
  473.836    0.255    0.475   93.769    7.388    3.913
  474.086    0.258    0.470   86.653    7.623    3.918
  474.336    0.262    0.457   79.660    7.408    3.931
  474.586    0.264    0.440   70.781    6.885    3.950
  474.836    0.259    0.419   67.557    6.768    3.977
  475.086    0.250    0.441   65.245    6.739    4.003
