~VERSION INFORMATION
 VERS.                 2.0:   CWLS LOG ASCII STANDARD -VERSION 2.0
 WRAP.                  NO:   ONE LINE PER DEPTH STEP
~WELL INFORMATION BLOCK
#MNEM.UNIT           DATA                    DESCRIPTION OF MNEMONIC
#---------    -------------------            -------------------------------
# Generated from Intellog Unique Number	CC_84_87/WELL/1073
NULL.         -999.25                        : NULL_VALUE
WELL.         PETROREP ET AL HOUSE           : Well_name    - WELL              
LOC .         06-34-084-16W4                 : Location     - LOCATION          
UWI .         00/06-34-084-16W400            : Uwi          - UNIQUE WELL ID    
ENTR.         JHS                            : Entered      - ENTERED BY        
SRVC.         COMPUTALOG                    : Scn          - SERVICE COMPANY   
DATE.         13 FEB 81                      : Date         - LOG DATE
STRT.M        100                            : top_depth    - START DEPTH       
STOP.M        277.901                        : bot_depth    - STOP DEPTH        
STEP.M        0.3                            : increment    - STEP LENGTH       
~CURVE INFORMATION BLOCK
#MNEM UNIT       ERCB CURVE CODE    CURVE DESCRIPTION
#-----------   ------------------   ----------------------------------
DEPT.M        00 001 00 00         : DEPTH        - DEPTH                       
DPHI.V/V      00 890 00 00         : PHID         - DENSITY POROSITY (LIMESTONE)
NPHI.V/V      00 330 00 00         : PHIN         - NEUTRON POROSITY (LIMESTONE)
GR  .API      00 310 00 00         : GR           - GAMMA RAY                   
ILD .OHMM     00 120 00 00         : RESD         - DEEP RESISTIVITY (DIL)      
~PARAMETER INFORMATION       
#MNEM.UNIT           DATA             DESCRIPTION OF MNEMONIC
#---------         -----------     ------------------------------
GL  .M        528.6                : gl           - GROUND LEVEL ELEVATION      
EREF.M        532.3                : kb           - ELEVATION OF DEPTH REFERENCE
DATM.M        532.3                : datum        - DATUM ELEVATION             
TDD .M        280                  : tdd          - TOTAL DEPTH DRILLER         
RUN .         ONE                  : Run          - RUN NUMBER                  
ENG .         BILL                 : Engineer     - RECORDING ENGINEER          
WIT .         JIM                  : Witness      - WITNESSED BY                
MUD .         GEL                  : Mud_type     - MUD TYPE                    
MATR.         LIMESTONE            : Logunit      - NEUTRON MATRIX              
TMAX.C        17                   : BHT          - MAXIMUM RECORDED TEMPERATURE
BHTD.M        280                  : BHTDEP       - MAXIMUM RECORDED TEMPERATURE
MATR.         1                    : LOGUNIT      - NEUTRON MATRIX              
RMT .C        25                   : MDTP         - TEMPERATURE OF MUD          
NEUT.         1                    : NEUTRON      - NEUTRON TYPE                
RESI.         0                    : RESIST       - RESISTIVITY TYPE            
RMC .OHMM     0.25                 : RMC          - RESISTIVITY OF MUD CAKE     
RMF .OHMM     0.25                 : RMF          - RESISTIVITY OF MUD FILTRATE 
SUFT.C        15                   : SUFT         - SURFACE TEMPERATURE         
~A  DEPTH     PHID     PHIN       GR     RESD
  100.000    0.275    0.285   60.124   13.059
  100.300    0.248    0.304   68.637   12.818
  100.600    0.238    0.343   71.686   13.059
  100.900    0.242    0.334   66.230   13.059
  101.200    0.270    0.286   56.523   12.581
  101.500    0.271    0.275   54.716   11.678
  101.800    0.224    0.293   60.191   10.640
  102.100    0.218    0.309   62.024    9.877
  102.400    0.225    0.303   58.391    9.340
  102.700    0.239    0.286   62.654    8.353
  103.000    0.251    0.289   65.703    7.610
  103.300    0.264    0.293   65.713    6.806
  103.600    0.285    0.283   68.761    5.974
  103.900    0.308    0.283   71.807    5.545
  104.200    0.277    0.278   69.390    5.545
  104.500    0.202    0.265   64.543    5.756
  104.800    0.202    0.264   65.163    5.650
  105.100    0.198    0.264   71.245    5.443
  105.400    0.213    0.273   76.116    5.052
  105.700    0.226    0.278   79.163    4.603
  106.000    0.224    0.281   83.426    4.041
  106.300    0.181    0.281   84.043    3.751
  106.600    0.184    0.279   82.843    4.435
  106.900    0.204    0.283   81.637    6.680
  107.200    0.187    0.301   81.649    8.510
  107.500    0.160    0.363   85.911   11.044
  107.800    0.205    0.381   84.707   13.059
  108.100    0.255    0.368   81.683   14.333
  108.400    0.329    0.357   83.515   13.554
  108.700    0.402    0.319   81.706   12.349
  109.000    0.296    0.288   78.073   10.840
  109.300    0.275    0.267   78.694   10.062
  109.600    0.262    0.254   81.133   10.640
  109.900    0.239    0.258   82.356   12.349
  110.200    0.237    0.268   79.939   18.258
  110.500    0.245    0.274   78.128   26.994
  110.800    0.237    0.284   83.604   42.202
  111.100    0.204    0.292   95.762   53.760
  111.400    0.211    0.308   92.737   57.917
  111.700    0.226    0.251   84.245   60.114
  112.000    0.268    0.199   76.362   59.005
  112.300    0.310    0.170   59.976   61.244
  112.600    0.353    0.150   57.562   63.567
  112.900    0.377    0.137   56.359   68.483
  113.200    0.383    0.133   53.331   69.769
  113.500    0.385    0.136   54.557   69.769
  113.800    0.387    0.147   59.425   71.081
  114.100    0.376    0.176   62.473   72.417
  114.400    0.367    0.168   59.449   68.483
  114.700    0.374    0.149   58.852   65.979
  115.000    0.413    0.122   62.508   63.567
  115.300    0.401    0.126   61.304   53.760
  115.600    0.394    0.119   64.355   42.202
  115.900    0.401    0.114   65.578   36.362
  116.200    0.397    0.114   64.983   33.130
  116.500    0.403    0.124   63.779   30.184
  116.800    0.408    0.129   63.182   26.994
  117.100    0.401    0.149   63.193   25.527
  117.400    0.390    0.185   60.169   25.527
  117.700    0.328    0.218   58.964   26.007
  118.000    0.298    0.258   62.622   26.496
  118.300    0.298    0.263   62.024   26.994
  118.600    0.294    0.299   64.465   28.018
  118.900    0.293    0.330   64.475   28.545
  119.200    0.294    0.348   62.059   28.545
  119.500    0.302    0.342   59.032   28.545
  119.800    0.319    0.329   54.795   28.545
  120.100    0.316    0.284   56.624   28.018
  120.400    0.294    0.280   52.994   27.501
  120.700    0.293    0.280   50.574   25.057
  121.000    0.318    0.310   57.267   23.695
  121.300    0.316    0.312   57.887   22.829
  121.600    0.313    0.324   54.861   21.995
  121.900    0.322    0.319   50.014   20.800
  122.200    0.317    0.294   49.418   20.040
  122.500    0.303    0.300   48.822   19.307
  122.800    0.301    0.280   48.831   18.258
  123.100    0.302    0.295   52.487   15.731
  123.400    0.300    0.284   52.499   12.349
  123.700    0.300    0.277   51.294    9.168
  124.000    0.296    0.292   50.703    6.086
  124.300    0.287    0.318   51.926    6.317
  124.600    0.295    0.346   53.758    7.197
  124.900    0.303    0.339   52.554    9.168
  125.200    0.298    0.342   57.424   11.252
  125.500    0.255    0.319   73.832   11.898
  125.800    0.227    0.343   84.774   11.044
  126.100    0.238    0.341   84.788   11.898
  126.400    0.245    0.328   80.546   13.809
  126.700    0.265    0.321   76.305   15.156
  127.000    0.279    0.313   79.962   16.948
  127.300    0.292    0.319   81.186   18.258
  127.600    0.287    0.291   78.162   18.601
  127.900    0.282    0.274   73.921   18.601
  128.200    0.299    0.282   70.292   18.601
  128.500    0.329    0.322   67.871   19.307
  128.800    0.328    0.348   59.381   18.951
  129.100    0.322    0.331   62.431   18.258
  129.400    0.316    0.311   66.083   17.591
  129.700    0.297    0.294   65.488   16.948
  130.000    0.295    0.276   68.537   16.635
  130.300    0.303    0.303   66.116   16.948
  130.600    0.301    0.346   63.092   17.921
  130.900    0.296    0.340   66.749   18.951
  131.200    0.293    0.310   69.188   20.416
  131.500    0.290    0.273   70.414   21.191
  131.800    0.283    0.265   65.566   21.191
  132.100    0.271    0.317   58.897   21.589
  132.400    0.282    0.323   57.697   21.191
  132.700    0.314    0.324   55.883   20.800
  133.000    0.329    0.312   52.251   20.416
  133.300    0.336    0.297   51.656   20.040
  133.600    0.324    0.295   51.058   20.040
  133.900    0.309    0.312   52.892   20.040
  134.200    0.312    0.318   57.761   20.416
  134.500    0.316    0.296   60.809   20.040
  134.800    0.307    0.283   60.214   20.040
  135.100    0.302    0.312   58.403   19.670
  135.400    0.309    0.319   58.413   19.307
  135.700    0.301    0.330   61.461   19.307
  136.000    0.298    0.314   61.474   19.307
  136.300    0.304    0.296   59.661   19.307
  136.600    0.298    0.303   60.886   20.040
  136.900    0.291    0.291   63.937   20.800
  137.200    0.293    0.292   63.946   20.800
  137.500    0.295    0.292   57.277   20.800
  137.800    0.297    0.292   52.431   20.416
  138.100    0.305    0.299   52.442   20.416
  138.400    0.318    0.313   50.024   20.800
  138.700    0.311    0.319   46.998   21.191
  139.000    0.301    0.301   46.403   21.589
  139.300    0.291    0.286   51.272   22.408
  139.600    0.299    0.253   52.497   22.829
  139.900    0.302    0.257   53.117   22.829
  140.200    0.308    0.247   50.092   22.408
  140.500    0.308    0.269   47.673   21.589
  140.800    0.303    0.280   44.041   21.995
  141.100    0.334    0.311   40.408   21.995
  141.400    0.332    0.337   45.887   22.408
  141.700    0.339    0.341   44.685   21.995
  142.000    0.345    0.345   44.695   21.995
  142.300    0.347    0.350   43.489   21.995
  142.600    0.347    0.347   39.857   21.589
  142.900    0.329    0.339   43.512   20.416
  143.200    0.324    0.324   52.025   20.800
  143.500    0.328    0.327   53.859   21.589
  143.800    0.336    0.340   46.582   22.829
  144.100    0.346    0.355   47.203   23.258
  144.400    0.346    0.336   49.034   23.695
  144.700    0.330    0.324   45.402   23.695
  145.000    0.272    0.316   38.733   23.695
  145.300    0.277    0.329   41.781   23.695
  145.600    0.313    0.319   42.398   23.695
  145.900    0.320    0.304   36.945   23.695
  146.200    0.323    0.306   37.563   23.695
  146.500    0.326    0.302   37.574   23.695
  146.800    0.323    0.300   40.623   23.695
  147.100    0.328    0.302   41.239   23.695
  147.400    0.326    0.311   36.393   23.695
  147.700    0.318    0.331   33.369   23.258
  148.000    0.320    0.323   30.949   23.258
  148.300    0.325    0.324   34.605   22.829
  148.600    0.327    0.317   37.653   22.829
  148.900    0.325    0.343   41.308   22.829
  149.201    0.320    0.348   46.179   22.829
  149.501    0.323    0.324   41.937   22.829
  149.801    0.331    0.295   41.341   22.408
  150.101    0.330    0.296   47.426   22.408
  150.401    0.326    0.301   48.655   22.408
  150.701    0.319    0.316   48.057   22.408
  151.001    0.319    0.332   46.245   22.408
  151.301    0.320    0.335   44.435   22.408
  151.601    0.318    0.314   45.660   22.408
  151.901    0.314    0.280   43.849   22.408
