~VERSION INFORMATION
 VERS.                 2.0:   CWLS LOG ASCII STANDARD -VERSION 2.0
 WRAP.                  NO:   ONE LINE PER DEPTH STEP
~WELL INFORMATION BLOCK
#MNEM.UNIT           DATA                    DESCRIPTION OF MNEMONIC
#---------    -------------------            -------------------------------
# Generated from Intellog Unique Number	CW_70_72/WELL/3007
NULL.         -999.25                        : NULL_VALUE
WELL.         SULPETRO ET AL PARKER 06-17    : Well_name    - WELL              
LOC .         06-17-070-04W5                 : Location     - LOCATION          
UWI .         00/06-17-070-04W5/0            : Uwi          - UNIQUE WELL ID    
ENTR.         J                              : Entered      - ENTERED BY        
SRVC.         WESTERN ATLAS                  : Scn          - SERVICE COMPANY   
DATE.         4 JUNE 83                      : Date         - LOG DATE          
STRT.M        600                            : top_depth    - START DEPTH       
STOP.M        840                            : bot_depth    - STOP DEPTH        
STEP.M        0.25                           : increment    - STEP LENGTH       
~CURVE INFORMATION BLOCK
#MNEM UNIT       ERCB CURVE CODE    CURVE DESCRIPTION
#-----------   ------------------   ----------------------------------
DEPT.M        00 001 00 00         : DEPTH        - DEPTH                       
ILD .OHMM     00 120 00 00         : RESD         - DEEP RESISTIVITY (DIL)      
CALI.MM       00 280 01 00         : CAL          - CALIPER                     
GR  .API      00 310 00 00         : GR           - GAMMA RAY                   
NPHI.V/V      00 330 00 00         : PHIN         - NEUTRON POROSITY (SANDSTONE)
DPHI.V/V      00 890 00 00         : PHID         - DENSITY POROSITY (SANDSTONE)
~PARAMETER INFORMATION       
#MNEM.UNIT           DATA             DESCRIPTION OF MNEMONIC
#---------         -----------     ------------------------------
GL  .M        710.35               : gl           - GROUND LEVEL ELEVATION      
EREF.M        714.05               : kb           - ELEVATION OF DEPTH REFERENCE
DATM.M        710.35               : datum        - DATUM ELEVATION             
TDD .M        905                  : tdd          - TOTAL DEPTH DRILLER         
RUN .         ONE                  : Run          - RUN NUMBER                  
ENG .         ADAMOWSKI            : Engineer     - RECORDING ENGINEER          
WIT .         DAVID                : Witness      - WITNESSED BY                
BASE.         EDM                  : Branch       - HOME BASE OF LOGGING UNIT   
MUD .         GEL CHEM             : Mud_type     - MUD TYPE                    
MATR.         SANDSTONE            : Logunit      - NEUTRON MATRIX              
TMAX.C        33                   : BHT          - MAXIMUM RECORDED TEMPERATURE
BHTD.M        902.5                : BHTDEP       - MAXIMUM RECORDED TEMPERATURE
RMT .C        17                   : MDTP         - TEMPERATURE OF MUD          
MUDD.KG/M     1150                 : MWT          - MUD DENSITY                 
NEUT.         1                    : NEUTRON      - NEUTRON TYPE                
RESI.         0                    : RESIST       - RESISTIVITY TYPE            
RM  .OHMM     2.3                  : RM           - RESISTIVITY OF MUD          
RMC .OHMM     2.5                  : RMC          - RESISTIVITY OF MUD CAKE     
RMF .OHMM     1.9                  : RMF          - RESISTIVITY OF MUD FILTRATE 
SUFT.C        0                    : SUFT         - SURFACE TEMPERATURE         
~A  DEPTH     RESD      CAL       GR     PHIN     PHID
# ...
  782.500    4.733  208.830  102.717    0.313    0.146
  782.750    4.323  210.903   97.344    0.321    0.157
  783.000    3.847  214.656   93.898    0.337    0.174
  783.250    3.094  217.337   89.520    0.358    0.200
  783.500    2.266  221.812   86.257    0.382    0.237
  783.750    1.816  224.493   84.820    0.417    0.260
  784.000    1.485  226.251   84.925    0.457    0.296
  784.250    1.283  222.800   86.417    0.475    0.308
  784.500    1.219  217.992   89.039    0.488    0.288
  784.750    1.207  225.700   88.088    0.476    0.267
  785.000    1.266  230.055   91.715    0.464    0.260
  785.250    1.374  232.216   94.194    0.460    0.269
  785.500    1.520  222.315   91.309    0.437    0.278
  785.750    1.646  210.436   83.492    0.410    0.279
  786.000    1.848  200.831   80.610    0.364    0.153
  786.250    2.137  191.242   81.733    0.342    0.122
  786.500    2.581  191.328   84.906    0.326    0.128
  786.750    3.527  191.749   88.462    0.318    0.139
  787.000    4.479  192.242   87.143    0.330    0.140
  787.250    4.852  192.748   87.703    0.341    0.138
  787.500    4.822  193.062   89.872    0.338    0.147
  787.750    4.652  193.270   93.175    0.333    0.135
  788.000    4.494  193.044   97.295    0.325    0.128
  788.250    4.433  193.136  100.778    0.319    0.137
  788.500    4.406  193.197  104.272    0.316    0.142
  788.750    4.437  192.887  100.704    0.312    0.138
  789.000    4.459  192.577   93.384    0.324    0.117
  789.250    4.516  192.760   89.001    0.322    0.098
  789.500    4.572  193.144   90.313    0.315    0.091
  789.750    4.683  193.667   93.802    0.312    0.099
  790.000    4.814  193.345   93.290    0.317    0.097
  790.250    4.939  193.114   89.349    0.331    0.083
  790.500    4.954  192.815   89.276    0.331    0.071
  790.750    4.887  192.888   92.642    0.322    0.057
  791.000    4.722  193.598   92.257    0.316    0.073
  791.250    4.589  194.007   87.938    0.321    0.095
  791.500    4.468  194.301   88.432    0.330    0.102
  791.750    4.390  194.167   89.431    0.339    0.085
  792.000    4.372  194.482   90.160    0.346    0.087
  792.250    4.394  194.866   94.276    0.348    0.106
  792.500    4.458  194.990   97.519    0.341    0.119
  792.750    4.608  194.952   95.829    0.323    0.117
  793.000    4.853  194.426   93.878    0.320    0.099
  793.250    5.074  194.085   92.992    0.319    0.090
  793.500    5.314  193.521   94.359    0.301    0.079
  793.750    5.535  193.765   94.226    0.296    0.092
  794.000    5.851  194.054   88.160    0.292    0.092
  794.250    5.936  195.504   80.903    0.288    0.093
  794.500    5.672  198.181   84.830    0.284    0.115
  794.750    5.249  199.067   90.944    0.298    0.139
  795.000    4.787  198.889  100.376    0.336    0.167
  795.250    4.111  197.520  100.799    0.371    0.178
  795.500    3.570  195.736   97.293    0.357    0.185
  795.750    3.348  195.736   91.727    0.340    0.151
  796.000    3.559  193.677   91.903    0.336    0.094
  796.250    4.033  193.611   92.081    0.320    0.054
  796.500    4.493  195.274   86.888    0.302    0.051
  796.750    4.922  197.242   79.074    0.305    0.072
  797.000    4.846  198.954   87.442    0.321    0.097
  797.250    4.280  198.866   91.680    0.337    0.138
  797.500    3.648  197.911   95.043    0.351    0.163
  797.750    3.377  196.341   95.104    0.363    0.172
  798.000    3.413  194.033   97.085    0.369    0.175
  798.250    4.215  189.659   99.893    0.319    0.148
  798.500    4.830  187.054  100.445    0.294    0.113
  798.750    5.106  185.880   96.689    0.284    0.108
  799.000    5.368  184.832   95.178    0.281    0.107
  799.250    5.559  184.422   97.918    0.291    0.104
  799.500    5.682  184.490  101.296    0.302    0.096
  799.750    5.775  184.379  101.028    0.296    0.076
  800.000    5.848  184.146   95.833    0.286    0.053
  800.250    5.835  183.924   89.391    0.282    0.051
  800.500    5.702  183.799   92.824    0.282    0.084
  800.750    5.520  183.186   96.005    0.294    0.097
  801.000    5.148  183.038   97.431    0.307    0.110
  801.250    4.720  182.507   93.736    0.330    0.106
  801.500    4.476  181.660   88.417    0.340    0.082
  801.750    4.245  180.519   82.600    0.331    0.028
  802.000    4.003  179.868   86.025    0.314    0.070
  802.250    3.905  178.413  101.757    0.295    0.102
  802.500    3.888  177.236  104.821    0.293    0.119
  802.750    3.901  175.892  105.116    0.315    0.106
  803.000    4.077  174.314  104.232    0.330    0.112
  803.250    4.384  173.040   98.103    0.313    0.119
  803.500    4.968  171.554   79.412    0.290    0.109
  803.750    5.503  169.056   67.294    0.272    0.117
  804.000    5.419  167.064   65.541    0.250    0.143
  804.250    4.849  165.591   63.645    0.253    0.199
  804.500    4.299  164.444   59.512    0.270    0.235
  804.750    3.790  164.005   54.443    0.301    0.246
  805.000    3.291  163.464   54.748    0.311    0.237
  805.250    3.018  163.558   59.489    0.295    0.227
  805.500    3.079  163.970   63.919    0.282    0.220
  805.750    3.310  164.879   66.158    0.280    0.212
  806.000    3.647  166.015   65.592    0.284    0.200
  806.250    4.155  167.037   65.213    0.281    0.183
  806.500    4.753  169.576   66.452    0.274    0.160
  806.750    5.446  170.458   67.877    0.263    0.120
  807.000    6.252  171.892   65.808    0.255    0.098
  807.250    6.536  173.428   60.359    0.247    0.111
  807.500    6.520  175.417   61.670    0.265    0.144
  807.750    6.035  175.921   64.341    0.271    0.166
  808.000    5.360  176.310   65.713    0.280    0.171
  808.250    5.046  176.930   62.770    0.286    0.153
  808.500    4.812  177.737   61.949    0.284    0.141
  808.750    4.845  178.891   62.259    0.275    0.113
  809.000    5.181  180.219   61.864    0.269    0.102
  809.250    5.436  181.762   60.486    0.264    0.111
  809.500    5.474  182.370   61.599    0.260    0.120
  809.750    5.270  183.230   65.472    0.260    0.127
  810.000    4.951  184.546   65.900    0.263    0.135
  810.250    4.669  186.182   67.133    0.277    0.144
  810.500    4.155  191.618   72.753    0.290    0.156
  810.750    3.670  192.612   79.737    0.326    0.186
  811.000    3.187  192.489   88.350    0.379    0.221
  811.250    2.955  186.760   98.278    0.409    0.223
  811.500    3.124  180.708   93.838    0.446    0.181
  811.750    3.851  176.542   84.515    0.381    0.133
  812.000    5.382  175.781   74.949    0.318    0.094
  812.250    6.647  175.241   78.942    0.294    0.108
  812.500    7.718  174.715   85.927    0.280    0.118
  812.750    9.146  175.012   80.924    0.272    0.131
  813.000   10.076  174.781   76.356    0.272    0.139
  813.250   10.416  174.574   74.724    0.273    0.144
  813.500   10.607  174.656   75.160    0.268    0.130
  813.750   11.006  174.746   76.328    0.261    0.119
  814.000   11.228  175.574   80.067    0.255    0.110
  814.250   11.160  175.770   76.498    0.272    0.108
  814.500   10.603  175.856   80.238    0.290    0.113
  814.750    9.887  175.519   86.543    0.294    0.113
  815.000    9.342  174.885   88.533    0.290    0.108
  815.250    9.730  174.468   82.841    0.274    0.099
  815.500   11.972  173.622   76.458    0.251    0.084
  815.750   14.162  173.486   54.145    0.238    0.064
  816.000   15.897  172.714   42.015    0.222    0.052
  816.250   17.911  172.440   43.511    0.213    0.067
  816.500   19.148  171.888   53.621    0.232    0.078
  816.750   18.024  170.641   62.173    0.237    0.078
  817.000   15.801  169.315   60.352    0.234    0.090
  817.250   14.060  169.041   59.411    0.229    0.102
  817.500   12.372  168.502   64.398    0.227    0.122
  817.750   10.867  168.502   71.897    0.234    0.143
  818.000    9.490  166.683   75.259    0.250    0.156
  818.250    8.150  166.692   78.430    0.269    0.158
  818.500    7.131  167.200   81.427    0.280    0.159
  818.750    6.441  167.356   82.285    0.276    0.165
