~VERSION INFORMATION
 VERS.                 2.0:   CWLS LOG ASCII STANDARD -VERSION 2.0
 WRAP.                  NO:   ONE LINE PER DEPTH STEP
~WELL INFORMATION BLOCK
#MNEM.UNIT           DATA                    DESCRIPTION OF MNEMONIC
#---------    -------------------            -------------------------------
# Generated from Intellog Unique Number	CS_73_76/WELL/769
WELL.         BOW VALLEY INDUSTRIES          : Well_name    - WELL
LOC .         00/07-13-073-15W4/0            : Location     - LOCATION
UWI .         00/07-13-073-15W4/0            : Uwi          - UNIQUE WELL ID
ENTR.         SP                             : Entered      - ENTERED BY
SRVC.         SCHLUMBERGER                   : Scn          - SERVICE COMPANY
STRT.M        350                            : top_depth    - START DEPTH
STOP.M        517                            : bot_depth    - STOP DEPTH
STEP.M        0.25                           : increment    - STEP LENGTH
 NULL. -999.2500:NULL Value
~CURVE INFORMATION BLOCK
#MNEM UNIT       ERCB CURVE CODE    CURVE DESCRIPTION
#-----------   ------------------   ----------------------------------
DEPT.M        00 001 00 00         : DEPTH        - DEPTH
ILD .OHMM     00 120 00 00         : RESD         - DEEP RESISTIVITY (DIL)
DPHI.V/V      00 890 00 00         : PHID         - DENSITY POROSITY (LIMESTONE)
NPHI.V/V      00 330 00 00         : PHIN         - NEUTRON POROSITY (LIMESTONE)
GR  .API      00 310 00 00         : GR           - GAMMA RAY
~PARAMETER INFORMATION
#MNEM.UNIT           DATA             DESCRIPTION OF MNEMONIC
#---------         -----------     ------------------------------
GL  .M        644.71               : gl           - GROUND LEVEL ELEVATION
EREF.M        648                  : kb           - ELEVATION OF DEPTH REFERENCE
DATM.M        644.71               : datum        - DATUM ELEVATION
TDD .M        525                  : tdd          - TOTAL DEPTH DRILLER
RUN .         ONE                  : Run          - RUN NUMBER
ENG .         BILL                 : Engineer     - RECORDING ENGINEER
WIT .         JIM                  : Witness      - WITNESSED BY
MUD .         GEL                  : Mud_type     - MUD TYPE
MATR.         LIMESTONE            : Logunit      - NEUTRON MATRIX
TMAX.C        23                   : BHT          - MAXIMUM RECORDED TEMPERATURE
BHTD.M        525                  : BHTDEP       - MAXIMUM RECORDED TEMPERATURE
MATR.         1                    : LOGUNIT      - NEUTRON MATRIX
RMT .C        25                   : MDTP         - TEMPERATURE OF MUD
NEUT.         1                    : NEUTRON      - NEUTRON TYPE
RESI.         0                    : RESIST       - RESISTIVITY TYPE
RMC .OHMM     0.25                 : RMC          - RESISTIVITY OF MUD CAKE
RMF .OHMM     0.25                 : RMF          - RESISTIVITY OF MUD FILTRATE
SUFT.C        15                   : SUFT         - SURFACE TEMPERATURE
~A  DEPTH     RESD     PHID     PHIN       GR
# ...
  480.500   22.411    0.249    0.440   62.446
  480.750   23.701    0.238    0.434   66.058
  481.000   24.602    0.226    0.428   69.067
  481.250   25.069    0.204    0.422   70.871
  481.500   25.545    0.086    0.387   65.447
  481.750   26.027    0.037    0.250   60.625
  482.000   26.031    0.052    0.294   61.225
  482.250   26.038    0.112    0.338   63.631
  482.500   26.043    0.192    0.396   64.834
  482.750   25.098    0.185    0.393   66.638
  483.000   22.455    0.227    0.392   67.839
  483.250   19.359    0.247    0.431   69.043
  483.500   19.363    0.255    0.442   69.642
  483.750   21.649    0.262    0.451   67.833
  484.000   25.593    0.261    0.444   67.830
  484.250   29.696    0.248    0.435   78.068
  484.500   33.826    0.236    0.423   84.691
  484.750   33.832    0.224    0.417   88.905
  485.000   28.106    0.207    0.406   91.915
  485.250   25.617    0.197    0.398   97.334
  485.500   21.678    0.186    0.393  105.764
  485.750   17.351    0.180    0.390  110.580
  486.000   13.632    0.194    0.389  112.386
  486.250   11.324    0.190    0.403  117.202
  486.500    9.763    0.182    0.429  124.428
  486.750    8.736    0.179    0.442  125.028
  487.000    8.263    0.186    0.451  125.025
  487.250    7.532    0.199    0.456  118.999
  487.500    6.995    0.205    0.470  114.177
  487.750    7.261    0.219    0.459  105.138
  488.000    7.822    0.223    0.444   99.714
  488.250   14.173    0.211    0.421  104.531
  488.500   18.046    0.252    0.409   94.287
  488.750   19.084    0.264    0.415   88.260
  489.000   19.446    0.269    0.417   91.871
  489.250   18.058    0.248    0.418   94.279
  489.500   16.767    0.235    0.410   97.890
  489.750   15.284    0.213    0.405  100.900
  490.000   14.192    0.220    0.406   96.078
  490.250   13.427    0.224    0.415   91.256
  490.500   13.181    0.211    0.397   88.241
  490.750   13.184    0.195    0.376   88.841
  491.000   12.944    0.185    0.362   91.248
  491.250   12.947    0.185    0.368   98.474
  491.500   12.710    0.188    0.382   99.073
  491.750   12.251    0.194    0.395   97.264
  492.000   11.807    0.196    0.399   96.659
  492.250   11.378    0.189    0.405   97.860
  492.500   11.170    0.178    0.409  101.473
  492.750   11.172    0.167    0.414  107.493
  493.000   11.174    0.153    0.417  101.467
  493.250   14.228    0.206    0.397   91.224
  493.500   16.819    0.207    0.382   82.787
  493.750   20.635    0.217    0.379   74.954
  494.000   22.231    0.247    0.391   68.927
  494.250   23.509    0.274    0.408   66.515
  494.500   24.405    0.284    0.423   69.524
  494.750   24.408    0.248    0.426   75.544
  495.000   23.090    0.216    0.405   78.555
  495.250   20.279    0.204    0.405   82.166
  495.500   19.184    0.214    0.411   84.573
  495.750   18.148    0.228    0.412   88.786
  496.000   17.170    0.219    0.397   91.194
  496.250   16.546    0.206    0.388   96.613
  496.500   15.365    0.185    0.375   93.598
  496.750   14.806    0.163    0.420   89.378
  497.000   13.497    0.089    0.438   86.364
  497.250   12.302    0.015    0.431   86.362
  497.500    9.846    0.048    0.399  105.635
  497.750    8.648    0.091    0.449  108.042
  498.000    7.737    0.136    0.473  104.425
  498.250    7.884    0.172    0.445  100.205
  498.500   12.087    0.188    0.406   95.986
  498.750   13.768    0.210    0.428   89.356
  499.000   14.832    0.234    0.432   82.125
  499.250   15.685    0.221    0.422   79.111
  499.500   16.587    0.189    0.415   80.312
  499.750   17.541    0.193    0.396   80.310
  500.000   19.980    0.192    0.405   80.307
  500.250   24.062    0.223    0.421   79.703
  500.500   27.407    0.247    0.428   71.868
  500.750   30.080    0.229    0.419   68.251
  501.000   31.224    0.182    0.405   74.874
  501.250   31.814    0.151    0.382   85.715
  501.500   26.428    0.206    0.402   94.146
  501.750   19.639    0.215    0.413  100.770
  502.000   14.867    0.188    0.410  103.779
  502.250   13.302    0.153    0.403  104.379
  502.500   12.125    0.153    0.396  103.774
  502.750   11.470    0.157    0.391  102.567
  503.000   10.851    0.172    0.382  101.359
  503.250   10.653    0.183    0.373  101.959
  503.500   10.655    0.177    0.362  103.161
  503.750   10.461    0.170    0.361  109.182
  504.000   10.463    0.172    0.398  115.806
  504.250   10.273    0.184    0.415  113.996
  504.500   10.274    0.195    0.425  109.174
  504.750   10.277    0.197    0.423  103.749
  505.000   10.471    0.177    0.408  100.735
  505.250   11.281    0.168    0.386   93.504
  505.500   12.382    0.194    0.375   82.055
  505.750   12.852    0.206    0.372   79.041
  506.000   13.340    0.213    0.384  106.749
  506.250   13.343    0.205    0.405  116.987
  506.500   10.290    0.195    0.448  124.213
  506.750    8.548    0.181    0.479  121.800
  507.000    7.649    0.182    0.501  117.581
  507.250    7.793    0.187    0.479  101.916
  507.500    8.396    0.159    0.450   89.263
  507.750    9.388    0.200    0.396   77.815
  508.000   10.692    0.216    0.378   66.366
  508.250   12.407    0.232    0.373   72.990
  508.500   13.617    0.223    0.367   85.035
  508.750   13.875    0.206    0.358   96.478
  509.000   12.884    0.194    0.368   99.487
  509.250   11.316    0.211    0.381  106.713
  509.500    9.577    0.209    0.378  111.530
  509.750    8.893    0.174    0.374  115.744
  510.000    8.412    0.163    0.387  119.958
  510.250    8.107    0.152    0.404  121.763
  510.500    7.960    0.148    0.402  118.145
  510.750    8.110    0.164    0.389  115.130
  511.000    8.264    0.186    0.384  106.694
  511.250    8.578    0.199    0.392  100.066
  511.500    8.905    0.228    0.403  101.869
  511.750    9.417    0.244    0.396  107.891
  512.000    9.775    0.179    0.383  122.346
  512.250    9.960    0.154    0.374  128.969
  512.500   10.931    0.202    0.373  114.510
  512.750   12.222    0.239    0.378  110.290
  513.000   15.562    0.264    0.385  109.082
  513.250   17.400    0.296    0.390  127.754
  513.500   18.400    0.286    0.403  137.992
  513.750   18.748    0.267    0.407  152.447
  514.000   17.410    0.238    0.385  154.252
  514.250   14.733    0.210    0.379  151.237
  514.500   13.430    0.175    0.387  139.789
  514.750   12.704    0.210    0.403  135.569
  515.000   11.797    0.212    0.386  148.819
  515.250   10.955    0.156    0.368  153.034
  515.500   10.557    0.165    0.373  154.838
  515.750    9.447    0.157    0.389  153.630
  516.000    9.104    0.145    0.396  151.821
  516.250    8.612    0.152    0.379  146.396
  516.500    8.147    0.151    0.384  124.105
  516.750    7.707    0.136    0.406  114.464
  517.000    7.290    0.117    0.421  101.811
