~VERSION INFORMATION
 VERS.                 2.0:   CWLS LOG ASCII STANDARD -VERSION 2.0
 WRAP.                  NO:   ONE LINE PER DEPTH STEP
~WELL INFORMATION BLOCK
#MNEM.UNIT           DATA                    DESCRIPTION OF MNEMONIC
#---------    -------------------            -------------------------------
# Generated from Intellog Unique Number	CS_67_68/WELL/776
WELL.         FISHER CREEK                   : Well_name    - WELL
LOC .         00/07-27-068-06W4/0            : Location     - LOCATION
UWI .         00/07-27-068-06W4/0            : Uwi          - UNIQUE WELL ID
ENTR.         SP                             : Entered      - ENTERED BY
SRVC.         SCHLUMBERGER                   : Scn          - SERVICE COMPANY
STRT.M        360                            : top_depth    - START DEPTH
STOP.M        580                            : bot_depth    - STOP DEPTH
STEP.M        0.25                           : increment    - STEP LENGTH
 NULL. -999.2500:NULL Value
~CURVE INFORMATION BLOCK
#MNEM UNIT       ERCB CURVE CODE    CURVE DESCRIPTION
#-----------   ------------------   ----------------------------------
DEPT.M        00 001 00 00         : DEPTH        - DEPTH
ILD .OHMM     00 120 00 00         : RESD         - DEEP RESISTIVITY (DIL)
DPHI.V/V      00 890 00 00         : PHID         - DENSITY POROSITY (LIMESTONE)
NPHI.V/V      00 330 00 00         : PHIN         - NEUTRON POROSITY (LIMESTONE)
GR  .API      00 310 00 00         : GR           - GAMMA RAY
~PARAMETER INFORMATION
#MNEM.UNIT           DATA             DESCRIPTION OF MNEMONIC
#---------         -----------     ------------------------------
GL  .M        704.1                : gl           - GROUND LEVEL ELEVATION
EREF.M        707.7                : kb           - ELEVATION OF DEPTH REFERENCE
DATM.M        704.1                : datum        - DATUM ELEVATION
TDD .M        582                  : tdd          - TOTAL DEPTH DRILLER
RUN .         ONE                  : Run          - RUN NUMBER
ENG .         BILL                 : Engineer     - RECORDING ENGINEER
WIT .         JIM                  : Witness      - WITNESSED BY
MUD .         GEL                  : Mud_type     - MUD TYPE
MATR.         LIMESTONE            : Logunit      - NEUTRON MATRIX
TMAX.C        18                   : BHT          - MAXIMUM RECORDED TEMPERATURE
BHTD.M        582                  : BHTDEP       - MAXIMUM RECORDED TEMPERATURE
MATR.         1                    : LOGUNIT      - NEUTRON MATRIX
RMT .C        25                   : MDTP         - TEMPERATURE OF MUD
NEUT.         1                    : NEUTRON      - NEUTRON TYPE
RESI.         0                    : RESIST       - RESISTIVITY TYPE
RMC .OHMM     0.25                 : RMC          - RESISTIVITY OF MUD CAKE
RMF .OHMM     0.25                 : RMF          - RESISTIVITY OF MUD FILTRATE
SUFT.C        15                   : SUFT         - SURFACE TEMPERATURE
~A  DEPTH     RESD     PHID     PHIN       GR
# ...
  447.000    2.558    0.272    0.540  104.270
  447.250    2.513    0.289    0.549   99.176
  447.500    2.505    0.298    0.558   96.297
  447.750    2.507    0.290    0.545   99.264
  448.000    2.509    0.286    0.527  100.998
  448.250    2.510    0.283    0.548  101.872
  448.500    2.511    0.275    0.567   99.732
  448.750    2.532    0.264    0.581   99.254
  449.000    2.543    0.273    0.572   99.943
  449.250    2.579    0.288    0.557   99.955
  449.500    2.624    0.273    0.546   99.661
  449.750    2.676    0.264    0.569  100.043
  450.000    2.754    0.270    0.587  101.902
  450.250    2.645    0.275    0.564  104.622
  450.500    2.559    0.278    0.536  109.496
  450.750    2.489    0.282    0.516  112.092
  451.000    2.431    0.281    0.514  107.983
  451.250    2.423    0.275    0.556  107.380
  451.500    2.448    0.276    0.582  104.502
  451.750    2.468    0.290    0.577   99.160
  452.000    2.502    0.300    0.572   93.513
  452.250    2.542    0.305    0.575   91.065
  452.500    2.716    0.312    0.565   89.170
  452.750    3.020    0.310    0.564   83.033
  453.000    3.427    0.300    0.551   80.274
  453.250    3.978    0.286    0.523   80.410
  453.500    4.430    0.272    0.505   84.853
  453.750    5.221    0.258    0.490   80.927
  454.000    5.685    0.249    0.475   82.233
  454.250    5.939    0.247    0.486   86.183
  454.500    5.988    0.251    0.502   89.273
  454.750    5.982    0.270    0.511   87.809
  455.000    5.952    0.265    0.505   82.469
  455.250    5.933    0.257    0.496   78.297
  455.500    5.927    0.255    0.493   78.311
  455.750    5.941    0.260    0.495   82.199
  456.000    5.968    0.265    0.479   86.275
  456.250    6.006    0.246    0.465   88.748
  456.500    6.102    0.232    0.473   90.916
  456.750    6.162    0.232    0.481   91.541
  457.000    6.236    0.242    0.477   89.278
  457.250    6.229    0.243    0.470   87.568
  457.500    6.198    0.242    0.477   87.950
  457.750    6.132    0.236    0.476   86.917
  458.000    5.910    0.234    0.470   85.085
  458.250    5.580    0.231    0.483   84.791
  458.500    5.338    0.218    0.495   85.297
  458.750    5.135    0.257    0.501   87.276
  459.000    4.921    0.295    0.508   89.073
  459.250    4.734    0.302    0.514   88.963
  459.500    4.512    0.274    0.509   86.576
  459.750    4.284    0.261    0.502   88.188
  460.000    4.120    0.315    0.513   90.663
  460.250    3.941    0.342    0.526   90.860
  460.500    3.777    0.331    0.556   92.597
  460.750    3.447    0.294    0.523   94.270
  461.000    3.140    0.275    0.503   94.652
  461.250    3.125    0.279    0.522   92.943
  461.500    3.435    0.316    0.540   90.739
  461.750    3.740    0.331    0.564   88.476
  462.000    3.952    0.324    0.474   86.151
  462.250    4.169    0.293    0.452   84.380
  462.500    4.307    0.269    0.443   85.253
  462.750    4.253    0.252    0.460   88.160
  463.000    3.933    0.274    0.504   89.463
  463.250    3.610    0.291    0.547   88.430
  463.500    3.434    0.277    0.572   86.043
  463.750    3.423    0.269    0.583   84.519
  464.000    3.544    0.325    0.607   83.977
  464.250    3.766    0.372    0.623   82.637
  464.500    3.912    0.355    0.549   81.049
  464.750    4.119    0.318    0.505   79.892
  465.000    4.344    0.299    0.511   79.476
  465.250    4.556    0.311    0.501   78.382
  465.500    4.752    0.317    0.512   76.610
  465.750    4.863    0.319    0.527   70.655
  466.000    4.921    0.280    0.536   66.545
  466.250    4.981    0.192    0.418   62.864
  466.500    5.031    0.189    0.379   59.985
  466.750    4.997    0.315    0.395   57.968
  467.000    4.843    0.345    0.453   58.842
  467.250    4.547    0.359    0.487   60.947
  467.500    4.407    0.359    0.482   64.713
  467.750    4.311    0.353    0.477   68.787
  468.000    4.194    0.361    0.473   70.585
  468.250    4.127    0.363    0.470   70.413
  468.500    4.129    0.358    0.483   68.826
  468.750    4.156    0.353    0.492   65.946
  469.000    4.198    0.350    0.497   66.145
  469.250    4.224    0.347    0.473   67.388
  469.500    4.235    0.345    0.451   66.663
  469.750    4.262    0.352    0.471   67.539
  470.000    4.563    0.353    0.487   69.395
  470.250    4.941    0.311    0.500   66.824
  470.500    5.211    0.278    0.473   65.113
  470.750    5.364    0.260    0.466   68.019
  471.000    5.150    0.296    0.479   68.278
  471.250    4.982    0.322    0.472   66.200
  471.500    4.829    0.344    0.473   66.334
  471.750    4.734    0.352    0.473   64.440
  472.000    4.666    0.346    0.463   66.855
  472.250    4.617    0.339    0.454   68.465
  472.500    4.637    0.338    0.455   70.263
  472.750    4.854    0.336    0.462   69.106
  473.000    5.499    0.329    0.472   62.782
  473.250    6.383    0.318    0.483   55.226
  473.500    7.367    0.035    0.445   50.500
  473.750    8.067    0.013    0.197   47.990
  474.000    8.768   -0.002    0.171   56.863
  474.250    8.643    0.113    0.297   63.460
  474.500    8.145    0.239    0.365   69.196
  474.750    7.227    0.274    0.407   73.823
  475.000    5.839    0.312    0.434   77.158
  475.250    5.249    0.332    0.454   80.186
  475.500    4.684    0.342    0.464   80.630
  475.750    4.356    0.337    0.462   77.074
  476.000    4.270    0.335    0.466   76.164
  476.250    4.273    0.333    0.476   77.162
  476.500    4.307    0.333    0.470   78.159
  476.750    4.335    0.333    0.458   76.512
  477.000    4.338    0.335    0.451   74.985
  477.250    4.357    0.338    0.453   75.060
  477.500    4.393    0.340    0.453   74.950
  477.750    4.429    0.333    0.457   74.409
  478.000    4.491    0.331    0.474   73.621
  478.250    4.562    0.336    0.484   70.804
  478.500    4.625    0.343    0.482   74.449
  478.750    4.681    0.335    0.475   77.351
  479.000    4.746    0.323    0.468   80.441
  479.250    4.839    0.310    0.460   80.886
  479.500    4.897    0.294    0.454   81.327
  479.750    4.685    0.269    0.444   85.709
  480.000    4.464    0.256    0.434   87.260
  480.250    4.175    0.246    0.443   85.798
  480.500    4.016    0.240    0.478   85.563
  480.750    3.722    0.236    0.471   85.822
  481.000    3.352    0.248    0.465   84.236
  481.250    3.042    0.280    0.472   82.833
  481.500    2.782    0.304    0.513   82.476
  481.750    2.587    0.347    0.536   86.920
  482.000    2.456    0.378    0.544   87.671
  482.250    2.398    0.367    0.557   85.160
  482.500    2.346    0.362    0.569   85.174
  482.750    2.331    0.373    0.583   86.971
  483.000    2.333    0.365    0.599   87.906
  483.250    2.347    0.349    0.601   86.012
  483.500    2.357    0.348    0.578   84.547
  483.750    2.363    0.355    0.563   84.930
  484.000    2.392    0.349    0.576   86.359
  484.250    2.421    0.356    0.600   87.109
  484.500    2.473    0.361    0.603   87.799
  484.750    2.574    0.354    0.584   87.812
  485.000    2.751    0.368    0.561   87.517
  485.250    3.018    0.385    0.543   87.037
  485.500    3.380    0.403    0.566   83.727
  485.750    3.953    0.398    0.582   79.434
  486.000    4.571    0.458    0.580   79.261
  486.250    5.603    0.489    0.610   77.059
  486.500    6.985    0.444    0.517   70.796
  486.750    8.807    0.346    0.501   67.611
  487.000   10.377    0.338    0.486   66.516
  487.250   11.069    0.335    0.488   65.728
  487.500    8.792    0.345    0.502   68.017
  487.750    6.675    0.360    0.510   72.953
  488.000    5.536    0.346    0.469   77.273
  488.250    5.226    0.332    0.462   81.346
  488.500    4.999    0.368    0.465   82.282
  488.750    4.946    0.393    0.468   79.834
  489.000    4.857    0.361    0.472   81.261
  489.250    4.816    0.327    0.481   82.258
  489.500    4.810    0.291    0.481   77.595
  489.750    4.777    0.274    0.477   78.901
  490.000    4.745    0.269    0.475   81.682
  490.250    4.695    0.271    0.483   84.464
