~VERSION INFORMATION
 VERS.                 2.0:   CWLS LOG ASCII STANDARD -VERSION 2.0
 WRAP.                  NO:   ONE LINE PER DEPTH STEP
~WELL INFORMATION BLOCK
#MNEM.UNIT           DATA                    DESCRIPTION OF MNEMONIC
#---------    -------------------            -------------------------------
# Generated from Intellog Unique Number	CX_WELLS/WELL/2704
WELL.         05-15-080-11W4                 : Well_name    - WELL
LOC .         00/05-15-080-11W4/0            : Location     - LOCATION
UWI .         00/05-15-080-11W400            : Uwi          - UNIQUE WELL ID
ENTR.         T                              : Entered      - ENTERED BY
SRVC.         SCHLUMBERGER                   : Scn          - SERVICE COMPANY
STRT.M        250                            : top_depth    - START DEPTH
STOP.M        480                            : bot_depth    - STOP DEPTH
STEP.M        0.25                           : increment    - STEP LENGTH
 NULL. -999.2500:NULL Value
~CURVE INFORMATION BLOCK
#MNEM UNIT       ERCB CURVE CODE    CURVE DESCRIPTION
#-----------   ------------------   ----------------------------------
DEPT.M        00 001 00 00         : DEPTH        - DEPTH
GR  .API      00 310 00 00         : GR           - GAMMA RAY
NPHI.V/V      00 330 00 00         : PHIN         - NEUTRON POROSITY (SANDSTONE)
DPHI.V/V      00 890 00 00         : PHID         - DENSITY POROSITY (SANDSTONE)
ILD .OHMM     00 120 00 00         : RESD         - DEEP RESISTIVITY (DIL)
~PARAMETER INFORMATION
#MNEM.UNIT           DATA             DESCRIPTION OF MNEMONIC
#---------         -----------     ------------------------------
GL  .M        684                  : gl           - GROUND LEVEL ELEVATION
EREF.M        687                  : kb           - ELEVATION OF DEPTH REFERENCE
DATM.M        687                  : datum        - DATUM ELEVATION
TDD .M        486                  : tdd          - TOTAL DEPTH DRILLER
RUN .         ONE                  : Run          - RUN NUMBER
ENG .         BILL                 : Engineer     - RECORDING ENGINEER
WIT .         JIM                  : Witness      - WITNESSED BY
MUD .         GEL                  : Mud_type     - MUD TYPE
MATR.         SANDSTONE            : Logunit      - NEUTRON MATRIX
TMAX.C        25                   : BHT          - MAXIMUM RECORDED TEMPERATURE
BHTD.M        486                  : BHTDEP       - MAXIMUM RECORDED TEMPERATURE
MATR.         1                    : LOGUNIT      - NEUTRON MATRIX
RMT .C        17                   : MDTP         - TEMPERATURE OF MUD
NEUT.         1                    : NEUTRON      - NEUTRON TYPE
RESI.         6.7                  : RESIST       - RESISTIVITY TYPE
RMC .OHMM     6.3                  : RMC          - RESISTIVITY OF MUD CAKE
RMF .OHMM     6.3                  : RMF          - RESISTIVITY OF MUD FILTRATE
SUFT.C        4                    : SUFT         - SURFACE TEMPERATURE
~A  DEPTH       GR     PHIN     PHID     RESD
# ...
  380.500   81.825    0.282    0.115   10.074
  380.750   86.755    0.354    0.140   10.270
  381.000   91.695    0.406    0.147    9.715
  381.250   92.351    0.423    0.249    9.019
  381.500   92.377    0.445    0.261    8.689
  381.750   92.431    0.451    0.263    7.917
  382.000   91.845    0.456    0.262    7.627
  382.250   90.657    0.462    0.254    7.216
  382.500   89.460    0.465    0.249    7.223
  382.750   85.834    0.452    0.251    7.228
  383.000   82.198    0.416    0.259    7.232
  383.250   79.174    0.403    0.286    7.519
  383.500   77.374    0.389    0.303    7.667
  383.750   76.789    0.386    0.298    8.278
  384.000   76.213    0.381    0.282    8.600
  384.250   76.266    0.378    0.256    9.461
  384.500   76.293    0.401    0.264    9.831
  384.750   76.319    0.403    0.281   10.412
  385.000   76.984    0.412    0.296   10.422
  385.250   77.623    0.412    0.289   10.232
  385.500   77.658    0.402    0.299   10.049
  385.750   77.694    0.406    0.309    9.331
  386.000   77.729    0.414    0.319    8.990
  386.250   78.368    0.425    0.311    8.506
  386.500   79.645    0.435    0.290    8.511
  386.750   80.283    0.438    0.260    8.520
  387.000   80.310    0.439    0.265    8.527
  387.250   80.975    0.439    0.272    8.377
  387.500   80.398    0.436    0.274    8.382
  387.750   80.434    0.435    0.269    8.230
  388.000   79.849    0.436    0.258    8.241
  388.250   79.272    0.441    0.258    8.092
  388.500   78.093    0.444    0.264    8.097
  388.750   76.905    0.447    0.271    8.104
  389.000   76.320    0.449    0.277    8.266
  389.250   75.743    0.452    0.281    8.431
  389.500   74.564    0.461    0.283    8.930
  389.750   73.367    0.467    0.279    9.640
  390.000   66.681    0.409    0.270   10.016
  390.250   63.046    0.360    0.211   10.608
  390.500   63.072    0.224    0.074   11.235
  390.750   64.943    0.235    0.104   11.896
  391.000   68.659    0.263    0.118   12.838
  391.250   67.471    0.341    0.140   12.611
  391.500   63.835    0.404    0.289   11.486
  391.750   63.250    0.419    0.264   10.663
  392.000   63.294    0.425    0.270   10.085
  392.250   63.933    0.430    0.298    9.541
  392.500   68.260    0.433    0.302    9.368
  392.750   70.734    0.437    0.290    9.199
  393.000   73.837    0.467    0.288    8.870
  393.250   76.320    0.485    0.289    8.710
  393.500   76.968    0.490    0.290    8.552
  393.750   80.062    0.489    0.289    7.939
  394.000   83.157    0.482    0.289    7.650
  394.250   84.416    0.476    0.289    7.104
  394.500   83.246    0.475    0.288    6.845
  394.750   82.049    0.474    0.290    6.597
  395.000   80.861    0.474    0.289    6.479
  395.250   79.663    0.474    0.292    6.366
  395.500   79.096    0.475    0.292    6.370
  395.750   80.346    0.481    0.294    6.257
  396.000   84.071    0.488    0.295    6.260
  396.250   86.553    0.493    0.293    6.035
  396.500   89.027    0.494    0.288    5.927
  396.750   91.510    0.488    0.278    6.046
  397.000   90.322    0.445    0.270    6.402
  397.250   84.851    0.434    0.272    6.654
  397.500   81.827    0.409    0.281    7.045
  397.750   80.036    0.398    0.287    7.605
  398.000   80.063    0.404    0.281    7.756
  398.250   79.495    0.420    0.248    7.764
  398.500   80.143    0.410    0.189    7.770
  398.750   80.169    0.398    0.151    7.925
  399.000   80.817    0.402    0.164    8.084
  399.250   82.076    0.430    0.191    8.087
  399.500   84.576    0.447    0.243    8.248
  399.750   85.206    0.455    0.250    8.412
  400.000   86.474    0.457    0.244    8.419
  400.250   85.907    0.461    0.245    8.586
  400.500   85.321    0.469    0.246    8.594
  400.750   85.375    0.469    0.247    8.606
  401.000   86.013    0.463    0.249    8.610
  401.250   86.652    0.456    0.250    8.619
  401.500   87.308    0.446    0.249    8.626
  401.750   87.352    0.439    0.235    8.633
  402.000   86.758    0.424    0.226    8.638
  402.250   86.200    0.425    0.221    8.647
  402.500   86.838    0.443    0.226    8.656
  402.750   88.700    0.443    0.234    8.660
  403.000   91.201    0.437    0.222    8.505
  403.250   92.442    0.418    0.223    8.201
  403.500   93.701    0.411    0.229    8.051
  403.750   94.366    0.403    0.238    7.909
  404.000   94.393    0.409    0.241    7.624
  404.250   95.040    0.424    0.243    7.076
  404.500   93.870    0.433    0.245    6.566
  404.750   92.664    0.437    0.248    5.760
  405.000   90.270    0.446    0.252    5.148
  405.250   89.073    0.469    0.256    4.348
  405.500   86.670    0.479    0.263    3.673
  405.750   86.085    0.496    0.270    2.988
  406.000   85.499    0.533    0.287    2.670
  406.250   84.311    0.545    0.306    2.432
  406.500   80.676    0.560    0.309    2.258
  406.750   77.040    0.560    0.309    2.096
  407.000   74.016    0.547    0.307    2.058
  407.250   72.225    0.537    0.303    2.099
  407.500   72.270    0.507    0.301    2.181
  407.750   72.287    0.498    0.298    2.399
  408.000   73.547    0.480    0.298    2.688
  408.250   75.418    0.452    0.295    3.374
  408.500   77.297    0.421    0.266    4.077
  408.750   79.160    0.410    0.244    4.745
  409.000   79.204    0.403    0.230    5.218
  409.250   79.248    0.393    0.211    5.959
  409.500   79.275    0.379    0.194    6.678
  409.750   81.146    0.375    0.188    7.485
  410.000   83.629    0.398    0.221    8.078
  410.250   86.112    0.457    0.229    7.640
  410.500   86.156    0.484    0.232    6.454
  410.750   85.571    0.497    0.233    5.555
  411.000   84.392    0.493    0.190    4.693
  411.250   83.204    0.451    0.177    4.522
  411.500   82.627    0.416    0.172    4.701
  411.750   82.654    0.398    0.199    4.793
  412.000   85.154    0.421    0.221    4.981
  412.250   86.405    0.451    0.231    5.080
  412.500   88.879    0.470    0.243    4.990
  412.750   91.379    0.472    0.254    4.719
  413.000   92.018    0.479    0.255    4.382
  413.250   92.665    0.492    0.255    4.222
  413.500   93.933    0.496    0.255    4.148
  413.750   94.589    0.488    0.255    4.074
  414.000   94.607    0.484    0.247    4.076
  414.250   95.866    0.474    0.240    4.159
  414.500   96.514    0.467    0.238    4.161
  414.750   97.782    0.462    0.234    4.244
  415.000   98.438    0.457    0.229    4.328
  415.250   98.456    0.449    0.223    4.415
  415.500   99.121    0.441    0.216    4.418
  415.750   99.138    0.437    0.205    4.505
  416.000   99.786    0.430    0.195    4.682
  416.250  100.442    0.422    0.186    4.961
  416.500  100.478    0.424    0.192    5.253
  416.750   99.289    0.453    0.199    5.669
  417.000   95.645    0.462    0.206    6.119
  417.250   83.453    0.472    0.214    6.481
  417.500   81.032    0.424    0.218    7.126
  417.750   68.830    0.398    0.228    8.139
  418.000   65.195    0.364    0.250    9.121
  418.250   57.888    0.297    0.244   10.419
  418.500   62.224    0.297    0.244   11.456
  418.750   64.087    0.308    0.272   12.838
  419.000   66.578    0.314    0.311   14.664
  419.250   67.820    0.315    0.292   16.434
  419.500   70.303    0.316    0.289   17.732
  419.750   70.356    0.316    0.286   17.090
  420.000   70.374    0.316    0.285   15.865
  420.250   70.418    0.316    0.281   14.450
  420.500   72.901    0.326    0.281   13.164
  420.750   77.219    0.333    0.279   12.448
  421.000   82.150    0.341    0.278   11.556
  421.250   87.080    0.329    0.280   11.138
  421.500   92.019    0.338    0.282   10.737
  421.750   97.552    0.390    0.264   10.543
  422.000  104.327    0.391    0.203   10.163
  422.250  107.430    0.400    0.186    9.978
  422.500  110.525    0.403    0.208    9.986
  422.750  112.999    0.401    0.217    9.994
  423.000  113.034    0.396    0.222   10.391
  423.250  107.563    0.393    0.230   10.595
  423.500   99.033    0.375    0.233   11.221
  423.750   76.421    0.331    0.245   12.110
