~VERSION INFORMATION
 VERS.                 2.0:   CWLS LOG ASCII STANDARD -VERSION 2.0
 WRAP.                  NO:   ONE LINE PER DEPTH STEP
~WELL INFORMATION BLOCK
#MNEM.UNIT           DATA                    DESCRIPTION OF MNEMONIC
#---------    -------------------            -------------------------------
# Generated from Intellog Unique Number	CW_73_75/WELL/529
WELL.         CZAR ET AL CHERPETA 06-06      : Well_name    - WELL
LOC .         00/06-06-074-19W4/0            : Location     - LOCATION
UWI .         00/06-06-074-19W4/0            : Uwi          - UNIQUE WELL ID
ENTR.         JAYE                           : Entered      - ENTERED BY
SRVC.         SCHLUMBERGER                   : Scn          - SERVICE COMPANY
DATE.         32 JAN 80                      : Date         - LOG DATE
STRT.M        370                            : top_depth    - START DEPTH
STOP.M        570                            : bot_depth    - STOP DEPTH
STEP.M        0.25                           : increment    - STEP LENGTH
 NULL. -999.2500:NULL Value
~CURVE INFORMATION BLOCK
#MNEM UNIT       ERCB CURVE CODE    CURVE DESCRIPTION
#-----------   ------------------   ----------------------------------
DEPT.M        00 001 00 00         : DEPTH        - DEPTH
GR  .API      00 310 00 00         : GR           - GAMMA RAY
CALI.MM       00 280 01 00         : CAL          - CALIPER
DPHI.V/V      00 890 00 00         : PHID         - DENSITY POROSITY (SANDSTONE)
NPHI.V/V      00 330 00 00         : PHIN         - NEUTRON POROSITY (SANDSTONE)
ILD .OHMM     00 120 00 00         : RESD         - DEEP RESISTIVITY (DIL)
~PARAMETER INFORMATION
#MNEM.UNIT           DATA             DESCRIPTION OF MNEMONIC
#---------         -----------     ------------------------------
GL  .M        687.19               : gl           - GROUND LEVEL ELEVATION
EREF.M        690.09               : kb           - ELEVATION OF DEPTH REFERENCE
DATM.M        687.19               : datum        - DATUM ELEVATION
TDD .M        605                  : tdd          - TOTAL DEPTH DRILLER
RUN .         ONE                  : Run          - RUN NUMBER
ENG .         SARK                 : Engineer     - RECORDING ENGINEER
WIT .         EARLE                : Witness      - WITNESSED BY
BASE.         EDMONTON             : Branch       - HOME BASE OF LOGGING UNIT
MUD .         GEL CHEM             : Mud_type     - MUD TYPE
MATR.         SANDSTONE            : Logunit      - NEUTRON MATRIX
TMAX.C        25                   : BHT          - MAXIMUM RECORDED TEMPERATURE
BHTD.M        604.5                : BHTDEP       - MAXIMUM RECORDED TEMPERATURE
RMT .C        20                   : MDTP         - TEMPERATURE OF MUD
MUDD.KG/M     1110                 : MWT          - MUD DENSITY
NEUT.         1                    : NEUTRON      - NEUTRON TYPE
RESI.         0                    : RESIST       - RESISTIVITY TYPE
RM  .OHMM     2.68                 : RM           - RESISTIVITY OF MUD
RMC .OHMM     0                    : RMC          - RESISTIVITY OF MUD CAKE
RMF .OHMM     3.14                 : RMF          - RESISTIVITY OF MUD FILTRATE
SUFT.C        4.5                  : SUFT         - SURFACE TEMPERATURE
~A  DEPTH       GR      CAL     PHID     PHIN     RESD
# ...
  516.000   62.824  185.790    0.314    0.415    4.949
  516.250   66.133  187.824    0.305    0.420    4.992
  516.500   67.108  190.062    0.306    0.434    5.129
  516.750   63.231  192.201    0.279    0.420    5.731
  517.000   63.653  194.440    0.241    0.379    6.334
  517.250   64.567  196.576    0.205    0.352    6.532
  517.500   65.480  198.407    0.157    0.334    6.311
  517.750   67.070  200.442    0.190    0.326    5.831
  518.000   71.608  202.477    0.224    0.382    5.122
  518.250   76.391  207.173    0.267    0.443    4.610
  518.500   80.499  214.122    0.273    0.460    4.251
  518.750   84.606  220.968    0.235    0.476    3.987
  519.000   84.906  223.104    0.253    0.489    3.844
  519.250   86.310  223.297    0.248    0.496    3.785
  519.500   88.391  224.308    0.248    0.505    3.732
  519.750   90.227  226.957    0.274    0.506    3.660
  520.000   88.929  230.732    0.231    0.499    3.556
  520.250   88.553  230.310    0.193    0.489    3.481
  520.500   86.641  230.296    0.206    0.480    3.433
  520.750   88.292  232.740    0.214    0.476    3.469
  521.000   90.004  234.673    0.227    0.484    3.578
  521.250   89.567  235.788    0.266    0.492    3.731
  521.500   88.269  235.263    0.271    0.509    3.884
  521.750   87.401  232.793    0.262    0.506    3.991
  522.000   87.148  233.395    0.262    0.498    4.070
  522.250   86.772  235.430    0.242    0.488    4.120
  522.500   85.475  242.480    0.228    0.484    4.171
  522.750   82.519  244.003    0.217    0.483    4.309
  523.000   80.792  238.769    0.214    0.479    4.461
  523.250   81.092  233.946    0.187    0.468    4.644
  523.500   82.497  231.885    0.163    0.458    5.037
  523.750   84.823  230.645    0.184    0.451    5.618
  524.000   87.027  230.632    0.204    0.463    5.915
  524.250   87.879  230.312    0.213    0.458    6.134
  524.500   86.704  228.457    0.181    0.453    6.221
  524.750   86.881  227.420    0.184    0.450    6.239
  525.000   87.795  227.817    0.197    0.461    6.233
  525.250   88.769  227.498    0.195    0.450    6.124
  525.500   89.069  225.847    0.195    0.435    6.018
  525.750   89.676  224.709    0.205    0.449    5.868
  526.000   89.730  226.435    0.211    0.452    5.777
  526.250   85.730  227.549    0.201    0.443    5.665
  526.500   85.415  228.970    0.165    0.432    5.629
  526.750   86.574  229.469    0.189    0.429    5.666
  527.000   86.075  227.102    0.191    0.442    5.779
  527.250   84.041  227.294    0.211    0.448    5.927
  527.500   83.604  226.974    0.222    0.449    6.124
  527.750   86.175  226.142    0.223    0.455    6.269
  528.000   88.256  224.595    0.210    0.444    6.310
  528.250   89.477  223.455    0.214    0.429    6.223
  528.500   89.961  223.443    0.228    0.418    6.138
  528.750   89.584  223.635    0.229    0.411    6.132
  529.000   87.366  223.827    0.231    0.424    6.196
  529.250   85.147  223.610    0.260    0.461    6.343
  529.500   83.051  218.172    0.241    0.462    6.566
  529.750   82.614  206.284    0.251    0.457    6.810
  530.000   81.869  202.791    0.204    0.450    6.971
  530.250   79.835  202.163    0.191    0.442    7.044
  530.500   77.432  202.151    0.198    0.437    7.011
  530.750   76.564  202.344    0.196    0.425    7.137
  531.000   76.556  202.125    0.199    0.404    7.472
  531.250   74.706  202.011    0.182    0.381    7.969
  531.500   71.689  202.101    0.188    0.370    8.547
  531.750   68.365  202.700    0.210    0.364    9.357
  532.000   65.655  203.508    0.229    0.391   10.055
  532.250   65.217  204.315    0.237    0.393   10.784
  532.500   67.421  205.838    0.177    0.337   11.122
  532.750   73.002  208.487    0.134    0.302   10.218
  533.000   79.076  212.978    0.101    0.281    9.027
  533.250   85.886  218.494    0.127    0.319    8.247
  533.500   88.212  222.063    0.154    0.345    7.619
  533.750   88.512  224.201    0.175    0.370    7.065
  534.000   88.995  226.134    0.185    0.405    6.738
  534.250   89.418  228.166    0.183    0.424    6.632
  534.500   87.997  229.997    0.184    0.423    6.627
  534.750   86.393  231.929    0.193    0.416    6.720
  535.000   86.570  233.249    0.194    0.414    6.803
  535.250   89.326  234.977    0.185    0.415    6.848
  535.500   91.407  236.908    0.196    0.419    6.907
  535.750   91.092  237.919    0.187    0.426    6.939
  536.000   89.610  238.726    0.182    0.434    7.012
  536.250   89.541  239.327    0.179    0.439    7.059
  536.500   89.779  239.826    0.191    0.426    7.145
  536.750   90.079  240.224    0.180    0.400    7.246
  537.000   93.081  240.211    0.186    0.396    7.336
  537.250   95.653  239.379    0.191    0.408    7.398
  537.500   96.260  238.446    0.215    0.401    7.350
  537.750   96.620  238.228    0.211    0.402    7.262
  538.000   96.552  238.216    0.194    0.412    7.096
  538.250   94.149  238.407    0.187    0.418    6.641
  538.500   92.114  241.056    0.176    0.421    6.429
  538.750   87.746  247.083    0.190    0.434    6.435
  539.000   83.131  247.788    0.211    0.451    6.613
  539.250   79.070  245.011    0.224    0.451    6.706
  539.500   77.404  237.014    0.198    0.436    6.663
  539.750   78.501  234.646    0.173    0.403    6.596
  540.000   80.153  234.941    0.190    0.406    6.397
  540.250   81.742  233.700    0.216    0.418    6.089
  540.500   82.717  236.963    0.225    0.422    5.573
  540.750   82.034  230.501    0.215    0.419    4.814
  541.000   82.027  233.252    0.229    0.422    4.105
  541.250   83.247  238.870    0.260    0.438    3.474
  541.500   86.188  227.188    0.277    0.444    2.786
  541.750   89.559  223.285    0.276    0.469    2.353
  542.000   94.219  221.020    0.276    0.533    2.122
  542.250   96.730  218.755    0.247    0.527    1.990
  542.500   97.582  216.797    0.244    0.512    1.984
  542.750   96.898  215.761    0.233    0.503    2.066
  543.000   95.417  215.031    0.244    0.512    2.300
  543.250   90.926  214.404    0.252    0.523    2.764
  543.500   88.093  215.210    0.219    0.529    3.135
  543.750   88.024  216.837    0.230    0.505    3.556
  544.000   90.535  216.209    0.196    0.473    4.109
  544.250   91.878  208.417    0.205    0.435    4.541
  544.500   91.809  205.947    0.196    0.415    4.807
  544.750   93.890  204.706    0.169    0.404    5.332
  545.000   93.453  203.158    0.166    0.395    5.981
  545.250   85.522  201.610    0.154    0.408    6.721
  545.500   80.232  200.266    0.126    0.400    7.262
  545.750   79.118  199.230    0.041    0.333    7.434
  546.000   83.779  198.090    0.055    0.306    7.304
  546.250   89.053  197.257    0.124    0.331    6.698
  546.500   91.626  196.630    0.155    0.394    5.961
  546.750   92.540  196.517    0.178    0.414    5.653
  547.000   91.856  196.812    0.164    0.433    5.534
  547.250   93.077  197.412    0.180    0.453    5.488
  547.500   93.376  197.502    0.171    0.467    5.453
  547.750   92.079  196.365    0.149    0.453    5.428
  548.000   93.362  194.919    0.135    0.435    5.443
  548.250   95.995  196.031    0.177    0.423    5.480
  548.500   93.592  196.532    0.206    0.436    5.547
  548.750   94.198  197.133    0.196    0.453    5.605
  549.000   96.341  194.254    0.211    0.403    5.611
  549.250   98.544  193.115    0.169    0.386    5.627
  549.500  100.564  193.308    0.165    0.378    5.632
  549.750  103.750  193.909    0.178    0.389    5.627
  550.000  103.005  194.510    0.164    0.404    5.592
  550.250   98.145  194.907    0.177    0.413    5.514
  550.500   96.295  195.303    0.171    0.411    5.357
  550.750   96.041  195.290    0.170    0.411    5.157
  551.000   96.219  195.483    0.161    0.415    4.918
  551.250   95.904  195.266    0.173    0.420    4.699
  551.500   93.931  194.845    0.178    0.424    4.506
  551.750   94.168  194.114    0.183    0.426    4.370
  552.000   95.574  193.284    0.179    0.429    4.262
  552.250   96.794  191.940    0.158    0.431    4.156
