~VERSION INFORMATION
 VERS.                 2.0:   CWLS LOG ASCII STANDARD -VERSION 2.0
 WRAP.                  NO:   ONE LINE PER DEPTH STEP
~WELL INFORMATION BLOCK
#MNEM.UNIT           DATA                    DESCRIPTION OF MNEMONIC
#---------    -------------------            -------------------------------
# Generated from Intellog Unique Number	CS_71_72/WELL/781
WELL.         SULPETRO BRENDA IPIATIK        : Well_name    - WELL
LOC .         00/06-28-072-10W4/0            : Location     - LOCATION
UWI .         00/06-28-072-10W4/0            : Uwi          - UNIQUE WELL ID
ENTR.         SP                             : Entered      - ENTERED BY
SRVC.         SCHLUMBERGER                   : Scn          - SERVICE COMPANY
STRT.M        300                            : top_depth    - START DEPTH
STOP.M        520                            : bot_depth    - STOP DEPTH
STEP.M        0.25                           : increment    - STEP LENGTH
 NULL. -999.2500:NULL Value
~CURVE INFORMATION BLOCK
#MNEM UNIT       ERCB CURVE CODE    CURVE DESCRIPTION
#-----------   ------------------   ----------------------------------
DEPT.M        00 001 00 00         : DEPTH        - DEPTH
ILD .OHMM     00 120 00 00         : RESD         - DEEP RESISTIVITY (DIL)
DPHI.V/V      00 890 00 00         : PHID         - DENSITY POROSITY (LIMESTONE)
NPHI.V/V      00 330 00 00         : PHIN         - NEUTRON POROSITY (LIMESTONE)
GR  .API      00 310 00 00         : GR           - GAMMA RAY
~PARAMETER INFORMATION
#MNEM.UNIT           DATA             DESCRIPTION OF MNEMONIC
#---------         -----------     ------------------------------
GL  .M        659.79               : gl           - GROUND LEVEL ELEVATION
EREF.M        662.39               : kb           - ELEVATION OF DEPTH REFERENCE
DATM.M        659.79               : datum        - DATUM ELEVATION
TDD .M        53.2                 : tdd          - TOTAL DEPTH DRILLER
RUN .         ONE                  : Run          - RUN NUMBER
ENG .         BILL                 : Engineer     - RECORDING ENGINEER
WIT .         JIM                  : Witness      - WITNESSED BY
MUD .         GEL                  : Mud_type     - MUD TYPE
MATR.         LIMESTONE            : Logunit      - NEUTRON MATRIX
TMAX.C        0.26                 : BHT          - MAXIMUM RECORDED TEMPERATURE
BHTD.M        532                  : BHTDEP       - MAXIMUM RECORDED TEMPERATURE
MATR.         1                    : LOGUNIT      - NEUTRON MATRIX
RMT .C        25                   : MDTP         - TEMPERATURE OF MUD
NEUT.         1                    : NEUTRON      - NEUTRON TYPE
RESI.         0                    : RESIST       - RESISTIVITY TYPE
RMC .OHMM     0.25                 : RMC          - RESISTIVITY OF MUD CAKE
RMF .OHMM     0.25                 : RMF          - RESISTIVITY OF MUD FILTRATE
SUFT.C        15                   : SUFT         - SURFACE TEMPERATURE
~A  DEPTH     RESD     PHID     PHIN       GR
# ...
  430.500    5.033    0.230    0.417   94.558
  430.750    5.129    0.230    0.439   93.327
  431.000    5.427    0.244    0.445   90.252
  431.250    5.530    0.266    0.411   87.792
  431.500    5.742    0.281    0.393   87.176
  431.750    5.851    0.286    0.408   86.559
  432.000    5.963    0.276    0.401   85.943
  432.250    6.191    0.265    0.409   85.327
  432.500    6.429    0.256    0.396   82.866
  432.750    6.551    0.253    0.385   82.250
  433.000    6.802    0.253    0.397   82.864
  433.250    6.802    0.256    0.416   84.092
  433.500    6.930    0.259    0.448   84.091
  433.750    6.930    0.259    0.390   85.319
  434.000    6.800    0.258    0.362   85.932
  434.250    6.799    0.256    0.341   85.931
  434.500    6.799    0.256    0.349   85.314
  434.750    6.798    0.261    0.353   84.083
  435.000    6.797    0.262    0.334   82.853
  435.250    6.926    0.259    0.323   82.236
  435.500    6.926    0.253    0.362   82.850
  435.750    6.925    0.246    0.408   85.307
  436.000    6.925    0.244    0.413   86.536
  436.250    6.924    0.244    0.398   85.305
  436.500    6.923    0.245    0.387   82.844
  436.750    6.793    0.253    0.400   84.072
  437.000    6.793    0.258    0.403   85.301
  437.250    6.540    0.260    0.376   86.529
  437.500    6.298    0.246    0.350   87.757
  437.750    6.064    0.235    0.342   90.829
  438.000    5.517    0.225    0.360   92.671
  438.250    5.020    0.217    0.377   93.900
  438.500    4.743    0.212    0.359   96.972
  438.750    4.002    0.211    0.340  100.044
  439.000    3.506    0.211    0.350  101.273
  439.250    3.072    0.209    0.371  103.116
  439.500    2.795    0.214    0.425  104.344
  439.750    3.014    0.263    0.445  103.728
  440.000    3.440    0.279    0.425  105.570
  440.250    3.852    0.264    0.428  105.569
  440.500    4.395    0.234    0.422  101.264
  440.750    4.922    0.249    0.422   96.345
  441.000    5.308    0.261    0.434   92.655
  441.250    5.208    0.267    0.445   92.654
  441.500    5.014    0.250    0.423   96.341
  441.750    5.014    0.235    0.407   99.413
  442.000    5.014    0.224    0.397  100.027
  442.250    5.206    0.234    0.393  100.025
  442.500    5.406    0.261    0.387  101.868
  442.750    5.721    0.264    0.397  101.867
  443.000    6.286    0.234    0.412   96.947
  443.250    6.652    0.214    0.442   95.102
  443.500    7.173    0.206    0.411   91.412
  443.750    7.590    0.192    0.403   88.952
  444.000    7.881    0.161    0.445   87.721
  444.250    8.031    0.113    0.417   78.498
  444.500    7.880    0.049    0.297   70.505
  444.750    7.445    0.088    0.218   78.495
  445.000    6.903    0.145    0.271   87.715
  445.250    6.523    0.180    0.382   92.017
  445.500    6.163    0.193    0.371   93.244
  445.750    6.047    0.193    0.369   92.628
  446.000    5.934    0.184    0.418   93.242
  446.250    5.933    0.181    0.426   95.084
  446.500    5.933    0.187    0.407   96.313
  446.750    5.932    0.193    0.391   97.541
  447.000    5.932    0.195    0.386   97.540
  447.250    5.931    0.192    0.388   98.768
  447.500    5.820    0.192    0.396  101.225
  447.750    5.819    0.190    0.388  101.839
  448.000    5.710    0.200    0.359  103.682
  448.250    5.710    0.211    0.345  103.680
  448.500    5.602    0.218    0.327  103.679
  448.750    5.602    0.218    0.344  102.448
  449.000    5.497    0.214    0.370  102.446
  449.250    5.496    0.212    0.370  102.445
  449.500    5.496    0.207    0.364  102.444
  449.750    5.392    0.201    0.350  101.213
  450.000    5.392    0.196    0.387  100.596
  450.250    5.392    0.192    0.391  100.595
  450.500    5.391    0.192    0.384  101.823
  450.750    5.391    0.193    0.387  103.666
  451.000    5.191    0.193    0.392  106.738
  451.250    4.998    0.192    0.366  107.352
  451.500    4.904    0.191    0.359  108.580
  451.750    4.722    0.190    0.371  106.120
  452.000    4.462    0.180    0.406   98.741
  452.250    4.216    0.175    0.376   94.437
  452.500    3.836    0.170    0.350   98.124
  452.750    3.693    0.192    0.372  100.581
  453.000    3.360    0.197    0.395   99.965
  453.250    3.058    0.206    0.395   96.890
  453.500    2.782    0.228    0.369   96.274
  453.750    2.579    0.253    0.421   94.428
  454.000    2.484    0.269    0.465   94.426
  454.250    2.347    0.300    0.465   94.425
  454.500    2.303    0.279    0.458   95.039
  454.750    2.302    0.271    0.470   97.496
  455.000    2.346    0.269    0.432   98.110
  455.250    2.436    0.259    0.403   99.952
  455.500    2.530    0.254    0.375  100.566
  455.750    2.677    0.248    0.350  101.794
  456.000    3.113    0.251    0.400  101.178
  456.250    3.421    0.251    0.465  100.562
  456.500    3.759    0.235    0.434   96.257
  456.750    4.130    0.211    0.406   93.182
  457.000    4.371    0.202    0.403   91.951
  457.250    4.538    0.213    0.427   95.023
  457.500    4.625    0.218    0.442   95.022
  457.750    5.082    0.217    0.433   93.176
  458.000    5.277    0.213    0.426   90.101
  458.250    5.909    0.224    0.407   87.641
  458.500    6.871    0.133    0.308   85.796
  458.750    7.135    0.164    0.286   90.712
  459.000    7.550    0.179    0.340   95.629
  459.250    7.408    0.197    0.366   91.324
  459.500    6.741    0.165    0.323   80.872
  459.750    6.018    0.097    0.295   71.034
  460.000    5.580    0.177    0.326   73.491
  460.250    5.373    0.233    0.390   75.950
  460.500    5.174    0.248    0.382   79.022
  460.750    4.888    0.248    0.366   82.709
  461.000    4.619    0.237    0.374   87.626
  461.250    4.447    0.217    0.397   91.927
  461.500    4.282    0.200    0.429   92.541
  461.750    4.202    0.198    0.426   95.613
  462.000    3.823    0.196    0.396   98.685
  462.250    3.751    0.190    0.377  100.529
  462.500    3.545    0.190    0.408  102.371
  462.750    3.413    0.196    0.406  104.829
  463.000    3.286    0.205    0.376  107.286
  463.250    3.224    0.219    0.365  109.129
  463.500    3.164    0.224    0.382  110.357
  463.750    3.164    0.224    0.416  110.970
  464.000    3.163    0.211    0.432  110.970
  464.250    3.223    0.210    0.412  109.738
  464.500    3.223    0.212    0.355  108.508
  464.750    3.284    0.215    0.363  106.047
  465.000    3.284    0.224    0.416  104.202
  465.250    3.346    0.226    0.423  103.586
  465.500    3.410    0.212    0.371  102.970
  465.750    3.541    0.201    0.349  102.353
  466.000    3.474    0.197    0.360  102.967
  466.250    3.283    0.202    0.379  106.039
  466.500    2.987    0.216    0.385  110.340
  466.750    2.876    0.227    0.369  112.799
  467.000    2.876    0.238    0.359  117.101
  467.250    3.043    0.218    0.382  120.173
  467.500    3.606    0.205    0.418  118.327
  467.750    4.273    0.205    0.447  110.947
  468.000    5.064    0.195    0.422  106.643
  468.250    5.779    0.159    0.374  102.338
  468.500    6.720    0.117    0.353   99.263
  468.750    7.111    0.086    0.326   96.189
  469.000    7.110    0.077    0.289   90.040
  469.250    6.846    0.105    0.271   94.957
  469.500    6.718    0.132    0.327   96.800
  469.750    6.717    0.161    0.377   94.954
  470.000    6.716    0.185    0.342   90.649
  470.250    6.844    0.181    0.321   88.189
  470.500    7.107    0.192    0.308   83.884
  470.750    7.379    0.202    0.303   80.194
  471.000    7.519    0.203    0.321   80.807
  471.250    7.808    0.197    0.338   81.421
  471.500    8.262    0.195    0.345   82.649
  471.750    8.579    0.216    0.337   82.033
  472.000    9.251    0.233    0.322   80.187
  472.250    9.976    0.250    0.302   75.882
  472.500   10.757    0.257    0.300   72.808
  472.750   11.600    0.253    0.352   68.503
  473.000   12.274    0.264    0.369   62.968
  473.250   12.273    0.278    0.374   59.279
  473.500   11.380    0.289    0.375   58.662
  473.750   10.354    0.286    0.354   61.120
