~VERSION INFORMATION
 VERS.                 2.0:   CWLS LOG ASCII STANDARD -VERSION 2.0
 WRAP.                  NO:   ONE LINE PER DEPTH STEP
~WELL INFORMATION BLOCK
#MNEM.UNIT           DATA                    DESCRIPTION OF MNEMONIC
#---------    -------------------            -------------------------------
# Generated from Intellog Unique Number	CW_73_75/WELL/2733
WELL.         ANADARKO ER AL FRANCIS 07-32   : Well_name    - WELL
LOC .         00/07-32-073-21W4/0            : Location     - LOCATION
UWI .         00/07-32-073-21W4/0            : Uwi          - UNIQUE WELL ID
ENTR.         JAYE                           : Entered      - ENTERED BY
SRVC.         SCHLUMBERGER                   : Scn          - SERVICE COMPANY
DATE.         18 FEB 79                      : Date         - LOG DATE
STRT.M        325                            : top_depth    - START DEPTH
STOP.M        575                            : bot_depth    - STOP DEPTH
STEP.M        0.25                           : increment    - STEP LENGTH
 NULL. -999.2500:NULL Value
~CURVE INFORMATION BLOCK
#MNEM UNIT       ERCB CURVE CODE    CURVE DESCRIPTION
#-----------   ------------------   ----------------------------------
DEPT.M        00 001 00 00         : DEPTH        - DEPTH
ILD .OHMM     00 120 00 00         : RESD         - DEEP RESISTIVITY (DIL)
NPHI.V/V      00 330 00 00         : PHIN         - NEUTRON POROSITY (SANDSTONE)
DPHI.V/V      00 890 00 00         : PHID         - DENSITY POROSITY (SANDSTONE)
GR  .API      00 310 00 00         : GR           - GAMMA RAY
CALI.MM       00 280 01 00         : CAL          - CALIPER
~PARAMETER INFORMATION
#MNEM.UNIT           DATA             DESCRIPTION OF MNEMONIC
#---------         -----------     ------------------------------
GL  .M        674                  : gl           - GROUND LEVEL ELEVATION
EREF.M        677.8                : kb           - ELEVATION OF DEPTH REFERENCE
DATM.M        674                  : datum        - DATUM ELEVATION
TDD .M        600                  : tdd          - TOTAL DEPTH DRILLER
RUN .         ONE                  : Run          - RUN NUMBER
ENG .         WESOIOWSKY           : Engineer     - RECORDING ENGINEER
WIT .         ROGERS               : Witness      - WITNESSED BY
BASE.         EDM                  : Branch       - HOME BASE OF LOGGING UNIT
MUD .         GEL CHEM             : Mud_type     - MUD TYPE
MATR.         SANDSTONE            : Logunit      - NEUTRON MATRIX
TMAX.C        24                   : BHT          - MAXIMUM RECORDED TEMPERATURE
BHTD.M        601                  : BHTDEP       - MAXIMUM RECORDED TEMPERATURE
RMT .C        18                   : MDTP         - TEMPERATURE OF MUD
MUDD.KG/M     1090                 : MWT          - MUD DENSITY
NEUT.         1                    : NEUTRON      - NEUTRON TYPE
RESI.         0                    : RESIST       - RESISTIVITY TYPE
RM  .OHMM     5.8                  : RM           - RESISTIVITY OF MUD
RMC .OHMM     0                    : RMC          - RESISTIVITY OF MUD CAKE
RMF .OHMM     5.1                  : RMF          - RESISTIVITY OF MUD FILTRATE
SUFT.C        0                    : SUFT         - SURFACE TEMPERATURE
~A  DEPTH     RESD     PHIN     PHID       GR      CAL
# ...
  471.000    4.925    0.436    0.300   74.810  161.076
  471.250    5.716    0.335    0.153   71.680  162.059
  471.500    6.450    0.277    0.124   67.187  163.030
  471.750    7.169    0.226    0.126   68.019  169.380
  472.000    8.043    0.231    0.116   64.515  171.702
  472.250    8.839    0.230    0.100   63.306  171.441
  472.500    9.605    0.227    0.086   63.025  170.763
  472.750   10.280    0.235    0.077   61.136  169.682
  473.000   10.616    0.220    0.057   60.484  168.692
  473.250   10.697    0.181    0.041   60.819  167.922
  473.500   10.557    0.161    0.044   61.345  167.652
  473.750   10.380    0.174    0.072   61.933  167.497
  474.000   10.149    0.198    0.079   62.829  166.924
  474.250    9.755    0.205    0.096   64.157  165.937
  474.500    9.272    0.216    0.111   64.620  164.953
  474.750    8.550    0.242    0.128   67.314  163.251
  475.000    6.596    0.273    0.148   62.014  161.659
  475.250    5.666    0.337    0.206   69.979  159.396
  475.500    4.895    0.376    0.299   77.396  158.621
  475.750    4.424    0.400    0.297   78.229  158.047
  476.000    4.270    0.423    0.314   75.467  157.579
  476.250    4.114    0.442    0.320   75.868  157.009
  476.500    4.085    0.436    0.319   75.584  156.842
  476.750    4.086    0.417    0.305   75.053  156.177
  477.000    4.119    0.423    0.296   75.085  156.011
  477.250    4.151    0.440    0.285   73.621  155.240
  477.500    4.177    0.431    0.283   72.160  154.958
  477.750    4.170    0.454    0.292   73.679  154.797
  478.000    4.156    0.457    0.291   77.243  155.051
  478.250    4.142    0.443    0.306   75.908  155.107
  478.500    4.112    0.457    0.312   77.426  155.150
  478.750    4.091    0.436    0.310   80.309  155.195
  479.000    4.069    0.430    0.312   79.841  155.448
  479.250    4.071    0.417    0.317   77.570  155.501
  479.500    4.073    0.412    0.319   74.309  155.751
  479.750    4.066    0.460    0.333   70.552  156.012
  480.000    4.053    0.477    0.333   71.946  156.153
  480.250    4.024    0.422    0.303   74.396  156.621
  480.500    4.003    0.445    0.283   74.237  156.869
  480.750    3.974    0.458    0.293   71.846  157.547
  481.000    3.961    0.413    0.313   68.397  158.224
  481.250    3.925    0.420    0.331   64.887  158.781
  481.500    3.898    0.422    0.336   68.952  159.252
  481.750    3.869    0.450    0.334   68.793  159.392
  482.000    3.835    0.457    0.334   67.269  159.538
  482.250    3.800    0.438    0.327   78.346  159.372
  482.500    3.773    0.428    0.318   80.235  158.914
  482.750    3.775    0.425    0.306   77.782  158.556
  483.000    3.776    0.453    0.301   81.040  158.585
  483.250    3.806    0.454    0.319   84.045  158.629
  483.500    3.894    0.445    0.338   85.004  158.685
  483.750    3.955    0.434    0.312   82.737  158.735
  484.000    4.009    0.435    0.319   80.101  158.873
  484.250    4.048    0.431    0.315   81.862  159.231
  484.500    4.103    0.432    0.312   80.031  159.286
  484.750    4.136    0.428    0.320   78.567  159.340
  485.000    4.161    0.431    0.307   76.674  159.592
  485.250    4.186    0.432    0.299   75.583  159.846
  485.500    4.211    0.465    0.275   77.845  160.099
  485.750    4.236    0.444    0.267   89.604  160.557
  486.000    4.230    0.432    0.274   85.970  160.805
  486.250    4.192    0.427    0.265   89.166  161.479
  486.500    4.146    0.425    0.244   89.132  162.656
  486.750    4.063    0.440    0.245   93.503  164.052
  487.000    3.907    0.474    0.256   90.430  165.338
  487.250    3.750    0.454    0.237   95.794  167.247
  487.500    3.613    0.440    0.252   99.237  168.535
  487.750    3.247    0.439    0.261   95.108  168.375
  488.000    2.929    0.469    0.224  101.032  167.601
  488.250    2.627    0.504    0.240  107.329  166.922
  488.500    2.370    0.524    0.254  108.413  165.935
  488.750    2.340    0.522    0.246  109.807  164.221
  489.000    2.567    0.504    0.230  114.242  162.819
  489.250    2.794    0.493    0.236  109.678  162.563
  489.500    3.311    0.493    0.226  104.119  162.814
  489.750    3.708    0.476    0.213  101.353  162.035
  490.000    4.184    0.454    0.209   99.523  161.667
  490.250    4.538    0.436    0.214   96.694  164.606
  490.500    4.867    0.415    0.228   93.930  166.108
  490.750    4.915    0.392    0.225   95.015  164.085
  491.000    4.780    0.373    0.199   97.213  161.958
  491.250    4.477    0.397    0.173   97.303  162.628
  491.500    4.193    0.420    0.194   99.257  164.640
  491.750    3.783    0.430    0.190   99.783  166.862
  492.000    3.550    0.432    0.212  101.735  168.040
  492.250    3.518    0.446    0.217  107.659  168.502
  492.500    3.654    0.437    0.209   98.316  168.551
  492.750    3.882    0.425    0.209   97.850  167.770
  493.000    4.179    0.413    0.199  104.455  166.781
  493.250    4.440    0.420    0.189  105.351  166.004
  493.500    4.586    0.442    0.213   99.918  165.121
  493.750    4.511    0.459    0.216   99.078  163.720
  494.000    4.330    0.454    0.202   99.294  162.213
  494.250    4.455    0.458    0.207   97.211  160.508
  494.500    4.558    0.430    0.214   97.176  159.309
  494.750    4.753    0.411    0.230   98.323  158.843
  495.000    4.928    0.434    0.219   99.901  158.995
  495.250    5.071    0.430    0.229  102.228  159.140
  495.500    5.120    0.417    0.229   98.222  159.401
  495.750    5.113    0.421    0.219   97.690  159.757
  496.000    5.105    0.413    0.210   99.147  160.319
  496.250    5.097    0.416    0.228   98.741  161.503
  496.500    5.119    0.425    0.208   97.900  162.586
  496.750    5.150    0.434    0.222  100.472  163.356
  497.000    5.151    0.420    0.232  101.307  164.021
  497.250    5.153    0.425    0.236   97.116  164.689
  497.500    5.165    0.418    0.233   93.112  165.149
  497.750    5.206    0.441    0.216   89.849  165.095
  498.000    5.237    0.444    0.233   99.621  164.726
  498.250    5.259    0.412    0.233  101.946  164.052
  498.500    5.241    0.425    0.211   99.741  163.373
  498.750    5.204    0.419    0.222  100.079  162.393
  499.000    5.167    0.395    0.219   96.447  161.509
  499.250    5.159    0.392    0.208   91.943  160.516
  499.500    5.132    0.401    0.214   95.510  159.121
  499.750    5.115    0.400    0.210  101.620  158.025
  500.000    5.078    0.411    0.218   96.995  157.351
  500.250    5.032    0.451    0.216   92.739  157.496
  500.500    4.959    0.429    0.202   96.679  158.579
  500.750    4.887    0.411    0.207  102.478  160.499
  501.000    4.834    0.442    0.202  103.996  162.403
  501.250    4.791    0.459    0.200  107.314  164.316
  501.500    4.721    0.435    0.211  108.893  165.388
  501.750    4.643    0.430    0.212  101.289  165.646
  502.000    4.576    0.427    0.215   98.213  165.286
  502.250    4.526    0.428    0.216   98.863  166.154
  502.500    4.435    0.435    0.218  101.559  168.164
  502.750    4.420    0.439    0.225  102.829  174.313
  503.000    4.557    0.448    0.243  100.499  171.569
  503.250    4.933    0.451    0.259   91.527  165.410
  503.500    5.452    0.417    0.243   80.569  162.251
  503.750    5.947    0.319    0.186   66.322  161.780
  504.000    6.451    0.290    0.141   62.129  161.730
  504.250    6.526    0.297    0.137   63.714  161.983
  504.500    6.455    0.300    0.154   62.684  163.064
  504.750    6.243    0.329    0.194   65.256  163.831
  505.000    6.037    0.392    0.189   66.776  164.297
  505.250    5.805    0.242    0.118   66.246  164.960
  505.500    5.572    0.248    0.172   66.583  165.735
  505.750    5.574    0.293    0.216   69.653  161.540
  506.000    6.001    0.362    0.234   67.073  156.723
  506.250    6.436    0.394    0.244   64.932  152.633
  506.500    7.073    0.379    0.214   64.277  152.274
  506.750    7.614    0.338    0.158   61.202  152.316
  507.000    8.259    0.289    0.142   65.015  155.884
  507.250    8.941    0.279    0.125   63.927  159.028
