~VERSION INFORMATION
 VERS.                 2.0:   CWLS LOG ASCII STANDARD -VERSION 2.0
 WRAP.                  NO:   ONE LINE PER DEPTH STEP
~WELL INFORMATION BLOCK
#MNEM.UNIT           DATA                    DESCRIPTION OF MNEMONIC
#---------    -------------------            -------------------------------
# Generated from Intellog Unique Number	CS_73_76/WELL/702
WELL.         AMOCO AEC IPIATIK              : Well_name    - WELL
LOC .         00/07-03-073-06W4/0            : Location     - LOCATION
UWI .         00/07-03-073-06W4/0            : Uwi          - UNIQUE WELL ID
ENTR.         SP                             : Entered      - ENTERED BY
SRVC.         SCHLUMBERGER                   : Scn          - SERVICE COMPANY
STRT.M        315                            : top_depth    - START DEPTH
STOP.M        560                            : bot_depth    - STOP DEPTH
STEP.M        0.25                           : increment    - STEP LENGTH
 NULL. -999.2500:NULL Value
~CURVE INFORMATION BLOCK
#MNEM UNIT       ERCB CURVE CODE    CURVE DESCRIPTION
#-----------   ------------------   ----------------------------------
DEPT.M        00 001 00 00         : DEPTH        - DEPTH
ILD .OHMM     00 120 00 00         : RESD         - DEEP RESISTIVITY (DIL)
DPHI.V/V      00 890 00 00         : PHID         - DENSITY POROSITY (LIMESTONE)
NPHI.V/V      00 330 00 00         : PHIN         - NEUTRON POROSITY (LIMESTONE)
GR  .API      00 310 00 00         : GR           - GAMMA RAY
~PARAMETER INFORMATION
#MNEM.UNIT           DATA             DESCRIPTION OF MNEMONIC
#---------         -----------     ------------------------------
GL  .M        703.68               : gl           - GROUND LEVEL ELEVATION
EREF.M        702.89               : kb           - ELEVATION OF DEPTH REFERENCE
DATM.M        703.68               : datum        - DATUM ELEVATION
TDD .M        578                  : tdd          - TOTAL DEPTH DRILLER
RUN .         ONE                  : Run          - RUN NUMBER
ENG .         BILL                 : Engineer     - RECORDING ENGINEER
WIT .         JIM                  : Witness      - WITNESSED BY
MUD .         GEL                  : Mud_type     - MUD TYPE
MATR.         LIMESTONE            : Logunit      - NEUTRON MATRIX
TMAX.C        17                   : BHT          - MAXIMUM RECORDED TEMPERATURE
BHTD.M        578                  : BHTDEP       - MAXIMUM RECORDED TEMPERATURE
MATR.         1                    : LOGUNIT      - NEUTRON MATRIX
RMT .C        25                   : MDTP         - TEMPERATURE OF MUD
NEUT.         1                    : NEUTRON      - NEUTRON TYPE
RESI.         0                    : RESIST       - RESISTIVITY TYPE
RMC .OHMM     0.25                 : RMC          - RESISTIVITY OF MUD CAKE
RMF .OHMM     0.25                 : RMF          - RESISTIVITY OF MUD FILTRATE
SUFT.C        15                   : SUFT         - SURFACE TEMPERATURE
~A  DEPTH     RESD     PHID     PHIN       GR
  315.000    4.159    0.376    1.023   86.492
  315.250    4.081    0.364    0.566   87.096
  315.500    4.003    0.343    0.572   87.700
  315.750    4.074    0.355    0.584   86.489
  316.000    4.147    0.347    0.590   85.278
  316.250    4.222    0.338    0.596   86.487
  316.500    4.298    0.342    0.595   88.906
  316.750    4.456    0.324    0.593   84.671
  317.000    4.536    0.318    0.593   81.041
  317.250    4.619    0.327    0.599   79.831
  317.500    4.614    0.367    0.604   85.273
  317.750    4.611    0.384    0.583   88.297
  318.000    4.606    0.332    0.567   90.716
  318.250    4.604    0.316    0.577   93.134
  318.500    4.599    0.320    0.583   93.738
  318.750    4.682    0.287    0.588   92.527
  319.000    4.679    0.274    0.590   91.922
  319.250    4.763    0.308    0.586   91.921
  319.500    4.761    0.327    0.590   93.130
  319.750    4.845    0.325    0.594   93.129
  320.000    4.842    0.337    0.586   95.548
  320.250    5.020    0.310    0.571   97.361
  320.500    5.205    0.314    0.560   97.965
  320.750    5.299    0.320    0.552   99.174
  321.000    5.700    0.301    0.559   98.569
  321.250    5.802    0.289    0.553   97.963
  321.500    5.907    0.301    0.543   99.777
  321.750    6.014    0.312    0.530  100.986
  322.000    6.122    0.304    0.526   99.170
  322.250    6.119    0.310    0.520   96.750
  322.500    6.226    0.298    0.526   96.144
  322.750    6.109    0.298    0.537   97.353
  323.000    5.993    0.285    0.554   97.957
  323.250    5.879    0.277    0.569   97.956
  323.500    5.659    0.295    0.570   97.351
  323.750    5.552    0.303    0.588   95.535
  324.000    5.446    0.308    0.593   94.930
  324.250    5.343    0.297    0.572   96.139
  324.500    5.338    0.292    0.572   98.557
  324.750    5.435    0.280    0.582   99.161
  325.000    5.740    0.277    0.551   97.346
  325.250    5.950    0.294    0.529   97.950
  325.500    5.946    0.305    0.518   98.554
  325.750    5.833    0.301    0.502   97.343
  326.000    5.723    0.297    0.520   96.133
  326.250    5.511    0.302    0.518   95.527
  326.500    5.306    0.297    0.502   94.317
  326.750    5.206    0.284    0.514   93.106
  327.000    5.298    0.266    0.525   92.501
  327.250    6.255    0.251    0.530   84.637
  327.500    8.723    0.223    0.342   71.935
  327.750   16.976    0.222    0.106   53.789
  328.000   48.739    0.336    0.079   39.877
  328.250  102.137    0.389    0.061   32.618
  328.500  100.154    0.416    0.088   28.988
  328.750   98.227    0.445    0.101   27.173
  329.000   96.361    0.417    0.116   28.381
  329.250   96.316    0.399    0.124   28.985
  329.500   98.019    0.386    0.131   30.799
  329.750   97.978    0.383    0.142   32.613
  330.000   97.888    0.394    0.152   33.217
  330.250  101.509    0.382    0.168   33.216
  330.500  103.352    0.385    0.180   32.006
  330.750  107.158    0.386    0.188   32.609
  331.000  113.190    0.380    0.193   32.609
  331.250  117.368    0.387    0.188   32.003
  331.500  123.995    0.385    0.187   30.188
  331.750  128.564    0.382    0.188   28.373
  332.000  130.879    0.381    0.180   28.977
  332.250  135.694    0.382    0.173   30.790
  332.500  135.570    0.399    0.168   30.185
  332.750  135.491    0.403    0.163   30.788
  333.000  132.918    0.381    0.163   31.392
  333.250  130.375    0.379    0.168   31.996
  333.500  130.248    0.373    0.169   32.600
  333.750  132.612    0.379    0.167   32.599
  334.000  137.483    0.384    0.169   33.204
  334.250  137.391    0.390    0.173   33.203
  334.500  137.329    0.388    0.184   33.202
  334.750  125.076    0.392    0.190   33.201
  335.000  118.244    0.375    0.198   33.805
  335.250  107.702    0.365    0.216   34.409
  335.500   99.924    0.359    0.228   35.014
  335.750   92.709    0.363    0.237   36.222
  336.000   90.964    0.350    0.245   39.246
  336.250   87.583    0.351    0.232   38.640
  336.500   84.358    0.353    0.227   37.429
  336.750   74.034    0.350    0.213   37.429
  337.000   68.702    0.376    0.205   37.428
  337.250   62.579    0.391    0.235   37.427
  337.500   51.017    0.368    0.255   39.241
  337.750   37.213    0.368    0.266   39.240
  338.000   28.167    0.382    0.279   40.449
  338.250   22.959    0.364    0.305   42.263
  338.500   22.108    0.363    0.367   44.076
  338.750   20.509    0.375    0.399   42.866
  339.000   20.120    0.358    0.363   38.026
  339.250   20.108    0.333    0.355   34.397
  339.500   20.092    0.321    0.368   33.791
  339.750   19.698    0.317    0.375   32.580
  340.000   19.689    0.327    0.367   30.765
  340.250   19.318    0.317    0.373   28.345
  340.500   19.305    0.324    0.375   27.134
  340.750   18.932    0.334    0.363   27.134
  341.000   18.573    0.324    0.357   29.552
  341.250   17.881    0.311    0.351   32.575
  341.500   16.906    0.311    0.373   36.203
  341.750   15.977    0.295    0.397   39.227
  342.000   15.107    0.292    0.402   43.460
  342.250   14.017    0.303    0.398   49.508
  342.500   14.269    0.307    0.398   52.531
  342.750   14.526    0.294    0.413   53.135
  343.000   14.512    0.294    0.409   48.900
  343.250   13.718    0.288    0.420   52.529
  343.500   12.498    0.275    0.420   62.205
  343.750   11.174    0.263    0.415   71.882
  344.000   10.367    0.250    0.406   77.324
  344.250    9.982    0.233    0.424   87.001
  344.500   10.165    0.209    0.438   87.000
  344.750   10.935    0.203    0.425   74.902
  345.000   11.341    0.240    0.435   70.668
  345.250   12.428    0.278    0.424   64.014
  345.500   12.892    0.297    0.415   62.199
  345.750   13.618    0.277    0.401   59.779
  346.000   13.862    0.282    0.415   59.778
  346.250   12.624    0.286    0.447   70.059
  346.500   11.079    0.277    0.465   80.340
  346.750    9.909    0.240    0.476   90.622
  347.000    8.700    0.202    0.493  102.718
  347.250    7.089    0.180    0.489  102.717
  347.500    6.457    0.152    0.484  102.111
  347.750    6.220    0.203    0.501  109.368
  348.000    5.560    0.221    0.520  115.416
  348.250    5.160    0.247    0.528  120.254
  348.500    4.788    0.249    0.534  120.253
  348.750    4.527    0.260    0.540  122.672
  349.000    4.200    0.265    0.538  125.090
  349.250    3.971    0.286    0.546  126.299
  349.500    3.684    0.272    0.566  125.088
  349.750    3.547    0.263    0.573  124.483
  350.000    3.480    0.282    0.551  122.063
  350.250    3.744    0.294    0.533  118.433
  350.500    4.339    0.299    0.515  115.408
  350.750    5.217    0.286    0.515  111.173
  351.000    6.158    0.270    0.494  102.704
  351.250    6.878    0.254    0.482   97.865
  351.500    8.424    0.260    0.460   93.026
  351.750    9.233    0.245    0.436   86.372
  352.000    9.755    0.240    0.423   82.742
  352.250   10.117    0.230    0.413   80.927
  352.500   10.108    0.235    0.416   80.926
  352.750    9.914    0.245    0.419   81.530
  353.000    9.545    0.234    0.413   82.739
  353.250    9.541    0.218    0.406   81.528
  353.500    9.358    0.234    0.407   79.713
  353.750    9.705    0.225    0.413   73.059
  354.000   10.441    0.213    0.418   64.590
  354.250   10.829    0.212    0.410   55.517
  354.500   11.435    0.234    0.401   49.468
  354.750   11.643    0.264    0.393   44.023
  355.000   11.850    0.290    0.400   39.184
  355.250   11.844    0.311    0.406   34.949
  355.500   11.832    0.314    0.418   35.553
  355.750   11.827    0.303    0.418   37.972
  356.000   11.817    0.313    0.419   39.181
  356.250   11.592    0.320    0.419   41.599
  356.500   11.371    0.334    0.417   42.203
  356.750   10.948    0.348    0.430   40.388
  357.000   10.739    0.353    0.431   42.806
  357.250   10.343    0.333    0.431   48.249
  357.500   10.144    0.310    0.454   54.297
  357.750    9.950    0.286    0.451   63.368
  358.000    9.759    0.267    0.459   68.206
  358.250    9.754    0.259    0.475   67.601
