~VERSION INFORMATION
 VERS.                 2.0:   CWLS LOG ASCII STANDARD -VERSION 2.0
 WRAP.                  NO:   ONE LINE PER DEPTH STEP
~WELL INFORMATION BLOCK
#MNEM.UNIT           DATA                    DESCRIPTION OF MNEMONIC
#---------    -------------------            -------------------------------
# Generated from Intellog Unique Number	CW_73_75/WELL/3516
WELL.         1CGR MAXUS KELLY               : Well_name    - WELL
LOC .         00/02-01-073-19W4/0            : Location     - LOCATION
UWI .         00/02-01-073-19W4/0            : Uwi          - UNIQUE WELL ID
ENTR.         TIM                            : Entered      - ENTERED BY
SRVC.         SCHLUMBERGER                   : Scn          - SERVICE COMPANY
STRT.M        325                            : top_depth    - START DEPTH
STOP.M        555                            : bot_depth    - STOP DEPTH
STEP.M        0.25                           : increment    - STEP LENGTH
 NULL. -999.2500:NULL Value
~CURVE INFORMATION BLOCK
#MNEM UNIT       ERCB CURVE CODE    CURVE DESCRIPTION
#-----------   ------------------   ----------------------------------
DEPT.M        00 001 00 00         : DEPTH        - DEPTH
ILD .OHMM     00 120 00 00         : RESD         - DEEP RESISTIVITY (DIL)
DPHI.V/V      00 890 00 00         : PHID         - DENSITY POROSITY (SANDSTONE)
NPHI.V/V      00 330 00 00         : PHIN         - NEUTRON POROSITY (SANDSTONE)
CALI.MM       00 280 01 00         : CAL          - CALIPER
GR  .API      00 310 00 00         : GR           - GAMMA RAY
~PARAMETER INFORMATION
#MNEM.UNIT           DATA             DESCRIPTION OF MNEMONIC
#---------         -----------     ------------------------------
GL  .M        631.8                : gl           - GROUND LEVEL ELEVATION
EREF.M        635.6                : kb           - ELEVATION OF DEPTH REFERENCE
DATM.M        635.6                : datum        - DATUM ELEVATION
TDD .M        509                  : tdd          - TOTAL DEPTH DRILLER
RUN .         ONE                  : Run          - RUN NUMBER
ENG .         BILL                 : Engineer     - RECORDING ENGINEER
WIT .         JIM                  : Witness      - WITNESSED BY
MUD .         GEL                  : Mud_type     - MUD TYPE
MATR.         SANDSTONE            : Logunit      - NEUTRON MATRIX
TMAX.C        22                   : BHT          - MAXIMUM RECORDED TEMPERATURE
BHTD.M        509                  : BHTDEP       - MAXIMUM RECORDED TEMPERATURE
RMT .C        15                   : MDTP         - TEMPERATURE OF MUD
MUDD.KG/M     1090                 : MWT          - MUD DENSITY
NEUT.         1                    : NEUTRON      - NEUTRON TYPE
RESI.         0                    : RESIST       - RESISTIVITY TYPE
RM  .OHMM     3.11                 : RM           - RESISTIVITY OF MUD
RMC .OHMM     3.5                  : RMC          - RESISTIVITY OF MUD CAKE
RMF .OHMM     3.2                  : RMF          - RESISTIVITY OF MUD FILTRATE
SUFT.C        4                    : SUFT         - SURFACE TEMPERATURE
~A  DEPTH     RESD     PHID     PHIN      CAL       GR
  325.000    2.971    0.234    0.452  163.605  101.149
  325.250    2.977    0.256    0.460  164.658   89.596
  325.500    3.043    0.270    0.471  165.720   82.916
  325.750    3.110    0.283    0.479  166.754   80.507
  326.000    3.235    0.354    0.482  167.825   86.007
  326.250    3.432    0.376    0.481  168.859   93.950
  326.500    3.568    0.393    0.477  166.884   97.018
  326.750    3.783    0.415    0.472  163.875   93.994
  327.000    4.012    0.328    0.457  160.857   82.441
  327.250    4.503    0.282    0.444  157.838   75.152
  327.500    4.957    0.295    0.428  154.829   67.863
  327.750    5.256    0.318    0.416  153.851   64.839
  328.000    5.474    0.333    0.413  154.922   81.926
  328.250    5.591    0.345    0.417  154.941   77.678
  328.500    5.505    0.337    0.429  154.988   69.171
  328.750    5.417    0.317    0.435  154.019   72.240
  329.000    5.330    0.237    0.392  154.047   84.453
  329.250    5.347    0.195    0.390  153.087   71.675
  329.500    5.458    0.282    0.397  153.115   52.816
  329.750    5.572    0.310    0.413  153.143   60.144
  330.000    5.695    0.285    0.415  153.180   72.357
  330.250    5.604    0.265    0.404  153.226   84.564
  330.500    5.311    0.269    0.392  153.254   85.811
  330.750    5.034    0.273    0.397  153.292   85.828
  331.000    4.861    0.266    0.408  153.329   91.339
  331.250    4.608    0.239    0.420  154.409   89.533
  331.500    4.450    0.211    0.420  155.453   95.034
  331.750    4.458    0.261    0.414  156.496   97.493
  332.000    4.557    0.269    0.408  157.539   90.813
  332.250    4.652    0.259    0.403  157.595   85.967
  332.500    4.755    0.252    0.394  157.623   90.858
  332.750    4.945    0.243    0.391  156.645  101.853
  333.000    5.554    0.239    0.383  155.667  100.047
  333.250    5.889    0.235    0.380  154.689   93.977
  333.500    6.241    0.234    0.378  153.720   86.079
  333.750    6.257    0.238    0.380  152.732   87.929
  334.000    6.273    0.251    0.384  153.803   95.263
  334.250    6.062    0.255    0.389  154.847   93.457
  334.500    5.749    0.264    0.396  154.893   86.174
  334.750    5.545    0.280    0.387  154.921   82.535
  335.000    5.259    0.294    0.367  154.958   75.855
  335.250    5.075    0.293    0.372  153.971   66.744
  335.500    4.904    0.289    0.370  153.011   63.715
  335.750    4.739    0.288    0.356  153.039   43.626
  336.000    4.745    0.299    0.341  152.061   33.290
  336.250    4.757    0.310    0.340  154.129   23.570
  336.500    4.769    0.305    0.346  155.182   22.983
  336.750    4.878    0.288    0.356  156.225   35.800
  337.000    4.980    0.271    0.372  156.262   54.710
  337.250    5.087    0.277    0.378  155.284   70.573
  337.500    5.106    0.284    0.383  154.306   79.125
  337.750    5.024    0.293    0.385  155.368  109.616
  338.000    4.937    0.302    0.393  156.420  102.327
  338.250    4.685    0.309    0.400  157.492   88.946
  338.500    4.522    0.313    0.413  157.510   81.048
  338.750    4.209    0.315    0.429  159.578   79.851
  339.000    4.060    0.306    0.427  162.671   85.966
  339.250    3.850    0.227    0.494  164.739   95.737
  339.500    3.582    0.199    0.506  166.808  102.461
  339.750    3.522    0.202    0.523  168.876  100.052
  340.000    3.276    0.209    0.542  170.944   98.247
  340.250    3.166    0.213    0.532  173.012  107.402
  340.500    3.001    0.219    0.516  175.080  115.351
  340.750    2.953    0.232    0.505  177.148  117.810
  341.000    2.853    0.256    0.504  178.201  120.884
  341.250    2.857    0.265    0.512  181.303  122.729
  341.500    2.811    0.241    0.522  182.337  123.970
  341.750    2.818    0.104    0.527  183.390  120.337
  342.000    2.933    0.154    0.506  181.405  109.392
  342.250    3.169    0.209    0.473  179.402  110.024
  342.500    3.426    0.322    0.438  176.393  114.311
  342.750    3.702    0.238    0.416  175.424  112.505
  343.000    3.999    0.244    0.412  173.440  107.654
  343.250    4.321    0.259    0.415  173.468  101.583
  343.500    4.497    0.260    0.427  173.496   96.128
  343.750    5.047    0.262    0.453  175.573   97.369
  344.000    5.253    0.270    0.447  175.620   95.563
  344.250    5.270    0.253    0.414  175.648   91.936
  344.500    5.283    0.225    0.403  173.654   90.728
  344.750    5.499    0.229    0.400  171.660   88.928
  345.000    5.834    0.257    0.402  169.657   90.773
  345.250    6.179    0.262    0.412  167.664   92.014
  345.500    6.806    0.274    0.436  165.670   89.605
  345.750    7.639    0.288    0.451  163.676   87.793
  346.000    8.096    0.300    0.449  161.692   84.775
  346.250    8.912    0.307    0.442  159.708   84.183
  346.500    9.635    0.273    0.435  158.720   87.861
  346.750   10.416    0.242    0.424  157.760   90.326
  347.000   10.841    0.258    0.412  157.779   82.422
  347.250   10.085    0.278    0.399  156.810  102.555
  347.500    9.037    0.261    0.381  155.841  116.591
  347.750    8.098    0.245    0.372  155.860  114.176
  348.000    7.675    0.275    0.375  156.922   94.093
  348.250    7.988    0.293    0.392  157.974   87.413
  348.500    8.788    0.325    0.443  159.027   78.296
  348.750    9.674    0.327    0.455  160.080   69.185
  349.000   10.459    0.314    0.453  161.132   72.858
  349.250   10.684    0.292    0.442  161.170   77.754
  349.500    9.932    0.282    0.432  161.207   78.995
  349.750    8.573    0.289    0.418  162.250   75.367
  350.000    7.129    0.292    0.423  162.287   80.264
  350.250    6.153    0.282    0.424  163.340   85.155
  350.500    5.412    0.267    0.426  163.377   89.448
  350.750    5.034    0.256    0.422  164.430   87.642
  351.000    5.047    0.248    0.417  164.467   87.664
  351.250    5.259    0.255    0.416  164.514   92.561
  351.500    5.273    0.260    0.413  162.529  101.113
  351.750    5.279    0.268    0.412  161.542  107.837
  352.000    5.293    0.270    0.408  158.542  115.780
  352.250    5.214    0.255    0.406  156.548  121.895
  352.500    5.221    0.250    0.414  154.564  128.619
  352.750    5.140    0.259    0.422  154.592  136.568
  353.000    5.058    0.271    0.428  155.635  129.273
  353.250    5.068    0.255    0.400  159.744  101.878
  353.500    5.176    0.235    0.389  162.818   81.795
  353.750    5.391    0.221    0.376  165.920   79.990
  354.000    5.618    0.219    0.362  167.988   86.105
  354.250    5.625    0.214    0.369  169.031   96.484
  354.500    5.435    0.212    0.416  170.084  100.772
  354.750    5.246    0.218    0.432  171.137  103.846
  355.000    4.792    0.222    0.439  171.174  106.305
  355.250    4.539    0.213    0.442  171.221  111.202
  355.500    4.065    0.205    0.448  171.248  117.317
  355.750    3.784    0.230    0.461  169.264  119.782
  356.000    3.457    0.264    0.481  167.261  113.096
  356.250    3.397    0.280    0.490  165.277  100.324
  356.500    3.281    0.300    0.454  164.289   93.650
  356.750    3.351    0.260    0.428  163.330   90.621
  357.000    3.628    0.269    0.412  162.342   86.384
  357.250    4.066    0.291    0.417  160.348   81.532
  357.500    4.558    0.302    0.422  159.370   79.721
  357.750    5.317    0.311    0.418  159.398   76.093
  358.000    5.324    0.316    0.417  157.414   77.329
  358.250    5.442    0.310    0.417  157.442   81.616
  358.500    5.452    0.303    0.417  156.463   88.949
  358.750    5.466    0.293    0.421  155.485   91.409
  359.000    5.285    0.289    0.430  155.522   85.948
  359.250    5.101    0.288    0.451  154.544   79.268
  359.500    4.657    0.289    0.470  154.591   78.681
  359.750    4.332    0.296    0.487  154.619   84.187
  360.000    4.425    0.308    0.482  154.665   91.520
  360.250    4.606    0.318    0.464  155.718   84.237
  360.500    4.702    0.332    0.454  155.746   90.961
  360.750    5.086    0.340    0.439  155.792   84.276
  361.000    5.189    0.336    0.432  155.829   71.504
  361.250    5.513    0.333    0.430  155.867   73.963
