~VERSION INFORMATION
 VERS.                 2.0:   CWLS LOG ASCII STANDARD -VERSION 2.0
 WRAP.                  NO:   ONE LINE PER DEPTH STEP
~WELL INFORMATION BLOCK
#MNEM.UNIT           DATA                    DESCRIPTION OF MNEMONIC
#---------    -------------------            -------------------------------
# Generated from Intellog Unique Number	CS_73_76/WELL/2166
WELL.         BOW VALLEY INDUSTRIES LTD.     : Well_name    - WELL
LOC .         00/06-23-074-14W4/0            : Location     - LOCATION
UWI .         00/06-23-074-14W4/0            : Uwi          - UNIQUE WELL ID
ENTR.         SP                             : Entered      - ENTERED BY
SRVC.         SCHLUMBERGER                   : Scn          - SERVICE COMPANY
STRT.M        410                            : top_depth    - START DEPTH
STOP.M        625                            : bot_depth    - STOP DEPTH
STEP.M        0.25                           : increment    - STEP LENGTH
 NULL. -999.2500:NULL Value
~CURVE INFORMATION BLOCK
#MNEM UNIT       ERCB CURVE CODE    CURVE DESCRIPTION
#-----------   ------------------   ----------------------------------
DEPT.M        00 001 00 00         : DEPTH        - DEPTH
GR  .API      00 310 00 00         : GR           - GAMMA RAY
NPHI.V/V      00 330 00 00         : PHIN         - NEUTRON POROSITY (LIMESTONE)
ILD .OHMM     00 120 00 00         : RESD         - DEEP RESISTIVITY (DIL)
DPHI.V/V      00 890 00 00         : PHID         - DENSITY POROSITY (LIMESTONE)
~PARAMETER INFORMATION
#MNEM.UNIT           DATA             DESCRIPTION OF MNEMONIC
#---------         -----------     ------------------------------
GL  .M        770.81               : gl           - GROUND LEVEL ELEVATION
EREF.M        774.16               : kb           - ELEVATION OF DEPTH REFERENCE
DATM.M        770.81               : datum        - DATUM ELEVATION
TDD .M        626                  : tdd          - TOTAL DEPTH DRILLER
RUN .         ONE                  : Run          - RUN NUMBER
ENG .         BILL                 : Engineer     - RECORDING ENGINEER
WIT .         JIM                  : Witness      - WITNESSED BY
MUD .         GEL                  : Mud_type     - MUD TYPE
MATR.         LIMESTONE            : Logunit      - NEUTRON MATRIX
TMAX.C        22                   : BHT          - MAXIMUM RECORDED TEMPERATURE
BHTD.M        626                  : BHTDEP       - MAXIMUM RECORDED TEMPERATURE
MATR.         1                    : LOGUNIT      - NEUTRON MATRIX
RMT .C        25                   : MDTP         - TEMPERATURE OF MUD
NEUT.         1                    : NEUTRON      - NEUTRON TYPE
RESI.         0                    : RESIST       - RESISTIVITY TYPE
RMC .OHMM     0.25                 : RMC          - RESISTIVITY OF MUD CAKE
RMF .OHMM     0.25                 : RMF          - RESISTIVITY OF MUD FILTRATE
SUFT.C        15                   : SUFT         - SURFACE TEMPERATURE
~A  DEPTH       GR     PHIN     RESD     PHID
# ...
  497.000   73.287    0.451    7.272    0.258
  497.250   78.773    0.442    7.004    0.219
  497.500   83.040    0.451    6.874    0.203
  497.750   84.259    0.458    6.745    0.217
  498.000   86.086    0.463    6.498    0.217
  498.250   85.475    0.465    5.920    0.211
  498.500   86.084    0.464    5.599    0.188
  498.750   88.521    0.480    5.294    0.205
  499.000   90.959    0.491    5.100    0.212
  499.250   92.787    0.498    4.822    0.211
  499.500   91.566    0.497    4.733    0.189
  499.750   90.345    0.488    4.475    0.192
  500.000   90.953    0.493    4.311    0.198
  500.250   92.171    0.493    4.153    0.184
  500.500   93.389    0.502    3.855    0.191
  500.750   94.607    0.506    3.578    0.193
  501.000   95.826    0.504    3.142    0.198
  501.250   97.044    0.519    2.708    0.214
  501.500   98.261    0.531    2.335    0.221
  501.750   97.040    0.545    1.976    0.229
  502.000   95.210    0.531    2.166    0.232
  502.250   95.819    0.515    2.511    0.233
  502.500   95.817    0.502    2.754    0.224
  502.750   96.425    0.506    3.076    0.217
  503.000   95.814    0.513    3.251    0.226
  503.250   93.983    0.504    3.074    0.235
  503.500   92.153    0.491    3.017    0.255
  503.750   88.493    0.502    2.906    0.256
  504.000   83.613    0.527    3.246    0.267
  504.250   80.563    0.526    3.560    0.279
  504.500   77.513    0.481    4.127    0.294
  504.750   86.658    0.460    4.443    0.274
  505.000   90.925    0.486    3.901    0.252
  505.250   94.582    0.516    3.181    0.234
  505.500   97.019    0.542    2.742    0.235
  505.750   95.799    0.561    2.408    0.251
  506.000   90.919    0.551    2.452    0.272
  506.250   85.430    0.493    3.005    0.286
  506.500   80.551    0.453    3.751    0.300
  506.750   79.939    0.453    4.950    0.259
  507.000   78.109    0.460    6.066    0.239
  507.250   73.839    0.464    6.777    0.210
  507.500   73.838    0.467    8.943    0.113
  507.750   68.348    0.331   10.960    0.018
  508.000   64.689    0.219   15.576    0.000
  508.250   61.639    0.168   19.087    0.000
  508.500   58.588    0.171   20.547    0.003
  508.750   60.416    0.218   18.380    0.040
  509.000   63.463    0.321   14.443    0.180
  509.250   66.511    0.399   10.734    0.234
  509.500   69.558    0.450    8.917    0.263
  509.750   70.776    0.481    7.546    0.271
  510.000   70.165    0.485    6.875    0.276
  510.250   69.553    0.486    6.622    0.289
  510.500   68.942    0.497    6.499    0.294
  510.750   68.941    0.491    6.145    0.305
  511.000   69.549    0.474    6.144    0.309
  511.250   70.158    0.474    6.029    0.309
  511.500   71.375    0.465    5.915    0.307
  511.750   71.984    0.469    5.805    0.295
  512.000   73.202    0.478    5.697    0.301
  512.250   73.811    0.474    5.694    0.295
  512.500   73.809    0.465    5.692    0.283
  512.750   72.588    0.459    5.585    0.280
  513.000   71.368    0.456    5.584    0.283
  513.250   70.147    0.458    5.581    0.287
  513.500   75.023    0.462    5.580    0.295
  513.750   77.461    0.463    5.682    0.284
  514.000   75.630    0.464    5.680    0.277
  514.250   76.848    0.462    5.677    0.287
  514.500   78.676    0.458    5.675    0.277
  514.750   81.113    0.463    5.674    0.271
  515.000   82.331    0.469    5.672    0.242
  515.250   82.940    0.463    5.669    0.209
  515.500   82.938    0.457    5.667    0.197
  515.750   81.718    0.448    5.666    0.202
  516.000   78.667    0.440    5.664    0.198
  516.250   77.447    0.433    5.660    0.204
  516.500   80.493    0.429    5.659    0.207
  516.750   82.322    0.428    5.658    0.204
  517.000   82.320    0.444    5.760    0.212
  517.250   81.709    0.455    5.759    0.213
  517.500   82.317    0.448    5.973    0.194
  517.750   82.316    0.441    5.971    0.181
  518.000   84.143    0.438    6.080    0.196
  518.250   84.142    0.445    6.078    0.220
  518.500   84.140    0.459    6.076    0.250
  518.750   84.140    0.476    5.963    0.253
  519.000   82.919    0.487    5.961    0.240
  519.250   83.527    0.495    5.849    0.221
  519.500   82.306    0.493    5.740    0.227
  519.750   84.134    0.490    5.633    0.238
  520.000   84.742    0.467    5.426    0.229
  520.250   85.350    0.458    5.226    0.228
  520.500   85.349    0.455    5.129    0.212
  520.750   85.957    0.457    5.223    0.192
  521.000   85.346    0.461    5.318    0.197
  521.250   85.954    0.453    5.416    0.212
  521.500   85.953    0.436    5.618    0.218
  521.750   85.952    0.429    5.721    0.223
  522.000   84.121    0.434    5.935    0.228
  522.250   82.290    0.446    5.933    0.232
  522.500   81.680    0.458    5.931    0.224
  522.750   83.507    0.453    5.928    0.213
  523.000   87.165    0.452    5.818    0.212
  523.250   89.602    0.456    5.604    0.232
  523.500   87.162    0.458    5.399    0.235
  523.750   85.331    0.467    5.397    0.242
  524.000   84.719    0.467    5.496    0.223
  524.250   83.499    0.447    5.916    0.184
  524.500   79.229    0.453    6.608    0.144
  524.750   73.130    0.458    7.660    0.000
  525.000   65.202    0.338    8.718    0.000
  525.250   54.835    0.211    9.561    0.102
  525.500   56.663    0.236    9.918    0.148
  525.750   65.198    0.272    8.391    0.188
  526.000   68.855    0.312    7.369    0.218
  526.250   75.561    0.359    6.352    0.234
  526.500   78.608    0.413    5.788    0.253
  526.750   79.217    0.444    5.575    0.250
  527.000   79.215    0.449    5.573    0.252
  527.250   78.604    0.447    5.469    0.257
  527.500   78.602    0.444    5.467    0.265
  527.750   79.211    0.439    5.464    0.271
  528.000   79.818    0.432    5.565    0.264
  528.250   79.817    0.435    5.563    0.273
  528.500   79.816    0.447    5.561    0.280
  528.750   79.205    0.457    5.560    0.281
  529.000   78.594    0.456    5.558    0.271
  529.250   77.373    0.450    5.556    0.279
  529.500   77.371    0.457    5.657    0.270
  529.750   77.979    0.467    5.655    0.282
  530.000   78.588    0.462    5.653    0.268
  530.250   79.806    0.453    5.756    0.268
  530.500   81.025    0.446    5.754    0.274
  530.750   79.803    0.447    5.751    0.263
  531.000   78.583    0.452    5.749    0.253
  531.250   78.581    0.461    5.747    0.251
  531.500   79.799    0.469    5.852    0.253
  531.750   79.188    0.460    5.851    0.259
  532.000   79.796    0.449    5.332    0.261
  532.250   81.624    0.457    4.037    0.245
  532.500   84.062    0.475    3.354    0.228
  532.750   88.329    0.503    2.838    0.244
  533.000   91.986    0.515    2.539    0.244
  533.250   94.423    0.537    2.445    0.244
  533.500   94.422    0.546    2.490    0.242
  533.750   95.640    0.534    2.536    0.227
  534.000   96.858    0.513    2.630    0.224
  534.250   96.247    0.508    2.885    0.220
  534.500   93.806    0.496    3.344    0.206
  534.750   92.585    0.481    3.948    0.222
  535.000   91.974    0.473    4.251    0.222
  535.250   91.363    0.466    4.492    0.193
  535.500   91.362    0.478    4.747    0.194
  535.750   89.531    0.481    4.834    0.214
  536.000   89.530    0.464    4.656    0.229
  536.250   88.309    0.472    4.654    0.230
  536.500   86.478    0.478    4.568    0.233
  536.750   84.647    0.463    4.482    0.215
  537.000   85.255    0.466    4.481    0.208
  537.250   84.644    0.483    4.396    0.210
  537.500   84.033    0.480    4.394    0.237
  537.750   82.203    0.454    4.393    0.244
  538.000   79.152    0.449    4.473    0.247
  538.250   76.712    0.450    4.472    0.249
  538.500   74.272    0.452    4.554    0.233
  538.750   72.441    0.449    4.813    0.206
  539.000   73.049    0.443    5.086    0.241
  539.250   76.097    0.438    5.275    0.257
  539.500   79.144    0.435    5.372    0.262
  539.750   82.191    0.431    5.370    0.246
  540.000   84.019    0.441    5.269    0.216
  540.250   84.628    0.451    5.268    0.204
