~VERSION INFORMATION
 VERS.                 2.0:   CWLS LOG ASCII STANDARD -VERSION 2.0
 WRAP.                  NO:   ONE LINE PER DEPTH STEP
~WELL INFORMATION BLOCK
#MNEM.UNIT           DATA                    DESCRIPTION OF MNEMONIC
#---------    -------------------            -------------------------------
# Generated from Intellog Unique Number	CC_80_83/WELL/2297
NULL.         -999.25                        : NULL_VALUE
WELL.         CWWE HANGST                    : Well_name    - WELL
LOC .         07-17-082-10W4                 : Location     - LOCATION          
UWI .         00/07-17-082-10W400            : Uwi          - UNIQUE WELL ID    
ENTR.         DW                             : Entered      - ENTERED BY        
SRVC.         SCHLUMBERGER                   : Scn          - SERVICE COMPANY   
DATE.         10 JAN 85                      : Date         - LOG DATE
STRT.M        250                            : top_depth    - START DEPTH       
STOP.M        474.991                        : bot_depth    - STOP DEPTH        
STEP.M        0.3                            : increment    - STEP LENGTH       
~CURVE INFORMATION BLOCK
#MNEM UNIT       ERCB CURVE CODE    CURVE DESCRIPTION
#-----------   ------------------   ----------------------------------
DEPT.M        00 001 00 00         : DEPTH        - DEPTH                       
DPHI.V/V      00 890 00 00         : PHID         - DENSITY POROSITY (LIMESTONE)
NPHI.V/V      00 330 00 00         : PHIN         - NEUTRON POROSITY (LIMESTONE)
GR  .API      00 310 00 00         : GR           - GAMMA RAY                   
ILD .OHMM     00 120 00 00         : RESD         - DEEP RESISTIVITY (DIL)      
~PARAMETER INFORMATION       
#MNEM.UNIT           DATA             DESCRIPTION OF MNEMONIC
#---------         -----------     ------------------------------
GL  .M        701.6                : gl           - GROUND LEVEL ELEVATION      
EREF.M        705.7                : kb           - ELEVATION OF DEPTH REFERENCE
DATM.M        705.7                : datum        - DATUM ELEVATION             
TDD .M        477                  : tdd          - TOTAL DEPTH DRILLER         
RUN .         ONE                  : Run          - RUN NUMBER                  
ENG .         BILL                 : Engineer     - RECORDING ENGINEER          
WIT .         JIM                  : Witness      - WITNESSED BY                
MUD .         GEL                  : Mud_type     - MUD TYPE                    
MATR.         LIMESTONE            : Logunit      - NEUTRON MATRIX              
TMAX.C        19                   : BHT          - MAXIMUM RECORDED TEMPERATURE
BHTD.M        479                  : BHTDEP       - MAXIMUM RECORDED TEMPERATURE
MATR.         1                    : LOGUNIT      - NEUTRON MATRIX              
RMT .C        25                   : MDTP         - TEMPERATURE OF MUD          
NEUT.         1                    : NEUTRON      - NEUTRON TYPE                
RESI.         0                    : RESIST       - RESISTIVITY TYPE            
RMC .OHMM     0.25                 : RMC          - RESISTIVITY OF MUD CAKE     
RMF .OHMM     0.25                 : RMF          - RESISTIVITY OF MUD FILTRATE 
SUFT.C        15                   : SUFT         - SURFACE TEMPERATURE         
~A  DEPTH     PHID     PHIN       GR     RESD
# ...
  302.198    0.355    0.487   56.539   13.920
  302.498    0.360    0.446   48.283   19.323
  302.798    0.361    0.404   45.718   23.433
  303.098    0.360    0.409   47.581   27.343
  303.398    0.361    0.412   48.179   27.873
  303.698    0.361    0.412   47.506   27.340
  303.998    0.351    0.429   52.527   25.307
  304.298    0.348    0.438   51.870   24.822
  304.598    0.346    0.438   46.770   24.821
  304.898    0.346    0.423   50.528   24.819
  305.198    0.359    0.436   49.856   25.794
  305.498    0.358    0.426   47.293   27.330
  305.798    0.358    0.430   45.995   28.404
  306.098    0.362    0.431   46.596   31.278
  306.398    0.362    0.406   47.828   31.887
  306.698    0.357    0.407   47.163   31.275
  306.998    0.348    0.402   44.599   28.950
  307.298    0.357    0.386   45.197   28.395
  307.598    0.357    0.384   44.527   28.394
  307.898    0.356    0.418   44.492   29.510
  308.198    0.353    0.443   48.244   30.669
  308.498    0.348    0.396   50.119   30.667
  308.798    0.342    0.374   48.185   30.665
  309.098    0.342    0.370   44.345   29.502
  309.398    0.356    0.375   43.671   29.501
  309.698    0.363    0.406   45.550   30.074
  309.998    0.356    0.423   45.512   30.659
  310.298    0.345    0.407   46.112   31.254
  310.598    0.343    0.389   40.389   30.069
  310.898    0.360    0.386   43.505   27.834
  311.198    0.367    0.421   46.645   27.301
  311.498    0.364    0.430   51.668   26.266
  311.798    0.339    0.412   52.892   25.762
  312.098    0.303    0.385   52.228   26.263
  312.398    0.317    0.385   46.490   27.826
  312.698    0.342    0.391   46.462   30.642
  312.998    0.352    0.401   52.750   31.846
  313.298    0.352    0.404   53.349   30.639
  313.598    0.351    0.408   50.158   27.288
  313.898    0.357    0.414   49.485   24.777
  314.198    0.342    0.409   48.186   24.302
  314.498    0.342    0.403   44.992   24.774
  314.798    0.340    0.432   46.847   26.250
  315.098    0.181    0.431   46.821   30.044
  315.398    0.000    0.206   41.723   39.359
  315.698    0.006    0.133   34.733   83.523
  315.998    0.087    0.147   32.172   91.975
  316.298    0.222    0.254   38.459   74.384
  316.598    0.319    0.319   46.642   51.552
  316.898    0.360    0.350   50.408   33.719
  317.198    0.364    0.443   49.742   24.289
  317.498    0.359    0.464   50.334   20.814
  317.798    0.359    0.428   54.095   20.025
  318.098    0.363    0.435   53.431   20.023
  318.398    0.362    0.467   50.224   21.215
  318.698    0.360    0.480   52.098   21.627
  318.997    0.356    0.446   46.370   22.047
  319.297    0.354    0.430   47.597   22.046
  319.597    0.356    0.444   46.288   22.045
  319.897    0.357    0.452   46.252   22.044
  320.197    0.355    0.452   45.593   22.042
  320.497    0.352    0.450   45.564   22.041
  320.797    0.355    0.441   46.786   22.040
  321.097    0.358    0.442   45.485   22.468
  321.397    0.356    0.457   45.456   22.466
  321.697    0.355    0.431   46.679   22.465
  321.997    0.354    0.403   44.127   22.465
  322.297    0.348    0.448   42.186   22.901
  322.597    0.347    0.468   45.316   21.611
  322.897    0.334    0.444   48.445   21.197
  323.197    0.193    0.465   45.240   21.608
  323.497    0.000    0.479   41.412   22.458
  323.797    0.000    0.315   38.856   24.259
  324.097    0.001    0.109   36.277   55.609
  324.397    0.000    0.112   35.625   90.074
  324.697    0.000    0.113   37.484  125.033
  324.997    0.000    0.116   40.612  194.861
  325.297    0.004    0.114   39.318  187.470
  325.597    0.003    0.115   37.381  180.364
  325.897    0.009    0.113   41.774  166.956
  326.197    0.007    0.108   38.575  160.631
  326.497    0.000    0.104   34.735  145.849
  326.797    0.004    0.103   34.084  137.637
  327.097    0.026    0.114   37.210  137.631
  327.397    0.071    0.140   42.229  134.995
  327.697    0.155    0.169   42.834  115.678
  327.997    0.321    0.350   45.314   97.235
  328.297    0.347    0.450   48.445   47.618
  328.597    0.353    0.446   51.568   28.282
  328.897    0.353    0.433   52.799   23.318
  329.197    0.357    0.458   54.032   20.371
  329.497    0.362    0.458   52.110   18.856
  329.797    0.358    0.448   49.535   18.855
  330.097    0.348    0.447   48.872   18.855
  330.397    0.345    0.453   49.469   19.976
  330.697    0.346    0.453   51.970   20.761
  330.997    0.349    0.441   55.089   21.165
  331.297    0.337    0.427   56.956   20.362
  331.597    0.329    0.427   61.979   17.116
  331.897    0.332    0.469   57.519   15.540
  332.197    0.338    0.460   51.157   15.842
  332.497    0.339    0.437   48.591   18.132
  332.797    0.338    0.420   48.562   20.753
  333.097    0.330    0.420   57.382   22.417
  333.397    0.315    0.439   65.566   21.155
  333.697    0.314    0.440   67.415   18.841
  333.997    0.323    0.446   68.656   16.146
  334.297    0.328    0.431   66.083   14.946
  334.597    0.329    0.430   62.897   15.532
  334.897    0.317    0.478   59.695   16.143
  335.197    0.302    0.476   63.455   15.834
  335.497    0.313    0.448   65.321   14.657
  335.797    0.317    0.441   62.122   14.376
  336.097    0.308    0.439   58.920   14.940
  336.397    0.297    0.434   60.785   16.139
  336.697    0.306    0.496   60.121   17.432
  336.997    0.339    0.465   59.449   16.137
  337.297    0.325    0.437   61.953   14.371
  337.597    0.316    0.459   66.977   14.096
  337.897    0.311    0.466   59.974   14.096
  338.197    0.311    0.473   57.410   15.226
  338.497    0.314    0.479   60.542   17.426
  338.797    0.313    0.450   63.665   18.111
  339.097    0.315    0.432   62.998   19.944
  339.397    0.334    0.439   62.336   19.943
  339.697    0.339    0.444   61.035   18.460
  339.997    0.336    0.454   61.631   17.088
  340.297    0.329    0.469   64.761   17.420
  340.597    0.319    0.471   62.203   16.440
  340.897    0.316    0.457   72.280   15.218
  341.197    0.332    0.470   81.733   13.817
  341.497    0.308    0.492   88.648   12.306
  341.797    0.297    0.481   91.145   11.614
  342.097    0.310    0.458   87.951   10.545
  342.397    0.328    0.448   77.168    9.392
  342.697    0.308    0.465   73.340    9.036
  342.997    0.314    0.501   80.247    7.743
  343.297    0.305    0.522   80.838    6.635
  343.596    0.281    0.542   80.184    5.577
  343.896    0.277    0.566   81.411    5.162
  344.196    0.267    0.560   83.910    5.263
  344.496    0.268    0.503   88.935    6.141
  344.796    0.261    0.501   98.384    6.382
  345.096    0.269    0.513  105.931    4.778
  345.396    0.274    0.497  103.999    4.423
  345.696    0.265    0.467   95.751    4.174
  345.996    0.266    0.468   95.084    4.255
  346.296    0.279    0.500   96.306    4.422
  346.596    0.270    0.504   93.740    4.508
  346.896    0.273    0.490   93.077    4.422
  347.196    0.283    0.486   96.201    4.254
  347.496    0.279    0.499   98.697    4.014
  347.796    0.274    0.544   98.667    4.014
  348.096    0.277    0.561  101.160    3.862
  348.396    0.283    0.575  105.540    3.440
  348.696    0.288    0.585  105.513    2.729
  348.996    0.292    0.594   99.153    2.526
  349.296    0.302    0.575   97.224    2.676
  349.596    0.297    0.574   95.927    2.625
  349.896    0.291    0.584   97.158    2.575
  350.196    0.309    0.580   97.129    2.676
  350.496    0.322    0.542   92.658    2.890
  350.796    0.320    0.565   88.836    3.004
  351.096    0.298    0.568   85.633    3.245
  351.396    0.286    0.516   84.343    3.438
  351.696    0.308    0.450   80.500    3.643
  351.996    0.316    0.446   78.572    4.417
  352.296    0.307    0.461   77.918    5.568
  352.596    0.288    0.480   82.308    5.787
  352.896    0.283    0.495   84.793    5.154
  353.196    0.326    0.509   77.810    4.680
  353.496    0.342    0.513   72.086    4.590
  353.796    0.345    0.393   70.142    5.153
  354.096    0.331    0.387   70.114    7.434
