~VERSION INFORMATION
 VERS.                 2.0:   CWLS LOG ASCII STANDARD -VERSION 2.0
 WRAP.                  NO:   ONE LINE PER DEPTH STEP
~WELL INFORMATION BLOCK
#MNEM.UNIT           DATA                    DESCRIPTION OF MNEMONIC
#---------    -------------------            -------------------------------
# Generated from Intellog Unique Number	CW_76_78/WELL/2802
WELL.         NOVALTA PORTAGE 08-06          : Well_name    - WELL
LOC .         00/08-06-078-19W4/0            : Location     - LOCATION
UWI .         00/08-06-078-19W4/0            : Uwi          - UNIQUE WELL ID
ENTR.         JJ                             : Entered      - ENTERED BY
SRVC.         WESTERN ATLAS                  : Scn          - SERVICE COMPANY
DATE.         20 JAN 83                      : Date         - LOG DATE
STRT.M        287                            : top_depth    - START DEPTH
STOP.M        415                            : bot_depth    - STOP DEPTH
STEP.M        0.25                           : increment    - STEP LENGTH
 NULL. -999.2500:NULL Value
~CURVE INFORMATION BLOCK
#MNEM UNIT       ERCB CURVE CODE    CURVE DESCRIPTION
#-----------   ------------------   ----------------------------------
DEPT.M        00 001 00 00         : DEPTH        - DEPTH
DELT.US/F     00 520 00 00         : DELT         - SONIC TRAVEL TIME
GR  .API      00 310 00 00         : GR           - GAMMA RAY
CALI.MM       00 280 01 00         : CAL          - CALIPER
ILD .OHMM     00 120 00 00         : RESD         - DEEP RESISTIVITY (DIL)
~PARAMETER INFORMATION
#MNEM.UNIT           DATA             DESCRIPTION OF MNEMONIC
#---------         -----------     ------------------------------
GL  .M        562.4                : gl           - GROUND LEVEL ELEVATION
EREF.M        565.92               : kb           - ELEVATION OF DEPTH REFERENCE
DATM.M        562.4                : datum        - DATUM ELEVATION
TDD .M        460                  : tdd          - TOTAL DEPTH DRILLER
RUN .         ONE                  : Run          - RUN NUMBER
ENG .         ANTOLOVICH           : Engineer     - RECORDING ENGINEER
WIT .         RAGHEB               : Witness      - WITNESSED BY
BASE.         RED DEER             : Branch       - HOME BASE OF LOGGING UNIT
MUD .         GEL-CHEM             : Mud_type     - MUD TYPE
MATR.         SANDSTONE            : Logunit      - NEUTRON MATRIX
TMAX.C        24                   : BHT          - MAXIMUM RECORDED TEMPERATURE
BHTD.M        457.7                : BHTDEP       - MAXIMUM RECORDED TEMPERATURE
RMT .C        13                   : MDTP         - TEMPERATURE OF MUD
MUDD.KG/M     1060                 : MWT          - MUD DENSITY
NEUT.         1                    : NEUTRON      - NEUTRON TYPE
RESI.         0                    : RESIST       - RESISTIVITY TYPE
RM  .OHMM     5                    : RM           - RESISTIVITY OF MUD
RMC .OHMM     4.1                  : RMC          - RESISTIVITY OF MUD CAKE
RMF .OHMM     4.5                  : RMF          - RESISTIVITY OF MUD FILTRATE
SUFT.C        5                    : SUFT         - SURFACE TEMPERATURE
~A  DEPTH     DELT       GR      CAL     RESD
# ...
  330.500  410.744   83.797  191.706    6.856
  330.750  409.315   85.332  195.628    7.133
  331.000  409.935   87.621  198.600    7.380
  331.250  407.034   86.336  199.803    7.634
  331.500  403.560   83.229  199.744    7.854
  331.750  394.922   79.433  196.555    7.988
  332.000  392.757   77.077  192.838    8.065
  332.250  396.981   77.044  192.476    8.111
  332.500  399.810   77.703  195.346    8.173
  332.750  400.594   77.231  197.486    8.235
  333.000  400.971   76.693  197.217    8.314
  333.250  400.525   76.599  193.614    8.330
  333.500  400.326   77.634  188.644    8.394
  333.750  401.599   79.419  185.559    8.442
  334.000  403.202   77.944  189.162    8.474
  334.250  405.129   76.778  194.859    8.443
  334.500  406.324   78.631  200.126    8.349
  334.750  407.598   80.919  202.272    8.256
  335.000  409.119   81.758  202.536    8.195
  335.250  408.019   80.412  202.785    8.164
  335.500  405.691   79.184  203.258    8.088
  335.750  404.835   79.717  203.306    7.953
  336.000  407.012   81.063  203.352    7.879
  336.250  408.206   80.779  203.189    7.850
  336.500  408.821   81.186  203.038    7.866
  336.750  404.773   83.410  202.350    7.971
  337.000  399.904   85.698  201.352    8.123
  337.250  396.104   85.726  199.835    8.293
  337.500  391.319   83.874  198.210    8.563
  337.750  385.959   81.397  195.441    8.155
  338.000  382.158   79.482  191.522    7.593
  338.250  395.635   78.444  188.434    6.886
  338.500  412.225   79.604  185.133    6.375
  338.750  422.837   82.205  181.527    5.924
  339.000  432.302   81.731  180.739    6.129
  339.250  417.604   81.448  182.671    6.608
  339.500  397.339   82.610  177.915    7.112
  339.750  383.298   83.765  171.689    7.874
  340.000  368.441   82.853  172.159    8.176
  340.250  371.599   81.319  172.833    7.541
  340.500  382.620   80.655  173.622    6.787
  340.750  394.211   81.065  173.558    6.178
  341.000  404.497   83.100  170.687    6.284
  341.250  415.027   86.325  167.807    6.827
  341.500  395.664   85.727  167.130    7.558
  341.750  371.957   78.798  168.222    8.242
  342.000  367.336   69.356  169.520    8.337
  342.250  390.067   58.727  169.681    7.999
  342.500  411.327   55.117  169.620    7.748
  342.750  416.776   55.401  168.937    7.337
  343.000  419.034   56.745  168.466    7.133
  343.250  418.917   57.218  167.474    6.857
  343.500  416.591   57.432  166.591    6.705
  343.750  412.295   57.526  166.106    6.543
  344.000  409.638   57.557  165.635    6.386
  344.250  410.501   57.146  165.266    6.185
  344.500  412.757   56.298  164.787    5.979
  344.750  414.855   55.699  164.733    5.924
  345.000  417.767   56.796  164.473    6.117
  345.250  420.025   56.823  164.939    6.485
  345.500  417.861   54.787  166.347    7.343
  345.750  388.339   52.994  165.559    8.537
  346.000  322.539   51.143  166.654    9.962
  346.250  308.335   49.165  169.526   11.473
  346.500  286.759   47.128  172.297   12.992
  346.750  269.770   45.465  173.598   14.573
  347.000  263.260   44.052  174.175   16.502
  347.250  259.134   43.639  174.115   17.660
  347.500  255.408   44.362  172.812   17.202
  347.750  252.182   46.397  170.978   15.024
  348.000  250.344   51.944  169.146   13.220
  348.250  265.706   60.943  167.417   11.765
  348.500  329.472   63.294  166.519   10.372
  348.750  358.347   59.873  165.947    9.196
  349.000  364.371   56.265  165.686    8.292
  349.250  373.344   52.718  165.726    7.605
  349.500  385.511   52.000  165.673    7.081
  349.750  398.007   53.782  165.726    6.680
  350.000  406.654   53.625  166.092    6.361
  350.250  406.371   53.405  166.552    6.081
  350.500  404.617   55.439  167.651    5.946
  350.750  403.023   56.033  168.011    5.857
  351.000  406.020   54.996  168.061    5.836
  351.250  410.323   54.774  167.692    5.803
  351.500  412.665   55.683  167.531    5.749
  351.750  414.754   56.402  167.267    5.771
  352.000  415.213   56.309  168.048    5.838
  352.250  413.862   55.965  171.443    5.927
  352.500  412.848   55.675  173.371    6.006
  352.750  411.667   55.393  173.634    6.143
  353.000  412.777   55.486  173.369    6.249
  353.250  415.445   55.703  172.795    6.179
  353.500  418.602   55.546  172.425    6.191
  353.750  417.991   55.387  172.262    6.203
  354.000  415.747   55.543  172.207    6.215
  354.250  411.780   56.324  172.464    6.239
  354.500  412.481   57.481  172.105    6.216
  354.750  413.429   56.068  172.045    6.170
  355.000  412.735   52.149  172.199    6.010
  355.250  410.243   52.306  172.152    5.702
  355.500  406.195   55.154  171.359    5.471
  355.750  403.294   57.505  169.523    5.250
  356.000  404.241   57.031  168.528    5.143
  356.250  404.614   59.072  168.367    5.211
  356.500  402.531   59.724  167.161    5.422
  356.750  400.284   60.134  168.881    5.683
  357.000  400.984   60.664  168.514    5.969
  357.250  401.686   61.196  168.352    6.292
  357.500  397.801   61.347  169.554    6.696
  357.750  373.606   61.253  170.646    7.166
  358.000  308.785   60.657  172.791    7.888
  358.250  297.941   57.929  173.466    8.069
  358.500  333.041   56.136  172.674    7.772
  358.750  380.917   57.295  170.846    7.359
  359.000  398.981   60.021  169.954    7.035
  359.250  405.416   61.117  169.589    6.776
  359.500  405.707   61.587  168.902    6.563
  359.750  404.197   61.179  167.696    6.514
  360.000  402.443   60.833  166.290    6.626
  360.250  400.519   61.302  167.070    6.919
  360.500  400.895   62.208  168.577    7.776
  360.750  399.057   62.867  169.154    9.024
  361.000  392.142   62.703  169.201   10.590
  361.250  338.136   59.848  169.145   12.173
  361.500  275.037   54.986  168.356   13.707
  361.750  255.180   49.559  168.197   12.858
  362.000  264.561   48.967  170.441   11.229
  362.250  304.987   52.072  172.893    9.410
  362.500  345.574   54.541  174.515    8.019
  362.750  371.583   57.521  175.402    7.043
  363.000  388.582   60.494  176.179    6.545
  363.250  398.130   62.282  176.962    6.304
  363.500  404.809   61.873  177.742    6.352
  363.750  406.247   58.827  178.626    6.596
  364.000  405.393   59.170  179.722    6.722
  364.250  403.881   63.091  180.293    6.773
  364.500  401.963   65.314  180.653    6.748
  364.750  398.403   64.466  181.434    6.749
  365.000  394.353   63.741  182.948    6.775
  365.250  394.810   64.148  184.566    6.930
  365.500  397.807   65.308  186.391    7.116
  365.750  399.079   67.536  188.010    7.224
  366.000  396.509   69.127  189.311    7.307
  366.250  391.968   69.974  186.749    7.335
  366.500  388.326   69.941  184.604    7.281
  366.750  384.769   70.597  186.434    7.213
  367.000  381.622   73.387  189.200    7.173
  367.250  386.745   74.355  192.284    7.200
  367.500  393.099   73.823  193.898    7.215
  367.750  396.910   73.976  195.831    7.188
  368.000  399.824   76.577  198.074    7.081
  368.250  402.656   81.563  199.894    6.885
  368.500  401.880   82.029  200.361    6.631
  368.750  397.017   79.990  200.728    6.447
  369.000  395.261   79.333  198.268    6.351
  369.250  402.512   81.556  198.005    6.460
  369.500  409.192   82.588  200.979    6.546
  369.750  416.039   82.365  204.058    6.621
  370.000  418.869   81.021  208.500    6.709
  370.250  403.108   82.114  216.073    6.954
  370.500  387.840   83.583  207.868    7.208
  370.750  397.877   83.802  204.261    7.471
  371.000  411.766   83.328  211.203    7.890
  371.250  382.737   82.985  211.670    8.163
  371.500  367.138   84.456  200.753    8.334
  371.750  355.064   87.056  192.229    8.493
  372.000  367.803   92.041  186.526    8.623
  372.250  373.748   91.818  184.383    8.754
  372.500  366.670   86.831  181.820    9.125
  372.750  358.768   82.219  178.106    9.913
  373.000  352.261   78.427  177.318   10.913
  373.250  344.115   77.198  179.358   11.504
  373.500  336.388   75.725  180.863   11.614
  373.750  322.020   72.055  182.380   10.752
