~VERSION INFORMATION
 VERS.                 2.0:   CWLS LOG ASCII STANDARD -VERSION 2.0
 WRAP.                  NO:   ONE LINE PER DEPTH STEP
~WELL INFORMATION BLOCK
#MNEM.UNIT           DATA                    DESCRIPTION OF MNEMONIC
#---------    -------------------            -------------------------------
# Generated from Intellog Unique Number	CS_71_72/WELL/784
WELL.         AMOCO AEC APIATIK              : Well_name    - WELL
LOC .         00/06-30-072-04W4/0            : Location     - LOCATION
UWI .         00/06-30-072-04W4/0            : Uwi          - UNIQUE WELL ID
ENTR.         SP                             : Entered      - ENTERED BY
SRVC.         SCHLUMBERGER                   : Scn          - SERVICE COMPANY
STRT.M        315                            : top_depth    - START DEPTH
STOP.M        530                            : bot_depth    - STOP DEPTH
STEP.M        0.25                           : increment    - STEP LENGTH
 NULL. -999.2500:NULL Value
~CURVE INFORMATION BLOCK
#MNEM UNIT       ERCB CURVE CODE    CURVE DESCRIPTION
#-----------   ------------------   ----------------------------------
DEPT.M        00 001 00 00         : DEPTH        - DEPTH
ILD .OHMM     00 120 00 00         : RESD         - DEEP RESISTIVITY (DIL)
DPHI.V/V      00 890 00 00         : PHID         - DENSITY POROSITY (LIMESTONE)
NPHI.V/V      00 330 00 00         : PHIN         - NEUTRON POROSITY (LIMESTONE)
GR  .API      00 310 00 00         : GR           - GAMMA RAY
~PARAMETER INFORMATION
#MNEM.UNIT           DATA             DESCRIPTION OF MNEMONIC
#---------         -----------     ------------------------------
GL  .M        698.8                : gl           - GROUND LEVEL ELEVATION
EREF.M        705                  : kb           - ELEVATION OF DEPTH REFERENCE
DATM.M        698.8                : datum        - DATUM ELEVATION
TDD .M        545                  : tdd          - TOTAL DEPTH DRILLER
RUN .         ONE                  : Run          - RUN NUMBER
ENG .         BILL                 : Engineer     - RECORDING ENGINEER
WIT .         JIM                  : Witness      - WITNESSED BY
MUD .         GEL                  : Mud_type     - MUD TYPE
MATR.         LIMESTONE            : Logunit      - NEUTRON MATRIX
TMAX.C        11                   : BHT          - MAXIMUM RECORDED TEMPERATURE
BHTD.M        545                  : BHTDEP       - MAXIMUM RECORDED TEMPERATURE
MATR.         1                    : LOGUNIT      - NEUTRON MATRIX
RMT .C        25                   : MDTP         - TEMPERATURE OF MUD
NEUT.         1                    : NEUTRON      - NEUTRON TYPE
RESI.         0                    : RESIST       - RESISTIVITY TYPE
RMC .OHMM     0.25                 : RMC          - RESISTIVITY OF MUD CAKE
RMF .OHMM     0.25                 : RMF          - RESISTIVITY OF MUD FILTRATE
SUFT.C        15                   : SUFT         - SURFACE TEMPERATURE
~A  DEPTH     RESD     PHID     PHIN       GR
  315.000    4.026    0.260    0.572  100.000
  315.250    4.104    0.253    0.576   99.407
  315.500    4.032    0.258    0.582  101.256
  315.750    4.036    0.270    0.593  103.716
  316.000    4.039    0.240    0.602  104.343
  316.250    3.967    0.242    0.605  107.412
  316.500    3.970    0.238    0.614  108.037
  316.750    3.974    0.248    0.605  104.400
  317.000    3.977    0.260    0.583  104.423
  317.250    4.055    0.253    0.576  105.653
  317.500    4.058    0.230    0.561  106.283
  317.750    4.137    0.221    0.553  103.251
  318.000    4.218    0.212    0.565  100.220
  318.250    4.381    0.231    0.556  102.067
  318.500    4.385    0.211    0.540  104.529
  318.750    4.471    0.196    0.545  106.375
  319.000    4.731    0.232    0.550  106.392
  319.250    5.005    0.232    0.543  106.413
  319.500    5.199    0.237    0.545  103.994
  319.750    5.203    0.233    0.556  104.006
  320.000    5.207    0.223    0.578  104.636
  320.250    5.115    0.228    0.587  107.710
  320.500    5.025    0.226    0.555  108.940
  320.750    4.937    0.227    0.563  111.399
  321.000    4.941    0.212    0.548  112.027
  321.250    5.038    0.210    0.538  107.170
  321.500    5.233    0.194    0.535  105.971
  321.750    5.237    0.183    0.556  104.770
  322.000    5.241    0.210    0.562  103.563
  322.250    5.054    0.236    0.570  101.752
  322.500    4.965    0.235    0.555  103.606
  322.750    4.787    0.226    0.559  104.843
  323.000    4.703    0.218    0.573  106.076
  323.250    4.885    0.218    0.560  104.882
  323.500    5.169    0.218    0.546  105.510
  323.750    5.470    0.212    0.530  106.747
  324.000    5.787    0.234    0.524  107.374
  324.250    5.901    0.237    0.567  106.781
  324.500    5.905    0.223    0.580  104.968
  324.750    5.801    0.214    0.592  103.165
  325.000    5.594    0.220    0.568  101.959
  325.250    5.296    0.221    0.550  100.758
  325.500    5.107    0.232    0.560   98.943
  325.750    5.016    0.227    0.553   97.132
  326.000    5.021    0.224    0.534   94.104
  326.250    5.412    0.232    0.521   89.245
  326.500    6.055    0.250    0.513   84.993
  326.750    6.901    0.272    0.496   80.135
  327.000    8.012    0.237    0.432   78.326
  327.250   10.021    0.204    0.440   75.294
  327.500   11.420    0.229    0.444   72.266
  327.750   12.310    0.255    0.439   69.845
  328.000   12.786    0.271    0.438   72.913
  328.250   13.280    0.259    0.429   75.984
  328.500   13.794    0.251    0.422   77.216
  328.750   14.065    0.268    0.429   77.841
  329.000   13.816    0.258    0.436   81.518
  329.250   13.830    0.275    0.444   80.929
  329.500   13.839    0.286    0.450   82.165
  329.750   13.850    0.266    0.453   85.234
  330.000   13.860    0.254    0.464   85.860
  330.250   13.617    0.264    0.477   85.883
  330.500   13.630    0.266    0.484   85.294
  330.750   13.641    0.281    0.477   85.920
  331.000   13.398    0.278    0.467   88.373
  331.250   13.408    0.263    0.454   91.443
  331.500   13.173    0.250    0.438   92.070
  331.750   12.940    0.264    0.443   93.915
  332.000   12.950    0.265    0.462   97.598
  332.250   12.961    0.262    0.467   97.612
  332.500   12.972    0.256    0.470   96.413
  332.750   13.226    0.265    0.468   93.385
  333.000   13.237    0.262    0.477   92.182
  333.250   13.246    0.280    0.484   92.816
  333.500   13.257    0.289    0.485   93.434
  333.750   13.023    0.271    0.475   95.893
  334.000   13.035    0.254    0.469  102.015
  334.250   12.570    0.250    0.478  105.687
  334.500   11.678    0.231    0.498  102.050
  334.750   10.851    0.248    0.488   97.188
  335.000   10.271    0.240    0.469   98.429
  335.250    9.723    0.220    0.474  100.881
  335.500    9.550    0.187    0.478  103.956
  335.750    9.558    0.210    0.475  103.966
  336.000    9.567    0.234    0.470  102.766
  336.250    9.574    0.250    0.463  102.176
  336.500    9.761    0.257    0.474  100.983
  336.750    9.770    0.268    0.481  100.382
  337.000    9.776    0.259    0.493  103.452
  337.250    9.784    0.265    0.482  106.518
  337.500    9.435    0.251    0.478  106.536
  337.750    9.100    0.239    0.480  105.335
  338.000    8.613    0.230    0.492  104.132
  338.250    8.002    0.124    0.492  104.762
  338.500    7.436    0.073    0.494  109.048
  338.750    7.038    0.055    0.496  108.455
  339.000    6.541    0.047    0.484  106.036
  339.250    6.078    0.123    0.482  116.427
  339.500    5.752    0.166    0.495  118.877
  339.750    5.445    0.183    0.491  122.558
  340.000    5.154    0.180    0.506  122.574
  340.250    4.878    0.191    0.536  123.809
  340.500    4.533    0.204    0.556  125.661
  340.750    4.371    0.213    0.574  126.899
  341.000    4.138    0.208    0.578  126.917
  341.250    3.916    0.196    0.566  125.108
  341.500    3.776    0.208    0.556  125.731
  341.750    3.710    0.217    0.540  129.416
  342.000    3.644    0.225    0.492  130.039
  342.250    3.929    0.238    0.444  127.008
  342.500    4.478    0.241    0.413  115.443
  342.750    5.103    0.259    0.375  103.877
  343.000    6.501    0.281    0.338   92.920
  343.250    7.835    0.332    0.281   80.742
  343.500    7.988    0.367    0.309   74.660
  343.750    7.847    0.398    0.345   70.413
  344.000    7.292    0.365    0.362   69.822
  344.250    6.902    0.347    0.359   72.282
  344.500    6.655    0.336    0.375   75.958
  344.750    6.302    0.345    0.384   80.248
  345.000    6.189    0.337    0.401   81.477
  345.250    6.080    0.333    0.399   82.716
  345.500    6.085    0.328    0.395   85.178
  345.750    5.978    0.324    0.406   83.973
  346.000    5.873    0.330    0.416   76.064
  346.250    5.768    0.336    0.402   67.545
  346.500    5.564    0.347    0.381   56.593
  346.750    5.364    0.370    0.369   52.338
  347.000    5.173    0.377    0.376   51.748
  347.250    4.897    0.382    0.386   52.376
  347.500    4.810    0.367    0.394   53.619
  347.750    4.639    0.353    0.406   56.687
  348.000    4.557    0.351    0.421   60.971
  348.250    4.734    0.327    0.427   67.088
  348.500    4.917    0.302    0.424   73.814
  348.750    5.012    0.286    0.420   79.933
  349.000    5.111    0.275    0.419   84.828
  349.250    5.210    0.248    0.431   88.499
  349.500    5.119    0.261    0.430   83.029
  349.750    4.846    0.278    0.426   76.954
  350.000    4.587    0.288    0.432   73.923
  350.250    4.423    0.279    0.441   72.108
  350.500    4.426    0.263    0.432   69.687
  350.750    4.684    0.247    0.403   67.272
  351.000    4.775    0.228    0.392   67.902
  351.250    4.961    0.223    0.405   69.745
  351.500    5.058    0.233    0.428   73.424
  351.750    4.967    0.245    0.442   76.494
  352.000    4.880    0.236    0.438   76.510
  352.250    4.534    0.233    0.435   75.916
  352.500    4.137    0.272    0.447   71.668
  352.750    3.914    0.296    0.449   66.197
  353.000    3.570    0.282    0.441   60.122
  353.250    3.317    0.288    0.435   58.921
  353.500    3.199    0.281    0.433   58.324
  353.750    3.262    0.275    0.431   55.908
  354.000    3.326    0.271    0.423   57.755
  354.250    3.329    0.289    0.430   65.709
  354.500    3.332    0.291    0.436   69.381
  354.750    3.396    0.283    0.438   72.443
  355.000    3.358    0.284    0.432   75.507
  355.250    3.339    0.276    0.427   78.573
  355.500    3.280    0.298    0.442   72.498
  355.750    3.163    0.302    0.448   68.263
  356.000    3.108    0.302    0.454   67.666
  356.250    3.110    0.288    0.437   67.066
  356.500    3.480    0.262    0.430   67.691
  356.750    3.751    0.251    0.430   70.149
  357.000    4.196    0.248    0.418   81.147
  357.250    4.608    0.236    0.422   90.917
  357.500    4.967    0.223    0.433   96.424
  357.750    5.065    0.221    0.445   98.879
  358.000    4.884    0.247    0.450   96.459
  358.250    4.622    0.273    0.447   92.211
