~VERSION INFORMATION
 VERS.                 2.0:   CWLS LOG ASCII STANDARD -VERSION 2.0
 WRAP.                  NO:   ONE LINE PER DEPTH STEP
~WELL INFORMATION BLOCK
#MNEM.UNIT           DATA                    DESCRIPTION OF MNEMONIC
#---------    -------------------            -------------------------------
# Generated from Intellog Unique Number	CS_77_79/WELL/894
WELL.         AMOCO LEISMER                  : Well_name    - WELL
LOC .         00/07-11-078-09W4/0            : Location     - LOCATION
UWI .         00/07-11-078-09W4/0            : Uwi          - UNIQUE WELL ID
ENTR.         JHS                            : Entered      - ENTERED BY
SRVC.         SCHLUMBERGER                   : Scn          - SERVICE COMPANY
STRT.M        167.640                        : top_depth    - START DEPTH
STOP.M        399.140                        : bot_depth    - STOP DEPTH
STEP.M        0.25                           : increment    - STEP LENGTH
 NULL. -999.2500:NULL Value
~CURVE INFORMATION BLOCK
#MNEM UNIT       ERCB CURVE CODE    CURVE DESCRIPTION
#-----------   ------------------   ----------------------------------
DEPT.M        00 001 00 00         : DEPTH        - DEPTH
RHOB.KG/M3    00 350 00 00         : DENS         - BULK DENSITY
GR  .API      00 310 00 00         : GR           - GAMMA RAY
DPHI.V/V      00 890 00 00         : PHID         - DENSITY POROSITY (SANDSTONE)
NPHI.V/V      00 330 00 00         : PHIN         - NEUTRON POROSITY (SANDSTONE)
ILD .OHMM     00 120 00 00         : RESD         - DEEP RESISTIVITY (DIL)
~PARAMETER INFORMATION
#MNEM.UNIT           DATA             DESCRIPTION OF MNEMONIC
#---------         -----------     ------------------------------
GL  .M        597.164              : gl           - GROUND LEVEL ELEVATION
EREF.M        600.669              : kb           - ELEVATION OF DEPTH REFERENCE
DATM.M        600.669              : datum        - DATUM ELEVATION
TDD .M        405.384              : tdd          - TOTAL DEPTH DRILLER
RUN .         ONE                  : Run          - RUN NUMBER
ENG .         BILL                 : Engineer     - RECORDING ENGINEER
WIT .         JIM                  : Witness      - WITNESSED BY
MUD .         GEL                  : Mud_type     - MUD TYPE
MATR.         SANDSTONE            : Logunit      - NEUTRON MATRIX
TMAX.C        21.1111              : BHT          - MAXIMUM RECORDED TEMPERATURE
BHTD.M        405.384              : BHTDEP       - MAXIMUM RECORDED TEMPERATURE
MATR.         1                    : LOGUNIT      - NEUTRON MATRIX
RMT .C        25                   : MDTP         - TEMPERATURE OF MUD
NEUT.         1                    : NEUTRON      - NEUTRON TYPE
RESI.         0                    : RESIST       - RESISTIVITY TYPE
RMC .OHMM     0.25                 : RMC          - RESISTIVITY OF MUD CAKE
RMF .OHMM     0.25                 : RMF          - RESISTIVITY OF MUD FILTRATE
SUFT.C        15                   : SUFT         - SURFACE TEMPERATURE
~A  DEPTH     DENS       GR     PHID     PHIN     RESD
# ...
  277.140    0.000   74.114    0.278    0.483    4.575
  277.390    0.000   66.249    0.241    0.470    6.241
  277.640   -0.000   63.993    0.188    0.482    7.836
  277.890   -0.000   61.153    0.141    0.456    9.085
  278.140   -0.000   63.294    0.110    0.452    9.935
  278.390    0.000   69.401    0.178    0.472    9.805
  278.640    0.000   77.278    0.283    0.477    9.526
  278.890   -0.000   81.641    0.302    0.475    9.064
  279.140   -0.000   83.527    0.296    0.482    8.616
  279.390   -0.000   90.489    0.280    0.471    8.066
  279.640    0.000   93.112    0.270    0.475    7.844
  279.890    0.000   91.541    0.260    0.491    7.450
  280.140    0.000   90.154    0.256    0.485    7.240
  280.390   -0.000   90.239    0.246    0.486    7.135
  280.640   -0.000   89.043    0.235    0.486    7.199
  280.890   -0.000   87.081    0.231    0.469    7.280
  281.140    0.000   87.116    0.246    0.467    7.410
  281.390    0.000   88.207    0.267    0.473    7.619
  281.640    0.000   88.941    0.262    0.458    7.695
  281.890   -0.000   88.089    0.246    0.456    7.847
  282.140   -0.000   85.571    0.261    0.476    7.804
  282.390    0.000   80.297    0.265    0.487    7.706
  282.640    0.000   77.062    0.259    0.486    7.561
  282.890    0.000   80.608    0.255    0.471    7.394
  283.140   -0.000   87.664    0.255    0.486    7.182
  283.390   -0.000   86.785    0.250    0.498    7.025
  283.640   -0.000   83.468    0.271    0.490    7.047
  283.890    0.000   82.393    0.268    0.479    7.159
  284.140    0.000   83.409    0.256    0.471    7.306
  284.390    0.000   86.753    0.254    0.460    7.445
  284.640   -0.000   88.586    0.258    0.462    7.441
  284.890   -0.000   89.004    0.239    0.471    7.454
  285.140    0.000   89.694    0.226    0.477    7.314
  285.390    0.000   91.577    0.212    0.498    7.331
  285.640    0.000   96.208    0.226    0.513    7.174
  285.890   -0.000   96.909    0.246    0.489    7.070
  286.140   -0.000   94.493    0.233    0.490    6.917
  286.390   -0.000   90.720    0.240    0.496    6.925
  286.640    0.000   87.421    0.237    0.470    6.940
  286.890    0.000   88.917    0.224    0.472    6.800
  287.140    0.000   87.340    0.256    0.484    6.666
  287.390   -0.000   87.821    0.252    0.463    6.563
  287.640   -0.000   94.022    0.241    0.462    6.355
  287.890   -0.000   95.824    0.232    0.476    6.096
  288.140    0.000   99.594    0.249    0.488    5.905
  288.390    0.000  102.511    0.219    0.498    5.867
  288.640   -0.000   99.025    0.217    0.484    5.574
  288.890   -0.000   96.460    0.241    0.482    5.310
  289.140   -0.000   99.977    0.248    0.483    4.840
  289.390    0.000  100.872    0.228    0.481    4.294
  289.640    0.000   98.626    0.244    0.497    3.053
  289.890    0.000  100.237    0.267    0.523    2.316
  290.140   -0.000  102.788    0.273    0.552    2.047
  290.390   -0.000  102.868    0.273    0.585    1.927
  290.640   -0.000  101.910    0.281    0.604    1.911
  290.890    0.000  101.060    0.272    0.610    1.964
  291.140    0.000   99.465    0.278    0.609    2.061
  291.390   -0.000   96.002    0.265    0.595    2.382
  291.640   -0.000   92.633    0.262    0.569    2.994
  291.890   -0.000   89.224    0.273    0.541    3.650
  292.140    0.000   86.497    0.292    0.486    4.596
  292.390    0.000   85.148    0.296    0.467    5.647
  292.640    0.000   85.283    0.295    0.448    6.743
  292.890   -0.000   84.833    0.312    0.426    7.626
  293.140   -0.000   82.636    0.303    0.402    8.140
  293.390   -0.000   80.321    0.318    0.375    8.916
  293.640    0.000   77.035    0.311    0.373    9.059
  293.890    0.000   79.107    0.319    0.364    8.709
  294.140    0.000   81.141    0.329    0.378    8.094
  294.390   -0.000   79.162    0.346    0.401    6.754
  294.640   -0.000   77.288    0.330    0.435    6.321
  294.890    0.000   77.582    0.320    0.448    6.609
  295.140    0.000   79.833    0.345    0.401    7.570
  295.390    0.000   83.994    0.365    0.347    8.200
  295.640   -0.000   84.830    0.340    0.336    9.020
  295.890   -0.000   84.620    0.329    0.354    9.707
  296.140   -0.000   82.855    0.303    0.380   11.488
  296.390    0.000   77.491    0.207    0.354   12.764
  296.640    0.000   61.773    0.088    0.280   13.528
  296.890    0.000   58.611    0.017    0.208   13.638
  297.140   -0.000   62.292   -0.001    0.201   12.716
  297.390   -0.000   69.548    0.139    0.249   11.918
  297.640    0.000   73.529    0.240    0.371   10.355
  297.890    0.000   76.362    0.326    0.445    9.353
  298.140    0.000   78.023    0.303    0.468    7.938
  298.390   -0.000   78.373    0.287    0.476    7.058
  298.640   -0.000   78.430    0.267    0.476    6.496
  298.890   -0.000   76.682    0.284    0.464    6.270
  299.140    0.000   72.683    0.314    0.448    6.187
  299.390    0.000   69.987    0.326    0.447    6.058
  299.640    0.000   68.837    0.329    0.454    6.072
  299.890   -0.000   68.910    0.341    0.465    6.075
  300.140   -0.000   67.836    0.351    0.477    6.086
  300.390   -0.000   65.193    0.342    0.472    5.965
  300.640    0.000   58.126    0.336    0.465    5.967
  300.890    0.000   57.656    0.349    0.468    5.938
  301.140   -0.000   63.388    0.359    0.481    5.864
  301.390   -0.000   64.994    0.351    0.494    5.692
  301.640   -0.000   62.003    0.360    0.503    5.527
  301.890    0.000   59.579    0.359    0.511    5.353
  302.140    0.000   60.026    0.347    0.471    5.506
  302.390    0.000   61.257    0.362    0.461    5.662
  302.640   -0.000   60.786    0.344    0.487    5.747
  302.890   -0.000   60.027    0.339    0.495    5.755
  303.140   -0.000   60.109    0.350    0.478    5.881
  303.390    0.000   62.213    0.359    0.465    5.874
  303.640    0.000   63.523    0.368    0.477    5.847
  303.890    0.000   64.278    0.349    0.486    6.217
  304.140   -0.000   63.283    0.345    0.461    5.839
  304.390   -0.000   60.433    0.328    0.449    6.004
  304.640    0.000   60.123    0.325    0.442    5.997
  304.890    0.000   59.915    0.335    0.436    5.999
  305.140    0.000   58.207    0.351    0.448    6.001
  305.390   -0.000   56.815    0.344    0.449    6.004
  305.640   -0.000   53.799    0.331    0.463    6.016
  305.890   -0.000   53.107    0.334    0.472    5.892
  306.140    0.000   56.284    0.345    0.474    5.813
  306.390    0.000   62.036    0.351    0.460    5.788
  306.640    0.000   61.361    0.351    0.466    5.908
  306.890   -0.000   58.322    0.346    0.476    6.022
  307.140   -0.000   57.378    0.346    0.471    6.044
  307.390    0.000   58.449    0.330    0.446    6.239
  307.640    0.000   59.734    0.297    0.424    6.728
  307.890    0.000   61.585    0.255    0.375    7.331
  308.140   -0.000   60.987    0.154    0.300    9.215
  308.390   -0.000   58.833    0.090    0.222   12.635
  308.640   -0.000   51.300    0.048    0.180   15.785
  308.890    0.000   50.682    0.015    0.179   19.632
  309.140    0.000   49.699    0.017    0.188   21.476
  309.390    0.000   47.016    0.016    0.168   23.308
  309.640   -0.000   44.901    0.006    0.159   23.771
  309.890   -0.000   45.050    0.026    0.171   22.845
  310.140   -0.000   46.064    0.008    0.174   21.182
  310.390    0.000   49.301    0.006    0.168   19.752
  310.640    0.000   52.219    0.015    0.186   16.603
  310.890   -0.000   57.755    0.047    0.244    9.758
  311.140   -0.000   65.455    0.074    0.279    7.855
  311.390   -0.000   69.004    0.258    0.368    6.773
  311.640    0.000   69.408    0.284    0.464    5.896
  311.890    0.000   68.751    0.309    0.455    5.510
  312.140    0.000   64.995    0.328    0.446    5.418
  312.390   -0.000   64.820    0.333    0.444    5.499
  312.640   -0.000   68.551    0.332    0.433    5.511
  312.890   -0.000   70.081    0.331    0.436    5.632
  313.140    0.000   67.786    0.333    0.443    5.816
  313.390    0.000   66.564    0.336    0.449    5.840
