~VERSION INFORMATION
 VERS.                 2.0:   CWLS LOG ASCII STANDARD -VERSION 2.0
 WRAP.                  NO:   ONE LINE PER DEPTH STEP
~WELL INFORMATION BLOCK
#MNEM.UNIT           DATA                    DESCRIPTION OF MNEMONIC
#---------    -------------------            -------------------------------
# Generated from Intellog Unique Number	CW_79_81/WELL/2448
WELL.         SHELL FINA PASTECHO            : Well_name    - WELL
LOC .         00/05-25-081-03W5/0            : Location     - LOCATION
UWI .         00/05-25-081-03W5/0            : Uwi          - UNIQUE WELL ID
ENTR.         MAX                            : Entered      - ENTERED BY
SRVC.         SCHLUMBERGER                   : Scn          - SERVICE COMPANY
STRT.M        250                            : top_depth    - START DEPTH
STOP.M        479.75                         : bot_depth    - STOP DEPTH
STEP.M        0.25                           : increment    - STEP LENGTH
 NULL. -999.2500:NULL Value
~CURVE INFORMATION BLOCK
#MNEM UNIT       ERCB CURVE CODE    CURVE DESCRIPTION
#-----------   ------------------   ----------------------------------
DEPT.M        00 001 00 00         : DEPTH        - DEPTH
ILD .OHMM     00 120 00 00         : RESD         - DEEP RESISTIVITY (DIL)
NPHI.V/V      00 330 00 00         : PHIN         - NEUTRON POROSITY (SANDSTONE)
DPHI.V/V      00 890 00 00         : PHID         - DENSITY POROSITY (SANDSTONE)
GR  .API      00 310 00 00         : GR           - GAMMA RAY
CALI.MM       00 280 01 00         : CAL          - CALIPER
~PARAMETER INFORMATION
#MNEM.UNIT           DATA             DESCRIPTION OF MNEMONIC
#---------         -----------     ------------------------------
GL  .M        574.37               : gl           - GROUND LEVEL ELEVATION
EREF.M        578.37               : kb           - ELEVATION OF DEPTH REFERENCE
DATM.M        574.37               : datum        - DATUM ELEVATION
TDD .M        455.2                : tdd          - TOTAL DEPTH DRILLER
RUN .         ONE                  : Run          - RUN NUMBER
ENG .         BILL                 : Engineer     - RECORDING ENGINEER
WIT .         JIM                  : Witness      - WITNESSED BY
MUD .         GEL                  : Mud_type     - MUD TYPE
MATR.         SANDSTONE            : Logunit      - NEUTRON MATRIX
TMAX.C        16.7                 : BHT          - MAXIMUM RECORDED TEMPERATURE
BHTD.M        455.2                : BHTDEP       - MAXIMUM RECORDED TEMPERATURE
MATR.         1                    : LOGUNIT      - NEUTRON MATRIX
RMT .C        22.2                 : MDTP         - TEMPERATURE OF MUD
NEUT.         1                    : NEUTRON      - NEUTRON TYPE
RESI.         0                    : RESIST       - RESISTIVITY TYPE
RMC .OHMM     3.58                 : RMC          - RESISTIVITY OF MUD CAKE
RMF .OHMM     2.73                 : RMF          - RESISTIVITY OF MUD FILTRATE
SUFT.C        -20                  : SUFT         - SURFACE TEMPERATURE
~A  DEPTH     RESD     PHIN     PHID       GR      CAL
# ...
  359.500   11.069    0.461    0.270   82.947  213.629
  359.750    9.847    0.490    0.292   88.142  213.247
  360.000    9.433    0.506    0.281   86.793  213.455
  360.250    9.407    0.511    0.274   82.909  214.448
  360.500    9.569    0.509    0.282   79.615  215.147
  360.750    9.820    0.501    0.283   79.495  213.033
  361.000    9.977    0.497    0.281   81.222  212.225
  361.250    9.985    0.480    0.273   83.821  216.558
  361.500    9.830    0.476    0.274   83.947  217.651
  361.750    9.626    0.481    0.277   83.128  217.271
  362.000    9.530    0.491    0.278   82.014  216.693
  362.250    9.880    0.495    0.273   79.832  216.704
  362.500   10.591    0.495    0.288   77.136  216.715
  362.750   11.391    0.515    0.306   76.201  216.727
  363.000   11.302    0.527    0.317   76.856  216.738
  363.250   10.415    0.529    0.322   78.513  216.750
  363.500    9.240    0.523    0.320   80.760  216.761
  363.750    7.998    0.510    0.310   84.099  216.775
  364.000    6.947    0.490    0.295   87.790  216.786
  364.250    6.367    0.481    0.278   88.740  217.976
  364.500    6.139    0.485    0.274   89.159  218.282
  364.750    6.078    0.498    0.281   90.227  217.900
  365.000    6.083    0.513    0.292   92.179  217.225
  365.250    6.089    0.512    0.291   94.212  217.091
  365.500    6.094    0.501    0.269   93.727  218.330
  365.750    6.144    0.508    0.245   91.140  218.733
  366.000    6.194    0.512    0.257   86.961  217.960
  366.250    6.335    0.523    0.281   83.195  217.185
  366.500    6.575    0.534    0.292   80.431  216.901
  366.750    6.846    0.514    0.262   77.550  216.915
  367.000    6.957    0.480    0.233   76.083  216.925
  367.250    6.911    0.423    0.242   74.677  218.118
  367.500    6.680    0.405    0.260   74.860  219.012
  367.750    6.329    0.417    0.274   75.928  219.219
  368.000    5.958    0.446    0.284   77.761  218.838
  368.250    5.599    0.479    0.292   80.835  218.459
  368.500    5.276    0.486    0.282   80.843  218.470
  368.750    5.167    0.487    0.275   78.962  218.482
  369.000    5.144    0.482    0.254   76.905  218.493
  369.250    5.129    0.471    0.237   75.969  218.701
  369.500    5.068    0.462    0.238   76.566  219.008
  369.750    4.921    0.476    0.270   78.568  219.019
  370.000    4.888    0.495    0.278   80.294  219.030
  370.250    5.036    0.509    0.284   79.359  219.043
  370.500    5.135    0.521    0.291   76.830  219.054
  370.750    5.344    0.521    0.297   73.771  218.869
  371.000    5.738    0.510    0.298   72.068  218.586
  371.250    6.383    0.484    0.272   74.139  218.599
  371.500    7.001    0.456    0.213   72.672  218.612
  371.750    8.251    0.399    0.158   67.728  218.230
  372.000    9.646    0.351    0.123   65.789  218.142
  372.250   10.314    0.336    0.128   68.153  217.956
  372.500    9.715    0.353    0.169   73.347  217.672
  372.750    7.999    0.388    0.214   78.308  217.605
  373.000    6.369    0.440    0.252   84.210  217.208
  373.250    6.237    0.488    0.272   85.868  217.217
  373.500    6.310    0.519    0.280   83.988  217.228
  373.750    6.682    0.526    0.291   80.693  217.043
  374.000    7.414    0.514    0.307   78.107  216.663
  374.250    8.515    0.508    0.322   78.646  216.200
  374.500    8.719    0.520    0.332   80.125  215.802
  374.750    7.640    0.529    0.329   83.669  215.421
  375.000    5.686    0.516    0.292   87.883  213.709
  375.250    4.794    0.503    0.270   90.440  213.008
  375.500    4.612    0.500    0.272   91.235  213.462
  375.750    4.609    0.504    0.270   92.388  212.850
  376.000    4.605    0.509    0.269   92.364  211.979
  376.250    4.635    0.504    0.264   90.688  211.546
  376.500    4.691    0.492    0.268   89.895  212.291
  376.750    4.739    0.486    0.271   89.749  213.229
  377.000    4.770    0.492    0.271   90.254  213.871
  377.250    4.815    0.511    0.272   91.350  214.294
  377.500    4.885    0.516    0.267   89.845  214.663
  377.750    4.953    0.519    0.262   90.286  215.411
  378.000    5.131    0.516    0.249   90.380  215.858
  378.250    5.393    0.503    0.240   90.001  215.420
  378.500    5.753    0.482    0.241   89.678  214.296
  378.750    6.415    0.460    0.255   90.645  213.454
  379.000    7.192    0.455    0.266   90.858  213.404
  379.250    8.291    0.467    0.281   89.183  212.585
  379.500    9.043    0.475    0.299   88.035  210.572
  379.750    9.379    0.482    0.315   87.888  208.952
  380.000    9.371    0.493    0.325   88.154  208.124
  380.250    9.017    0.509    0.324   87.281  208.021
  380.500    8.356    0.509    0.329   87.746  211.668
  380.750    7.701    0.505    0.319   87.486  211.624
  381.000    7.140    0.495    0.300   84.388  210.989
  381.250    6.582    0.482    0.274   81.406  210.356
  381.500    6.030    0.475    0.250   80.198  210.020
  381.750    5.439    0.492    0.251   81.559  210.049
  382.000    5.040    0.513    0.276   83.744  210.413
  382.250    4.963    0.524    0.274   84.426  210.763
  382.500    4.968    0.536    0.273   84.579  211.113
  382.750    5.109    0.544    0.273   83.373  211.268
  383.000    5.401    0.541    0.271   81.456  211.327
  383.250    6.020    0.508    0.242   80.163  211.671
  383.500    7.353    0.465    0.165   76.197  211.621
  383.750    9.986    0.421    0.099   71.920  211.975
  384.000   12.674    0.352    0.053   66.046  212.030
  384.250   14.341    0.292    0.031   62.001  212.183
  384.500   14.085    0.270    0.034   62.504  212.436
  384.750   11.318    0.321    0.074   70.990  212.303
  385.000    8.314    0.398    0.147   78.106  211.838
  385.250    6.538    0.442    0.204   83.512  211.802
  385.500    6.068    0.473    0.235   84.846  212.942
  385.750    6.085    0.487    0.245   83.876  213.883
  386.000    6.339    0.485    0.243   81.960  214.037
  386.250    6.746    0.464    0.241   80.187  213.430
  386.500    6.895    0.452    0.227   80.895  212.564
  386.750    6.792    0.455    0.214   83.946  211.732
  387.000    6.469    0.479    0.228   85.041  211.789
  387.250    6.121    0.498    0.257   85.488  211.155
  387.500    5.846    0.498    0.280   86.349  210.123
  387.750    5.664    0.486    0.272   88.786  211.186
  388.000    5.617    0.491    0.267   90.484  212.786
  388.250    5.572    0.490    0.262   91.639  213.131
  388.500    5.557    0.479    0.257   92.440  213.188
  388.750    5.594    0.471    0.251   92.415  212.947
  389.000    5.682    0.474    0.241   91.977  212.605
  389.250    5.820    0.494    0.221   92.861  212.476
  389.500    5.905    0.485    0.203   95.049  212.024
  389.750    5.943    0.473    0.220   94.789  214.347
  390.000    6.014    0.466    0.222   92.045  215.191
  390.250    6.098    0.461    0.221   90.245  215.147
  390.500    6.216    0.455    0.222   90.041  214.806
  390.750    6.481    0.450    0.218   89.010  214.749
  391.000    6.677    0.456    0.217   87.502  214.708
  391.250    7.017    0.461    0.233   87.473  214.668
  391.500    7.221    0.463    0.233   87.273  214.914
  391.750    7.135    0.466    0.228   87.959  215.067
  392.000    6.773    0.472    0.225   89.234  215.030
  392.250    6.237    0.483    0.226   90.174  214.977
  392.500    5.957    0.490    0.235   93.842  214.936
  392.750    5.908    0.478    0.239   91.923  214.892
  393.000    5.893    0.469    0.232   91.777  214.546
  393.250    5.911    0.464    0.221   92.935  214.894
  393.500    5.949    0.463    0.210   95.629  216.034
  393.750    5.996    0.460    0.208  100.153  217.083
  394.000    6.037    0.464    0.219   96.923  216.636
  394.250    6.032    0.477    0.213   95.484  215.799
  394.500    6.028    0.485    0.216   94.397  215.557
  394.750    6.024    0.484    0.225   95.200  215.513
  395.000    6.019    0.476    0.236   98.067  215.373
  395.250    6.014    0.467    0.239  102.112  215.099
  395.500    6.008    0.471    0.233  103.562  215.873
  395.750    6.003    0.479    0.223  104.010  216.223
