~VERSION INFORMATION
 VERS.                 2.0:   CWLS LOG ASCII STANDARD -VERSION 2.0
 WRAP.                  NO:   ONE LINE PER DEPTH STEP
~WELL INFORMATION BLOCK
#MNEM.UNIT           DATA                    DESCRIPTION OF MNEMONIC
#---------    -------------------            -------------------------------
# Generated from Intellog Unique Number	CW_76_78/WELL/2566
WELL.         NOVALTA PORTAGE                : Well_name    - WELL
LOC .         00/05-29-078-19W4/0            : Location     - LOCATION
UWI .         00/05-29-078-19W4/0            : Uwi          - UNIQUE WELL ID
ENTR.         MAX                            : Entered      - ENTERED BY
SRVC.         WESTERN ATLAS                  : Scn          - SERVICE COMPANY
STRT.M        190                            : top_depth    - START DEPTH
STOP.M        400                            : bot_depth    - STOP DEPTH
STEP.M        0.25                           : increment    - STEP LENGTH
 NULL. -999.2500:NULL Value
~CURVE INFORMATION BLOCK
#MNEM UNIT       ERCB CURVE CODE    CURVE DESCRIPTION
#-----------   ------------------   ----------------------------------
DEPT.M        00 001 00 00         : DEPTH        - DEPTH
ILD .OHMM     00 120 00 00         : RESD         - DEEP RESISTIVITY (DIL)
NPHI.V/V      00 330 00 00         : PHIN         - NEUTRON POROSITY (SANDSTONE)
DPHI.V/V      00 890 00 00         : PHID         - DENSITY POROSITY (SANDSTONE)
CALI.MM       00 280 01 00         : CAL          - CALIPER
GR  .API      00 310 00 00         : GR           - GAMMA RAY
~PARAMETER INFORMATION
#MNEM.UNIT           DATA             DESCRIPTION OF MNEMONIC
#---------         -----------     ------------------------------
GL  .M        559.38               : gl           - GROUND LEVEL ELEVATION
EREF.M        563.38               : kb           - ELEVATION OF DEPTH REFERENCE
DATM.M        559.38               : datum        - DATUM ELEVATION
TDD .M        433.8                : tdd          - TOTAL DEPTH DRILLER
RUN .         ONE                  : Run          - RUN NUMBER
ENG .         BILL                 : Engineer     - RECORDING ENGINEER
WIT .         JIM                  : Witness      - WITNESSED BY
MUD .         GEL                  : Mud_type     - MUD TYPE
MATR.         SANDSTONE            : Logunit      - NEUTRON MATRIX
TMAX.C        24                   : BHT          - MAXIMUM RECORDED TEMPERATURE
BHTD.M        433.8                : BHTDEP       - MAXIMUM RECORDED TEMPERATURE
RMT .C        17                   : MDTP         - TEMPERATURE OF MUD
MUDD.KG/M     1160                 : MWT          - MUD DENSITY
NEUT.         1                    : NEUTRON      - NEUTRON TYPE
RESI.         0                    : RESIST       - RESISTIVITY TYPE
RM  .OHMM     5                    : RM           - RESISTIVITY OF MUD
RMC .OHMM     0.25                 : RMC          - RESISTIVITY OF MUD CAKE
RMF .OHMM     0.25                 : RMF          - RESISTIVITY OF MUD FILTRATE
SUFT.C        -20                  : SUFT         - SURFACE TEMPERATURE
~A  DEPTH     RESD     PHIN     PHID      CAL       GR
  190.000    4.561    0.575    0.467  246.782   86.547
  190.250    4.561    0.579    0.479  245.278   87.439
  190.500    4.518    0.589    0.506  242.773   85.038
  190.750    4.394    0.596    0.532  241.266   84.134
  191.000    4.274    0.597    0.445  241.256   87.122
  191.250    4.195    0.594    0.415  242.245   88.016
  191.500    4.195    0.591    0.462  243.733   87.112
  191.750    4.195    0.589    0.475  244.722   85.009
  192.000    4.232    0.586    0.458  245.211   87.101
  192.250    4.390    0.580    0.442  245.202   89.790
  192.500    4.429    0.574    0.442  245.194   90.683
  192.750    4.511    0.570    0.444  245.185   89.178
  193.000    4.594    0.569    0.446  244.674   87.977
  193.250    4.593    0.570    0.441  243.668   87.372
  193.500    4.593    0.584    0.432  243.158   89.761
  193.750    4.550    0.588    0.464  242.651   92.452
  194.000    4.549    0.583    0.484  241.644   93.643
  194.250    4.590    0.558    0.480  240.137   92.141
  194.500    4.674    0.540    0.456  237.632   87.344
  194.750    4.717    0.534    0.411  233.128   85.243
  195.000    4.760    0.538    0.414  230.625   85.236
  195.250    4.672    0.563    0.422  227.121   84.032
  195.500    4.503    0.577    0.422  224.615   83.727
  195.750    4.300    0.591    0.419  222.611   83.722
  196.000    4.143    0.604    0.426  220.606   82.518
  196.250    4.142    0.608    0.443  219.098   81.016
  196.500    4.180    0.607    0.453  218.590   79.213
  196.750    5.117    0.602    0.448  217.583   77.709
  197.000    6.264    0.580    0.431  216.574   77.105
  197.250    8.965    0.543    0.421  215.066   76.501
  197.500   13.190    0.500    0.366  214.559   72.902
  197.750   18.365    0.492    0.360  214.050   63.014
  198.000   25.805    0.431    0.342  214.041   55.520
  198.250   25.330    0.355    0.294  214.041   55.514
  198.500   20.687    0.332    0.287  214.519   57.606
  198.750   16.434    0.347    0.291  216.008   63.590
  199.000   13.545    0.441    0.305  218.496   69.873
  199.250   11.371    0.466    0.320  221.481   71.365
  199.500   10.276    0.474    0.339  225.466   72.858
  199.750    8.089    0.487    0.352  229.948   75.546
  200.000    7.653    0.500    0.358  232.934   80.033
  200.250    7.109    0.521    0.369  234.920   77.931
  200.500    6.726    0.524    0.393  235.908   74.931
  200.750    6.364    0.518    0.400  236.400   72.228
  201.000    6.363    0.520    0.396  237.888   72.524
  201.250    6.480    0.525    0.377  238.376   73.717
  201.500    7.038    0.528    0.380  238.860   74.309
  201.750    7.644    0.525    0.387  238.857   74.305
  202.000    8.151    0.509    0.375  238.847   71.304
  202.250    8.377    0.500    0.362  238.838   65.608
  202.500    8.376    0.501    0.367  238.330   62.608
  202.750    7.925    0.515    0.377  237.322   62.302
  203.000    7.637    0.530    0.403  236.815   64.993
  203.250    7.637    0.561    0.400  235.805   77.565
  203.500    7.427    0.560    0.372  235.297   87.142
  203.750    7.426    0.543    0.353  232.291   79.649
  204.000    8.842    0.506    0.351  229.289   73.654
  204.250   10.724    0.508    0.351  225.288   70.954
  204.500   11.124    0.518    0.363  221.285   65.558
  204.750   11.646    0.528    0.362  218.781   60.162
  205.000   11.969    0.529    0.354  216.775   58.359
  205.250   11.969    0.526    0.333  214.269   59.551
  205.500   12.188    0.517    0.320  212.262   59.546
  205.750   13.360    0.510    0.311  209.758   60.139
  206.000   14.378    0.506    0.336  206.254   60.432
  206.250   15.906    0.512    0.353  203.251   60.127
  206.500   17.596    0.506    0.358  199.747   55.631
  206.750   19.646    0.496    0.353  197.743   49.336
  207.000   21.338    0.489    0.350  195.238   48.730
  207.250   22.963    0.492    0.342  193.231   50.222
  207.500   24.262    0.497    0.336  193.221   49.318
  207.750   25.399    0.516    0.390  193.214   46.918
  208.000   25.163    0.520    0.401  195.699   43.617
  208.250   25.163    0.518    0.397  196.687   43.612
  208.500   23.802    0.500    0.361  195.182   46.302
  208.750   21.909    0.480    0.325  193.175   52.585
  209.000   20.351    0.478    0.306  191.668   56.173
  209.250   19.613    0.475    0.337  191.159   54.970
  209.500   19.252    0.436    0.342  191.151   51.369
  209.750   19.073    0.387    0.332  191.642   53.160
  210.000   19.069    0.332    0.326  191.633   53.755
  210.250   18.209    0.315    0.293  192.120   51.952
  210.500   17.229    0.357    0.286  193.610   51.947
  210.750   16.151    0.461    0.303  196.594   54.037
  211.000   15.281    0.483    0.315  199.579   56.128
  211.250   14.727    0.494    0.316  203.064   57.021
  211.500   14.192    0.496    0.313  206.549   57.913
  211.750   13.932    0.496    0.315  210.033   60.304
  212.000   13.426    0.494    0.325  214.017   65.090
  212.250   12.357    0.488    0.337  218.001   70.176
  212.500   11.374    0.482    0.351  221.985   71.368
  212.750    9.726    0.482    0.349  228.464   69.565
  213.000    8.788    0.489    0.349  234.943   67.763
  213.250    8.392    0.501    0.368  240.421   70.153
  213.500    8.390    0.509    0.392  243.409   74.939
  213.750    8.784    0.505    0.378  247.890   78.826
  214.000   10.459    0.482    0.363  250.876   77.922
  214.250   12.340    0.467    0.354  252.366   75.521
  214.500   13.280    0.465    0.351  253.851   73.119
  214.750   14.965    0.465    0.358  254.842   74.011
  215.000   15.240    0.466    0.355  255.830   75.205
  215.250   15.238    0.466    0.325  255.820   76.396
  215.500   14.957    0.461    0.319  254.815   76.990
  215.750   15.092    0.455    0.318  252.808   77.284
  216.000   14.952    0.448    0.343  251.801   76.979
  216.250   14.278    0.438    0.369  251.790   75.775
  216.500   13.262    0.434    0.368  250.782   73.673
  216.750   13.262    0.433    0.345  249.277   70.973
  217.000   12.545    0.435    0.347  247.269   67.973
  217.250   12.315    0.435    0.354  246.264   65.271
  217.500   12.199    0.436    0.350  244.757   64.368
  217.750   12.086    0.437    0.340  243.748   64.063
  218.000   12.085    0.437    0.347  242.240   65.554
  218.250   12.082    0.441    0.365  241.235   67.644
  218.500   12.081    0.452    0.376  238.230   69.735
  218.750   12.079    0.452    0.373  234.727   71.227
  219.000   12.076    0.448    0.363  230.227   72.419
  219.250   11.855    0.443    0.359  224.227   73.313
  219.500   11.424    0.442    0.342  220.724   74.206
  219.750   10.612    0.440    0.357  219.218   75.697
  220.000    9.589    0.440    0.398  217.212   78.086
  220.250    7.343    0.448    0.421  215.207   85.568
  220.500    6.052    0.462    0.438  210.704   88.258
  220.750    5.081    0.481    0.438  203.209   93.343
  221.000    4.591    0.525    0.415  195.213   95.733
  221.250    4.265    0.557    0.413  190.712   96.028
  221.500    3.925    0.587    0.430  189.703   98.717
  221.750    3.714    0.594    0.426  194.687  102.605
  222.000    3.579    0.602    0.409  209.651  102.299
  222.250    3.578    0.608    0.406  224.115  103.191
  222.500    3.678    0.611    0.411  226.602  105.582
  222.750    3.780    0.611    0.419  226.094  109.170
  223.000    4.068    0.609    0.423  223.589  110.962
  223.250    4.378    0.595    0.423  215.093  108.560
  223.500    4.755    0.582    0.420  213.586  104.362
  223.750    5.662    0.558    0.407  214.076  100.164
  224.000    6.150    0.526    0.375  216.564   96.564
  224.250    6.866    0.506    0.366  219.050   94.162
  224.500    7.954    0.499    0.383  221.534   91.163
  224.750    7.807    0.488    0.395  219.529   88.161
  225.000    7.594    0.492    0.403  220.518   89.655
  225.250    7.385    0.498    0.408  220.507   93.243
  225.500    7.317    0.493    0.406  218.005   95.332
  225.750    8.169    0.476    0.389  213.003   93.529
  226.000    9.290    0.448    0.370  210.998   90.530
  226.250   10.469    0.443    0.381  210.998   79.744
