~VERSION INFORMATION
 VERS.                 2.0:   CWLS LOG ASCII STANDARD -VERSION 2.0
 WRAP.                  NO:   ONE LINE PER DEPTH STEP
~WELL INFORMATION BLOCK
#MNEM.UNIT           DATA                    DESCRIPTION OF MNEMONIC
#---------    -------------------            -------------------------------
# Generated from Intellog Unique Number	CS_77_79/WELL/856
WELL.         CANADIAN WORLDWIDE ENERGY      : Well_name    - WELL
LOC .         00/05-19-077-04W4/0            : Location     - LOCATION
UWI .         00/05-19-077-04W4/0            : Uwi          - UNIQUE WELL ID
ENTR.         SP                             : Entered      - ENTERED BY
SRVC.         SCHLUMBERGER                   : Scn          - SERVICE COMPANY
STRT.M        150                            : top_depth    - START DEPTH
STOP.M        405                            : bot_depth    - STOP DEPTH
STEP.M        0.25                           : increment    - STEP LENGTH
 NULL. -999.2500:NULL Value
~CURVE INFORMATION BLOCK
#MNEM UNIT       ERCB CURVE CODE    CURVE DESCRIPTION
#-----------   ------------------   ----------------------------------
DEPT.M        00 001 00 00         : DEPTH        - DEPTH
ILD .OHMM     00 120 00 00         : RESD         - DEEP RESISTIVITY (DIL)
DPHI.V/V      00 890 00 00         : PHID         - DENSITY POROSITY (LIMESTONE)
NPHI.V/V      00 330 00 00         : PHIN         - NEUTRON POROSITY (LIMESTONE)
GR  .API      00 310 00 00         : GR           - GAMMA RAY
~PARAMETER INFORMATION
#MNEM.UNIT           DATA             DESCRIPTION OF MNEMONIC
#---------         -----------     ------------------------------
GL  .M        563.2                : gl           - GROUND LEVEL ELEVATION
EREF.M        566.2                : kb           - ELEVATION OF DEPTH REFERENCE
DATM.M        563.2                : datum        - DATUM ELEVATION
TDD .M        405.5                : tdd          - TOTAL DEPTH DRILLER
RUN .         ONE                  : Run          - RUN NUMBER
ENG .         BILL                 : Engineer     - RECORDING ENGINEER
WIT .         JIM                  : Witness      - WITNESSED BY
MUD .         GEL                  : Mud_type     - MUD TYPE
MATR.         LIMESTONE            : Logunit      - NEUTRON MATRIX
TMAX.C        24                   : BHT          - MAXIMUM RECORDED TEMPERATURE
BHTD.M        405.5                : BHTDEP       - MAXIMUM RECORDED TEMPERATURE
MATR.         1                    : LOGUNIT      - NEUTRON MATRIX
RMT .C        25                   : MDTP         - TEMPERATURE OF MUD
NEUT.         1                    : NEUTRON      - NEUTRON TYPE
RESI.         0                    : RESIST       - RESISTIVITY TYPE
RMC .OHMM     0.25                 : RMC          - RESISTIVITY OF MUD CAKE
RMF .OHMM     0.25                 : RMF          - RESISTIVITY OF MUD FILTRATE
SUFT.C        15                   : SUFT         - SURFACE TEMPERATURE
~A  DEPTH     RESD     PHID     PHIN       GR
# ...
  324.000   23.865    0.286    0.220   68.011
  324.250   25.287    0.263    0.230   68.644
  324.500   26.794    0.244    0.234   68.056
  324.750   28.383    0.242    0.225   64.391
  325.000   30.645    0.267    0.195   61.948
  325.250   34.370    0.299    0.157   58.274
  325.500   42.390    0.323    0.144   58.298
  325.750   48.447    0.346    0.131   60.179
  326.000   52.316    0.360    0.135   60.823
  326.250   52.369    0.335    0.194   59.612
  326.500   50.453    0.305    0.234   58.408
  326.750   41.776    0.267    0.247   60.291
  327.000   38.752    0.264    0.231   61.559
  327.250   38.783    0.286    0.201   62.816
  327.500   42.686    0.299    0.193   62.224
  327.750   45.222    0.311    0.187   64.104
  328.000   41.961    0.296    0.202   67.837
  328.250   38.197    0.273    0.212   74.663
  328.500   33.474    0.326    0.214   76.544
  328.750   25.203    0.348    0.186   75.947
  329.000   21.668    0.349    0.192   71.047
  329.250   16.011    0.331    0.214   67.998
  329.500   13.007    0.327    0.250   66.775
  329.750   11.184    0.330    0.262   64.341
  330.000    9.800    0.327    0.267   66.218
  330.250    9.265    0.325    0.273   67.475
  330.500    9.099    0.325    0.279   63.808
  330.750    9.464    0.322    0.282   62.599
  331.000    9.653    0.312    0.283   63.861
  331.250    9.660    0.288    0.282   62.041
  331.500    9.852    0.293    0.279   58.361
  331.750    9.675    0.306    0.274   54.067
  332.000    9.150    0.318    0.270   49.777
  332.250    8.983    0.322    0.267   49.191
  332.500    8.493    0.316    0.264   53.541
  332.750    7.731    0.319    0.262   54.193
  333.000    7.310    0.324    0.262   53.594
  333.250    7.044    0.331    0.260   53.018
  333.500    6.788    0.327    0.274   56.120
  333.750    6.542    0.321    0.269   62.325
  334.000    6.303    0.305    0.265   64.820
  334.250    6.073    0.303    0.282   68.555
  334.500    5.852    0.300    0.298   72.902
  334.750    5.641    0.295    0.308   78.486
  335.000    5.538    0.301    0.327   70.489
  335.250    5.542    0.303    0.318   53.848
  335.500    5.446    0.304    0.309   39.063
  335.750    5.450    0.302    0.314   42.813
  336.000    5.351    0.297    0.319   45.300
  336.250    5.257    0.292    0.325   48.411
  336.500    5.260    0.303    0.331   50.294
  336.750    5.168    0.312    0.331   49.706
  337.000    5.171    0.321    0.335   46.644
  337.250    5.079    0.314    0.341   46.058
  337.500    5.083    0.298    0.321   51.039
  337.750    5.089    0.288    0.316   52.910
  338.000    5.091    0.284    0.326   54.169
  338.250    5.192    0.294    0.332   55.434
  338.500    5.196    0.298    0.340   56.072
  338.750    5.201    0.293    0.333   53.642
  339.000    5.207    0.288    0.328   54.899
  339.250    5.312    0.289    0.318   60.490
  339.500    5.315    0.301    0.322   62.981
  339.750    5.425    0.295    0.327   65.474
  340.000    5.428    0.292    0.317   68.588
  340.250    5.432    0.286    0.313   70.473
  340.500    5.437    0.287    0.318   68.655
  340.750    5.338    0.301    0.326   60.648
  341.000    5.146    0.308    0.322   49.568
  341.250    5.053    0.309    0.324   50.834
  341.500    4.962    0.309    0.338   57.034
  341.750    4.873    0.308    0.343   61.998
  342.000    4.786    0.307    0.334   57.718
  342.250    4.791    0.298    0.325   55.272
  342.500    4.795    0.289    0.326   53.452
  342.750    4.448    0.295    0.333   52.238
  343.000    4.369    0.303    0.326   48.566
  343.250    4.372    0.311    0.319   46.120
  343.500    4.374    0.318    0.314   47.390
  343.750    4.381    0.311    0.317   57.909
  344.000    4.384    0.304    0.321   80.156
  344.250    4.387    0.298    0.325   83.273
  344.500    4.391    0.299    0.326   72.805
  344.750    4.393    0.315    0.322   57.401
  345.000    4.397    0.326    0.323   46.937
  345.250    4.402    0.330    0.342   41.411
  345.500    4.406    0.325    0.352   42.685
  345.750    4.410    0.321    0.342   43.942
  346.000    4.330    0.318    0.328   45.200
  346.250    4.334    0.317    0.329   48.935
  346.500    4.338    0.317    0.347   53.286
  346.750    4.261    0.333    0.354   48.373
  347.000    4.264    0.344    0.358   38.528
  347.250    4.189    0.343    0.365   34.849
  347.500    4.191    0.335    0.365   37.968
  347.750    4.115    0.328    0.362   39.847
  348.000    4.042    0.328    0.360   41.119
  348.250    4.046    0.339    0.357   38.666
  348.500    4.049    0.339    0.356   30.670
  348.750    3.977    0.335    0.355   28.233
  349.000    3.980    0.331    0.347   34.438
  349.250    3.984    0.329    0.341   48.043
  349.500    3.987    0.326    0.344   63.498
  349.750    4.066    0.325    0.345   78.343
  350.000    4.394    0.335    0.358   40.580
  350.250    4.745    0.337    0.337   31.991
  350.500    5.025    0.330    0.323   28.937
  350.750    5.426    0.317    0.302   37.561
  351.000    5.640    0.230    0.291   71.400
  351.250    5.752    0.222    0.288   80.647
  351.500    5.755    0.230    0.292   83.734
  351.750    5.651    0.259    0.298   78.218
  352.000    5.444    0.277    0.299   33.971
  352.250    5.147    0.289    0.293   32.147
  352.500    4.958    0.294    0.290   33.394
  352.750    4.778    0.298    0.293   34.041
  353.000    4.691    0.300    0.298   35.283
  353.250    4.607    0.301    0.298   36.527
  353.500    4.609    0.299    0.296   38.406
  353.750    4.525    0.294    0.299   37.800
  354.000    4.443    0.293    0.301   38.430
  354.250    4.446    0.292    0.306   39.678
  354.500    4.450    0.300    0.312   39.706
  354.750    4.453    0.310    0.316   39.110
  355.000    4.629    0.313    0.320   37.892
  355.250    4.720    0.318    0.326   33.612
  355.500    5.096    0.318    0.336   34.246
  355.750    5.501    0.317    0.334   34.879
  356.000    6.168    0.292    0.322   41.661
  356.250    7.184    0.209    0.308   64.428
  356.500    8.057    0.188    0.301   74.284
  356.750    8.698    0.159    0.293   77.989
  357.000    8.870    0.167    0.295   80.471
  357.250    8.074    0.173    0.296   78.644
  357.500    7.349    0.176    0.293   75.591
  357.750    6.438    0.184    0.301   79.301
  358.000    5.641    0.210    0.317   75.016
  358.250    5.232    0.243    0.329   62.121
  358.500    4.853    0.284    0.329   50.464
  358.750    4.766    0.314    0.333   49.865
  359.000    4.953    0.300    0.336   52.961
  359.250    5.148    0.297    0.324   51.750
  359.500    5.998    0.284    0.317   49.925
  359.750    6.352    0.261    0.313   61.012
  360.000    7.398    0.234    0.321   74.559
  360.250    7.837    0.208    0.334   77.035
  360.500    7.843    0.214    0.340   73.986
  360.750    7.414    0.204    0.339   73.996
  361.000    6.497    0.190    0.330   87.544
  361.250    5.692    0.173    0.332   88.795
  361.500    4.895    0.211    0.340   75.287
  361.750    4.626    0.242    0.352   52.560
  362.000    4.373    0.289    0.346   43.357
  362.250    4.213    0.315    0.335   41.532
  362.500    4.136    0.323    0.328   40.323
  362.750    3.985    0.317    0.341   42.191
  363.000    3.988    0.312    0.345   42.207
  363.250    4.068    0.312    0.340   39.153
  363.500    4.148    0.318    0.333   36.715
  363.750    4.311    0.318    0.334   34.275
  364.000    4.481    0.316    0.336   33.674
  364.250    4.570    0.312    0.328   33.692
  364.500    4.574    0.302    0.322   42.935
  364.750    4.578    0.298    0.331   42.340
  365.000    4.580    0.309    0.329   38.670
  365.250    4.583    0.318    0.319   36.845
  365.500    4.499    0.309    0.319   43.018
  365.750    4.418    0.306    0.329   46.107
  366.000    4.176    0.322    0.335   39.379
  366.250    4.180    0.329    0.342   36.932
  366.500    4.182    0.338    0.340   35.098
  366.750    4.347    0.333    0.332   29.593
  367.000    4.433    0.333    0.333   31.449
  367.250    4.521    0.338    0.338   33.312
