~VERSION INFORMATION
 VERS.                 2.0:   CWLS LOG ASCII STANDARD -VERSION 2.0
 WRAP.                  NO:   ONE LINE PER DEPTH STEP
~WELL INFORMATION BLOCK
#MNEM.UNIT           DATA                    DESCRIPTION OF MNEMONIC
#---------    -------------------            -------------------------------
# Generated from Intellog Unique Number	CS_73_76/WELL/1079
WELL.         PETROFINA CANADA LTD.          : Well_name    - WELL
LOC .         00/06-25-075-12W4/0            : Location     - LOCATION
UWI .         00/06-25-075-12W4/0            : Uwi          - UNIQUE WELL ID
ENTR.         SP                             : Entered      - ENTERED BY
SRVC.         SCHLUMBERGER                   : Scn          - SERVICE COMPANY
STRT.M        298.704                        : top_depth    - START DEPTH
STOP.M        525.204                        : bot_depth    - STOP DEPTH
STEP.M        0.25                           : increment    - STEP LENGTH
 NULL. -999.2500:NULL Value
~CURVE INFORMATION BLOCK
#MNEM UNIT       ERCB CURVE CODE    CURVE DESCRIPTION
#-----------   ------------------   ----------------------------------
DEPT.M        00 001 00 00         : DEPTH        - DEPTH
GR  .API      00 310 00 00         : GR           - GAMMA RAY
DPHI.V/V      00 890 00 00         : PHID         - DENSITY POROSITY (SANDSTONE)
NPHI.V/V      00 330 00 00         : PHIN         - NEUTRON POROSITY (SANDSTONE)
ILD .OHMM     00 120 00 00         : RESD         - DEEP RESISTIVITY (DIL)
~PARAMETER INFORMATION
#MNEM.UNIT           DATA             DESCRIPTION OF MNEMONIC
#---------         -----------     ------------------------------
GL  .M        669.524              : gl           - GROUND LEVEL ELEVATION
EREF.M        672.602              : kb           - ELEVATION OF DEPTH REFERENCE
DATM.M        669.524              : datum        - DATUM ELEVATION
TDD .M        560.832              : tdd          - TOTAL DEPTH DRILLER
RUN .         ONE                  : Run          - RUN NUMBER
ENG .         BILL                 : Engineer     - RECORDING ENGINEER
WIT .         JIM                  : Witness      - WITNESSED BY
MUD .         GEL                  : Mud_type     - MUD TYPE
MATR.         SANDSTONE            : Logunit      - NEUTRON MATRIX
TMAX.C        16.6667              : BHT          - MAXIMUM RECORDED TEMPERATURE
BHTD.M        560.832              : BHTDEP       - MAXIMUM RECORDED TEMPERATURE
MATR.         1                    : LOGUNIT      - NEUTRON MATRIX
RMT .C        25                   : MDTP         - TEMPERATURE OF MUD
NEUT.         1                    : NEUTRON      - NEUTRON TYPE
RESI.         0                    : RESIST       - RESISTIVITY TYPE
RMC .OHMM     0.25                 : RMC          - RESISTIVITY OF MUD CAKE
RMF .OHMM     0.25                 : RMF          - RESISTIVITY OF MUD FILTRATE
SUFT.C        15                   : SUFT         - SURFACE TEMPERATURE
~A  DEPTH       GR     PHID     PHIN     RESD
# ...
  472.704   95.738    0.140    0.478    6.623
  472.954   94.258    0.142    0.464    6.868
  473.204   88.837    0.163    0.446    7.856
  473.454   81.968    0.194    0.404    9.057
  473.704   74.657    0.224    0.358   10.864
  473.954   71.391    0.254    0.310   12.661
  474.204   72.266    0.281    0.287   14.498
  474.454   77.486    0.300    0.303   16.143
  474.704   80.562    0.268    0.315   16.915
  474.954   82.482    0.249    0.318   16.904
  475.204   81.984    0.245    0.312   16.921
  475.454   79.888    0.252    0.306   18.052
  475.704   78.377    0.264    0.313   18.678
  475.954   76.600    0.272    0.324   18.879
  476.204   74.806    0.256    0.337   18.076
  476.454   76.576    0.271    0.349   17.462
  476.704   79.020    0.281    0.364   16.602
  476.954   80.088    0.258    0.380   16.770
  477.204   80.323    0.241    0.397   17.418
  477.454   79.316    0.238    0.384   19.823
  477.704   76.505    0.250    0.375   21.363
  477.954   76.116    0.249    0.368   22.461
  478.204   77.123    0.247    0.377   24.384
  478.454   77.869    0.238    0.383   25.339
  478.704   77.761    0.227    0.389   26.994
  478.954   71.167    0.249    0.393   29.208
  479.204   65.227    0.251    0.398   32.020
  479.454   60.253    0.263    0.398   36.204
  479.704   58.130    0.249    0.393   39.887
  479.954   60.649    0.238    0.398   44.270
  480.204   62.053    0.229    0.409   46.850
  480.454   61.080    0.230    0.417   49.087
  480.704   65.842    0.227    0.426   49.196
  480.954   72.757    0.237    0.434   32.342
  481.204   80.079    0.256    0.422   22.303
  481.454   84.902    0.245    0.414   12.620
  481.704   85.011    0.224    0.415   11.785
  481.954   76.694    0.215    0.395   11.373
  482.204   71.724    0.273    0.371   13.301
  482.454   64.245    0.317    0.325   15.325
  482.704   66.086    0.318    0.315   17.704
  482.954   71.196    0.262    0.346   19.932
  483.204   69.830    0.233    0.363   23.043
  483.454   63.788    0.241    0.371   26.406
  483.704   57.357    0.268    0.382   31.423
  483.954   49.405    0.289    0.399   37.099
  484.204   45.514    0.292    0.410   46.903
  484.454   46.568    0.289    0.415   57.002
  484.704   49.157    0.289    0.415   69.939
  484.954   53.166    0.299    0.411   85.055
  485.204   57.625    0.302    0.407  110.214
  485.454   58.113    0.293    0.396  135.164
  485.704   55.474    0.292    0.388  163.707
  485.954   52.769    0.291    0.385  208.732
  486.204   51.637    0.291    0.392  272.120
  486.454   51.170    0.292    0.398  347.888
  486.704   51.812    0.299    0.402  430.837
  486.954   52.491    0.303    0.408  540.313
  487.204   52.813    0.309    0.406  659.175
  487.454   56.535    0.318    0.400  466.578
  487.704   58.805    0.308    0.395  323.178
  487.954   61.882    0.303    0.391  264.570
  488.204   63.946    0.299    0.394  215.888
  488.454   60.316    0.293    0.399  185.947
  488.704   59.006    0.283    0.400  130.582
  488.954   61.963    0.281    0.390  103.160
  489.204   69.404    0.273    0.385   55.591
  489.454   77.973    0.262    0.376   34.544
  489.704   93.351    0.244    0.369   22.061
  489.954  109.401    0.196    0.378   14.567
  490.204  119.604    0.177    0.387   11.443
  490.454  123.233    0.169    0.400    9.922
  490.704  121.676    0.164    0.407    9.047
  490.954  117.533    0.164    0.412    8.977
  491.204  116.410    0.163    0.418    9.161
  491.454  114.625    0.164    0.403    9.560
  491.704  114.753    0.174    0.390   10.119
  491.954  114.118    0.186    0.391   10.421
  492.204  112.844    0.206    0.397   10.530
  492.454  107.605    0.200    0.398   10.858
  492.704   99.209    0.183    0.408   11.416
  492.954   92.210    0.165    0.424   11.986
  493.204   85.645    0.162    0.407   13.139
  493.454   85.942    0.148    0.372   13.987
  493.704   96.302    0.139    0.370   13.970
  493.954  106.690    0.156    0.391   12.967
  494.204  113.513    0.150    0.404   11.707
  494.454  110.124    0.145    0.415   10.364
  494.704  103.019    0.150    0.418    9.664
  494.954   97.037    0.158    0.422    9.372
  495.204   94.922    0.178    0.398    9.425
  495.454   92.306    0.171    0.385    9.850
  495.704   87.924    0.180    0.376   10.470
  495.954   83.807    0.190    0.381   11.111
  496.204   84.697    0.191    0.389   12.046
  496.454   86.236    0.184    0.388   12.581
  496.704   84.292    0.187    0.389   13.144
  496.954   79.657    0.198    0.392   13.976
  497.204   75.961    0.206    0.398   15.188
  497.454   75.221    0.225    0.401   15.795
  497.704   74.935    0.232    0.406   17.099
  497.954   71.273    0.235    0.409   18.781
  498.204   66.650    0.239    0.411   19.643
  498.454   65.429    0.244    0.410   20.739
  498.704   65.496    0.232    0.405   22.245
  498.954   64.913    0.226    0.407   22.771
  499.204   64.076    0.226    0.412   23.962
  499.454   66.601    0.209    0.406   24.651
  499.704   70.675    0.197    0.397   23.379
  499.954   74.180    0.190    0.395   22.247
  500.204   80.086    0.211    0.405   20.722
  500.454   86.776    0.189    0.402   19.532
  500.704   89.584    0.175    0.399   18.411
  500.954   86.704    0.177    0.403   17.872
  501.204   82.316    0.196    0.409   17.549
  501.454   77.070    0.210    0.418   18.334
  501.704   72.280    0.229    0.427   19.991
  501.954   68.282    0.245    0.420   22.369
  502.204   66.645    0.259    0.411   24.562
  502.454   71.484    0.264    0.404   27.362
  502.704   73.823    0.242    0.405   28.094
  502.954   76.039    0.232    0.411   26.794
  503.204   77.505    0.229    0.409   24.407
  503.454   79.287    0.233    0.405   22.869
  503.704   80.214    0.234    0.402   21.501
  503.954   80.730    0.223    0.405   20.913
  504.204   80.095    0.221    0.409   19.810
  504.454   80.188    0.223    0.417   19.647
  504.704   77.502    0.229    0.418   19.644
  504.954   76.701    0.232    0.415   19.628
  505.204   77.174    0.226    0.410   19.996
  505.454   75.930    0.224    0.407   20.667
  505.704   71.784    0.229    0.411   20.895
  505.954   67.761    0.243    0.416   22.240
  506.204   67.180    0.262    0.419   23.983
  506.454   72.274    0.261    0.408   24.003
  506.704   78.942    0.241    0.399   21.523
  506.954   84.038    0.225    0.388   19.160
  507.204   87.600    0.221    0.381   17.519
  507.454   84.353    0.226    0.384   16.638
  507.704   78.710    0.234    0.398   16.934
  507.954   74.827    0.245    0.413   17.565
  508.204   70.633    0.245    0.429   18.657
  508.454   71.270    0.253    0.417   20.479
  508.704   75.791    0.235    0.411   21.608
  508.954   76.427    0.220    0.405   20.896
  509.204   71.557    0.238    0.414   21.277
  509.454   63.098    0.269    0.426   23.434
  509.704   60.599    0.281    0.436   25.410
  509.954   54.338    0.289    0.432   28.209
  510.204   50.763    0.298    0.429   31.508
  510.454   50.579    0.296    0.427   34.657
  510.704   56.687    0.292    0.424   26.186
  510.954   63.035    0.288    0.418   17.443
  511.204   68.427    0.285    0.413   13.556
  511.454   75.939    0.272    0.407   11.521
  511.704   79.895    0.278    0.402    9.748
  511.954   72.801    0.290    0.397    8.779
  512.204   68.498    0.292    0.402    7.765
  512.454   66.291    0.295    0.406    7.167
  512.704   61.028    0.299    0.410    6.767
  512.954   59.104    0.304    0.412    6.133
  513.204   57.447    0.305    0.411    5.902
  513.454   54.725    0.306    0.405    5.426
  513.704   54.026    0.298    0.394    5.210
  513.954   56.965    0.289    0.396    4.925
  514.204   59.673    0.281    0.404    4.688
  514.454   64.513    0.286    0.408    4.495
  514.704   65.942    0.280    0.406    4.337
  514.954   65.935    0.295    0.402    4.126
  515.204   61.208    0.295    0.399    4.007
  515.454   58.953    0.286    0.394    3.799
  515.704   57.548    0.280    0.390    3.699
  515.954   53.770    0.289    0.393    3.541
