~VERSION INFORMATION
 VERS.                 2.0:   CWLS LOG ASCII STANDARD -VERSION 2.0
 WRAP.                  NO:   ONE LINE PER DEPTH STEP
~WELL INFORMATION BLOCK
#MNEM.UNIT           DATA                    DESCRIPTION OF MNEMONIC
#---------    -------------------            -------------------------------
# Generated from Intellog Unique Number	CS_69_70/WELL/637
WELL.         CANADA-CITIES SERVICES         : Well_name    - WELL
LOC .         00/05-15-069-11W4/0            : Location     - LOCATION
UWI .         00/05-15-069-11W4/0            : Uwi          - UNIQUE WELL ID
ENTR.         SP                             : Entered      - ENTERED BY
SRVC.         SCHLUMBERGER                   : Scn          - SERVICE COMPANY
STRT.M        300                            : top_depth    - START DEPTH
STOP.M        490                            : bot_depth    - STOP DEPTH
STEP.M        0.25                           : increment    - STEP LENGTH
 NULL. -999.2500:NULL Value
~CURVE INFORMATION BLOCK
#MNEM UNIT       ERCB CURVE CODE    CURVE DESCRIPTION
#-----------   ------------------   ----------------------------------
DEPT.M        00 001 00 00         : DEPTH        - DEPTH
ILD .OHMM     00 120 00 00         : RESD         - DEEP RESISTIVITY (DIL)
DPHI.V/V      00 890 00 00         : PHID         - DENSITY POROSITY (LIMESTONE)
NPHI.V/V      00 330 00 00         : PHIN         - NEUTRON POROSITY (LIMESTONE)
GR  .API      00 310 00 00         : GR           - GAMMA RAY
~PARAMETER INFORMATION
#MNEM.UNIT           DATA             DESCRIPTION OF MNEMONIC
#---------         -----------     ------------------------------
GL  .M        623.6                : gl           - GROUND LEVEL ELEVATION
EREF.M        627.05               : kb           - ELEVATION OF DEPTH REFERENCE
DATM.M        623.6                : datum        - DATUM ELEVATION
TDD .M        604.7                : tdd          - TOTAL DEPTH DRILLER
RUN .         ONE                  : Run          - RUN NUMBER
ENG .         BILL                 : Engineer     - RECORDING ENGINEER
WIT .         JIM                  : Witness      - WITNESSED BY
MUD .         GEL                  : Mud_type     - MUD TYPE
MATR.         LIMESTONE            : Logunit      - NEUTRON MATRIX
TMAX.C        21                   : BHT          - MAXIMUM RECORDED TEMPERATURE
BHTD.M        604.7                : BHTDEP       - MAXIMUM RECORDED TEMPERATURE
MATR.         1                    : LOGUNIT      - NEUTRON MATRIX
RMT .C        25                   : MDTP         - TEMPERATURE OF MUD
NEUT.         1                    : NEUTRON      - NEUTRON TYPE
RESI.         0                    : RESIST       - RESISTIVITY TYPE
RMC .OHMM     0.25                 : RMC          - RESISTIVITY OF MUD CAKE
RMF .OHMM     0.25                 : RMF          - RESISTIVITY OF MUD FILTRATE
SUFT.C        15                   : SUFT         - SURFACE TEMPERATURE
~A  DEPTH     RESD     PHID     PHIN       GR
# ...
  343.500    5.641    0.278    0.377   98.748
  343.750    5.698    0.288    0.382   97.110
  344.000    5.690    0.299    0.390   94.980
  344.250    5.619    0.310    0.395   87.033
  344.500    5.570    0.308    0.387   81.779
  344.750    5.511    0.295    0.381   79.160
  345.000    5.515    0.286    0.378   81.380
  345.250    5.581    0.273    0.379   84.832
  345.500    5.701    0.260    0.385   86.376
  345.750    5.890    0.246    0.393   87.922
  346.000    6.121    0.232    0.394   89.960
  346.250    6.458    0.209    0.381   91.202
  346.500    6.595    0.242    0.374   90.236
  346.750    6.712    0.271    0.389   87.189
  347.000    6.218    0.254    0.405   88.674
  347.250    5.890    0.239    0.405   94.942
  347.500    5.591    0.227    0.402   99.552
  347.750    5.408    0.217    0.401  105.144
  348.000    5.321    0.211    0.406  103.627
  348.250    5.294    0.214    0.408   99.230
  348.500    5.377    0.226    0.414  101.942
  348.750    5.525    0.233    0.426  107.354
  349.000    5.644    0.237    0.423  109.142
  349.250    5.777    0.239    0.412  108.730
  349.500    5.913    0.237    0.409  112.054
  349.750    6.040    0.234    0.405  115.133
  350.000    6.136    0.233    0.403  118.459
  350.250    6.268    0.242    0.409  117.615
  350.500    6.320    0.243    0.419  106.665
  350.750    6.229    0.250    0.417   99.020
  351.000    6.116    0.261    0.394  106.699
  351.250    6.052    0.275    0.376  109.345
  351.500    6.000    0.297    0.365   96.984
  351.750    5.992    0.305    0.373   84.684
  352.000    5.972    0.299    0.373   85.864
  352.250    5.943    0.294    0.364   89.557
  352.500    5.935    0.289    0.357   90.735
  352.750    5.939    0.284    0.359   89.526
  353.000    5.931    0.282    0.376   91.563
  353.250    5.923    0.289    0.389   92.866
  353.500    5.905    0.297    0.402   93.434
  353.750    5.909    0.304    0.409   92.714
  354.000    5.924    0.308    0.417   89.485
  354.250    5.951    0.311    0.422   87.046
  354.500    5.954    0.312    0.402   83.452
  354.750    5.957    0.308    0.398   81.626
  355.000    5.972    0.296    0.399   79.803
  355.250    5.977    0.285    0.395   78.655
  355.500    6.002    0.278    0.392   81.796
  355.750    6.017    0.273    0.403   92.963
  356.000    6.066    0.269    0.418  104.926
  356.250    6.151    0.280    0.431  112.662
  356.500    6.249    0.288    0.434  115.252
  356.750    6.311    0.301    0.411  109.078
  357.000    6.363    0.311    0.393  100.638
  357.250    6.391    0.308    0.394   95.874
  357.500    6.444    0.301    0.388   99.507
  357.750    6.485    0.303    0.375  101.912
  358.000    6.513    0.310    0.360   99.415
  358.250    6.554    0.313    0.373   91.832
  358.500    6.570    0.313    0.385   86.089
  358.750    6.574    0.313    0.384   89.412
  359.000    6.592    0.313    0.375   88.509
  359.250    6.620    0.314    0.371   84.666
  359.500    6.637    0.316    0.374   80.391
  359.750    6.629    0.316    0.379   76.302
  360.000    6.645    0.316    0.379   74.662
  360.250    6.637    0.316    0.374   75.292
  360.500    6.641    0.315    0.378   77.820
  360.750    6.620    0.312    0.386   81.636
  361.000    6.612    0.313    0.393   84.100
  361.250    6.567    0.319    0.398   80.442
  361.500    6.570    0.324    0.383   76.105
  361.750    6.562    0.326    0.375   72.016
  362.000    6.557    0.320    0.384   74.117
  362.250    6.559    0.311    0.399   77.012
  362.500    6.587    0.303    0.409   79.110
  362.750    6.642    0.297    0.403   78.083
  363.000    6.658    0.291    0.397   83.615
  363.250    6.687    0.287    0.406   89.756
  363.500    6.704    0.287    0.414   96.943
  363.750    6.721    0.288    0.420   99.591
  364.000    6.713    0.286    0.407   91.335
  364.250    6.716    0.275    0.411   93.989
  364.500    6.708    0.264    0.404   98.352
  364.750    6.699    0.256    0.391  103.821
  365.000    6.692    0.245    0.380  101.876
  365.250    6.695    0.236    0.371   98.644
  365.500    6.688    0.224    0.358   98.233
  365.750    6.691    0.216    0.353   98.860
  366.000    6.657    0.211    0.360  100.101
  366.250    6.612    0.213    0.365  102.016
  366.500    6.578    0.238    0.351  105.893
  366.750    6.533    0.253    0.344  107.929
  367.000    6.488    0.270    0.337  106.292
  367.250    6.432    0.276    0.334   99.137
  367.500    6.387    0.277    0.339   86.776
  367.750    6.355    0.272    0.347   80.971
  368.000    6.323    0.266    0.347   82.151
  368.250    6.292    0.270    0.335   83.454
  368.500    6.284    0.279    0.340   84.021
  368.750    6.264    0.287    0.355   78.950
  369.000    6.244    0.292    0.370   71.797
  369.250    6.224    0.285    0.364   68.197
  369.500    6.195    0.278    0.360   72.380
  369.750    6.175    0.274    0.361   74.969
  370.000    6.154    0.269    0.364   75.046
  370.250    6.135    0.275    0.365   80.765
  370.500    6.127    0.287    0.367   83.289
  370.750    6.154    0.297    0.369   81.466
  371.000    6.194    0.291    0.375   79.030
  371.250    6.220    0.287    0.379   82.784
  371.500    6.259    0.287    0.379   86.784
  371.750    6.229    0.288    0.376   90.293
  372.000    6.139    0.283    0.373   91.164
  372.250    5.949    0.274    0.371   82.235
  372.500    5.438    0.265    0.373   75.817
  372.750    4.916    0.258    0.386   78.347
  373.000    4.727    0.254    0.402   83.814
  373.250    4.461    0.258    0.407   89.773
  373.500    4.275    0.272    0.402   96.099
  373.750    4.166    0.288    0.403  101.323
  374.000    4.313    0.300    0.429  107.652
  374.250    4.618    0.316    0.448  108.646
  374.500    5.040    0.330    0.426  105.414
  374.750    5.427    0.330    0.402  100.099
  375.000    5.714    0.328    0.384   92.517
  375.250    6.075    0.325    0.370   86.589
  375.500    6.228    0.323    0.361   83.847
  375.750    6.375    0.325    0.382   83.189
  376.000    6.439    0.326    0.408   82.347
  376.250    6.505    0.328    0.423   80.340
  376.500    6.534    0.328    0.430   75.884
  376.750    6.513    0.327    0.392   73.142
  377.000    6.479    0.324    0.379   74.873
  377.250    6.399    0.319    0.383   77.279
  377.500    6.295    0.316    0.395   79.134
  377.750    6.216    0.315    0.398   80.376
  378.000    6.151    0.315    0.391   81.063
  378.250    6.096    0.321    0.386   79.302
  378.500    6.043    0.328    0.394   74.967
  378.750    5.912    0.329    0.402   69.960
  379.000    5.849    0.327    0.406   65.258
  379.250    5.809    0.325    0.392   65.150
  379.500    5.780    0.322    0.380   70.499
  379.750    5.783    0.319    0.373   72.227
  380.000    5.765    0.317    0.374   68.566
  380.250    5.757    0.314    0.382   65.153
  380.500    5.761    0.312    0.403   65.166
  380.750    5.754    0.311    0.413   69.414
  381.000    5.757    0.312    0.405   71.264
  381.250    5.783    0.315    0.402   72.076
  381.500    5.808    0.319    0.412   68.293
  381.750    5.856    0.322    0.421   65.061
  382.000    5.882    0.323    0.424   68.697
  382.250    5.920    0.319    0.414   70.302
  382.500    5.922    0.316    0.398   71.175
  382.750    5.960    0.314    0.387   71.128
  383.000    6.020    0.308    0.383   70.043
  383.250    6.092    0.299    0.380   69.570
  383.500    6.177    0.290    0.380   69.154
  383.750    6.263    0.284    0.381   69.231
  384.000    6.374    0.277    0.384   74.639
  384.250    6.512    0.272    0.397   80.662
  384.500    6.627    0.268    0.409   84.290
  384.750    6.836    0.265    0.416   89.147
  385.000    6.944    0.267    0.406   92.716
  385.250    7.079    0.278    0.396   94.754
  385.500    7.273    0.284    0.386   87.661
  385.750    7.586    0.290    0.378   77.936
  386.000    7.882    0.295    0.382   78.871
  386.250    8.206    0.295    0.393   82.934
  386.500    8.479    0.293    0.398   85.152
  386.750    8.661    0.290    0.394   85.534
