~VERSION INFORMATION
 VERS.                 2.0:   CWLS LOG ASCII STANDARD -VERSION 2.0
 WRAP.                  NO:   ONE LINE PER DEPTH STEP
~WELL INFORMATION BLOCK
#MNEM.UNIT           DATA                    DESCRIPTION OF MNEMONIC
#---------    -------------------            -------------------------------
# Generated from Intellog Unique Number	CW_73_75/WELL/2732
WELL.         SUNDANCE MCMORGAN  MARTENH 07- : Well_name    - WELL
LOC .         00/07-28-073-24W4/0            : Location     - LOCATION
UWI .         00/07-28-073-24W4/0            : Uwi          - UNIQUE WELL ID
ENTR.         JAYE                           : Entered      - ENTERED BY
SRVC.         SCHLUMBERGER                   : Scn          - SERVICE COMPANY
DATE.         19 MAR 73                      : Date         - LOG DATE
STRT.M        396.24                         : top_depth    - START DEPTH
STOP.M        624.74                         : bot_depth    - STOP DEPTH
STEP.M        0.25                           : increment    - STEP LENGTH
 NULL. -999.2500:NULL Value
~CURVE INFORMATION BLOCK
#MNEM UNIT       ERCB CURVE CODE    CURVE DESCRIPTION
#-----------   ------------------   ----------------------------------
DEPT.M        00 001 00 00         : DEPTH        - DEPTH
ILD .OHMM     00 120 00 00         : RESD         - DEEP RESISTIVITY (DIL)
NPHI.V/V      00 330 00 00         : PHIN         - NEUTRON POROSITY (SANDSTONE)
DPHI.V/V      00 890 00 00         : PHID         - DENSITY POROSITY (SANDSTONE)
GR  .API      00 310 00 00         : GR           - GAMMA RAY
CALI.MM       00 280 01 00         : CAL          - CALIPER
~PARAMETER INFORMATION
#MNEM.UNIT           DATA             DESCRIPTION OF MNEMONIC
#---------         -----------     ------------------------------
GL  .M        654.558              : gl           - GROUND LEVEL ELEVATION
EREF.M        656.844              : kb           - ELEVATION OF DEPTH REFERENCE
DATM.M        654.558              : datum        - DATUM ELEVATION
TDD .M        630.936              : tdd          - TOTAL DEPTH DRILLER
RUN .         ONE                  : Run          - RUN NUMBER
ENG .         MCLEVIN              : Engineer     - RECORDING ENGINEER
WIT .         LOWTHER              : Witness      - WITNESSED BY
BASE.         RD                   : Branch       - HOME BASE OF LOGGING UNIT
MUD .         GEL                  : Mud_type     - MUD TYPE
MATR.         SANDSTONE            : Logunit      - NEUTRON MATRIX
TMAX.C        28.8889              : BHT          - MAXIMUM RECORDED TEMPERATURE
BHTD.M        631.85               : BHTDEP       - MAXIMUM RECORDED TEMPERATURE
RMT .C        21.1111              : MDTP         - TEMPERATURE OF MUD
MUDD.KG/M     1104                 : MWT          - MUD DENSITY
NEUT.         1                    : NEUTRON      - NEUTRON TYPE
RESI.         0                    : RESIST       - RESISTIVITY TYPE
RM  .OHMM     3.04                 : RM           - RESISTIVITY OF MUD
RMC .OHMM     0                    : RMC          - RESISTIVITY OF MUD CAKE
RMF .OHMM     0                    : RMF          - RESISTIVITY OF MUD FILTRATE
SUFT.C        -17.7778             : SUFT         - SURFACE TEMPERATURE
~A  DEPTH     RESD     PHIN     PHID       GR      CAL
# ...
  432.740    4.770    0.496    0.211   68.462  153.635
  432.990    4.789    0.499    0.238   68.173  152.936
  433.240    4.890    0.489    0.227   70.575  152.132
  433.490    4.974    0.478    0.219   73.953  151.226
  433.740    5.097    0.483    0.216   74.399  150.319
  433.990    5.205    0.499    0.211   70.374  149.624
  434.240    5.226    0.515    0.215   67.148  149.231
  434.490    5.179    0.531    0.233   68.632  149.673
  434.740    5.133    0.534    0.231   70.789  150.735
  434.990    5.077    0.516    0.227   73.251  152.732
  435.240    5.004    0.491    0.236   74.980  154.206
  435.490    4.959    0.474    0.242   74.629  155.895
  435.740    4.979    0.518    0.251   71.952  156.852
  435.990    4.953    0.509    0.264   73.559  157.603
  436.240    4.818    0.471    0.237   77.184  158.039
  436.490    4.600    0.478    0.244   82.399  158.376
  436.740    4.392    0.467    0.230   87.248  158.817
  436.990    4.281    0.497    0.210   86.590  159.050
  437.240    4.234    0.511    0.185   82.201  159.287
  437.490    4.236    0.486    0.191   79.341  159.108
  437.740    4.301    0.493    0.219   80.887  158.818
  437.990    4.375    0.517    0.232   85.063  157.085
  438.240    4.458    0.530    0.197   89.114  154.626
  438.490    4.595    0.536    0.189   93.965  151.961
  438.740    4.735    0.526    0.206   98.078  151.569
  438.990    4.826    0.502    0.182  103.905  152.943
  439.240    4.900    0.477    0.163  106.980  155.454
  439.490    4.910    0.474    0.158  104.854  159.727
  439.740    4.939    0.488    0.164   97.284  164.312
  439.990    4.950    0.471    0.190   89.773  163.821
  440.240    4.989    0.501    0.199   79.757  163.432
  440.490    5.046    0.503    0.187   75.796  161.490
  440.740    5.076    0.497    0.189   73.669  157.479
  440.990    5.087    0.502    0.199   68.914  153.670
  441.240    5.051    0.480    0.214   66.971  152.143
  441.490    4.960    0.503    0.228   71.087  152.067
  441.740    4.691    0.516    0.219   74.160  153.129
  441.990    4.244    0.530    0.220   75.827  154.504
  442.240    3.768    0.543    0.224   79.391  155.874
  442.490    3.112    0.580    0.220   86.075  157.143
  442.740    2.617    0.599    0.210   92.331  159.034
  442.990    2.499    0.614    0.193   95.038  162.997
  443.240    2.708    0.624    0.163   94.319  168.101
  443.490    3.013    0.583    0.191   89.074  172.063
  443.740    3.314    0.522    0.230   75.141  170.122
  443.990    3.666    0.457    0.259   56.191  161.032
  444.240    3.995    0.446    0.230   54.494  158.259
  444.490    4.273    0.446    0.238   60.751  157.043
  444.740    4.437    0.463    0.215   70.737  157.383
  444.990    4.276    0.478    0.213   77.849  159.272
  445.240    4.030    0.495    0.212   85.083  162.511
  445.490    3.673    0.567    0.208   90.116  165.331
  445.740    3.341    0.604    0.200   96.066  172.403
  445.990    3.085    0.585    0.186   96.448  180.199
  446.240    3.109    0.595    0.179   93.404  183.746
  446.490    3.319    0.569    0.186   88.587  181.495
  446.740    3.699    0.546    0.213   82.302  171.989
  446.990    4.100    0.513    0.231   77.790  157.720
  447.240    4.426    0.497    0.214   76.033  155.261
  447.490    4.788    0.498    0.221   75.741  154.975
  447.740    5.018    0.505    0.219   75.820  154.070
  447.990    5.181    0.509    0.212   76.079  147.365
  448.240    5.300    0.468    0.210   76.093  152.259
  448.490    5.523    0.415    0.204   75.130  155.806
  448.740    5.974    0.383    0.156   72.393  158.112
  448.990    7.067    0.353    0.112   67.637  160.521
  449.240    8.628    0.338    0.103   66.797  166.659
  449.490    9.796    0.392    0.123   69.197  165.651
  449.740    9.353    0.442    0.184   70.313  161.636
  449.990    7.971    0.466    0.198   70.879  158.041
  450.240    6.857    0.475    0.202   72.302  156.304
  450.490    5.694    0.477    0.208   71.951  155.085
  450.740    5.316    0.478    0.216   67.011  154.074
  450.990    5.438    0.467    0.228   64.457  153.279
  451.240    5.904    0.411    0.207   64.412  152.995
  451.490    6.716    0.385    0.173   65.469  153.022
  451.740    7.265    0.405    0.157   67.746  153.146
  451.990    6.671    0.462    0.173   73.329  153.376
  452.240    6.102    0.506    0.176   78.485  153.817
  452.490    5.772    0.497    0.171   82.784  154.466
  452.740    5.481    0.475    0.163   85.978  156.154
  452.990    5.351    0.469    0.149   90.092  157.833
  453.240    5.119    0.487    0.095   93.839  162.626
  453.490    4.897    0.502    0.077   97.770  170.941
  453.740    4.606    0.515    0.115   99.682  175.110
  453.990    4.317    0.531    0.153   95.538  176.172
  454.240    4.359    0.563    0.192   89.803  168.740
  454.490    4.517    0.545    0.244   82.661  163.484
  454.740    4.823    0.547    0.250   76.926  160.816
  454.990    5.527    0.583    0.269   72.047  163.327
  455.240    6.526    0.598    0.312   64.721  167.186
  455.490    7.719    0.614    0.336   61.739  168.872
  455.740    8.412    0.528    0.279   69.648  166.517
  455.990    8.702    0.492    0.204   71.192  163.743
  456.240    8.803    0.472    0.221   71.207  160.043
  456.490    8.627    0.506    0.226   72.694  156.756
  456.740    8.360    0.491    0.238   74.542  154.811
  456.990    7.938    0.466    0.237   76.269  153.284
  457.240    7.608    0.462    0.211   79.466  152.689
  457.490    7.332    0.481    0.207   82.908  153.131
  457.740    7.001    0.492    0.201   83.658  152.534
  457.990    6.772    0.495    0.200   82.022  151.936
  458.240    6.527    0.492    0.195   83.935  152.274
  458.490    6.396    0.504    0.205   87.008  153.750
  458.740    6.245    0.523    0.192   92.041  155.230
  458.990    6.177    0.531    0.171   90.406  158.053
  459.240    6.122    0.521    0.166   87.302  159.839
  459.490    6.090    0.511    0.182   86.031  160.799
  459.740    6.137    0.499    0.163   84.150  161.037
  459.990    6.313    0.494    0.147   82.513  160.958
  460.240    6.616    0.489    0.151   80.388  160.879
  460.490    6.857    0.483    0.171   77.956  160.698
  460.740    6.885    0.479    0.196   74.790  160.828
  460.990    6.798    0.488    0.211   77.743  160.646
  461.240    6.662    0.507    0.195   81.795  160.777
  461.490    6.468    0.490    0.177   83.523  160.800
  461.740    6.292    0.478    0.171   85.436  160.931
  461.990    6.201    0.490    0.180   88.082  161.060
  462.240    6.146    0.495    0.174   89.198  161.088
  462.490    6.136    0.484    0.183   85.299  161.219
  462.740    6.127    0.507    0.182   84.274  161.141
  462.990    6.140    0.524    0.154   85.086  161.062
  463.240    6.165    0.532    0.155   83.636  160.883
  463.490    6.178    0.516    0.153   83.465  160.911
  463.740    6.192    0.488    0.153   84.276  162.590
  463.990    6.229    0.471    0.146   85.822  165.621
  464.240    6.242    0.478    0.135   87.671  166.479
  464.490    6.221    0.497    0.145   90.195  165.984
  464.740    6.176    0.507    0.155   87.885  164.870
  464.990    6.099    0.516    0.165   82.823  163.241
  465.240    5.988    0.536    0.177   81.617  161.403
  465.490    5.782    0.496    0.158   81.998  159.256
  465.740    5.572    0.481    0.147   82.504  158.347
  465.990    5.491    0.468    0.144   82.826  157.959
  466.240    5.534    0.473    0.135   82.778  159.644
  466.490    5.608    0.511    0.117   82.183  162.777
  466.740    5.780    0.528    0.164   77.609  164.563
  466.990    6.057    0.504    0.183   68.143  165.317
  467.240    6.407    0.508    0.198   60.756  163.892
  467.490    6.854    0.513    0.213   54.225  162.160
  467.740    7.526    0.496    0.226   47.817  160.733
  467.990    7.799    0.476    0.235   44.653  159.103
  468.240    7.786    0.455    0.232   44.422  156.744
  468.490    7.338    0.447    0.221   44.989  153.664
  468.740    6.814    0.443    0.214   45.677  150.376
  468.990    6.603    0.437    0.198   44.836  147.395
