~VERSION INFORMATION
 VERS.                 2.0:   CWLS LOG ASCII STANDARD -VERSION 2.0
 WRAP.                  NO:   ONE LINE PER DEPTH STEP
~WELL INFORMATION BLOCK
#MNEM.UNIT           DATA                    DESCRIPTION OF MNEMONIC
#---------    -------------------            -------------------------------
# Generated from Intellog Unique Number	CW_73_75/WELL/693
WELL.         CDN SUP ET AL FRANCIS 07-05    : Well_name    - WELL
LOC .         00/07-05-074-20W4/0            : Location     - LOCATION
UWI .         00/07-05-074-20W4/0            : Uwi          - UNIQUE WELL ID
ENTR.         JAYE                           : Entered      - ENTERED BY
SRVC.         SCHLUMBERGER                   : Scn          - SERVICE COMPANY
DATE.         15 MAR 76                      : Date         - LOG DATE
STRT.M        393.192                        : top_depth    - START DEPTH
STOP.M        609.692                        : bot_depth    - STOP DEPTH
STEP.M        0.25                           : increment    - STEP LENGTH
 NULL. -999.2500:NULL Value
~CURVE INFORMATION BLOCK
#MNEM UNIT       ERCB CURVE CODE    CURVE DESCRIPTION
#-----------   ------------------   ----------------------------------
DEPT.M        00 001 00 00         : DEPTH        - DEPTH
DPHI.V/V      00 890 00 00         : PHID         - DENSITY POROSITY (SANDSTONE)
NPHI.V/V      00 330 00 00         : PHIN         - NEUTRON POROSITY (SANDSTONE)
GR  .API      00 310 00 00         : GR           - GAMMA RAY
CALI.IN       00 280 01 00         : CAL          - CALIPER
ILD .OHMM     00 120 00 00         : RESD         - DEEP RESISTIVITY (DIL)
~PARAMETER INFORMATION
#MNEM.UNIT           DATA             DESCRIPTION OF MNEMONIC
#---------         -----------     ------------------------------
GL  .M        705.612              : gl           - GROUND LEVEL ELEVATION
EREF.M        708.965              : kb           - ELEVATION OF DEPTH REFERENCE
DATM.M        705.612              : datum        - DATUM ELEVATION
TDD .M        682.752              : tdd          - TOTAL DEPTH DRILLER
RUN .         ONE                  : Run          - RUN NUMBER
BASE.         EDMONTON             : Branch       - HOME BASE OF LOGGING UNIT
MATR.         SANDSTONE            : Logunit      - NEUTRON MATRIX
TMAX.C        28.8889              : BHT          - MAXIMUM RECORDED TEMPERATURE
BHTD.M        682.752              : BHTDEP       - MAXIMUM RECORDED TEMPERATURE
RMT .C        -16.45               : MDTP         - TEMPERATURE OF MUD
MUDD.KG/M     0                    : MWT          - MUD DENSITY
NEUT.         1                    : NEUTRON      - NEUTRON TYPE
RESI.         0                    : RESIST       - RESISTIVITY TYPE
RM  .OHMM     5.48                 : RM           - RESISTIVITY OF MUD
RMC .OHMM     4                    : RMC          - RESISTIVITY OF MUD CAKE
RMF .OHMM     2.86                 : RMF          - RESISTIVITY OF MUD FILTRATE
SUFT.C        -17.7778             : SUFT         - SURFACE TEMPERATURE
~A  DEPTH     PHID     PHIN       GR      CAL     RESD
  393.192    0.199    0.485  113.135    9.122    3.147
  393.442    0.208    0.486  114.558    9.118    3.142
  393.692    0.196    0.487  114.557    9.118    3.166
  393.942    0.212    0.478  111.643    9.143    3.201
  394.192    0.192    0.470  109.535    9.184    3.237
  394.442    0.181    0.477  106.807    9.204    3.279
  394.692    0.173    0.490  105.071    9.188    3.390
  394.942    0.188    0.497  104.636    9.171    3.510
  395.192    0.195    0.482  103.890    9.142    3.702
  395.442    0.197    0.475  100.915    9.072    3.990
  395.692    0.190    0.481   94.904    9.001    4.486
  395.942    0.195    0.487   88.644    8.890    5.192
  396.192    0.215    0.476   79.907    8.584    6.010
  396.442    0.233    0.446   77.489    8.501    6.373
  396.692    0.218    0.439   82.072    8.733    6.079
  396.942    0.218    0.454   81.389    8.567    5.244
  397.192    0.256    0.437   85.043    8.790    4.467
  397.442    0.247    0.418   94.521    8.992    4.245
  397.692    0.242    0.435   99.786    9.079    5.013
  397.942    0.243    0.455  107.963    9.157    6.074
  398.192    0.233    0.480  104.368    9.203    8.469
  398.442    0.218    0.486   97.489    9.223   11.596
  398.692    0.239    0.466   76.298    9.083   13.820
  398.942    0.291    0.444   57.275    8.703   14.258
  399.192    0.349    0.365   50.706    7.905   13.017
  399.442    0.355    0.324   50.271    7.761   10.729
  399.692    0.353    0.320   57.890    7.728    9.601
  399.942    0.350    0.326   69.599    7.740    8.765
  400.192    0.344    0.345   77.466    7.814    8.150
  400.442    0.327    0.366   85.581    7.917    7.495
  400.692    0.304    0.389   92.642    8.128    6.905
  400.942    0.272    0.408   97.721    8.289    6.503
  401.192    0.252    0.407  101.065    8.454    6.169
  401.442    0.236    0.403   99.205    8.747    5.788
  401.692    0.210    0.407   96.539    9.090    5.643
  401.942    0.204    0.423   98.397    9.391    5.686
  402.192    0.184    0.435  104.591    9.284    6.018
  402.442    0.159    0.415  109.360    9.230    6.464
  402.692    0.138    0.432  107.004    9.379    6.904
  402.942    0.213    0.451  100.992    9.519    7.136
  403.192    0.218    0.470   87.980    9.651    7.138
  403.442    0.246    0.467   84.757    9.680    6.972
  403.692    0.262    0.424   84.321    9.304    6.518
  403.942    0.238    0.402   84.320    9.552    6.049
  404.192    0.234    0.421   86.053    9.770    5.833
  404.442    0.288    0.424   90.017    9.200    5.761
  404.692    0.233    0.429   96.397    9.332    5.825
  404.942    0.244    0.455  101.724    9.733    6.065
  405.192    0.259    0.484   98.190    9.774    6.467
  405.442    0.261    0.489   91.250    9.753    6.996
  405.692    0.263    0.456   93.293    9.361    7.723
  405.942    0.234    0.425   96.141    9.059    8.310
  406.192    0.224    0.402   95.830    8.745    8.372
  406.442    0.235    0.386   96.262    8.733    8.435
  406.692    0.237    0.389  100.350    8.832    8.687
  406.942    0.231    0.399  102.145    9.034    9.279
  407.192    0.222    0.415  102.763    8.741   10.113
  407.442    0.259    0.427   92.167    8.505   11.493
  407.692    0.249    0.408   81.384    8.311   13.159
  407.942    0.246    0.395   68.372    8.100   15.740
  408.192    0.280    0.375   55.855    7.885   16.751
  408.442    0.299    0.342   41.293    7.765   16.755
  408.692    0.316    0.299   40.796    7.707   14.938
  408.942    0.327    0.306   42.467    7.699   13.269
  409.192    0.304    0.333   48.785    7.753   11.489
  409.442    0.263    0.359   54.794    7.765   10.040
  409.692    0.234    0.383   57.642    7.790    9.083
  409.942    0.250    0.406   59.499    7.810    8.986
  410.192    0.289    0.410   61.852    7.831    9.136
  410.442    0.307    0.385   66.250    7.950    9.375
  410.692    0.299    0.363   72.072    8.091    9.343
  410.942    0.259    0.371   79.382    8.285    9.142
  411.192    0.217    0.399   86.629    8.532    8.865
  411.442    0.229    0.400   94.806    8.859    8.659
  411.692    0.225    0.382   98.770    9.284    8.519
  411.942    0.215    0.398   91.705    9.495    8.261
  412.192    0.215    0.397   89.411    9.594    7.995
  412.442    0.221    0.391   90.648    9.796    7.599
  412.692    0.216    0.390   92.939    9.511    6.975
  412.942    0.233    0.402   95.292    9.255    5.645
  413.192    0.238    0.393  100.557    9.234    4.577
  413.442    0.232    0.380  106.504    9.420    3.892
  413.692    0.222    0.401  113.070    9.461    3.514
  413.942    0.218    0.436  120.441    9.465    3.267
  414.192    0.188    0.474  127.750    9.448    3.128
  414.442    0.175    0.513  132.334    9.465    3.039
  414.692    0.207    0.536  129.916    9.514    3.001
  414.942    0.179    0.542  123.285    9.654    3.029
  415.192    0.153    0.554  126.071    9.815    3.119
  415.442    0.161    0.558  124.211    9.580    3.284
  415.692    0.180    0.524  123.156    9.187    3.585
  415.942    0.172    0.516  122.783    9.542    4.375
  416.192    0.193    0.525  122.162   10.447    5.301
  416.442    0.293    0.553  120.301   10.723    6.091
  416.692    0.318    0.530  116.087   10.492    6.365
  416.942    0.311    0.502  110.261   10.215    6.240
  417.192    0.309    0.478  108.277    9.905    6.173
  417.442    0.319    0.451  107.036   10.182    6.242
  417.692    0.291    0.461  109.885   10.640    6.511
  417.942    0.308    0.450  111.866   10.157    6.943
  418.192    0.272    0.434  109.200   11.028    7.322
  418.442    0.270    0.456  105.233   11.437    7.679
  418.692    0.324    0.478  103.187   10.805    8.025
  418.942    0.294    0.503   96.866    9.975    8.189
  419.192    0.307    0.446   85.216    9.285    8.342
  419.442    0.267    0.408   81.745    8.987    8.344
  419.692    0.242    0.402   85.028    9.120    8.315
  419.942    0.224    0.422   86.327    9.086    8.347
  420.192    0.229    0.418   90.353    9.016    8.334
  420.442    0.236    0.407   94.812    8.971    8.245
  420.692    0.239    0.419   92.456    9.090    8.142
  420.942    0.225    0.424   91.215    9.359    7.909
  421.192    0.257    0.457   94.559    9.681    7.571
  421.442    0.281    0.471   95.673    9.792    7.369
  421.692    0.255    0.462   87.122    9.672    7.184
  421.942    0.294    0.441   78.880    9.325    6.992
  422.192    0.270    0.395   80.923    9.693    6.904
  422.442    0.225    0.395   88.976   10.816    6.880
  422.692    0.243    0.416   96.099   10.490    6.932
  422.942    0.251    0.433   96.469    9.804    6.934
  423.192    0.263    0.450   93.122    9.370    6.847
  423.442    0.269    0.452   95.723    9.077    6.627
  423.692    0.272    0.464   96.775    9.044    6.333
  423.942    0.286    0.490   97.764    9.110    6.163
  424.192    0.292    0.481  102.038    9.229    6.053
  424.442    0.283    0.457  110.834    9.485    6.021
  424.692    0.269    0.472  109.965    9.807    6.078
  424.942    0.277    0.486  103.644    9.840    6.374
  425.192    0.269    0.500   92.924    9.914    7.088
  425.442    0.294    0.501   83.505    9.307    7.968
  425.692    0.321    0.478   75.077    8.791    9.139
  425.942    0.274    0.460   72.721    8.621   12.086
  426.192    0.282    0.458   71.914    8.526   15.077
  426.442    0.296    0.479   72.346    8.510   16.857
  426.692    0.288    0.471   65.963    8.514   16.525
  426.942    0.151    0.436   61.996    8.522   15.059
  427.192    0.115    0.404   55.799    8.559   13.773
  427.442    0.103    0.313   57.036    8.579   12.370
  427.692    0.154    0.412   60.629    8.678   11.048
  427.942    0.209    0.459   71.903    8.798    9.140
  428.192    0.320    0.472   81.877    8.864    8.314
  428.442    0.326    0.473   83.300    8.843    8.120
  428.692    0.282    0.470   86.273    8.818    8.548
  428.942    0.262    0.476   91.600    8.802    9.064
  429.192    0.258    0.472   92.031    8.798    9.200
  429.442    0.273    0.468   88.808    8.789    9.286
