~VERSION INFORMATION
 VERS.                 2.0:   CWLS LOG ASCII STANDARD -VERSION 2.0
 WRAP.                  NO:   ONE LINE PER DEPTH STEP
~WELL INFORMATION BLOCK
#MNEM.UNIT           DATA                    DESCRIPTION OF MNEMONIC
#---------    -------------------            -------------------------------
# Generated from Intellog Unique Number	CS_77_79/WELL/3292
WELL.         ALLIED ROXANA MINERALS LTD.    : Well_name    - WELL
LOC .         00/06-16-079-16W4/0            : Location     - LOCATION
UWI .         00/06-16-079-16W4/0            : Uwi          - UNIQUE WELL ID
ENTR.         JOETTE                         : Entered      - ENTERED BY
SRVC.         SCHLUMBERGER                   : Scn          - SERVICE COMPANY
DATE.         08-24-92                       : Date         - LOG DATE
STRT.M        213.36                         : top_depth    - START DEPTH
STOP.M        390.11                         : bot_depth    - STOP DEPTH
STEP.M        0.25                           : increment    - STEP LENGTH
 NULL. -999.2500:NULL Value
~CURVE INFORMATION BLOCK
#MNEM UNIT       ERCB CURVE CODE    CURVE DESCRIPTION
#-----------   ------------------   ----------------------------------
DEPT.M        00 001 00 00         : DEPTH        - DEPTH
GR  .API      00 310 00 00         : GR           - GAMMA RAY
NPHI.V/V      00 330 00 00         : PHIN         - NEUTRON POROSITY (SANDSTONE)
ILD .OHMM     00 120 00 00         : RESD         - DEEP RESISTIVITY (DIL)
~PARAMETER INFORMATION
#MNEM.UNIT           DATA             DESCRIPTION OF MNEMONIC
#---------         -----------     ------------------------------
GL  .M        575.462              : gl           - GROUND LEVEL ELEVATION
EREF.M        578.51               : kb           - ELEVATION OF DEPTH REFERENCE
DATM.M        578.51               : datum        - DATUM ELEVATION
TDD .M        389.23               : tdd          - TOTAL DEPTH DRILLER
RUN .         ONE                  : Run          - RUN NUMBER
ENG .         BILL                 : Engineer     - RECORDING ENGINEER
WIT .         JIM                  : Witness      - WITNESSED BY
MUD .         GEL                  : Mud_type     - MUD TYPE
MATR.         SANDSTONE            : Logunit      - NEUTRON MATRIX
TMAX.C        15.5556              : BHT          - MAXIMUM RECORDED TEMPERATURE
BHTD.M        389.23               : BHTDEP       - MAXIMUM RECORDED TEMPERATURE
MATR.         1                    : LOGUNIT      - NEUTRON MATRIX
RMT .C        15.5556              : MDTP         - TEMPERATURE OF MUD
NEUT.         1                    : NEUTRON      - NEUTRON TYPE
RESI.         0                    : RESIST       - RESISTIVITY TYPE
RMC .OHMM     4.71                 : RMC          - RESISTIVITY OF MUD CAKE
RMF .OHMM     4.71                 : RMF          - RESISTIVITY OF MUD FILTRATE
SUFT.C        5                    : SUFT         - SURFACE TEMPERATURE
~A  DEPTH       GR     PHIN     RESD
# ...
  321.860   70.030    0.519   11.017
  322.110   69.442    0.516   10.622
  322.360   69.467    0.487   10.241
  322.610   68.266    0.493    9.872
  322.860   68.292    0.508    9.517
  323.110   69.543    0.545    9.174
  323.360   71.407    0.570    8.845
  323.610   72.659    0.561    8.847
  323.860   70.232    0.566    8.687
  324.110   69.031    0.564    8.531
  324.360   70.282    0.543    8.377
  324.610   72.146    0.540    8.379
  324.860   74.011    0.537    8.229
  325.110   74.655    0.541    8.232
  325.360   73.454    0.553    8.084
  325.610   73.480    0.555    8.085
  325.860   72.886    0.544    8.087
  326.110   70.471    0.524    8.089
  326.360   71.097    0.514    8.242
  326.610   72.968    0.507    8.554
  326.860   69.927    0.484    8.878
  327.110   68.107    0.421    9.214
  327.360   63.841    0.261    9.562
  327.610   58.962    0.294    9.744
  327.860   55.928    0.440    9.928
  328.110   62.697    0.480    9.930
  328.360   67.020    0.511    9.574
  328.610   67.652    0.485    9.401
  328.860   66.457    0.431    9.232
  329.110   64.036    0.391    9.234
  329.360   62.823    0.336    9.067
  329.610   62.848    0.380    9.070
  329.860   66.558    0.465    9.072
  330.110   68.429    0.501    9.074
  330.360   68.441    0.509    9.077
  330.610   68.473    0.503    9.080
  330.860   69.111    0.491    8.917
  331.110   70.988    0.483    8.757
  331.360   71.614    0.470    8.758
  331.610   72.252    0.480    8.443
  331.860   72.897    0.485    8.291
  332.110   73.535    0.491    8.142
  332.360   73.554    0.517    7.995
  332.610   72.353    0.542    7.997
  332.860   69.319    0.514    8.148
  333.110   69.957    0.501    8.150
  333.360   71.822    0.491    8.305
  333.610   75.532    0.488    8.461
  333.860   76.176    0.474    8.309
  334.110   75.576    0.475    8.311
  334.360   74.375    0.475    8.012
  334.610   71.954    0.505    7.868
  334.860   70.140    0.520    7.585
  335.110   72.611    0.518    7.312
  335.360   75.708    0.512    7.049
  335.610   76.346    0.488    6.796
  335.860   78.817    0.479    6.551
  336.110   80.682    0.473    6.088
  336.360   81.933    0.471    5.869
  336.610   83.191    0.467    5.453
  336.860   85.062    0.491    5.256
  337.110   86.926    0.485    5.161
  337.360   89.397    0.521    5.068
  337.610   91.881    0.534    5.261
  337.860   92.513    0.564    5.360
  338.110   94.990    0.531    5.990
  338.360   98.694    0.476    6.215
  338.610  100.571    0.469    7.206
  338.860   99.370    0.462    8.202
  339.110   95.097    0.435    8.670
  339.360   90.831    0.433    9.167
  339.610   85.345    0.460    9.169
  339.860   82.299    0.463    9.171
  340.110   82.943    0.470    9.344
  340.360   84.195    0.465   10.062
  340.610   82.987    0.454   11.243
  340.860   79.334    0.412   11.885
  341.110   72.616    0.343   12.798
  341.360   65.897    0.279   13.284
  341.610   68.988    0.380   13.289
  341.860   81.274    0.441   13.292
  342.110   82.526    0.439   13.294
  342.360   82.564    0.451   13.298
  342.610   82.576    0.461   12.357
  342.860   85.066    0.467   11.912
  343.110   86.924    0.475   11.273
  343.360   88.789    0.483   11.070
  343.610   88.207    0.486   10.672
  343.860   85.173    0.433   10.479
  344.110   83.960    0.428   10.291
  344.360   82.152    0.422   10.107
  344.610   82.171    0.417   10.296
  344.860   85.881    0.414   10.686
  345.110   87.745    0.406   11.298
  345.360   87.164    0.400   11.510
  345.610   86.563    0.395   11.946
  345.860   82.923    0.382   11.951
  346.110   86.620    0.405   11.952
  346.360   97.074    0.416   11.738
  346.610  101.390    0.423   10.905
  346.860  103.255    0.462    9.766
  347.110  102.060    0.495    8.908
  347.360   99.621    0.494    8.587
  347.610   96.587    0.493    8.127
  347.860   96.618    0.469    7.552
  348.110   96.631    0.463    7.415
  348.360   94.817    0.497    6.519
  348.610   91.170    0.525    6.170
  348.860   91.815    0.564    5.423
  349.110   91.840    0.589    4.595
  349.360   91.246    0.608    3.752
  349.610   89.432    0.621    2.501
  349.860   86.392    0.634    2.043
  350.110   83.965    0.647    2.120
  350.360   82.151    0.647    2.369
  350.610   82.789    0.629    2.598
  350.860   82.207    0.593    3.125
  351.110   79.780    0.520    4.278
  351.360   77.353    0.459    5.643
  351.610   76.159    0.440    6.304
  351.860   75.558    0.414    7.175
  352.110   74.970    0.431    8.166
  352.360   74.382    0.419    9.469
  352.610   73.801    0.433    9.826
  352.860   72.606    0.414    9.473
  353.110   71.405    0.394    8.802
  353.360   71.424    0.386    8.178
  353.610   72.069    0.383    7.460
  353.860   76.992    0.444    7.460
  354.110   89.279    0.465    5.765
  354.360   88.691    0.442    4.884
  354.610   85.651    0.448    4.709
  354.860   86.909    0.495    4.624
  355.110   88.153    0.525    4.457
  355.360   89.418    0.562    4.377
  355.610   91.895    0.573    4.298
  355.860   93.146    0.567    4.300
  356.110   95.004    0.538    4.301
  356.360   99.934    0.513    4.464
  356.610   99.346    0.479    4.548
  356.860   94.467    0.473    5.082
  357.110   93.266    0.498    5.274
  357.360  103.713    0.518    5.179
  357.610  108.649    0.533    5.085
  357.860  110.514    0.503    4.902
  358.110  112.384    0.480    4.996
  358.360  109.344    0.477    5.090
  358.610  106.298    0.491    5.583
  358.860   95.288    0.461    6.238
  359.110   86.117    0.413    7.099
  359.360   77.560    0.385    8.231
  359.610   64.710    0.364    7.936
  359.860   56.147    0.380    7.238
  360.110   64.761    0.482    6.481
  360.360   72.143    0.561    5.491
  360.610   77.686    0.588    5.293
  360.860   77.717    0.544    5.807
  361.110   75.284    0.489    6.369
  361.360   70.405    0.441    7.385
  361.610   66.138    0.394    9.922
  361.860   60.646    0.387   11.502
  362.110   55.154    0.378   28.408
  362.360   51.501    0.370   41.861
  362.610   46.008    0.367   38.185
  362.860   49.099    0.349   35.476
  363.110   55.868    0.348   30.058
  363.360   68.167    0.409   26.916
  363.610   73.090    0.445   23.663
  363.860   84.150    0.397   22.812
  364.110   86.027    0.384   23.674
  364.360   84.814    0.363   24.121
  364.610   82.387    0.372   24.577
  364.860   79.966    0.380   23.694
  365.110   86.122    0.390   21.613
  365.360   89.213    0.393   18.651
  365.610   89.851    0.391   16.397
  365.860   89.876    0.391   15.519
  366.110   88.068    0.381   14.961
  366.360   86.261    0.366   14.691
  366.610   85.053    0.375   14.970
  366.860   83.233    0.368   15.536
  367.110   80.206    0.358   15.828
  367.360   78.998    0.366   17.362
  367.610   77.178    0.367   19.399
  367.860   74.144    0.356   21.279
  368.110   71.717    0.343   20.897
  368.360   71.129    0.337   19.777
  368.610   74.827    0.360   17.710
  368.860   81.602    0.393   15.569
  369.110   88.984    0.392   13.687
  369.360   95.140    0.386   12.954
  369.610   96.397    0.382   13.443
  369.860   93.964    0.372   13.952
  370.110   89.698    0.360   15.590
  370.360   87.271    0.351   17.102
  370.610   87.915    0.363   17.105
  370.860   84.256    0.374   17.109
  371.110   81.216    0.382   16.802
  371.360   80.015    0.388   16.198
  371.610   81.886    0.402   15.906
  371.860   85.596    0.401   15.906
  372.110   88.073    0.395   12.994
  372.360   88.705    0.396   12.995
  372.610   90.576    0.408   12.999
  372.860   93.053    0.403   13.244
  373.110   94.298    0.403   14.002
  373.360   96.169    0.413   15.078
  373.610   93.742    0.426   16.539
  373.860   90.702    0.421   18.142
  374.110   86.442    0.403   22.643
  374.360   84.002    0.393   26.738
  374.610   78.510    0.391   29.876
  374.860   72.404    0.384   31.584
  375.110   65.073    0.388   31.592
  375.360   66.944    0.385   29.355
  375.610   71.260    0.376   27.272
  375.860   76.190    0.379   23.975
