~VERSION INFORMATION
 VERS.                 2.0:   CWLS LOG ASCII STANDARD -VERSION 2.0
 WRAP.                  NO:   ONE LINE PER DEPTH STEP
~WELL INFORMATION BLOCK
#MNEM.UNIT           DATA                    DESCRIPTION OF MNEMONIC
#---------    -------------------            -------------------------------
# Generated from Intellog Unique Number	CS_73_76/WELL/3217
WELL.         07-36-076-11W4                 : Well_name    - WELL
LOC .         00/07-36-076-11W4/0            : Location     - LOCATION
UWI .         00/07-36-076-11W4/0            : Uwi          - UNIQUE WELL ID
ENTR.         SP                             : Entered      - ENTERED BY
SRVC.         SCHLUMBERGER                   : Scn          - SERVICE COMPANY
STRT.M        256.032                        : top_depth    - START DEPTH
STOP.M        502.782                        : bot_depth    - STOP DEPTH
STEP.M        0.25                           : increment    - STEP LENGTH
 NULL. -999.2500:NULL Value
~CURVE INFORMATION BLOCK
#MNEM UNIT       ERCB CURVE CODE    CURVE DESCRIPTION
#-----------   ------------------   ----------------------------------
DEPT.M        00 001 00 00         : DEPTH        - DEPTH
GR  .API      00 310 00 00         : GR           - GAMMA RAY
DPHI.V/V      00 890 00 00         : PHID         - DENSITY POROSITY (SANDSTONE)
NPHI.V/V      00 330 00 00         : PHIN         - NEUTRON POROSITY (SANDSTONE)
ILD .OHMM     00 120 00 00         : RESD         - DEEP RESISTIVITY (DIL)
~PARAMETER INFORMATION
#MNEM.UNIT           DATA             DESCRIPTION OF MNEMONIC
#---------         -----------     ------------------------------
GL  .M        673.303              : gl           - GROUND LEVEL ELEVATION
EREF.M        677.509              : kb           - ELEVATION OF DEPTH REFERENCE
DATM.M        673.303              : datum        - DATUM ELEVATION
TDD .M        505.968              : tdd          - TOTAL DEPTH DRILLER
RUN .         ONE                  : Run          - RUN NUMBER
ENG .         BILL                 : Engineer     - RECORDING ENGINEER
WIT .         JIM                  : Witness      - WITNESSED BY
MUD .         GEL                  : Mud_type     - MUD TYPE
MATR.         SANDSTONE            : Logunit      - NEUTRON MATRIX
TMAX.C        27.7778              : BHT          - MAXIMUM RECORDED TEMPERATURE
BHTD.M        505.968              : BHTDEP       - MAXIMUM RECORDED TEMPERATURE
MATR.         1                    : LOGUNIT      - NEUTRON MATRIX
RMT .C        25                   : MDTP         - TEMPERATURE OF MUD
NEUT.         1                    : NEUTRON      - NEUTRON TYPE
RESI.         0                    : RESIST       - RESISTIVITY TYPE
RMC .OHMM     0.25                 : RMC          - RESISTIVITY OF MUD CAKE
RMF .OHMM     0.25                 : RMF          - RESISTIVITY OF MUD FILTRATE
SUFT.C        15                   : SUFT         - SURFACE TEMPERATURE
~A  DEPTH       GR     PHID     PHIN     RESD
# ...
  473.532   92.363    0.258    0.415   19.587
  473.782   95.303    0.240    0.423   19.838
  474.032   94.589    0.224    0.429   19.761
  474.282   89.648    0.205    0.422   19.542
  474.532   90.184    0.227    0.420   18.904
  474.782   89.138    0.234    0.422   18.811
  475.032   83.751    0.224    0.409   19.151
  475.282   80.617    0.221    0.397   19.945
  475.532   76.393    0.227    0.385   20.607
  475.782   73.953    0.213    0.395   20.943
  476.032   76.419    0.233    0.385   20.982
  476.282   89.144    0.253    0.371   20.468
  476.532   98.121    0.239    0.366   19.280
  476.782  102.845    0.228    0.368   17.772
  477.032  104.055    0.207    0.382   16.400
  477.282  108.812    0.196    0.389   15.185
  477.532  113.989    0.215    0.400   13.814
  477.782  115.338    0.209    0.411   12.725
  478.032  112.574    0.205    0.426   11.204
  478.282  107.543    0.182    0.440    9.842
  478.532  105.288    0.191    0.443    9.488
  478.782   98.764    0.213    0.438    9.824
  479.032   92.949    0.213    0.423   11.100
  479.282   93.176    0.220    0.406   12.159
  479.532   90.282    0.224    0.426   13.175
  479.782   87.312    0.233    0.429   13.927
  480.032   89.797    0.243    0.422   14.363
  480.282   92.391    0.247    0.416   14.815
  480.532   93.279    0.246    0.415   14.952
  480.782   95.010    0.226    0.423   15.404
  481.032   94.633    0.213    0.431   15.774
  481.282   97.346    0.228    0.422   16.062
  481.532   99.810    0.242    0.418   16.794
  481.782  100.905    0.241    0.424   17.649
  482.032   95.520    0.254    0.440   18.208
  482.282   86.398    0.264    0.462   18.715
  482.532   83.781    0.263    0.449   19.678
  482.782   84.998    0.259    0.443   19.297
  483.032   90.953    0.243    0.456   19.244
  483.282   93.917    0.232    0.471   19.218
  483.532   92.627    0.236    0.466   18.565
  483.782   89.064    0.249    0.468   19.019
  484.032   92.088    0.245    0.453   19.570
  484.282   97.866    0.248    0.434   20.558
  484.532  101.382    0.248    0.446   21.128
  484.782  101.055    0.241    0.438   22.173
  485.032   96.829    0.250    0.429   22.810
  485.282   90.388    0.246    0.426   24.043
  485.532   91.311    0.255    0.415   24.320
  485.782   96.288    0.265    0.422   24.100
  486.032   98.748    0.250    0.433   23.901
  486.282   97.962    0.240    0.443   24.672
  486.532   96.020    0.257    0.449   24.677
  486.782   99.900    0.283    0.451   25.187
  487.032  101.857    0.257    0.434   25.490
  487.282  101.496    0.262    0.425   25.563
  487.532   97.486    0.256    0.442   26.081
  487.782   91.097    0.266    0.457   26.564
  488.032   86.044    0.273    0.449   28.001
  488.282   83.977    0.272    0.435   27.160
  488.532   92.825    0.247    0.416   23.858
  488.782   97.144    0.244    0.413   20.829
  489.032   96.574    0.224    0.429   18.224
  489.282   91.664    0.225    0.451   20.951
  489.532   75.944    0.233    0.478   23.090
  489.782   63.035    0.290    0.450   28.309
  490.032   56.315    0.320    0.436   36.285
  490.282   56.159    0.322    0.438   46.022
  490.532   53.811    0.310    0.452   51.271
  490.782   45.590    0.307    0.446   54.864
  491.032   45.234    0.320    0.442   60.228
  491.282   48.585    0.325    0.447   62.202
  491.532   50.880    0.323    0.468   60.697
  491.782   50.272    0.316    0.478   56.371
  492.032   50.727    0.310    0.466   48.129
  492.282   52.771    0.304    0.459   39.564
  492.532   54.084    0.306    0.447   26.768
  492.782   50.290    0.303    0.431   23.548
  493.032   45.820    0.319    0.429   18.849
  493.282   44.422    0.321    0.421   11.736
  493.532   43.577    0.310    0.423    9.381
  493.782   43.626    0.327    0.431    8.265
  494.032   43.621    0.336    0.437    6.982
  494.282   43.588    0.337    0.459    6.251
  494.532   44.193    0.325    0.473    5.533
  494.782   44.691    0.318    0.461    5.159
  495.032   48.319    0.334    0.456    4.714
  495.282   51.206    0.335    0.452    4.364
  495.532   52.812    0.340    0.448    4.222
  495.782   55.930    0.343    0.444    4.002
  496.032   59.696    0.329    0.457    3.765
  496.282   57.626    0.318    0.462    3.684
  496.532   54.971    0.326    0.434    3.729
  496.782   51.915    0.318    0.435    3.728
  497.032   47.488    0.308    0.438    3.727
  497.282   52.485    0.305    0.436    3.723
  497.532   59.062    0.281    0.438    3.818
  497.782   61.494    0.258    0.418    4.244
  498.032   38.636    0.247    0.371    4.941
  498.282   25.599    0.167    0.259    6.966
  498.532   21.909    0.067    0.184   13.037
  498.782   20.384    0.059    0.183   26.263
  499.032   20.405    0.066    0.183   39.616
  499.282   18.993    0.077    0.181   45.441
  499.532   18.607    0.079    0.177   48.739
  499.782   21.294    0.069    0.172   46.538
  500.032   20.916    0.049    0.170   42.663
  500.282   19.296    0.043    0.164   38.799
  500.532   18.360    0.055    0.163   37.190
  500.782   17.361    0.056    0.169   34.882
  501.032   17.548    0.074    0.172   33.815
  501.282   19.160    0.095    0.173   32.763
  501.532   17.493    0.100    0.173   32.327
  501.782   16.656    0.094    0.173   31.618
  502.032   17.424    0.086    0.175   31.628
  502.282   17.948    0.077    0.174   31.061
  502.532   17.893    0.064    0.170   31.038
  502.782   18.560    0.053    0.168   31.669
