~VERSION INFORMATION
 VERS.                 2.0:   CWLS LOG ASCII STANDARD -VERSION 2.0
 WRAP.                  NO:   ONE LINE PER DEPTH STEP
~WELL INFORMATION BLOCK
#MNEM.UNIT           DATA                    DESCRIPTION OF MNEMONIC
#---------    -------------------            -------------------------------
# Generated from Intellog Unique Number	CC_80_83/WELL/1049
WELL.         GULF PONY                      : Well_name    - WELL
LOC .         00/04-15-081-09W4/0            : Location     - LOCATION
UWI .         00/04-15-081-09W400            : Uwi          - UNIQUE WELL ID
ENTR.         DW                             : Entered      - ENTERED BY
SRVC.         SCHLUMBERGER                   : Scn          - SERVICE COMPANY
STRT.M        243.84                         : top_depth    - START DEPTH
STOP.M        487.34                         : bot_depth    - STOP DEPTH
STEP.M        0.25                           : increment    - STEP LENGTH
 NULL. -999.2500:NULL Value
~CURVE INFORMATION BLOCK
#MNEM UNIT       ERCB CURVE CODE    CURVE DESCRIPTION
#-----------   ------------------   ----------------------------------
DEPT.M        00 001 00 00         : DEPTH        - DEPTH
GR  .API      00 310 00 00         : GR           - GAMMA RAY
DPHI.V/V      00 890 00 00         : PHID         - DENSITY POROSITY (SANDSTONE)
NPHI.V/V      00 330 00 00         : PHIN         - NEUTRON POROSITY (SANDSTONE)
ILD .OHMM     00 120 00 00         : RESD         - DEEP RESISTIVITY (DIL)
~PARAMETER INFORMATION
#MNEM.UNIT           DATA             DESCRIPTION OF MNEMONIC
#---------         -----------     ------------------------------
GL  .M        701.528              : gl           - GROUND LEVEL ELEVATION
EREF.M        705.338              : kb           - ELEVATION OF DEPTH REFERENCE
DATM.M        705.338              : datum        - DATUM ELEVATION
TDD .M        489.204              : tdd          - TOTAL DEPTH DRILLER
RUN .         ONE                  : Run          - RUN NUMBER
ENG .         BILL                 : Engineer     - RECORDING ENGINEER
WIT .         JIM                  : Witness      - WITNESSED BY
MUD .         GEL                  : Mud_type     - MUD TYPE
MATR.         SANDSTONE            : Logunit      - NEUTRON MATRIX
TMAX.C        23.8889              : BHT          - MAXIMUM RECORDED TEMPERATURE
BHTD.M        487.68               : BHTDEP       - MAXIMUM RECORDED TEMPERATURE
MATR.         1                    : LOGUNIT      - NEUTRON MATRIX
RMT .C        25                   : MDTP         - TEMPERATURE OF MUD
NEUT.         1                    : NEUTRON      - NEUTRON TYPE
RESI.         0                    : RESIST       - RESISTIVITY TYPE
RMC .OHMM     0.25                 : RMC          - RESISTIVITY OF MUD CAKE
RMF .OHMM     0.25                 : RMF          - RESISTIVITY OF MUD FILTRATE
SUFT.C        4                    : SUFT         - SURFACE TEMPERATURE
~A  DEPTH       GR     PHID     PHIN     RESD
# ...
  374.340   92.183    0.261    0.500    8.896
  374.590   94.773    0.267    0.508    8.761
  374.840   92.371    0.268    0.507    8.750
  375.090   91.953    0.273    0.497    8.765
  375.340   93.953    0.279    0.491    8.739
  375.590   94.855    0.271    0.489    8.796
  375.840   94.808    0.257    0.480    8.924
  376.090   95.802    0.265    0.466    8.792
  376.340   97.031    0.271    0.475    8.526
  376.590   97.129    0.271    0.497    8.289
  376.840   97.794    0.262    0.505    7.948
  377.090  100.165    0.249    0.500    7.424
  377.340  102.086    0.246    0.506    6.748
  377.590  102.849    0.256    0.505    5.771
  377.840  106.494    0.260    0.501    5.204
  378.090  113.235    0.256    0.522    4.922
  378.340  117.224    0.251    0.548    4.782
  378.590  115.997    0.248    0.552    4.785
  378.840  114.162    0.251    0.558    4.566
  379.090  109.182    0.259    0.560    4.241
  379.340  109.376    0.267    0.542    3.900
  379.590  113.630    0.283    0.528    3.684
  379.840  115.778    0.304    0.547    3.710
  380.090  116.152    0.313    0.589    3.897
  380.340  117.178    0.306    0.614    4.108
  380.590  117.725    0.311    0.625    4.762
  380.840  118.449    0.309    0.622    5.714
  381.090  115.434    0.292    0.576    6.683
  381.340  108.907    0.278    0.511    7.462
  381.590  107.146    0.267    0.505    7.806
  381.840  104.277    0.244    0.522    7.758
  382.090   99.285    0.229    0.508    7.378
  382.340  102.275    0.213    0.485    6.897
  382.590  112.177    0.210    0.494    6.514
  382.840  116.188    0.243    0.530    6.355
  383.090  114.753    0.258    0.550    6.555
  383.340  113.095    0.257    0.511    6.662
  383.590  111.541    0.251    0.489    6.381
  383.840  111.968    0.251    0.505    6.005
  384.090  114.659    0.256    0.515    5.731
  384.340  115.541    0.258    0.515    5.213
  384.590  115.759    0.255    0.513    4.379
  384.840  114.466    0.256    0.513    3.513
  385.090  113.668    0.261    0.533    2.918
  385.340  117.115    0.269    0.562    2.596
  385.590  123.122    0.276    0.578    2.377
  385.840  123.857    0.282    0.594    2.262
  386.090  120.672    0.292    0.614    2.272
  386.340  117.186    0.300    0.633    2.361
  386.590  113.074    0.300    0.640    2.603
  386.840  108.074    0.303    0.637    2.929
  387.090  105.816    0.322    0.639    3.264
  387.340  108.473    0.334    0.633    4.051
  387.590  111.845    0.331    0.577    4.837
  387.840  112.347    0.289    0.539    5.507
  388.090  110.926    0.245    0.542    6.006
  388.340  110.806    0.241    0.540    6.249
  388.590  112.836    0.241    0.529    6.448
  388.840  114.971    0.253    0.519    6.570
  389.090  116.340    0.270    0.530    6.631
  389.340  113.762    0.283    0.549    6.843
  389.590  108.711    0.289    0.536    7.161
  389.840  107.669    0.287    0.493    7.378
  390.090  109.987    0.277    0.468    7.816
  390.340  113.300    0.250    0.459    8.564
  390.590  117.136    0.221    0.463    9.873
  390.840  117.175    0.205    0.464   11.009
  391.090  112.835    0.186    0.450   11.149
  391.340  112.888    0.143    0.438   10.653
  391.590  116.713    0.136    0.431    9.472
  391.840  119.987    0.197    0.445    8.443
  392.090  120.138    0.246    0.460    7.484
  392.340  118.214    0.246    0.460    6.546
  392.590  116.833    0.247    0.467    6.108
  392.840  116.749    0.239    0.497    5.895
  393.090  117.322    0.266    0.511    5.996
  393.340  117.268    0.282    0.495    6.304
  393.590  115.207    0.260    0.484    6.795
  393.840  111.461    0.235    0.499    7.474
  394.090  106.019    0.231    0.510    8.196
  394.340   95.638    0.203    0.479    8.924
  394.590   94.356    0.122    0.405    9.223
  394.840  100.206    0.134    0.366    9.276
  395.090  107.517    0.235    0.405    9.185
  395.340  113.197    0.267    0.465    8.898
  395.590  108.027    0.274    0.475    8.798
  395.840  106.603    0.283    0.476    8.214
  396.090  109.898    0.288    0.478    7.708
  396.340  112.951    0.282    0.478    7.352
  396.590  113.787    0.273    0.479    6.915
  396.840  112.684    0.267    0.478    6.720
  397.090  111.570    0.254    0.477    6.613
  397.340  111.241    0.260    0.507    6.548
  397.590  111.702    0.260    0.523    6.717
  397.840  111.962    0.257    0.506    7.068
  398.090  111.350    0.274    0.496    7.399
  398.340  110.429    0.271    0.497    7.759
  398.590  108.128    0.272    0.484    7.946
  398.840  105.698    0.272    0.471    7.891
  399.090  104.235    0.269    0.467    7.743
  399.340  105.204    0.266    0.479    7.415
  399.590  108.312    0.261    0.509    6.850
  399.840  107.088    0.243    0.526    6.779
  400.090  101.140    0.246    0.531    7.099
  400.340   97.344    0.268    0.518    7.302
  400.590   97.588    0.287    0.497    7.449
  400.840   97.235    0.288    0.484    7.658
  401.090   95.966    0.272    0.475    7.526
  401.340  100.019    0.276    0.472    7.521
  401.590  100.196    0.285    0.476    7.391
  401.840   98.309    0.290    0.479    7.118
  402.090   99.550    0.297    0.487    6.721
  402.340  101.060    0.302    0.501    5.881
  402.590  103.726    0.298    0.511    4.715
  402.840  109.101    0.289    0.515    4.173
  403.090  110.974    0.281    0.512    4.057
  403.340  108.882    0.283    0.519    4.060
  403.590  105.256    0.289    0.529    4.318
  403.840   98.040    0.286    0.501    4.894
  404.090   93.143    0.289    0.501    5.758
  404.340   88.992    0.288    0.513    6.972
  404.590   84.176    0.296    0.507    8.188
  404.840   80.183    0.266    0.487    9.699
  405.090   77.860    0.153    0.458   11.845
  405.340   75.765    0.071    0.407   13.308
  405.590   75.085    0.047    0.308   13.621
  405.840   76.870    0.053    0.264   13.005
  406.090   82.159    0.072    0.289   11.695
  406.340   89.209    0.097    0.322   10.126
  406.590   94.086    0.139    0.366    8.823
  406.840   98.091    0.249    0.437    7.524
  407.090  101.919    0.279    0.472    6.825
  407.340  102.670    0.255    0.479    6.656
  407.590  100.486    0.244    0.486    7.020
  407.840   97.870    0.217    0.497    7.994
  408.090   93.031    0.175    0.520    8.787
  408.340   87.347    0.146    0.531    9.247
  408.590   93.380    0.095    0.435    8.910
  408.840  104.921    0.081    0.403    8.076
  409.090  108.442    0.157    0.496    7.410
  409.340  106.647    0.231    0.489    7.097
  409.590  107.290    0.230    0.483    7.189
  409.840  109.307    0.231    0.482    7.293
  410.090  111.241    0.246    0.480    7.523
  410.340  113.421    0.248    0.487    7.898
  410.590  115.937    0.239    0.497    8.097
  410.840  117.953    0.232    0.502    8.087
  411.090  119.488    0.224    0.504    8.146
  411.340  120.924    0.222    0.496    7.794
  411.590  120.917    0.225    0.472    7.388
  411.840  118.943    0.230    0.452    6.713
  412.090  115.240    0.237    0.461    5.078
  412.340  108.476    0.245    0.474    3.948
  412.590  105.676    0.248    0.496    3.086
  412.840  106.894    0.270    0.533    2.511
  413.090  107.947    0.298    0.573    2.286
  413.340  107.093    0.307    0.601    2.201
  413.590  105.577    0.309    0.618    2.197
  413.840  103.847    0.307    0.626    2.365
  414.090  100.567    0.289    0.626    2.502
  414.340   97.786    0.269    0.626    2.653
  414.590   97.656    0.262    0.599    3.047
  414.840   99.334    0.258    0.536    3.745
  415.090  101.445    0.247    0.523    4.591
  415.340  102.463    0.226    0.505    5.455
  415.590  104.190    0.224    0.480    6.082
  415.840  105.628    0.230    0.467    6.713
  416.090  105.417    0.225    0.454    7.243
  416.340  105.957    0.213    0.426    6.988
  416.590  107.434    0.154    0.399    6.638
  416.840  111.972    0.136    0.389    5.780
  417.090  114.135    0.188    0.417    4.887
  417.340  112.317    0.236    0.456    4.404
  417.590  111.515    0.231    0.467    4.017
