~VERSION INFORMATION
 VERS.                 2.0:   CWLS LOG ASCII STANDARD -VERSION 2.0
 WRAP.                  NO:   ONE LINE PER DEPTH STEP
~WELL INFORMATION BLOCK
#MNEM.UNIT           DATA                    DESCRIPTION OF MNEMONIC
#---------    -------------------            -------------------------------
# Generated from Intellog Unique Number	CN_94_101/WELL/3368
WELL.         SHELL CANADA LTD.              : Well_name    - WELL
LOC .         00/08-07-095-15W4/0            : Location     - LOCATION
UWI .         00/08-07-095-15W400            : Uwi          - UNIQUE WELL ID
ENTR.         JOETTE                         : Entered      - ENTERED BY
SRVC.         SCHLUMBERGER                   : Scn          - SERVICE COMPANY
DATE.         07/24/92                       : Date         - LOG DATE
STRT.F        300                            : top_depth    - START DEPTH
STOP.F        1049.67                        : bot_depth    - STOP DEPTH
STEP.F        0.82                           : increment    - STEP LENGTH
 NULL. -999.2500:NULL Value
~CURVE INFORMATION BLOCK
#MNEM UNIT       ERCB CURVE CODE    CURVE DESCRIPTION
#-----------   ------------------   ----------------------------------
DEPT.F        00 001 00 00         : DEPTH        - DEPTH
ILD .OHMM     00 120 00 00         : RESD         - DEEP RESISTIVITY (DIL)
GR  .API      00 310 00 00         : GR           - GAMMA RAY
DPHI.V/V      00 890 00 00         : PHID         - DENSITY POROSITY (SANDSTONE)
NPHI.V/V      00 330 00 00         : PHIN         - NEUTRON POROSITY (SANDSTONE)
~PARAMETER INFORMATION
#MNEM.UNIT           DATA             DESCRIPTION OF MNEMONIC
#---------         -----------     ------------------------------
GL  .F        1870.5               : gl           - GROUND LEVEL ELEVATION
EREF.F        1880.7               : kb           - ELEVATION OF DEPTH REFERENCE
DATM.F        1880.7               : datum        - DATUM ELEVATION
TDD .F        1063                 : tdd          - TOTAL DEPTH DRILLER
RUN .         ONE                  : Run          - RUN NUMBER
ENG .         JO                   : Engineer     - RECORDING ENGINEER
WIT .         TIM                  : Witness      - WITNESSED BY
MUD .         GEL                  : Mud_type     - MUD TYPE
MATR.         SANDSTONE            : Logunit      - NEUTRON MATRIX
TMAX.F        55                   : BHT          - MAXIMUM RECORDED TEMPERATURE
BHTD.F        1063                 : BHTDEP       - MAXIMUM RECORDED TEMPERATURE
RMT .F        50                   : MDTP         - TEMPERATURE OF MUD
MUDD.LB/G     9.6                  : MWT          - MUD DENSITY
NEUT.         1                    : NEUTRON      - NEUTRON TYPE
RESI.         0                    : RESIST       - RESISTIVITY TYPE
RM  .OHMM     1.5                  : RM           - RESISTIVITY OF MUD
RMC .OHMM     1.5                  : RMC          - RESISTIVITY OF MUD CAKE
RMF .OHMM     1.5                  : RMF          - RESISTIVITY OF MUD FILTRATE
SUFT.F        39.2                 : SUFT         - SURFACE TEMPERATURE
~A  DEPTH     RESD       GR     PHID     PHIN
# ...
  728.150    9.770  100.624    0.293    0.363
  728.970    9.955  107.938    0.289    0.369
  729.790   10.514  113.425    0.284    0.360
  730.610   10.715  118.312    0.288    0.352
  731.430   10.723  116.515    0.297    0.354
  732.251   10.353  114.105    0.311    0.358
  733.071    9.994  114.142    0.317    0.372
  733.891    9.822  115.987    0.309    0.370
  734.711    8.666  117.226    0.303    0.361
  735.531    8.070  116.036    0.303    0.350
  736.352    8.839  116.060    0.297    0.347
  737.172    9.678  119.114    0.297    0.349
  737.992   10.040  125.214    0.296    0.355
  738.812   10.227  126.452    0.292    0.352
  739.633   10.236  123.454    0.287    0.356
  740.453   10.061  121.645    0.280    0.368
  741.273    9.714  118.028    0.293    0.369
  742.093    9.548  115.630    0.300    0.369
  742.913   10.085  115.047    0.305    0.374
  743.734    9.390  113.864    0.317    0.358
  744.554    7.994  111.460    0.313    0.305
  745.374    7.180  113.300    0.307    0.251
  746.194    7.186  123.036    0.315    0.425
  747.014    6.937  130.350    0.320    0.436
  747.835   12.124  123.691    0.307    0.446
  748.655   17.389  114.611    0.283    0.450
  749.475   13.771  104.923    0.204    0.391
  750.295    7.476   98.283    0.197    0.357
  751.115    3.915  115.904    0.207    0.394
  751.936    3.780  145.070    0.226    0.451
  752.756    7.908  129.920    0.261    0.467
  753.576    8.660  125.088    0.268    0.478
  754.396    6.617  121.471    0.307    0.473
  755.217    3.791  119.067    0.294    0.457
  756.037    3.345  119.698    0.295    0.418
  756.857    2.698  118.509    0.298    0.388
  757.677    2.700  119.747    0.336    0.377
  758.497    3.353  130.096    0.355    0.382
  759.318    4.016  134.376    0.363    0.376
  760.138    4.899  131.365    0.343    0.373
  760.958    6.084  130.169    0.324    0.384
  761.778    7.288  128.980    0.317    0.405
  762.598    8.730  129.004    0.311    0.403
  763.419   10.091  124.173    0.305    0.445
  764.239    8.903  118.734    0.302    0.365
  765.059    7.310  116.343    0.302    0.298
  765.879    6.222  114.546    0.294    0.307
  766.699    6.227  115.784    0.283    0.341
  767.520   11.907  122.480    0.271    0.349
  768.340   17.077  129.794    0.266    0.363
  769.160   14.022  124.355    0.253    0.358
  769.980   11.308  117.096    0.199    0.331
  770.801   10.160  114.698    0.161    0.328
  771.621   10.538  117.758    0.248    0.337
  772.441   10.932  115.354    0.272    0.344
  773.261   12.407  118.407    0.267    0.341
  774.081   12.421  119.045    0.278    0.340
  774.902   11.775  123.925    0.291    0.350
  775.722   11.997  124.556    0.296    0.363
  776.542   12.226  120.945    0.289    0.368
  777.362   12.235  119.142    0.271    0.368
  778.182   11.811  120.381    0.267    0.363
  779.003   11.607  124.654    0.258    0.357
  779.823   11.410  127.118    0.246    0.347
  780.643   11.217  122.888    0.252    0.339
  781.463   11.223  122.305    0.270    0.337
  782.283   11.233  122.936    0.275    0.324
  783.104   11.447  121.747    0.270    0.322
  783.924   11.451  119.349    0.269    0.335
  784.744   11.669  123.009    0.275    0.346
  785.564   11.678  126.682    0.280    0.345
  786.385   11.686  124.891    0.278    0.333
  787.205   12.345  124.309    0.282    0.330
  788.025   12.132  125.541    0.283    0.256
  788.845   14.797  131.641    0.276    0.251
  789.665   15.355  128.625    0.254    0.313
  790.486   13.546  114.694    0.235    0.327
  791.306   13.802  123.824    0.234    0.331
  792.126   13.812  123.854    0.257    0.341
  792.946   12.865  120.230    0.270    0.345
  793.766   12.198  112.971    0.291    0.326
  794.587   11.773  107.532    0.304    0.302
  795.407   11.781  110.598    0.296    0.288
  796.227   12.006  113.050    0.297    0.290
  797.047   13.386  113.074    0.304    0.301
  797.867   14.654  112.492    0.282    0.314
  798.688   15.478  108.874    0.277    0.324
  799.508   14.941   91.903    0.272    0.337
  800.328   12.720   88.898    0.272    0.339
  801.148   11.023   91.951    0.265    0.332
  801.969   10.836   95.017    0.252    0.327
  802.789   10.842   96.255    0.278    0.331
  803.609   12.089  101.135    0.309    0.344
  804.429   12.317  105.409    0.300    0.338
  805.249   11.468  102.404    0.296    0.286
  806.070   10.873  103.030    0.317    0.252
  806.890   11.487  104.881    0.303    0.232
  807.710   12.805  113.409    0.272    0.269
  808.530   17.713  107.965    0.245    0.300
  809.350   59.165   86.738    0.191    0.334
  810.171   42.832   71.588    0.142    0.364
  810.991   20.503   69.184    0.116    0.397
  811.811   15.666   74.684    0.120    0.417
  812.631    6.977   80.165    0.195    0.416
  813.451    7.370   91.722    0.229    0.385
  814.272    7.115  112.390    0.251    0.370
  815.092    6.627  131.838    0.262    0.366
  815.912    6.632  129.441    0.274    0.376
  816.732    7.132  131.286    0.289    0.366
  817.552    7.669  131.317    0.276    0.366
  818.373    7.814  130.734    0.282    0.419
  819.193    7.821  130.145    0.281    0.443
  820.013    7.969  129.563    0.278    0.445
  820.833    7.973  130.801    0.280    0.383
  821.654    7.980  131.432    0.285    0.339
  822.474    7.985  129.642    0.280    0.344
  823.294    8.433  127.845    0.270    0.372
  824.114    9.749  127.870    0.263    0.383
  824.934   10.866  132.149    0.270    0.384
  825.755   10.303  129.132    0.276    0.390
  826.575    8.309  124.908    0.276    0.393
  827.395    7.465  126.753    0.268    0.388
  828.215    6.828  132.246    0.285    0.401
  829.035    7.082  132.878    0.285    0.419
  829.856    7.090  133.509    0.283    0.428
  830.676    6.368  135.354    0.284    0.399
  831.496    5.721  138.420    0.287    0.378
  832.316    6.042  139.658    0.289    0.399
  833.136    7.369  138.469    0.287    0.412
  833.957    5.944  134.851    0.279    0.445
  834.777    5.534  130.019    0.259    0.454
  835.597    5.538  125.795    0.249    0.429
  836.417    5.645  129.461    0.244    0.375
  837.238    6.181  132.521    0.279    0.391
  838.058    7.403  133.765    0.293    0.400
  838.878    9.194  136.217    0.292    0.404
  839.698    9.366  140.491    0.289    0.412
  840.518    7.553  138.087    0.286    0.330
  841.339    6.788  129.006    0.245    0.316
  842.159    6.916  126.609    0.231    0.304
  842.979    7.175  130.269    0.250    0.321
  843.799    7.714  136.376    0.269    0.331
  844.619    9.579  138.215    0.290    0.346
  845.440   13.739  135.817    0.272    0.369
  846.260   10.882  118.233    0.208    0.368
  847.080    8.315  114.621    0.117    0.353
  847.900    6.828  119.496    0.224    0.359
  848.720    7.889  124.376    0.236    0.357
  849.541    9.284  128.048    0.245    0.349
  850.361    8.801  128.079    0.254    0.368
  851.181    9.298  125.068    0.253    0.423
  852.001   10.364  124.479    0.250    0.438
  852.822   10.189  125.117    0.241    0.441
  853.642    6.051  124.534    0.250    0.428
  854.462    4.541  122.125    0.268    0.420
  855.282    3.935  121.554    0.252    0.415
  856.102    4.630  122.185    0.247    0.398
  856.923    5.163  123.424    0.267    0.394
  857.743    5.165  125.870    0.285    0.352
  858.563    5.360  129.536    0.293    0.273
  859.383    5.868  129.579    0.296    0.208
  860.203    9.373  127.776    0.298    0.192
  861.024   19.264  123.546    0.303    0.127
  861.844   25.248   99.284    0.306    0.067
  862.664   17.009   82.313    0.289    0.056
  863.484   54.806   72.018    0.250    0.059
  864.304   84.454   65.973    0.214    0.066
  865.125  144.998   58.106    0.250    0.083
  865.945  125.655   50.240    0.304    0.121
  866.765   28.765   36.910    0.352    0.172
  867.585   23.198   31.472    0.380    0.201
  868.406   18.711   31.508    0.380    0.197
  869.226   19.410   33.961    0.375    0.207
  870.046   21.634   38.835    0.368    0.230
