~VERSION INFORMATION
 VERS.                 2.0:   CWLS LOG ASCII STANDARD -VERSION 2.0
 WRAP.                  NO:   ONE LINE PER DEPTH STEP
~WELL INFORMATION BLOCK
#MNEM.UNIT           DATA                    DESCRIPTION OF MNEMONIC
#---------    -------------------            -------------------------------
# Generated from Intellog Unique Number	CS_71_72/WELL/800
WELL.         BVX ET AL LYLE                 : Well_name    - WELL
LOC .         00/06-36-072-17W4/0            : Location     - LOCATION
UWI .         00/06-36-072-17W4/0            : Uwi          - UNIQUE WELL ID
ENTR.         SP                             : Entered      - ENTERED BY
SRVC.         SCHLUMBERGER                   : Scn          - SERVICE COMPANY
STRT.M        268.224                        : top_depth    - START DEPTH
STOP.M        461.224                        : bot_depth    - STOP DEPTH
STEP.M        0.25                           : increment    - STEP LENGTH
 NULL. -999.2500:NULL Value
~CURVE INFORMATION BLOCK
#MNEM UNIT       ERCB CURVE CODE    CURVE DESCRIPTION
#-----------   ------------------   ----------------------------------
DEPT.M        00 001 00 00         : DEPTH        - DEPTH
GR  .API      00 310 00 00         : GR           - GAMMA RAY
DPHI.V/V      00 890 00 00         : PHID         - DENSITY POROSITY (SANDSTONE)
NPHI.V/V      00 330 00 00         : PHIN         - NEUTRON POROSITY (SANDSTONE)
ILD .OHMM     00 120 00 00         : RESD         - DEEP RESISTIVITY (DIL)
~PARAMETER INFORMATION
#MNEM.UNIT           DATA             DESCRIPTION OF MNEMONIC
#---------         -----------     ------------------------------
GL  .M        592.836              : gl           - GROUND LEVEL ELEVATION
EREF.M        595.884              : kb           - ELEVATION OF DEPTH REFERENCE
DATM.M        592.836              : datum        - DATUM ELEVATION
TDD .M        463.296              : tdd          - TOTAL DEPTH DRILLER
RUN .         ONE                  : Run          - RUN NUMBER
ENG .         BILL                 : Engineer     - RECORDING ENGINEER
WIT .         JIM                  : Witness      - WITNESSED BY
MUD .         GEL                  : Mud_type     - MUD TYPE
MATR.         SANDSTONE            : Logunit      - NEUTRON MATRIX
TMAX.C        12.7778              : BHT          - MAXIMUM RECORDED TEMPERATURE
BHTD.M        463.296              : BHTDEP       - MAXIMUM RECORDED TEMPERATURE
MATR.         1                    : LOGUNIT      - NEUTRON MATRIX
RMT .C        25                   : MDTP         - TEMPERATURE OF MUD
NEUT.         1                    : NEUTRON      - NEUTRON TYPE
RESI.         0                    : RESIST       - RESISTIVITY TYPE
RMC .OHMM     0.25                 : RMC          - RESISTIVITY OF MUD CAKE
RMF .OHMM     0.25                 : RMF          - RESISTIVITY OF MUD FILTRATE
SUFT.C        15                   : SUFT         - SURFACE TEMPERATURE
~A  DEPTH       GR     PHID     PHIN     RESD
# ...
  398.724   72.749    0.203    0.328    6.574
  398.974   71.923    0.239    0.415    6.103
  399.224   70.455    0.304    0.467    5.294
  399.474   71.286    0.311    0.474    4.902
  399.724   72.768    0.300    0.457    4.550
  399.974   74.721    0.322    0.450    4.445
  400.224   76.640    0.335    0.448    4.455
  400.474   76.554    0.325    0.440    4.665
  400.724   76.196    0.321    0.426    5.016
  400.974   74.819    0.294    0.411    5.560
  401.224   72.451    0.280    0.378    5.902
  401.474   70.598    0.259    0.353    6.489
  401.724   71.282    0.209    0.323    7.313
  401.974   73.614    0.193    0.305    6.915
  402.224   75.781    0.210    0.355    6.228
  402.474   77.760    0.241    0.420    5.800
  402.724   79.584    0.288    0.463    5.362
  402.974   79.099    0.325    0.471    4.951
  403.224   78.683    0.339    0.481    4.500
  403.474   77.445    0.329    0.486    4.361
  403.724   76.131    0.331    0.487    4.325
  403.974   74.558    0.336    0.482    4.329
  404.224   73.587    0.327    0.476    4.356
  404.474   73.270    0.326    0.470    4.412
  404.724   74.346    0.325    0.472    4.424
  404.974   76.391    0.322    0.474    4.329
  405.224   75.714    0.326    0.475    4.339
  405.474   76.948    0.315    0.478    4.342
  405.724   78.874    0.309    0.480    4.344
  405.974   79.763    0.307    0.477    4.346
  406.224   81.286    0.312    0.470    4.348
  406.474   80.509    0.303    0.461    4.349
  406.724   80.572    0.299    0.458    4.422
  406.974   80.759    0.300    0.458    4.311
  407.224   81.795    0.299    0.455    4.275
  407.474   83.451    0.305    0.457    4.016
  407.724   88.279    0.295    0.451    3.873
  407.974   99.309    0.275    0.451    3.638
  408.224  113.974    0.247    0.475    3.599
  408.474  115.443    0.227    0.492    3.576
  408.724  116.498    0.219    0.508    3.577
  408.974  115.691    0.242    0.514    3.613
  409.224  117.085    0.249    0.518    3.645
  409.474  118.184    0.242    0.530    3.642
  409.724  117.275    0.236    0.542    3.717
  409.974  117.754    0.232    0.555    3.791
  410.224  117.065    0.242    0.516    3.835
  410.474  114.066    0.251    0.499    3.940
  410.724  111.130    0.249    0.498    3.935
  410.974  108.643    0.261    0.516    4.067
  411.224  106.068    0.256    0.520    4.104
  411.474  103.539    0.244    0.518    4.164
  411.724  105.776    0.228    0.510    4.167
  411.974  109.300    0.219    0.517    4.172
  412.224  112.777    0.263    0.528    4.098
  412.474  115.534    0.274    0.525    4.184
  412.724  116.742    0.258    0.505    4.181
  412.974  116.424    0.246    0.500    4.322
  413.224  113.227    0.261    0.506    4.571
  413.474  106.933    0.247    0.511    5.234
  413.724  100.143    0.246    0.489    6.108
  413.974   93.490    0.282    0.438    7.238
  414.224   87.067    0.245    0.408    8.209
  414.474   80.611    0.208    0.383    9.470
  414.724   79.853    0.179    0.358   10.635
  414.974   82.664    0.148    0.363   10.708
  415.224   87.281    0.134    0.346    9.607
  415.474   90.454    0.159    0.335    8.583
  415.724   93.296    0.189    0.382    7.517
  415.974   97.534    0.197    0.438    6.370
  416.224   92.759    0.232    0.433    6.810
  416.474   91.094    0.248    0.372    7.650
  416.724   86.871    0.211    0.339    8.731
  416.974   79.919    0.172    0.274   10.717
  417.224   81.168    0.113    0.253   11.320
  417.474   88.016    0.075    0.307   10.253
  417.724   93.521    0.158    0.411    9.296
  417.974  101.451    0.195    0.421    8.432
  418.224  105.408    0.186    0.429    7.610
  418.474  107.321    0.178    0.443    6.975
  418.724  108.168    0.175    0.451    6.675
  418.974  107.447    0.171    0.457    6.554
  419.224  107.910    0.182    0.453    6.566
  419.474  109.592    0.194    0.456    6.568
  419.724  110.496    0.177    0.455    6.571
  419.974  108.462    0.165    0.452    6.665
  420.224  107.767    0.155    0.447    6.697
  420.474  111.132    0.158    0.445    6.705
  420.724  113.686    0.175    0.446    6.721
  420.974  114.125    0.169    0.436    6.579
  421.224  111.713    0.165    0.427    6.595
  421.474  114.012    0.155    0.425    6.597
  421.724  116.304    0.164    0.438    6.596
  421.974  118.391    0.173    0.445    6.710
  422.224  117.216    0.177    0.448    6.715
  422.474  116.703    0.187    0.447    6.863
  422.724  117.237    0.178    0.446    6.966
  422.974  116.690    0.167    0.439    7.072
  423.224  114.278    0.153    0.424    7.390
  423.474  114.416    0.155    0.418    7.486
  423.724  117.609    0.172    0.414    7.508
  423.974  121.407    0.181    0.424    7.150
  424.224  123.818    0.172    0.427    7.016
  424.474  123.024    0.200    0.422    6.850
  424.724  122.077    0.210    0.412    6.773
  424.974  123.036    0.184    0.405    6.641
  425.224  123.950    0.165    0.402    6.677
  425.474  122.079    0.156    0.414    7.009
  425.724  117.264    0.146    0.421    7.209
  425.974  104.892    0.129    0.394    7.587
  426.224   96.302    0.116    0.348    7.807
  426.474   97.171    0.098    0.356    7.980
  426.724  104.373    0.138    0.387    7.725
  426.974  107.983    0.158    0.393    7.374
  427.224  107.338    0.169    0.402    6.449
  427.474  107.904    0.163    0.425    5.637
  427.724  110.177    0.239    0.450    4.347
  427.974  111.687    0.237    0.489    3.434
  428.224  112.222    0.261    0.516    2.871
  428.474  110.605    0.284    0.540    2.617
  428.724  111.224    0.280    0.542    2.450
  428.974  114.741    0.271    0.548    2.444
  429.224  116.738    0.265    0.558    2.635
  429.474  117.044    0.260    0.569    2.849
  429.724  115.074    0.258    0.551    3.277
  429.974  113.148    0.251    0.472    4.445
  430.224  111.212    0.252    0.441    5.671
  430.474  109.084    0.238    0.432    6.649
  430.724  104.686    0.221    0.463    7.916
  430.974   99.260    0.232    0.434    8.764
  431.224   91.477    0.250    0.381    7.404
  431.474   93.893    0.193    0.351    6.555
  431.724   98.038    0.304    0.437    6.078
  431.974  102.881    0.369    0.479    5.894
  432.224  106.648    0.205    0.502    6.420
  432.474  106.726    0.164    0.425    6.994
  432.724  102.337    0.132    0.368    8.057
  432.974   91.694    0.089    0.300    9.228
  433.224   81.588    0.053    0.282   10.266
  433.474   83.908    0.044    0.297   10.889
  433.724   90.275    0.065    0.356    8.244
  433.974   97.276    0.099    0.428    6.549
  434.224  103.569    0.141    0.469    5.380
  434.474  106.758    0.185    0.472    4.483
  434.724  109.111    0.232    0.479    4.021
  434.974  110.587    0.226    0.488    3.643
  435.224  115.093    0.218    0.500    3.603
  435.474  118.621    0.221    0.510    3.614
  435.724  120.471    0.222    0.517    3.652
  435.974  121.347    0.225    0.528    3.439
  436.224  117.380    0.239    0.541    3.254
  436.474  114.537    0.228    0.555    3.220
  436.724  116.126    0.228    0.556    3.382
  436.974  117.758    0.210    0.540    3.568
  437.224  115.433    0.193    0.506    3.790
  437.474  113.700    0.170    0.486    4.072
  437.724  107.221    0.151    0.468    4.261
  437.974  101.793    0.143    0.467    4.388
  438.224  103.576    0.115    0.485    4.617
  438.474  109.672    0.179    0.484    4.854
  438.724  115.040    0.212    0.477    5.169
  438.974  115.281    0.199    0.476    5.406
  439.224  115.306    0.190    0.474    5.711
  439.474  113.979    0.181    0.463    5.378
  439.724  112.183    0.197    0.449    5.079
  439.974  112.316    0.173    0.475    4.685
  440.224  113.642    0.196    0.499    5.005
  440.474  114.805    0.229    0.510    5.792
  440.724  111.665    0.210    0.514    7.881
  440.974   98.842    0.207    0.497   10.065
  441.224   82.072    0.184    0.308   12.836
  441.474   76.508    0.168    0.336   14.858
  441.724   77.892    0.181    0.362   17.142
  441.974   80.443    0.242    0.379   18.912
