~VERSION INFORMATION
 VERS.                 2.0:   CWLS LOG ASCII STANDARD -VERSION 2.0
 WRAP.                  NO:   ONE LINE PER DEPTH STEP
~WELL INFORMATION BLOCK
#MNEM.UNIT           DATA                    DESCRIPTION OF MNEMONIC
#---------    -------------------            -------------------------------
# Generated from Intellog Unique Number	CS_71_72/WELL/811
WELL.         BVX ET AL NIXON                : Well_name    - WELL
LOC .         00/07-13-072-17W4/0            : Location     - LOCATION
UWI .         00/07-13-072-17W4/0            : Uwi          - UNIQUE WELL ID
ENTR.         SP                             : Entered      - ENTERED BY
SRVC.         SCHLUMBERGER                   : Scn          - SERVICE COMPANY
STRT.M        250                            : top_depth    - START DEPTH
STOP.M        421                            : bot_depth    - STOP DEPTH
STEP.M        0.25                           : increment    - STEP LENGTH
 NULL. -999.2500:NULL Value
~CURVE INFORMATION BLOCK
#MNEM UNIT       ERCB CURVE CODE    CURVE DESCRIPTION
#-----------   ------------------   ----------------------------------
DEPT.M        00 001 00 00         : DEPTH        - DEPTH
GR  .API      00 310 00 00         : GR           - GAMMA RAY
DPHI.V/V      00 890 00 00         : PHID         - DENSITY POROSITY (LIMESTONE)
NPHI.V/V      00 330 00 00         : PHIN         - NEUTRON POROSITY (LIMESTONE)
ILD .OHMM     00 120 00 00         : RESD         - DEEP RESISTIVITY (DIL)
~PARAMETER INFORMATION
#MNEM.UNIT           DATA             DESCRIPTION OF MNEMONIC
#---------         -----------     ------------------------------
GL  .M        572.9                : gl           - GROUND LEVEL ELEVATION
EREF.M        576                  : kb           - ELEVATION OF DEPTH REFERENCE
DATM.M        572.9                : datum        - DATUM ELEVATION
TDD .M        426                  : tdd          - TOTAL DEPTH DRILLER
RUN .         ONE                  : Run          - RUN NUMBER
ENG .         BILL                 : Engineer     - RECORDING ENGINEER
WIT .         JIM                  : Witness      - WITNESSED BY
MUD .         GEL                  : Mud_type     - MUD TYPE
MATR.         LIMESTONE            : Logunit      - NEUTRON MATRIX
TMAX.C        20                   : BHT          - MAXIMUM RECORDED TEMPERATURE
BHTD.M        426                  : BHTDEP       - MAXIMUM RECORDED TEMPERATURE
MATR.         1                    : LOGUNIT      - NEUTRON MATRIX
RMT .C        25                   : MDTP         - TEMPERATURE OF MUD
NEUT.         1                    : NEUTRON      - NEUTRON TYPE
RESI.         0                    : RESIST       - RESISTIVITY TYPE
RMC .OHMM     0.25                 : RMC          - RESISTIVITY OF MUD CAKE
RMF .OHMM     0.25                 : RMF          - RESISTIVITY OF MUD FILTRATE
SUFT.C        15                   : SUFT         - SURFACE TEMPERATURE
~A  DEPTH       GR     PHID     PHIN     RESD
# ...
  293.500  135.075    0.277    0.428    6.014
  293.750  136.897    0.242    0.436    5.800
  294.000  140.523    0.211    0.439    5.593
  294.250  138.151    0.236    0.438    5.598
  294.500  134.571    0.255    0.429    5.707
  294.750  137.003    0.271    0.435    5.711
  295.000  141.830    0.283    0.456    5.821
  295.250  137.653    0.272    0.473    6.159
  295.500  130.474    0.297    0.438    6.394
  295.750  120.894    0.314    0.410    6.639
  296.000  108.318    0.298    0.409    7.025
  296.250  104.142    0.289    0.418    7.027
  296.500  110.171    0.277    0.424    7.165
  296.750  115.594    0.264    0.427    7.038
  297.000  122.217    0.252    0.419    6.915
  297.250  124.043    0.253    0.433    6.669
  297.500  127.074    0.253    0.445    5.974
  297.750  131.304    0.257    0.441    5.451
  298.000  132.518    0.261    0.451    5.067
  298.250  134.939    0.263    0.466    4.978
  298.500  133.765    0.276    0.477    5.075
  298.750  130.794    0.288    0.465    5.270
  299.000  129.011    0.271    0.447    5.573
  299.250  124.838    0.258    0.443    6.119
  299.500  120.067    0.264    0.453    6.472
  299.750  115.888    0.294    0.441    6.845
  300.000  109.913    0.277    0.426    7.241
  300.250  103.335    0.284    0.436    7.519
  300.500   93.764    0.305    0.444    7.664
  300.750   86.585    0.318    0.429    7.814
  301.000   82.405    0.330    0.416    7.818
  301.250   78.232    0.324    0.416    7.683
  301.500   72.257    0.322    0.418    7.690
  301.750   74.084    0.340    0.405    7.553
  302.000   77.108    0.353    0.395    7.423
  302.250   78.932    0.355    0.390    7.426
  302.500   80.757    0.343    0.395    7.165
  302.750   80.184    0.336    0.405    7.168
  303.000   80.810    0.330    0.417    7.041
  303.250   81.427    0.350    0.425    7.046
  303.500   82.050    0.348    0.407    6.925
  303.750   81.479    0.342    0.396    6.930
  304.000   80.900    0.334    0.395    6.807
  304.250   83.937    0.361    0.402    6.814
  304.500   85.151    0.356    0.408    6.693
  304.750   83.973    0.350    0.402    6.696
  305.000   82.207    0.354    0.404    6.703
  305.250   81.625    0.356    0.410    6.709
  305.500   81.053    0.358    0.412    6.712
  305.750   82.282    0.360    0.407    6.717
  306.000   82.299    0.366    0.411    6.600
  306.250   83.525    0.362    0.417    6.603
  306.500   84.748    0.357    0.413    6.610
  306.750   84.175    0.367    0.405    6.615
  307.000   82.395    0.370    0.409    6.620
  307.250   79.419    0.363    0.402    6.623
  307.500   78.846    0.351    0.395    6.879
  307.750   80.674    0.346    0.403    7.412
  308.000   82.499    0.341    0.398    8.288
  308.250   83.117    0.351    0.395    8.929
  308.500   81.344    0.353    0.403    9.443
  308.750   78.972    0.340    0.405   10.177
  309.000   75.399    0.308    0.376   10.566
  309.250   73.017    0.248    0.314   10.383
  309.500   77.843    0.189    0.250    9.473
  309.750   83.875    0.252    0.281    8.805
  310.000   86.894    0.319    0.328    8.184
  310.250   86.913    0.354    0.389    7.469
  310.500   84.549    0.361    0.408    7.204
  310.750   82.765    0.354    0.436    7.207
  311.000   78.598    0.345    0.430    7.081
  311.250   76.816    0.358    0.426    6.956
  311.500   79.245    0.344    0.432    6.964
  311.750   81.073    0.357    0.436    6.968
  312.000   81.086    0.370    0.426    6.972
  312.250   82.909    0.363    0.420    6.853
  312.500   88.939    0.361    0.413    6.858
  312.750   94.370    0.365    0.419    6.863
  313.000   98.595    0.359    0.427    6.866
  313.250   99.808    0.353    0.427    6.871
  313.500   91.440    0.345    0.431    6.877
  313.750   84.257    0.357    0.440    6.880
  314.000   77.086    0.356    0.437    7.016
  314.250   77.111    0.345    0.433    7.019
  314.500   73.537    0.341    0.435    7.025
  314.750   69.969    0.354    0.449    7.032
  315.000   69.381    0.360    0.439    7.038
  315.250   70.011    0.346    0.430    6.913
  315.500   71.831    0.349    0.422    6.918
  315.750   74.852    0.350    0.425    6.924
  316.000   77.876    0.341    0.429    6.928
  316.250   80.906    0.350    0.435    6.934
  316.500   81.528    0.355    0.425    6.813
  316.750   80.357    0.350    0.420    6.816
  317.000   80.981    0.345    0.418    6.822
  317.250   82.201    0.354    0.421    6.828
  317.500   79.829    0.344    0.424    6.833
  317.750   78.653    0.337    0.426    6.837
  318.000   77.475    0.349    0.420    6.843
  318.250   73.898    0.344    0.418    6.850
  318.500   70.923    0.340    0.425    6.853
  318.750   69.148    0.349    0.427    6.861
  319.000   71.578    0.335    0.444    6.864
  319.250   72.809    0.329    0.453    6.995
  319.500   72.819    0.344    0.439    7.002
  319.750   71.649    0.339    0.423    7.137
  320.000   69.278    0.331    0.417    7.412
  320.250   68.099    0.341    0.410    7.699
  320.500   68.735    0.343    0.414    7.702
  320.750   69.951    0.322    0.424    7.852
  321.000   70.567    0.306    0.436    7.857
  321.250   70.591    0.298    0.456    7.719
  321.500   68.823    0.319    0.442    7.585
  321.750   68.847    0.321    0.429    7.453
  322.000   70.071    0.309    0.433    7.455
  322.250   72.497    0.320    0.428    7.325
  322.500   73.713    0.338    0.419    7.330
  322.750   74.342    0.334    0.419    7.335
  323.000   75.562    0.331    0.418    7.620
  323.250   77.992    0.328    0.413    7.912
  323.500   80.423    0.327    0.408    8.065
  323.750   81.640    0.319    0.403    8.224
  324.000   81.665    0.297    0.401    8.383
  324.250   82.287    0.274    0.406    8.543
  324.500   78.711    0.247    0.409    8.392
  324.750   83.534    0.239    0.399    7.802
  325.000   88.360    0.271    0.397    7.388
  325.250   90.790    0.306    0.401    7.256
  325.500   94.421    0.329    0.404    6.871
  325.750   96.839    0.329    0.421    6.507
  326.000  102.271    0.329    0.439    6.275
  326.250  105.286    0.318    0.454    6.165
  326.500  111.915    0.299    0.466    6.056
  326.750  117.937    0.282    0.472    5.949
  327.000  122.161    0.265    0.458    5.954
  327.250  124.583    0.240    0.444    5.741
  327.500  126.409    0.236    0.433    5.538
  327.750  124.031    0.236    0.425    5.244
  328.000  122.256    0.237    0.423    4.964
  328.250  127.086    0.256    0.421    4.789
  328.500  128.312    0.268    0.437    4.882
  328.750  128.930    0.249    0.447    5.069
  329.000  127.154    0.250    0.436    5.166
  329.250  122.389    0.244    0.425    5.466
  329.500  120.602    0.239    0.441    5.782
  329.750  116.440    0.246    0.448    6.003
  330.000  114.655    0.261    0.432    6.120
  330.250  109.282    0.281    0.415    5.688
  330.500  102.105    0.299    0.408    5.002
  330.750  103.932    0.320    0.414    4.240
  331.000  111.754    0.328    0.433    3.797
  331.250  115.978    0.303    0.449    3.401
  331.500  114.809    0.263    0.489    3.161
  331.750  112.434    0.251    0.507    3.224
  332.000  110.650    0.269    0.512    3.347
  332.250  101.074    0.288    0.495    3.606
  332.500   91.499    0.315    0.478    3.958
  332.750   84.922    0.298    0.455    4.508
  333.000   81.945    0.339    0.439    5.040
  333.250   83.170    0.364    0.423    5.532
  333.500   84.992    0.346    0.410    5.640
  333.750   82.617    0.364    0.404    5.751
  334.000   84.448    0.353    0.400    5.649
  334.250   85.667    0.359    0.398    5.652
  334.500   87.491    0.359    0.394    5.553
  334.750   89.318    0.355    0.395    5.355
  335.000   89.942    0.353    0.400    5.167
  335.250   90.573    0.350    0.406    5.075
  335.500   89.397    0.347    0.414    5.078
  335.750   85.221    0.341    0.423    5.177
  336.000   79.238    0.350    0.418    5.278
  336.250   82.266    0.357    0.414    5.280
  336.500   85.897    0.357    0.412    5.484
  336.750   86.512    0.361    0.408    5.696
