~VERSION INFORMATION
 VERS.                 2.0:   CWLS LOG ASCII STANDARD -VERSION 2.0
 WRAP.                  NO:   ONE LINE PER DEPTH STEP
~WELL INFORMATION BLOCK
#MNEM.UNIT           DATA                    DESCRIPTION OF MNEMONIC
#---------    -------------------            -------------------------------
# Generated from Intellog Unique Number	CW_79_81/WELL/3693
WELL.         06-32-079-02W5                 : Well_name    - WELL
LOC .         00/06-32-079-02W5/0            : Location     - LOCATION
UWI .         00/06-32-079-02W5/0            : Uwi          - UNIQUE WELL ID
ENTR.         JOETTE                         : Entered      - ENTERED BY
SRVC.         SCHLUMBERGER                   : Scn          - SERVICE COMPANY
DATE.         08/26/92                       : Date         - LOG DATE
STRT.M        300                            : top_depth    - START DEPTH
STOP.M        520                            : bot_depth    - STOP DEPTH
STEP.M        0.25                           : increment    - STEP LENGTH
 NULL. -999.2500:NULL Value
~CURVE INFORMATION BLOCK
#MNEM UNIT       ERCB CURVE CODE    CURVE DESCRIPTION
#-----------   ------------------   ----------------------------------
DEPT.M        00 001 00 00         : DEPTH        - DEPTH
ILD .OHMM     00 120 00 00         : RESD         - DEEP RESISTIVITY (DIL)
GR  .API      00 310 00 00         : GR           - GAMMA RAY
NPHI.V/V      00 330 00 00         : PHIN         - NEUTRON POROSITY (SANDSTONE)
DPHI.V/V      00 890 00 00         : PHID         - DENSITY POROSITY (SANDSTONE)
~PARAMETER INFORMATION
#MNEM.UNIT           DATA             DESCRIPTION OF MNEMONIC
#---------         -----------     ------------------------------
GL  .M        617.8                : gl           - GROUND LEVEL ELEVATION
EREF.M        621.9                : kb           - ELEVATION OF DEPTH REFERENCE
DATM.M        621.9                : datum        - DATUM ELEVATION
TDD .M        521                  : tdd          - TOTAL DEPTH DRILLER
RUN .         ONE                  : Run          - RUN NUMBER
ENG .         BILL                 : Engineer     - RECORDING ENGINEER
WIT .         JIM                  : Witness      - WITNESSED BY
MUD .         GEL                  : Mud_type     - MUD TYPE
MATR.         SANDSTONE            : Logunit      - NEUTRON MATRIX
TMAX.C        18                   : BHT          - MAXIMUM RECORDED TEMPERATURE
BHTD.M        521                  : BHTDEP       - MAXIMUM RECORDED TEMPERATURE
MATR.         1                    : LOGUNIT      - NEUTRON MATRIX
RMT .C        16                   : MDTP         - TEMPERATURE OF MUD
NEUT.         1                    : NEUTRON      - NEUTRON TYPE
RESI.         0                    : RESIST       - RESISTIVITY TYPE
RMC .OHMM     4.35                 : RMC          - RESISTIVITY OF MUD CAKE
RMF .OHMM     4.35                 : RMF          - RESISTIVITY OF MUD FILTRATE
SUFT.C        5                    : SUFT         - SURFACE TEMPERATURE
~A  DEPTH     RESD       GR     PHIN     PHID
# ...
  430.500    8.486   84.346    0.499    0.269
  430.750    8.183   86.765    0.496    0.280
  431.000    7.604   89.183    0.508    0.253
  431.250    7.066   88.652    0.519    0.247
  431.500    6.567   86.366    0.528    0.258
  431.750    6.102   88.180    0.528    0.260
  432.000    5.778   90.614    0.492    0.249
  432.250    5.573   90.687    0.485    0.248
  432.500    5.479   88.947    0.487    0.255
  432.750    5.484   87.236    0.489    0.259
  433.000    5.494   84.935    0.489    0.254
  433.250    5.494   84.994    0.482    0.246
  433.500    5.934   86.233    0.493    0.252
  433.750    5.120   88.695    0.519    0.257
  434.000    5.123   89.315    0.513    0.246
  434.250    5.129   90.553    0.515    0.240
  434.500    5.135   92.397    0.519    0.233
  434.750    4.954   94.830    0.510    0.226
  435.000    4.605   96.039    0.466    0.222
  435.250    4.439   99.048    0.467    0.235
  435.500    4.530   99.696    0.477    0.232
  435.750    4.978   97.986    0.504    0.224
  436.000    5.679   98.044    0.504    0.229
  436.250    6.124   98.693    0.502    0.219
  436.500    7.530   93.443    0.497    0.219
  436.750   11.152   89.372    0.486    0.261
  437.000   15.617   86.481    0.473    0.277
  437.250   20.306   81.835    0.477    0.288
  437.500   21.912   78.959    0.485    0.302
  437.750   21.932   77.809    0.484    0.317
  438.000   21.973   76.098    0.486    0.339
  438.250   21.587   73.207    0.529    0.341
  438.500   21.215   69.741    0.471    0.337
  438.750   21.234   67.441    0.443    0.331
  439.000   22.491   68.679    0.438    0.325
  439.250   23.366   69.313    0.429    0.321
  439.500   25.689   68.192    0.419    0.311
  439.750   28.773   66.481    0.409    0.275
  440.000   31.614   63.591    0.418    0.247
  440.250   34.745   60.125    0.399    0.218
  440.500   38.917   57.219    0.386    0.204
  440.750   41.969   54.314    0.340    0.175
  441.000   43.617   55.567    0.230    0.136
  441.250   41.308   59.166    0.322    0.161
  441.500   38.376   61.584    0.423    0.180
  441.750   33.722   66.377    0.456    0.235
  442.000   29.633   68.796    0.472    0.266
  442.250   26.538   71.804    0.484    0.293
  442.500   25.126   73.043    0.508    0.298
  442.750   23.782   74.281    0.508    0.303
  443.000   20.898   76.110    0.501    0.301
  443.250   18.358   79.133    0.496    0.303
  443.500   14.159   82.732    0.483    0.307
  443.750   11.987   87.510    0.493    0.302
  444.000   10.339   88.159    0.494    0.297
  444.250    9.085   83.498    0.495    0.286
  444.500    8.289   82.982    0.503    0.271
  444.750    7.993   84.206    0.494    0.269
  445.000    7.855   86.639    0.475    0.240
  445.250    7.580   86.698    0.470    0.227
  445.500    7.451   88.512    0.471    0.212
  445.750    7.318   89.751    0.484    0.210
  446.000    7.329   89.234    0.485    0.223
  446.250    7.205   88.113    0.479    0.217
  446.500    7.079   87.597    0.474    0.218
  446.750    7.087   87.641    0.469    0.230
  447.000    6.963   87.095    0.470    0.222
  447.250    6.843   86.594    0.475    0.202
  447.500    6.851   86.638    0.488    0.198
  447.750    6.733   85.531    0.481    0.255
  448.000    6.619   84.986    0.472    0.257
  448.250    6.625   84.455    0.467    0.238
  448.500    6.511   86.873    0.478    0.221
  448.750    6.521   89.292    0.482    0.218
  449.000    6.531   88.761    0.472    0.213
  449.250    6.418   89.409    0.466    0.213
  449.500    6.424   90.073    0.465    0.214
  449.750    6.557   90.722    0.458    0.210
  450.000    6.685   91.371    0.454    0.203
  450.250    6.947   91.444    0.465    0.199
  450.500    7.087   93.258    0.464    0.204
  450.750    7.098   92.137    0.461    0.206
  451.000    7.240   91.001    0.488    0.214
  451.250    7.113   95.234    0.502    0.231
  451.500    6.734   96.443    0.498    0.258
  451.750    6.496   98.272    0.495    0.249
  452.000    6.150   97.165    0.484    0.231
  452.250    5.823   96.030    0.459    0.227
  452.500    5.513   94.319    0.459    0.231
  452.750    5.318   93.198    0.455    0.225
  453.000    5.226   92.696    0.499    0.220
  453.250    5.234   92.740    0.505    0.221
  453.500    5.438   92.799    0.502    0.229
  453.750    6.320   93.448    0.503    0.254
  454.000    8.218   94.111    0.512    0.263
  454.250   10.883   94.731    0.518    0.254
  454.500   12.886   94.790    0.533    0.261
  454.750   14.977   92.504    0.532    0.256
  455.000   17.735   80.749    0.493    0.266
  455.250   20.239   73.729    0.436    0.157
  455.500   22.243   70.248    0.384    0.139
  455.750   21.456   71.502    0.362    0.136
  456.000   18.506   74.495    0.422    0.140
  456.250   16.568   78.094    0.435    0.152
  456.500   14.286   83.477    0.434    0.171
  456.750    9.855   89.435    0.425    0.192
  457.000    9.161   97.163    0.434    0.220
  457.250    8.831   99.021    0.458    0.204
  457.500    8.055   97.870    0.504    0.217
  457.750    6.950   95.584    0.498    0.234
  458.000    6.337   95.628    0.488    0.241
  458.250    5.674   96.277    0.482    0.236
  458.500    5.372   97.545    0.494    0.225
  458.750    5.281   98.769    0.505    0.212
  459.000    5.385  100.008    0.503    0.211
  459.250    5.496  101.247    0.496    0.235
  459.500    5.709  101.320    0.498    0.242
  459.750    6.394   98.415    0.503    0.235
  460.000    7.025   90.215    0.483    0.233
  460.250    8.017   85.539    0.468    0.237
  460.500    9.318   84.433    0.460    0.172
  460.750   10.052   86.276    0.481    0.162
  461.000   10.646   86.925    0.499    0.174
  461.250   10.463   86.379    0.490    0.191
  461.500   10.279   84.698    0.454    0.211
  461.750    9.735   84.727    0.451    0.219
  462.000    9.220   86.556    0.452    0.226
  462.250    8.890   91.334    0.457    0.232
  462.500    8.573   98.487    0.468    0.230
  462.750    8.119   96.776    0.485    0.222
  463.000    7.977   95.655    0.495    0.229
  463.250    7.844   94.534    0.493    0.226
  463.500    7.851   95.183    0.506    0.221
  463.750    7.858   96.451    0.491    0.226
  464.000    9.305   97.675    0.483    0.224
  464.250    9.148   99.489    0.485    0.213
  464.500    8.821   97.793    0.499    0.210
  464.750    8.200   97.247    0.496    0.219
  465.000    7.910   96.141    0.487    0.217
  465.250    8.068   95.610    0.475    0.211
  465.500    8.233   95.654    0.478    0.200
  465.750    8.553   96.332    0.479    0.204
  466.000    9.059   96.966    0.482    0.213
  466.250    9.421   95.845    0.478    0.233
  466.500    9.427   94.134    0.489    0.228
  466.750    9.616   94.193    0.507    0.227
  467.000    9.625   94.237    0.496    0.220
  467.250    9.818   96.080    0.473    0.231
  467.500    9.652   96.139    0.480    0.230
  467.750    9.141   91.493    0.499    0.229
  468.000    8.978   92.732    0.507    0.221
  468.250    8.823   93.971    0.494    0.218
  468.500    9.000   94.620    0.481    0.208
  468.750    9.181   95.858    0.477    0.214
  469.000    9.368   97.687    0.479    0.224
  469.250    9.553   95.386    0.476    0.235
  469.500    9.745   93.071    0.473    0.223
  469.750   10.134   91.374    0.469    0.225
  470.000   10.334   90.253    0.462    0.231
  470.250   10.746   90.888    0.450    0.227
  470.500   10.753   93.911    0.444    0.226
  470.750   10.969   95.739    0.466    0.217
  471.000   10.986   99.942    0.473    0.210
  471.250   10.793  103.526    0.476    0.211
  471.500   10.033  105.945    0.479    0.211
  471.750    9.321  104.263    0.483    0.195
  472.000    8.502  103.703    0.492    0.193
  472.250    7.900  103.186    0.501    0.187
  472.500    8.062  103.230    0.473    0.192
  472.750    8.223  103.879    0.465    0.194
  473.000    8.388  102.758    0.454    0.190
  473.250    8.396  102.817    0.450    0.195
  473.500    8.099  102.286    0.448    0.200
  473.750    6.730  102.345    0.465    0.206
