~VERSION INFORMATION
 VERS.                 2.0:   CWLS LOG ASCII STANDARD -VERSION 2.0
 WRAP.                  NO:   ONE LINE PER DEPTH STEP
~WELL INFORMATION BLOCK
#MNEM.UNIT           DATA                    DESCRIPTION OF MNEMONIC
#---------    -------------------            -------------------------------
# Generated from Intellog Unique Number	CS_71_72/WELL/769
WELL.         PEX PHILLIPS AEC GRIST         : Well_name    - WELL
LOC .         00/06-12-072-08W4/0            : Location     - LOCATION
UWI .         00/06-12-072-08W4/0            : Uwi          - UNIQUE WELL ID
ENTR.         SP                             : Entered      - ENTERED BY
SRVC.         SCHLUMBERGER                   : Scn          - SERVICE COMPANY
STRT.M        310                            : top_depth    - START DEPTH
STOP.M        535                            : bot_depth    - STOP DEPTH
STEP.M        0.25                           : increment    - STEP LENGTH
 NULL. -999.2500:NULL Value
~CURVE INFORMATION BLOCK
#MNEM UNIT       ERCB CURVE CODE    CURVE DESCRIPTION
#-----------   ------------------   ----------------------------------
DEPT.M        00 001 00 00         : DEPTH        - DEPTH
ILD .OHMM     00 120 00 00         : RESD         - DEEP RESISTIVITY (DIL)
DPHI.V/V      00 890 00 00         : PHID         - DENSITY POROSITY (LIMESTONE)
NPHI.V/V      00 330 00 00         : PHIN         - NEUTRON POROSITY (LIMESTONE)
GR  .API      00 310 00 00         : GR           - GAMMA RAY
~PARAMETER INFORMATION
#MNEM.UNIT           DATA             DESCRIPTION OF MNEMONIC
#---------         -----------     ------------------------------
GL  .M        675.8                : gl           - GROUND LEVEL ELEVATION
EREF.M        679.3                : kb           - ELEVATION OF DEPTH REFERENCE
DATM.M        675.8                : datum        - DATUM ELEVATION
TDD .M        544                  : tdd          - TOTAL DEPTH DRILLER
RUN .         ONE                  : Run          - RUN NUMBER
ENG .         BILL                 : Engineer     - RECORDING ENGINEER
WIT .         JIM                  : Witness      - WITNESSED BY
MUD .         GEL                  : Mud_type     - MUD TYPE
MATR.         LIMESTONE            : Logunit      - NEUTRON MATRIX
TMAX.C        22.5                 : BHT          - MAXIMUM RECORDED TEMPERATURE
BHTD.M        544                  : BHTDEP       - MAXIMUM RECORDED TEMPERATURE
MATR.         1                    : LOGUNIT      - NEUTRON MATRIX
RMT .C        25                   : MDTP         - TEMPERATURE OF MUD
NEUT.         1                    : NEUTRON      - NEUTRON TYPE
RESI.         0                    : RESIST       - RESISTIVITY TYPE
RMC .OHMM     0.25                 : RMC          - RESISTIVITY OF MUD CAKE
RMF .OHMM     0.25                 : RMF          - RESISTIVITY OF MUD FILTRATE
SUFT.C        15                   : SUFT         - SURFACE TEMPERATURE
~A  DEPTH     RESD     PHID     PHIN       GR
# ...
  484.000    8.055    0.247    0.375   79.903
  484.250    7.478    0.231    0.376   82.351
  484.500    7.209    0.225    0.370   84.802
  484.750    7.214    0.223    0.370   85.419
  485.000    7.219    0.220    0.377   86.040
  485.250    7.504    0.217    0.366   86.656
  485.500    7.651    0.202    0.352   87.887
  485.750    7.656    0.191    0.349   89.113
  486.000    7.808    0.185    0.389   90.952
  486.250    7.962    0.212    0.414   87.301
  486.500    8.120    0.242    0.422   78.163
  486.750    8.281    0.259    0.395   70.853
  487.000    9.103    0.207    0.372   78.793
  487.250   10.787    0.190    0.393   83.678
  487.500   14.577    0.225    0.438   68.442
  487.750   18.978    0.267    0.425   47.107
  488.000   21.655    0.284    0.384   35.529
  488.250   24.717    0.296    0.362   31.270
  488.500   25.204    0.307    0.366   31.890
  488.750   22.121    0.302    0.376   39.218
  489.000   19.056    0.297    0.388   44.104
  489.250   18.021    0.282    0.374   47.771
  489.500   16.422    0.266    0.346   54.487
  489.750   14.969    0.255    0.349   60.592
  490.000   14.425    0.276    0.375   66.089
  490.250   13.648    0.290    0.401   63.659
  490.500   13.402    0.275    0.386   68.547
  490.750   14.733    0.259    0.372   67.336
  491.000   17.456    0.252    0.378   61.856
  491.250   24.495    0.270    0.395   51.500
  491.500   30.713    0.291    0.407   44.800
  491.750   35.712    0.313    0.396   44.811
  492.000   44.776    0.320    0.406   49.697
  492.250   49.217    0.313    0.414   52.143
  492.500   54.103    0.298    0.389   50.323
  492.750   59.486    0.292    0.380   47.282
  493.000   61.792    0.299    0.375   54.004
  493.250   56.306    0.302    0.375   56.447
  493.500   49.416    0.292    0.376   60.115
  493.750   41.006    0.289    0.379   59.514
  494.000   38.061    0.292    0.387   54.035
  494.250   34.675    0.297    0.392   46.118
  494.500   31.014    0.293    0.379   43.076
  494.750   27.735    0.291    0.365   42.474
  495.000   26.230    0.291    0.358   47.362
  495.250   23.024    0.292    0.355   49.810
  495.500   21.370    0.299    0.363   46.161
  495.750   18.755    0.306    0.359   51.047
  496.000   16.463    0.305    0.374   55.325
  496.250   14.451    0.303    0.406   57.162
  496.500   13.667    0.313    0.391   54.732
  496.750   11.775    0.306    0.386   57.791
  497.000   10.930    0.301    0.398   63.290
  497.250   10.337    0.304    0.401   65.736
  497.500    9.245    0.295    0.392   66.353
  497.750    8.425    0.283    0.390   65.144
  498.000    7.967    0.270    0.387   66.981
  498.250    7.399    0.263    0.387   71.870
  498.500    7.266    0.255    0.399   75.535
  498.750    6.878    0.246    0.413   80.425
  499.000    6.755    0.225    0.391   82.870
  499.250    6.634    0.207    0.386   88.369
  499.500    6.638    0.191    0.388   93.868
  499.750    6.518    0.183    0.388   96.313
  500.000    6.523    0.189    0.389  101.809
  500.250    6.408    0.208    0.396  107.916
  500.500    6.415    0.233    0.408  109.143
  500.750    6.418    0.181    0.415  110.373
  501.000    6.304    0.151    0.431  110.383
  501.250    6.429    0.163    0.443  109.170
  501.500    6.433    0.171    0.448  106.740
  501.750    6.562    0.182    0.421   93.943
  502.000    6.691    0.187    0.394   81.756
  502.250    6.954    0.188    0.371   75.666
  502.500    7.091    0.187    0.359   72.018
  502.750    7.370    0.188    0.338   69.590
  503.000    7.514    0.190    0.338   68.375
  503.250    7.519    0.192    0.341   67.165
  503.500    7.673    0.193    0.329   69.616
  503.750    7.678    0.194    0.327   73.891
  504.000    7.684    0.202    0.335   77.559
  504.250    7.689    0.214    0.340   78.788
  504.500    7.693    0.197    0.346   79.406
  504.750    7.701    0.185    0.362   80.023
  505.000    7.705    0.180    0.378   80.647
  505.250    7.861    0.176    0.380   80.655
  505.500    7.868    0.175    0.367   80.661
  505.750    7.874    0.180    0.367   80.060
  506.000    8.029    0.198    0.362   77.020
  506.250    8.034    0.214    0.352   75.197
  506.500    8.040    0.211    0.349   73.379
  506.750    8.045    0.203    0.339   70.341
  507.000    8.055    0.198    0.334   68.517
  507.250    8.059    0.189    0.329   66.695
  507.500    8.067    0.183    0.347   65.488
  507.750    8.223    0.183    0.353   63.664
  508.000    8.549    0.193    0.359   59.405
  508.250    8.881    0.205    0.368   60.633
  508.500    9.056    0.215    0.370   65.523
  508.750    9.960    0.226    0.367   61.872
  509.000   10.347    0.241    0.362   58.220
  509.250   10.749    0.255    0.361   58.229
  509.500   10.960    0.247    0.362   62.507
  509.750   11.609    0.242    0.369   63.127
  510.000   12.061    0.249    0.380   58.867
  510.250   12.531    0.276    0.379   56.435
  510.500   13.521    0.267    0.364   55.834
  510.750   14.313    0.258    0.365   54.015
  511.000   15.737    0.265    0.378   49.146
  511.250   17.966    0.286    0.390   46.713
  511.500   19.375    0.291    0.390   45.505
  511.750   21.703    0.289    0.380   44.298
  512.000   24.773    0.294    0.390   43.693
  512.250   26.726    0.303    0.392   41.872
  512.500   27.251    0.318    0.384   39.442
  512.750   26.272    0.325    0.370   38.839
  513.000   25.801    0.305    0.362   46.170
  513.250   25.824    0.268    0.354   50.443
  513.500   26.332    0.249    0.348   57.161
  513.750   27.885    0.255    0.364   62.046
  514.000   29.525    0.266    0.413   48.031
  514.250   30.102    0.297    0.441   37.064
  514.500   30.124    0.322    0.401   32.806
  514.750   24.992    0.336    0.380   31.592
  515.000    9.424    0.327    0.385   30.994
  515.250    6.728    0.328    0.387   30.393
  515.500    5.275    0.333    0.376   37.110
  515.750    3.985    0.327    0.375   40.774
  516.000    3.432    0.328    0.390   49.321
  516.250    3.186    0.334    0.390   54.816
  516.500    3.071    0.338    0.374   48.121
  516.750    2.961    0.345    0.375   46.908
  517.000    2.855    0.320    0.389   45.697
  517.250    2.803    0.321    0.399   41.437
  517.500    2.805    0.322    0.392   37.787
  517.750    2.755    0.327    0.389   36.577
  518.000    2.757    0.336    0.392   37.805
  518.250    2.759    0.338    0.394   37.815
  518.500    2.762    0.340    0.397   37.212
  518.750    2.817    0.346    0.399   41.491
  519.000    2.820    0.350    0.400   47.600
  519.250    2.821    0.344    0.395   50.654
  519.500    2.824    0.333    0.388   54.935
  519.750    2.826    0.332    0.375   56.769
  520.000    2.776    0.327    0.368   57.389
  520.250    2.778    0.322    0.384   53.740
  520.500    2.781    0.326    0.392   50.090
  520.750    2.731    0.323    0.382   46.439
  521.000    2.733    0.316    0.372   44.619
  521.250    2.735    0.313    0.377   45.236
  521.500    2.737    0.316    0.389   47.075
  521.750    2.793    0.318    0.396   43.425
  522.000    2.847    0.317    0.388   39.775
  522.250    2.850    0.318    0.382   41.005
  522.500    2.905    0.297    0.371   43.452
  522.750    2.962    0.281    0.363   41.021
  523.000    2.965    0.289    0.371   39.201
  523.250    2.967    0.300    0.367   39.819
  523.500    2.970    0.320    0.361   42.877
  523.750    2.972    0.323    0.355   45.937
  524.000    2.975    0.306    0.360   45.945
  524.250    2.978    0.293    0.363   47.173
  524.500    2.926    0.287    0.362   49.621
  524.750    2.928    0.298    0.364   47.799
  525.000    2.930    0.304    0.373   45.979
  525.250    2.931    0.312    0.368   48.428
  525.500    2.879    0.312    0.367   50.265
  525.750    2.881    0.307    0.388   47.835
  526.000    2.830    0.307    0.378   45.406
  526.250    2.832    0.304    0.367   46.022
  526.500    2.731    0.298    0.364   45.422
  526.750    2.682    0.293    0.363   43.601
  527.000    2.634    0.305    0.367   40.562
  527.250    2.587    0.305    0.373   38.135
