~VERSION INFORMATION
 VERS.                 2.0:   CWLS LOG ASCII STANDARD -VERSION 2.0
 WRAP.                  NO:   ONE LINE PER DEPTH STEP
~WELL INFORMATION BLOCK
#MNEM.UNIT           DATA                    DESCRIPTION OF MNEMONIC
#---------    -------------------            -------------------------------
# Generated from Intellog Unique Number	CS_77_79/WELL/865
WELL.         CWWE THORNBURY                 : Well_name    - WELL
LOC .         00/05-31-079-13W4/0            : Location     - LOCATION
UWI .         00/05-31-079-13W4/0            : Uwi          - UNIQUE WELL ID
ENTR.         JHS                            : Entered      - ENTERED BY
SRVC.         SCHLUMBERGER                   : Scn          - SERVICE COMPANY
STRT.M        245                            : top_depth    - START DEPTH
STOP.M        510                            : bot_depth    - STOP DEPTH
STEP.M        0.25                           : increment    - STEP LENGTH
 NULL. -999.2500:NULL Value
~CURVE INFORMATION BLOCK
#MNEM UNIT       ERCB CURVE CODE    CURVE DESCRIPTION
#-----------   ------------------   ----------------------------------
DEPT.M        00 001 00 00         : DEPTH        - DEPTH
DPHI.V/V      00 890 00 00         : PHID         - DENSITY POROSITY (LIMESTONE)
NPHI.V/V      00 330 00 00         : PHIN         - NEUTRON POROSITY (LIMESTONE)
GR  .API      00 310 00 00         : GR           - GAMMA RAY
ILD .OHMM     00 120 00 00         : RESD         - DEEP RESISTIVITY (DIL)
RHOB.KG/M3    00 350 00 00         : DENS         - BULK DENSITY
~PARAMETER INFORMATION
#MNEM.UNIT           DATA             DESCRIPTION OF MNEMONIC
#---------         -----------     ------------------------------
GL  .M        694.2                : gl           - GROUND LEVEL ELEVATION
EREF.M        698                  : kb           - ELEVATION OF DEPTH REFERENCE
DATM.M        698                  : datum        - DATUM ELEVATION
TDD .M        510                  : tdd          - TOTAL DEPTH DRILLER
RUN .         ONE                  : Run          - RUN NUMBER
ENG .         BILL                 : Engineer     - RECORDING ENGINEER
WIT .         JIM                  : Witness      - WITNESSED BY
MUD .         GEL                  : Mud_type     - MUD TYPE
MATR.         LIMESTONE            : Logunit      - NEUTRON MATRIX
TMAX.C        22                   : BHT          - MAXIMUM RECORDED TEMPERATURE
BHTD.M        510                  : BHTDEP       - MAXIMUM RECORDED TEMPERATURE
MATR.         1                    : LOGUNIT      - NEUTRON MATRIX
RMT .C        25                   : MDTP         - TEMPERATURE OF MUD
NEUT.         1                    : NEUTRON      - NEUTRON TYPE
RESI.         0                    : RESIST       - RESISTIVITY TYPE
RMC .OHMM     0.25                 : RMC          - RESISTIVITY OF MUD CAKE
RMF .OHMM     0.25                 : RMF          - RESISTIVITY OF MUD FILTRATE
SUFT.C        15                   : SUFT         - SURFACE TEMPERATURE
~A  DEPTH     PHID     PHIN       GR     RESD     DENS
# ...
  464.000    0.345    0.209   72.878  106.205 2119.610
  464.250    0.367    0.185   53.884  114.519 2081.800
  464.500    0.386    0.167   48.968  110.240 2050.270
  464.750    0.381    0.161   52.016  104.128 2058.620
  465.000    0.353    0.188   60.568   91.188 2106.810
  465.250    0.347    0.221   59.931   74.033 2117.240
  465.500    0.342    0.195   58.697   52.648 2125.590
  465.750    0.322    0.220   63.576   57.853 2159.120
  466.000    0.279    0.283   71.520   68.584 2232.490
  466.250    0.276    0.229   72.117   91.071 2238.730
  466.500    0.350    0.191   59.242  135.477 2110.690
  466.750    0.368    0.127   46.985  151.735 2081.270
  467.000    0.369    0.108   38.396  194.012 2079.120
  467.250    0.368    0.111   38.379  229.970 2081.160
  467.500    0.371    0.137   42.649  252.737 2074.830
  467.750    0.365    0.163   55.489  221.310 2085.250
  468.000    0.363    0.170   62.203  160.393 2089.390
  468.250    0.362    0.161   59.126  120.724 2091.460
  468.500    0.342    0.154   87.884   92.596 2124.970
  468.750    0.298    0.195  104.395   90.841 2200.450
  469.000    0.315    0.158   97.034  105.654 2171.020
  469.250    0.348    0.129   59.061  116.121 2114.310
  469.500    0.346    0.130   57.817  148.453 2118.450
  469.750    0.344    0.161   62.088  163.166 2122.600
  470.000    0.352    0.140   55.948  204.702 2107.870
  470.250    0.367    0.110   49.200  247.291 2082.650
  470.500    0.379    0.101   38.166  298.722 2061.610
  470.750    0.389    0.113   39.984  310.187 2044.780
  471.000    0.382    0.135   55.272  304.292 2057.310
  471.250    0.368    0.168   63.214  193.160 2080.330
  471.500    0.323    0.217   70.543   90.584 2157.910
  471.750    0.282    0.260   74.813   69.483 2227.090
  472.000    0.280    0.189   63.162   65.631 2231.240
  472.250    0.312    0.152   50.905   64.383 2176.640
  472.500    0.352    0.149   46.603   66.850 2107.350
  472.750    0.328    0.192   54.545   73.466 2149.260
  473.000    0.323    0.150   53.301   88.748 2157.600
  473.250    0.353    0.134   45.327  107.212 2107.190
  473.500    0.377    0.140   43.473  115.615 2065.180
  473.750    0.380    0.146   45.904  139.661 2060.940
  474.000    0.396    0.132   53.233  153.482 2033.610
  474.250    0.386    0.126   53.217  150.561 2050.340
  474.500    0.380    0.129   53.203  129.378 2060.770
  474.750    0.377    0.127   53.185  134.338 2064.920
  475.000    0.358    0.128   51.332  144.857 2098.440
  475.250    0.329    0.166   54.377  150.404 2146.640
  475.500    0.320    0.159   58.030  142.064 2163.370
  475.750    0.334    0.132   54.956  129.216 2138.150
  476.000    0.396    0.115   50.043   88.476 2033.190
  476.250    0.377    0.120   51.860   58.328 2064.610
  476.500    0.333    0.187   61.028   55.094 2140.090
  476.750    0.308    0.234   65.909   59.412 2184.090
  477.000    0.311    0.241   59.160   66.540 2177.750
  477.250    0.348    0.198   48.121   75.946 2114.750
  477.500    0.391    0.170   42.594   85.053 2041.270
  477.750    0.401    0.181   43.193   86.658 2024.430
  478.000    0.400    0.184   47.462   69.036 2026.480
  478.250    0.373    0.184   54.175   50.030 2072.590
  478.500    0.334    0.230   58.446   50.017 2139.670
  478.750    0.347    0.216   51.085   46.360 2116.540
  479.000    0.358    0.205   63.921   37.637 2097.600
  479.250    0.340    0.237   75.538   33.588 2129.020
  479.500    0.326    0.334   84.091   30.548 2152.040
  479.750    0.346    0.445   79.790   33.571 2118.420
  480.000    0.313    0.428   63.242   40.556 2175.020
  480.250    0.326    0.334   54.656   56.999 2151.890
  480.500    0.405    0.261   50.964   78.613 2017.570
  480.750    0.415    0.228   50.949  102.437 2000.710
  481.000    0.414    0.176   48.484  123.742 2002.770
  481.250    0.409    0.125   44.797  133.433 2011.110
  481.500    0.403    0.130   41.718  133.405 2021.550
  481.750    0.390    0.160   44.152  116.826 2042.470
  482.000    0.381    0.208   45.968   93.060 2059.210
  482.250    0.372    0.233   47.790   84.636 2073.850
  482.500    0.367    0.202   48.383   83.033 2082.190
  482.750    0.392    0.187   45.917   86.214 2040.180
  483.000    0.408    0.178   41.614   89.508 2012.850
  483.250    0.411    0.176   40.375   89.487 2006.500
  483.500    0.394    0.182   42.197   76.900 2035.820
  483.750    0.351    0.219   49.526   56.796 2109.200
  484.000    0.345    0.258   59.303   54.672 2119.630
  484.250    0.378    0.259   62.959  125.664 2062.940
  484.500    0.426    0.209   54.988   87.701 1981.060
  484.750    0.434    0.171   44.559  103.964 1968.420
  485.000    0.439    0.161   39.647  138.054 1959.990
  485.250    0.436    0.172   39.019  143.345 1964.130
  485.500    0.415    0.193   42.065   92.734 1999.740
  485.750    0.369    0.212   50.005   68.489 2079.410
  486.000    0.339    0.238   58.559   52.532 2129.710
  486.250    0.330    0.285   64.663   57.732 2146.450
  486.500    0.377    0.341   61.584   67.154 2064.570
  486.750    0.429    0.294   52.388   73.798 1976.400
  487.000    0.424    0.256   49.924   81.100 1984.740
  487.250    0.411    0.217   57.865   81.078 2007.760
  487.500    0.401    0.208   59.679   92.539 2024.500
  487.750    0.389    0.255   56.601  116.105 2045.430
  488.000    0.383    0.203   53.526  189.866 2055.860
  488.250    0.454    0.068   52.285  287.815 1934.130
  488.500    0.491    0.056   47.375  404.491 1871.140
  488.750    0.496    0.055   39.398  436.241 1862.690
  489.000    0.481    0.060   39.378  497.913 1887.800
  489.250    0.472    0.064   37.530  526.853 1902.450
  489.500    0.465    0.070   35.676  488.308 1914.980
  489.750    0.463    0.074   35.659  389.023 1919.110
  490.000    0.464    0.077   35.641  224.659 1916.970
  490.250    0.459    0.085   39.298  142.611 1925.320
  490.500    0.437    0.104   47.854  115.776 1963.030
  490.750    0.405    0.136   58.855  120.213 2017.530
  491.000    0.382    0.172   63.123  137.203 2057.340
  491.250    0.404    0.135   58.212  153.659 2019.520
  491.500    0.441    0.118   43.504  156.551 1956.530
  491.750    0.455    0.103   36.134  147.884 1931.300
  492.000    0.451    0.112   38.564  115.598 1939.640
  492.250    0.400    0.161   39.780   83.778 2025.610
  492.500    0.372    0.216   41.596   65.489 2073.810
  492.750    0.351    0.333   40.358   56.270 2109.420
  493.000    0.344    0.355   37.278   54.164 2121.940
  493.250    0.341    0.408   34.203   54.150 2126.100
  493.500    0.345    0.405   34.186   55.176 2119.750
  493.750    0.345    0.388   36.612   58.380 2119.700
  494.000    0.342    0.384   37.207   60.618 2125.930
  494.250    0.345    0.376   36.579   61.757 2119.600
  494.500    0.356    0.372   35.948   62.920 2100.670
  494.750    0.366    0.366   35.938   61.725 2083.830
  495.000    0.366    0.363   35.923   60.559 2083.780
  495.250    0.356    0.365   37.125   55.074 2100.510
  495.500    0.352    0.361   36.499   49.148 2108.850
  495.750    0.356    0.359   35.260   45.551 2100.400
  496.000    0.360    0.363   35.857   43.850 2094.060
  496.250    0.353    0.361   41.346   43.843 2106.600
  496.500    0.347    0.363   43.171   46.389 2117.020
  496.750    0.354    0.370   40.704   50.025 2104.380
  497.000    0.360    0.365   36.399   54.972 2093.840
  497.250    0.353    0.379   34.551   59.282 2106.380
  497.500    0.347    0.387   33.305   61.554 2116.820
  497.750    0.351    0.395   36.962   63.911 2110.460
  498.000    0.354    0.419   38.785   63.897 2104.120
  498.250    0.356    0.397   38.152   63.881 2101.970
  498.500    0.356    0.380   39.972   62.666 2101.930
  498.750    0.354    0.384   42.405   60.325 2103.970
  499.000    0.351    0.377   44.839   55.909 2110.220
  499.250    0.340    0.359   43.599   51.821 2129.050
  499.500    0.313    0.384   43.584   48.033 2175.140
  499.750    0.299    0.369   49.076   43.685 2198.180
  500.000    0.291    0.350   53.955   38.986 2212.800
  500.250    0.297    0.334   49.653   33.499 2202.250
