~VERSION INFORMATION
 VERS.                 2.0:   CWLS LOG ASCII STANDARD -VERSION 2.0
 WRAP.                  NO:   ONE LINE PER DEPTH STEP
~WELL INFORMATION BLOCK
#MNEM.UNIT           DATA                    DESCRIPTION OF MNEMONIC
#---------    -------------------            -------------------------------
# Generated from Intellog Unique Number	CX_WELLS/WELL/2736
WELL.         THORNBURY                      : Well_name    - WELL
LOC .         00/07-26-080-12W4/0            : Location     - LOCATION
UWI .         00/07-26-080-12W4/0            : Uwi          - UNIQUE WELL ID
ENTR.         TIM                            : Entered      - ENTERED BY
SRVC.         SCHLUMBERGER                   : Scn          - SERVICE COMPANY
STRT.M        270                            : top_depth    - START DEPTH
STOP.M        500                            : bot_depth    - STOP DEPTH
STEP.M        0.25                           : increment    - STEP LENGTH
 NULL. -999.2500:NULL Value
~CURVE INFORMATION BLOCK
#MNEM UNIT       ERCB CURVE CODE    CURVE DESCRIPTION
#-----------   ------------------   ----------------------------------
DEPT.M        00 001 00 00         : DEPTH        - DEPTH
GR  .API      00 310 00 00         : GR           - GAMMA RAY
NPHI.V/V      00 330 00 00         : PHIN         - NEUTRON POROSITY (SANDSTONE)
DPHI.V/V      00 890 00 00         : PHID         - DENSITY POROSITY (SANDSTONE)
ILD .OHMM     00 120 00 00         : RESD         - DEEP RESISTIVITY (DLL)
~PARAMETER INFORMATION
#MNEM.UNIT           DATA             DESCRIPTION OF MNEMONIC
#---------         -----------     ------------------------------
GL  .M        698.9                : gl           - GROUND LEVEL ELEVATION
EREF.M        702.6                : kb           - ELEVATION OF DEPTH REFERENCE
DATM.M        702.6                : datum        - DATUM ELEVATION
TDD .M        513                  : tdd          - TOTAL DEPTH DRILLER
RUN .         ONE                  : Run          - RUN NUMBER
ENG .         BILL                 : Engineer     - RECORDING ENGINEER
WIT .         JIM                  : Witness      - WITNESSED BY
MUD .         GEL                  : Mud_type     - MUD TYPE
MATR.         SANDSTONE            : Logunit      - NEUTRON MATRIX
TMAX.C        26                   : BHT          - MAXIMUM RECORDED TEMPERATURE
BHTD.M        513                  : BHTDEP       - MAXIMUM RECORDED TEMPERATURE
MATR.         1                    : LOGUNIT      - NEUTRON MATRIX
RMT .C        14.4                 : MDTP         - TEMPERATURE OF MUD
NEUT.         1                    : NEUTRON      - NEUTRON TYPE
RESI.         3                    : RESIST       - RESISTIVITY TYPE
RMC .OHMM     2.6                  : RMC          - RESISTIVITY OF MUD CAKE
RMF .OHMM     3.2                  : RMF          - RESISTIVITY OF MUD FILTRATE
SUFT.C        4                    : SUFT         - SURFACE TEMPERATURE
~A  DEPTH       GR     PHIN     PHID     RESD
# ...
  400.500  100.513    0.412    0.189    8.594
  400.750   98.799    0.400    0.120   10.184
  401.000   95.927    0.389    0.061   11.613
  401.250   92.470    0.374    0.061   11.854
  401.500   91.355    0.371    0.138   11.445
  401.750   95.510    0.387    0.219   10.854
  402.000   98.508    0.451    0.223   10.282
  402.250   98.578    0.453    0.227    9.395
  402.500   98.621    0.454    0.236    8.742
  402.750   98.677    0.460    0.246    8.281
  403.000   98.719    0.465    0.247    7.849
  403.250   99.375    0.466    0.249    7.578
  403.500   99.417    0.460    0.255    7.187
  403.750   98.302    0.445    0.268    6.939
  404.000   95.430    0.432    0.271    6.949
  404.250   90.802    0.384    0.248    7.094
  404.500   85.602    0.368    0.226    7.655
  404.750   84.459    0.369    0.223    9.586
  405.000   82.773    0.368    0.263   10.538
  405.250   82.829    0.368    0.271   10.559
  405.500   84.070    0.381    0.263   10.386
  405.750   85.284    0.399    0.268    9.849
  406.000   86.525    0.417    0.277    9.500
  406.250   87.167    0.424    0.284    8.848
  406.500   87.795    0.414    0.286    8.539
  406.750   88.465    0.409    0.278    8.394
  407.000   88.507    0.409    0.266    8.117
  407.250   89.148    0.418    0.258    8.125
  407.500   90.362    0.428    0.246    7.992
  407.750   91.589    0.439    0.239    8.004
  408.000   92.816    0.448    0.235    8.020
  408.250   95.243    0.449    0.237    8.037
  408.500   95.856    0.448    0.238    8.053
  408.750   96.512    0.450    0.241    8.077
  409.000   95.983    0.460    0.245    8.089
  409.250   93.111    0.464    0.248    8.101
  409.500   91.411    0.456    0.249    7.972
  409.750   90.882    0.443    0.255    7.989
  410.000   90.352    0.430    0.258    8.013
  410.250   89.237    0.437    0.265    8.021
  410.500   88.694    0.441    0.276    8.187
  410.750   88.750    0.436    0.287    8.357
  411.000   87.635    0.432    0.297    8.531
  411.250   85.935    0.433    0.297    8.708
  411.500   83.063    0.434    0.278    8.893
  411.750   77.863    0.434    0.263    8.915
  412.000   76.734    0.432    0.249    8.924
  412.250   79.133    0.426    0.237    9.463
  412.500   80.360    0.415    0.199    9.650
  412.750   78.660    0.389    0.188   10.227
  413.000   75.802    0.336    0.176   10.834
  413.250   74.673    0.317    0.140   11.058
  413.500   74.743    0.323    0.181   11.086
  413.750   77.727    0.368    0.236   10.704
  414.000   80.697    0.394    0.262   10.523
  414.250   82.524    0.422    0.291   10.156
  414.500   83.194    0.440    0.285    9.114
  414.750   83.222    0.458    0.268    8.630
  415.000   83.293    0.465    0.268    8.029
  415.250   83.335    0.470    0.275    7.610
  415.500   83.391    0.472    0.277    7.080
  415.750   83.447    0.472    0.281    6.711
  416.000   83.517    0.471    0.279    6.480
  416.250   84.159    0.466    0.276    6.373
  416.500   84.801    0.461    0.275    6.160
  416.750   86.042    0.461    0.277    6.056
  417.000   86.656    0.466    0.279    5.957
  417.250   87.298    0.469    0.272    5.751
  417.500   89.111    0.470    0.264    5.657
  417.750   96.793    0.469    0.256    5.462
  418.000   96.849    0.468    0.248    5.274
  418.250   92.221    0.466    0.240    5.188
  418.500   88.164    0.465    0.238    5.295
  418.750   87.049    0.464    0.235    5.402
  419.000   87.120    0.460    0.231    5.830
  419.250   87.747    0.456    0.227    6.294
  419.500   87.803    0.452    0.221    6.545
  419.750   86.689    0.450    0.214    6.810
  420.000   84.403    0.438    0.192    6.947
  420.250   82.716    0.427    0.170    6.968
  420.500   84.529    0.435    0.168    6.979
  420.750   86.927    0.461    0.198    7.120
  421.000   89.326    0.467    0.217    7.404
  421.250   91.738    0.472    0.215    7.558
  421.500   92.951    0.471    0.214    7.859
  421.750   93.607    0.467    0.207    8.172
  422.000   93.664    0.464    0.203    8.342
  422.250   93.120    0.462    0.200    8.367
  422.500   92.591    0.458    0.197    8.379
  422.750   92.061    0.452    0.193    8.392
  423.000   92.118    0.457    0.191    8.417
  423.250   93.345    0.463    0.188    8.271
  423.500   95.158    0.465    0.185    8.288
  423.750   96.399    0.460    0.187    8.304
  424.000   96.441    0.447    0.183    8.168
  424.250   97.697    0.432    0.181    8.034
  424.500   98.924    0.426    0.187    7.761
  424.750   99.552    0.425    0.194    7.634
  425.000  100.779    0.424    0.199    7.505
  425.250  102.006    0.427    0.203    7.113
  425.500  102.063    0.433    0.204    6.618
  425.750  101.561    0.447    0.205    6.161
  426.000  100.432    0.457    0.210    5.627
  426.250   99.889    0.470    0.214    5.233
  426.500   97.631    0.485    0.219    4.868
  426.750   97.074    0.504    0.221    4.367
  427.000   95.373    0.513    0.224    3.917
  427.250   94.272    0.526    0.237    3.643
  427.500   93.157    0.531    0.262    3.514
  427.750   92.043    0.516    0.259    2.981
  428.000   92.099    0.497    0.241    2.624
  428.250   91.555    0.475    0.228    2.440
  428.500   90.454    0.454    0.220    2.445
  428.750   89.354    0.444    0.208    2.638
  429.000   88.796    0.442    0.208    3.068
  429.250   87.096    0.439    0.204    3.435
  429.500   85.995    0.436    0.196    4.067
  429.750   83.709    0.431    0.185    4.815
  430.000   82.594    0.422    0.190    5.395
  430.250   82.636    0.418    0.205    6.045
  430.500   87.377    0.428    0.216    5.837
  430.750   97.973    0.437    0.223    5.532
  431.000   99.828    0.446    0.224    5.144
  431.250   99.256    0.436    0.214    4.612
  431.500   96.385    0.420    0.200    4.537
  431.750   92.942    0.409    0.185    4.631
  432.000   90.070    0.416    0.173    4.640
  432.250   88.941    0.426    0.166    4.647
  432.500   91.340    0.445    0.178    4.487
  432.750   97.265    0.451    0.209    4.413
  433.000  101.421    0.467    0.211    4.261
  433.250  102.648    0.484    0.219    4.117
  433.500  102.118    0.501    0.231    3.904
  433.750  101.631    0.517    0.223    3.838
  434.000  101.673    0.514    0.218    3.704
  434.250  101.702    0.506    0.209    3.576
  434.500  101.758    0.475    0.202    3.583
  434.750  102.399    0.450    0.197    3.661
  435.000  103.641    0.445    0.192    3.735
  435.250  103.683    0.455    0.196    3.884
  435.500  103.168    0.467    0.193    4.115
  435.750  103.809    0.476    0.183    4.279
  436.000  105.023    0.472    0.165    4.289
  436.250  106.836    0.472    0.165    4.296
  436.500  108.663    0.476    0.173    4.304
  436.750  111.075    0.480    0.197    4.480
  437.000  109.960    0.484    0.204    4.485
  437.250  107.674    0.485    0.208    4.664
  437.500  103.603    0.467    0.205    4.943
  437.750   97.804    0.431    0.199    5.137
  438.000   91.419    0.361    0.197    5.345
  438.250   85.620    0.317    0.207    5.873
  438.500   84.519    0.277    0.259    7.086
  438.750   85.732    0.224    0.358    8.390
  439.000   88.130    0.228    0.359   10.118
  439.250   88.772    0.237    0.343   12.908
  439.500   88.843    0.250    0.307   15.576
  439.750   88.313    0.295    0.259   17.443
  440.000   87.784    0.325    0.243   16.851
  440.250   87.240    0.340    0.257   16.254
  440.500   86.139    0.339    0.262   15.413
  440.750   87.353    0.330    0.257   14.609
  441.000   89.166    0.340    0.246   14.098
  441.250   92.749    0.355    0.238   13.362
  441.500   93.977    0.394    0.232   12.902
  441.750   94.047    0.412    0.227   12.457
  442.000   94.674    0.398    0.225   12.253
  442.250   95.316    0.386    0.219   12.514
  442.500   98.886    0.391    0.211   12.539
  442.750  102.455    0.403    0.208   12.570
  443.000  106.025    0.411    0.210   12.583
  443.250  107.252    0.417    0.211   12.156
  443.500  110.836    0.410    0.212   11.956
  443.750  114.991    0.395    0.214   11.980
