~VERSION INFORMATION
 VERS.                 2.0:   CWLS LOG ASCII STANDARD -VERSION 2.0
 WRAP.                  NO:   ONE LINE PER DEPTH STEP
~WELL INFORMATION BLOCK
#MNEM.UNIT           DATA                    DESCRIPTION OF MNEMONIC
#---------    -------------------            -------------------------------
# Generated from Intellog Unique Number	CS_73_76/WELL/1080
WELL.         BOW VALLEY EXPLORATION         : Well_name    - WELL
LOC .         00/06-28-076-17W4/0            : Location     - LOCATION
UWI .         00/06-28-076-17W4/0            : Uwi          - UNIQUE WELL ID
ENTR.         SP                             : Entered      - ENTERED BY
SRVC.         SCHLUMBERGER                   : Scn          - SERVICE COMPANY
STRT.M        325                            : top_depth    - START DEPTH
STOP.M        542                            : bot_depth    - STOP DEPTH
STEP.M        0.25                           : increment    - STEP LENGTH
 NULL. -999.2500:NULL Value
~CURVE INFORMATION BLOCK
#MNEM UNIT       ERCB CURVE CODE    CURVE DESCRIPTION
#-----------   ------------------   ----------------------------------
DEPT.M        00 001 00 00         : DEPTH        - DEPTH
DPHI.V/V      00 890 00 00         : PHID         - DENSITY POROSITY (LIMESTONE)
NPHI.V/V      00 330 00 00         : PHIN         - NEUTRON POROSITY (LIMESTONE)
GR  .API      00 310 00 00         : GR           - GAMMA RAY
ILD .OHMM     00 120 00 00         : RESD         - DEEP RESISTIVITY (DIL)
~PARAMETER INFORMATION
#MNEM.UNIT           DATA             DESCRIPTION OF MNEMONIC
#---------         -----------     ------------------------------
GL  .M        692.7                : gl           - GROUND LEVEL ELEVATION
EREF.M        696                  : kb           - ELEVATION OF DEPTH REFERENCE
DATM.M        692.7                : datum        - DATUM ELEVATION
TDD .M        545                  : tdd          - TOTAL DEPTH DRILLER
RUN .         ONE                  : Run          - RUN NUMBER
ENG .         BILL                 : Engineer     - RECORDING ENGINEER
WIT .         JIM                  : Witness      - WITNESSED BY
MUD .         GEL                  : Mud_type     - MUD TYPE
MATR.         LIMESTONE            : Logunit      - NEUTRON MATRIX
TMAX.C        24                   : BHT          - MAXIMUM RECORDED TEMPERATURE
BHTD.M        545                  : BHTDEP       - MAXIMUM RECORDED TEMPERATURE
MATR.         1                    : LOGUNIT      - NEUTRON MATRIX
RMT .C        25                   : MDTP         - TEMPERATURE OF MUD
NEUT.         1                    : NEUTRON      - NEUTRON TYPE
RESI.         0                    : RESIST       - RESISTIVITY TYPE
RMC .OHMM     0.25                 : RMC          - RESISTIVITY OF MUD CAKE
RMF .OHMM     0.25                 : RMF          - RESISTIVITY OF MUD FILTRATE
SUFT.C        15                   : SUFT         - SURFACE TEMPERATURE
~A  DEPTH     PHID     PHIN       GR     RESD
# ...
  499.000    0.228    0.437   97.404    4.550
  499.250    0.236    0.443   98.614    4.552
  499.500    0.230    0.449   95.574    4.553
  499.750    0.218    0.445   94.353    4.555
  500.000    0.197    0.422   94.956    4.231
  500.250    0.201    0.413   96.773    3.583
  500.500    0.197    0.420   97.375    2.978
  500.750    0.188    0.430   99.799    2.617
  501.000    0.200    0.447  101.008    2.257
  501.250    0.217    0.476   97.361    1.984
  501.500    0.235    0.512   95.534    1.809
  501.750    0.280    0.534   93.708    1.744
  502.000    0.289    0.550   93.703    1.712
  502.250    0.272    0.567   94.305    1.745
  502.500    0.272    0.577   93.693    1.845
  502.750    0.286    0.562   96.116    1.951
  503.000    0.262    0.545   99.148    2.264
  503.250    0.241    0.535  100.965    2.776
  503.500    0.233    0.520   98.531    3.103
  503.750    0.227    0.500   94.275    3.806
  504.000    0.216    0.489   93.056    4.415
  504.250    0.188    0.459   91.837    4.756
  504.500    0.167    0.418   94.261    4.937
  504.750    0.196    0.404   98.507    5.221
  505.000    0.204    0.408   94.859    5.420
  505.250    0.204    0.405   91.210    5.523
  505.500    0.198    0.407   90.598    5.525
  505.750    0.175    0.410   89.986    5.229
  506.000    0.142    0.398   88.159    5.040
  506.250    0.167    0.367   89.369    4.596
  506.500    0.205    0.386   94.222    4.349
  506.750    0.205    0.405  104.541    4.115
  507.000    0.220    0.421  109.394    3.894
  507.250    0.229    0.430  111.819    3.824
  507.500    0.221    0.437  116.065    3.687
  507.750    0.216    0.436  119.703    3.688
  508.000    0.197    0.431  120.305    3.621
  508.250    0.200    0.435  118.479    3.623
  508.500    0.194    0.444  119.082    3.557
  508.750    0.194    0.466  120.291    3.366
  509.000    0.178    0.466  118.464    3.245
  509.250    0.191    0.446  120.889    3.071
  509.500    0.214    0.453  123.920    2.960
  509.750    0.233    0.455  123.308    2.853
  510.000    0.234    0.470  121.481    2.854
  510.250    0.232    0.485  123.298    3.018
  510.500    0.243    0.489  120.256    3.192
  510.750    0.244    0.472  117.823    3.438
  511.000    0.220    0.480  114.174    3.636
  511.250    0.193    0.471  109.311    3.845
  511.500    0.187    0.437  108.699    4.066
  511.750    0.202    0.430  110.516    4.300
  512.000    0.208    0.417  111.117    4.718
  512.250    0.183    0.419  110.506    5.374
  512.500    0.196    0.423  104.429    6.007
  512.750    0.216    0.424   94.100    6.471
  513.000    0.226    0.422   80.735    6.717
  513.250    0.241    0.411   60.083    6.476
  513.500    0.241    0.320   49.755    4.728
  513.750    0.203    0.322   55.823    3.389
  514.000    0.192    0.369   81.930    2.978
  514.250    0.227    0.443   95.286    3.208
  514.500    0.237    0.480   98.315    3.586
  514.750    0.248    0.463   96.490    5.196
  515.000    0.227    0.443  102.558    6.027
  515.250    0.203    0.369  112.876    6.614
  515.500    0.180    0.379  117.121    7.126
  515.750    0.189    0.386  114.081    7.397
  516.000    0.203    0.386  109.217    7.969
  516.250    0.206    0.397  104.962   11.333
  516.500    0.215    0.411   98.885   12.437
  516.750    0.238    0.417   89.771   13.151
  517.000    0.270    0.369   80.656   13.402
  517.250    0.277    0.343   70.329   12.221
  517.500    0.242    0.362   84.898   10.739
  517.750    0.235    0.354   96.431    9.793
  518.000    0.224    0.360  106.750    9.267
  518.250    0.208    0.366  106.136    8.770
  518.500    0.198    0.370  106.741    8.772
  518.750    0.218    0.373  106.127    8.774
  519.000    0.207    0.383  105.516    8.943
  519.250    0.205    0.383  103.689    8.945
  519.500    0.208    0.361  101.863    9.114
  519.750    0.207    0.377   99.428    9.119
  520.000    0.201    0.370  100.031    9.121
  520.250    0.203    0.374   97.597    9.125
  520.500    0.173    0.373   95.163    8.960
  520.750    0.167    0.372   95.765    8.799
  521.000    0.174    0.376   96.368    8.640
  521.250    0.188    0.379   98.184    8.485
  521.500    0.164    0.394  102.430    8.647
  521.750    0.119    0.401  106.070    9.316
  522.000    0.094    0.399  102.421    9.492
  522.250    0.093    0.381   97.557    9.852
  522.500    0.231    0.367   92.695   10.419
  522.750    0.197    0.360   87.832   10.816
  523.000    0.195    0.365   91.471   11.022
  523.250    0.218    0.345   96.324   10.824
  523.500    0.204    0.341   98.140   10.629
  523.750    0.195    0.325   96.922   10.437
  524.000    0.186    0.321  102.381   10.062
  524.250    0.174    0.328  101.770    9.881
  524.500    0.200    0.353   93.871   10.067
  524.750    0.222    0.365   89.615   10.451
  525.000    0.215    0.362   85.966   11.470
  525.250    0.205    0.354   76.852   12.128
  525.500    0.205    0.345   69.559   13.559
  525.750    0.200    0.319   61.660   14.337
  526.000    0.190    0.314   53.760   15.733
  526.250    0.292    0.347   53.756   17.590
  526.500    0.282    0.373   54.359   18.948
  526.750    0.283    0.380   48.281   21.182
  527.000    0.294    0.366   47.061   22.819
  527.250    0.282    0.358   54.343   22.408
  527.500    0.280    0.378   60.412   20.816
  527.750    0.289    0.386   63.443   18.983
  528.000    0.273    0.388   65.868   18.296
  528.250    0.257    0.393   68.899   16.684
  528.500    0.243    0.393   69.501   15.501
  528.750    0.260    0.383   68.889   14.668
  529.000    0.254    0.375   68.884   14.403
  529.250    0.223    0.367   79.202   13.882
  529.500    0.205    0.361   84.056   13.138
  529.750    0.199    0.370   84.659   12.663
  530.000    0.234    0.393   81.617   12.207
  530.250    0.222    0.388   84.041   11.987
  530.500    0.265    0.381   84.036   12.215
  530.750    0.257    0.391   81.603   13.160
  531.000    0.250    0.389   79.776   13.917
  531.250    0.259    0.399   77.342   15.274
  531.500    0.278    0.414   71.264   15.853
  531.750    0.278    0.411   67.008   17.397
  532.000    0.260    0.404   63.360   19.090
  532.250    0.275    0.403   59.104   20.950
  532.500    0.277    0.379   54.849   20.958
  532.750    0.251    0.351   51.807   20.579
  533.000    0.159    0.328   85.810   17.752
  533.250    0.171    0.331   95.520   15.033
  533.500    0.225    0.354   96.731   13.707
  533.750    0.227    0.365   97.333   12.500
  534.000    0.217    0.358   99.757   11.610
  534.250    0.188    0.347  100.967   10.587
  534.500    0.183    0.337   99.746   10.018
  534.750    0.199    0.347  102.172    9.657
  535.000    0.207    0.347  104.595    9.310
  535.250    0.204    0.343  105.805    9.313
  535.500    0.211    0.347  104.586    9.317
  535.750    0.218    0.341  107.618    9.319
  536.000    0.198    0.340  108.220    9.322
  536.250    0.191    0.336  102.142    9.155
  536.500    0.203    0.340  100.316    8.990
  536.750    0.199    0.358   97.882    8.992
  537.000    0.198    0.353   94.233    9.511
  537.250    0.192    0.341   93.013    9.513
  537.500    0.173    0.325   92.401    9.170
  537.750    0.157    0.339   90.575    9.005
  538.000    0.173    0.350   83.890    8.843
  538.250    0.185    0.363   80.241    8.845
  538.500    0.164    0.359   78.415    9.015
  538.750    0.167    0.355   75.373    9.186
  539.000    0.202    0.317   72.331    9.535
  539.250    0.203    0.308   69.898   10.464
  539.500    0.158    0.330   68.071   12.139
  539.750    0.134    0.374   66.244   15.448
  540.000    0.123    0.408   65.025   24.553
  540.250    0.141    0.412   60.162   30.110
  540.500    0.153    0.412   54.692   36.251
  540.750    0.100    0.409   50.436   37.630
  541.000    0.071    0.406   47.395   36.276
  541.250    0.072    0.404   44.961   28.523
  541.500    0.083    0.404   41.919   21.215
  541.750    0.090    0.404   39.485   20.076
  542.000    0.106    0.404   37.658   19.715
