~VERSION INFORMATION
 VERS.                 2.0:   CWLS LOG ASCII STANDARD -VERSION 2.0
 WRAP.                  NO:   ONE LINE PER DEPTH STEP
~WELL INFORMATION BLOCK
#MNEM.UNIT           DATA                    DESCRIPTION OF MNEMONIC
#---------    -------------------            -------------------------------
# Generated from Intellog Unique Number	CW_73_75/WELL/702
WELL.         MIAMI AMOCO MARTEN HILLS 07-19 : Well_name    - WELL
LOC .         00/07-19-074-01W5/0            : Location     - LOCATION
UWI .         00/07-19-074-01W5/0            : Uwi          - UNIQUE WELL ID
ENTR.         JAYE                           : Entered      - ENTERED BY
SRVC.         SCHLUMBERGER                   : Scn          - SERVICE COMPANY
DATE.         2 FEB 74                       : Date         - LOG DATE
STRT.M        420.624                        : top_depth    - START DEPTH
STOP.M        633.874                        : bot_depth    - STOP DEPTH
STEP.M        0.25                           : increment    - STEP LENGTH
 NULL. -999.2500:NULL Value
~CURVE INFORMATION BLOCK
#MNEM UNIT       ERCB CURVE CODE    CURVE DESCRIPTION
#-----------   ------------------   ----------------------------------
DEPT.M        00 001 00 00         : DEPTH        - DEPTH
ILD .OHMM     00 120 00 00         : RESD         - DEEP RESISTIVITY (DIL)
NPHI.V/V      00 330 00 00         : PHIN         - NEUTRON POROSITY (SANDSTONE)
DPHI.V/V      00 890 00 00         : PHID         - DENSITY POROSITY (SANDSTONE)
GR  .API      00 310 00 00         : GR           - GAMMA RAY
CALI.MM       00 280 01 00         : CAL          - CALIPER
~PARAMETER INFORMATION
#MNEM.UNIT           DATA             DESCRIPTION OF MNEMONIC
#---------         -----------     ------------------------------
GL  .M        673.608              : gl           - GROUND LEVEL ELEVATION
EREF.M        677.57               : kb           - ELEVATION OF DEPTH REFERENCE
DATM.M        673.608              : datum        - DATUM ELEVATION
TDD .M        639.166              : tdd          - TOTAL DEPTH DRILLER
RUN .         ONE                  : Run          - RUN NUMBER
ENG .         WILLIGER             : Engineer     - RECORDING ENGINEER
WIT .         RUDD                 : Witness      - WITNESSED BY
BASE.         RD                   : Branch       - HOME BASE OF LOGGING UNIT
MUD .         GEL CHEM             : Mud_type     - MUD TYPE
MATR.         SANDSTONE            : Logunit      - NEUTRON MATRIX
TMAX.C        25                   : BHT          - MAXIMUM RECORDED TEMPERATURE
BHTD.M        637.946              : BHTDEP       - MAXIMUM RECORDED TEMPERATURE
RMT .C        20                   : MDTP         - TEMPERATURE OF MUD
MUDD.KG/M     1164                 : MWT          - MUD DENSITY
NEUT.         1                    : NEUTRON      - NEUTRON TYPE
RESI.         0                    : RESIST       - RESISTIVITY TYPE
RM  .OHMM     2.38                 : RM           - RESISTIVITY OF MUD
RMC .OHMM     0                    : RMC          - RESISTIVITY OF MUD CAKE
RMF .OHMM     1.89                 : RMF          - RESISTIVITY OF MUD FILTRATE
SUFT.C        -17.7778             : SUFT         - SURFACE TEMPERATURE
~A  DEPTH     RESD     PHIN     PHID       GR      CAL
# ...
  493.624    4.683    0.534    0.185   98.026  171.172
  493.874    4.737    0.526    0.176   96.688  171.161
  494.124    4.792    0.515    0.190   96.623  171.169
  494.374    4.874    0.500    0.204   98.075  170.943
  494.624    4.875    0.492    0.210  100.746  170.744
  494.874    4.841    0.482    0.207  102.013  170.535
  495.124    4.772    0.497    0.186  103.290  170.522
  495.374    4.747    0.499    0.196  103.705  170.420
  495.624    4.723    0.493    0.178  103.885  170.431
  495.874    4.672    0.516    0.186  105.408  171.129
  496.124    4.597    0.540    0.182  105.706  171.851
  496.374    4.565    0.539    0.178  105.516  172.559
  496.624    4.541    0.526    0.171  104.846  173.377
  496.874    4.518    0.517    0.162  102.778  173.798
  497.124    4.461    0.537    0.154  101.200  173.895
  497.374    4.463    0.538    0.151  100.047  173.473
  497.624    4.548    0.556    0.156   98.771  172.333
  497.874    4.739    0.566    0.149   95.431  170.883
  498.124    5.162    0.542    0.156   90.939  169.036
  498.374    6.087    0.503    0.158   85.414  168.521
  498.624    7.450    0.465    0.129   77.041  168.200
  498.874    8.205    0.298    0.083   70.371  168.612
  499.124    8.487    0.321    0.127   68.239  169.417
  499.374    6.952    0.357    0.183   69.332  168.912
  499.624    5.643    0.434    0.233   71.210  167.770
  499.874    4.815    0.508    0.268   71.024  166.129
  500.124    4.169    0.484    0.278   70.779  164.883
  500.374    3.931    0.465    0.276   72.775  164.576
  500.624    3.904    0.468    0.251   76.962  164.773
  500.874    4.022    0.515    0.253   78.236  164.777
  501.124    4.199    0.551    0.238   79.746  164.570
  501.374    4.279    0.557    0.241   79.982  164.149
  501.624    4.312    0.532    0.244   73.795  164.033
  501.874    4.282    0.508    0.246   71.789  164.449
  502.124    4.228    0.514    0.234   74.880  164.856
  502.374    4.230    0.507    0.251   75.909  164.972
  502.624    4.232    0.485    0.258   73.054  165.040
  502.874    4.210    0.481    0.255   71.294  165.550
  503.124    4.196    0.498    0.252   71.534  165.548
  503.374    4.166    0.517    0.258   71.411  165.244
  503.624    4.152    0.535    0.261   73.046  165.033
  503.874    4.162    0.547    0.261   75.532  165.554
  504.124    4.171    0.557    0.255   78.802  166.049
  504.374    4.188    0.550    0.255   81.893  166.454
  504.624    4.252    0.551    0.252   83.102  166.235
  504.874    4.390    0.544    0.237   83.649  166.561
  505.124    4.498    0.521    0.245   83.703  166.746
  505.374    4.558    0.537    0.266   84.549  166.850
  505.624    4.594    0.553    0.287   87.825  166.651
  505.874    4.587    0.544    0.295   90.612  166.215
  506.124    4.597    0.522    0.297   87.818  167.132
  506.374    4.531    0.502    0.281   92.370  168.571
  506.624    4.417    0.479    0.261   95.155  169.804
  506.874    4.266    0.497    0.236   97.519  170.526
  507.124    4.260    0.515    0.183   99.942  170.708
  507.374    4.357    0.531    0.170  101.757  171.643
  507.624    4.498    0.541    0.185  103.757  171.838
  507.874    4.550    0.528    0.179  105.332  172.147
  508.124    4.560    0.513    0.178  105.513  172.334
  508.374    4.596    0.495    0.180  103.443  172.462
  508.624    4.597    0.508    0.184  101.804  172.649
  508.874    4.624    0.507    0.195  102.470  172.650
  509.124    4.652    0.493    0.200  107.562  173.038
  509.374    4.680    0.481    0.204  113.081  173.354
  509.624    4.699    0.501    0.207  115.196  173.243
  509.874    4.709    0.515    0.198  114.287  173.032
  510.124    4.711    0.528    0.201  109.554  172.507
  510.374    4.713    0.529    0.209  104.151  171.575
  510.624    4.688    0.508    0.217  100.024  170.858
  510.874    4.673    0.522    0.223   96.744  170.852
  511.124    4.657    0.528    0.211   97.104  171.676
  511.374    4.616    0.553    0.207  100.987  172.585
  511.624    4.575    0.519    0.198  103.231  173.300
  511.874    4.535    0.510    0.170  102.018  173.821
  512.124    4.478    0.565    0.156  102.377  174.219
  512.374    4.390    0.559    0.150  104.979  174.520
  512.624    4.255    0.552    0.164  108.188  174.104
  512.874    4.080    0.535    0.180  109.224  173.802
  513.124    3.947    0.538    0.193  107.212  172.256
  513.374    3.898    0.520    0.178  101.871  171.622
  513.624    3.965    0.516    0.180   96.960  170.804
  513.874    4.208    0.518    0.194   92.405  171.426
  514.124    4.533    0.489    0.202   86.760  171.735
  514.374    4.929    0.396    0.181   81.722  171.609
  514.624    5.088    0.415    0.169   80.265  171.097
  514.874    5.034    0.481    0.163   83.357  168.615
  515.124    4.925    0.499    0.192   85.842  165.119
  515.374    4.801    0.490    0.220   87.357  166.455
  515.624    4.611    0.524    0.221   88.871  167.473
  515.874    4.462    0.524    0.212   91.471  167.684
  516.124    4.317    0.511    0.204   94.565  167.773
  516.374    4.232    0.503    0.194   98.748  168.090
  516.624    4.210    0.512    0.161  102.751  167.578
  516.874    4.251    0.526    0.182  103.411  167.767
  517.124    4.284    0.497    0.192  101.893  168.372
  517.374    4.293    0.471    0.201  100.617  168.877
  517.624    4.335    0.485    0.215   99.650  169.819
  517.874    4.393    0.499    0.207   98.548  170.629
  518.124    4.468    0.486    0.200   97.332  171.542
  518.374    4.596    0.498    0.202   94.417  171.634
  518.624    4.878    0.514    0.211   89.865  169.370
  518.874    5.264    0.513    0.222   82.887  167.315
  519.124    5.660    0.477    0.224   76.576  165.970
  519.374    6.269    0.440    0.219   72.693  166.504
  519.624    6.777    0.425    0.221   71.476  167.297
  519.874    7.465    0.409    0.199   70.746  167.909
  520.124    8.161    0.363    0.138   68.680  169.047
  520.374    8.503    0.294    0.113   67.224  170.060
  520.624    8.507    0.290    0.146   72.740  169.949
  520.874    8.462    0.335    0.195   79.351  168.002
  521.124    8.418    0.380    0.168   84.015  166.874
  521.374    7.749    0.398    0.139   88.743  167.482
  521.624    6.963    0.451    0.161   92.566  168.492
  521.874    6.234    0.498    0.178   94.081  169.124
  522.124    5.479    0.504    0.195   92.556  168.717
  522.374    4.951    0.485    0.218   91.767  168.078
  522.624    4.565    0.477    0.234   94.249  167.869
  522.874    4.385    0.479    0.215   97.951  168.173
  523.124    4.338    0.483    0.199   97.285  168.473
  523.374    4.284    0.470    0.191   96.850  168.889
  523.624    4.270    0.463    0.177   99.949  169.304
  523.874    4.343    0.491    0.172  100.130  169.376
  524.124    4.450    0.532    0.179  100.847  169.081
  524.374    4.577    0.501    0.203  100.054  168.450
  524.624    4.743    0.523    0.223   90.408  167.324
  524.874    4.932    0.499    0.257   83.063  166.480
  525.124    5.196    0.477    0.261   76.935  165.860
  525.374    5.556    0.468    0.247   73.234  165.764
  525.624    6.052    0.462    0.236   73.412  165.652
  525.874    6.447    0.453    0.236   75.531  165.546
  526.124    6.881    0.439    0.223   74.018  165.430
  526.374    7.078    0.424    0.216   72.798  165.138
  526.624    6.861    0.408    0.224   72.254  164.912
  526.874    6.362    0.426    0.229   73.581  164.710
  527.124    5.675    0.441    0.236   79.647  164.296
  527.374    5.128    0.464    0.247   83.221  164.485
  527.624    4.799    0.486    0.257   83.344  164.589
  527.874    4.517    0.499    0.255   81.887  164.705
  528.124    4.243    0.514    0.257   83.029  164.699
  528.374    4.090    0.533    0.245   84.547  164.578
  528.624    4.054    0.528    0.243   85.085  164.570
  528.874    4.093    0.514    0.266   86.054  164.561
  529.124    4.187    0.518    0.269   86.178  164.763
  529.374    4.290    0.516    0.249   83.014  164.669
  529.624    4.613    0.473    0.233   81.560  164.343
  529.874    5.025    0.451    0.250   81.616  164.043
