~VERSION INFORMATION
 VERS.                 2.0:   CWLS LOG ASCII STANDARD -VERSION 2.0
 WRAP.                  NO:   ONE LINE PER DEPTH STEP
~WELL INFORMATION BLOCK
#MNEM.UNIT           DATA                    DESCRIPTION OF MNEMONIC
#---------    -------------------            -------------------------------
# Generated from Intellog Unique Number	CW_79_81/WELL/532
WELL.         HB AMOCO PELICAN               : Well_name    - WELL
LOC .         00/07-01-079-24W4/0            : Location     - LOCATION
UWI .         00/07-01-079-24W4/0            : Uwi          - UNIQUE WELL ID
ENTR.         MAX                            : Entered      - ENTERED BY
SRVC.         WESTERN ATLAS                  : Scn          - SERVICE COMPANY
STRT.M        304.8                          : top_depth    - START DEPTH
STOP.M        524.3                          : bot_depth    - STOP DEPTH
STEP.M        0.25                           : increment    - STEP LENGTH
 NULL. -999.2500:NULL Value
~CURVE INFORMATION BLOCK
#MNEM UNIT       ERCB CURVE CODE    CURVE DESCRIPTION
#-----------   ------------------   ----------------------------------
DEPT.M        00 001 00 00         : DEPTH        - DEPTH
ILD .OHMM     00 120 00 00         : RESD         - DEEP RESISTIVITY (DIL)
NPHI.V/V      00 330 00 00         : PHIN         - NEUTRON POROSITY (SANDSTONE)
DPHI.V/V      00 890 00 00         : PHID         - DENSITY POROSITY (SANDSTONE)
CALI.MM       00 280 01 00         : CAL          - CALIPER
GR  .API      00 310 00 00         : GR           - GAMMA RAY
~PARAMETER INFORMATION
#MNEM.UNIT           DATA             DESCRIPTION OF MNEMONIC
#---------         -----------     ------------------------------
GL  .M        583.387              : gl           - GROUND LEVEL ELEVATION
EREF.M        587.045              : kb           - ELEVATION OF DEPTH REFERENCE
DATM.M        583.387              : datum        - DATUM ELEVATION
TDD .M        484.937              : tdd          - TOTAL DEPTH DRILLER
RUN .         ONE                  : Run          - RUN NUMBER
ENG .         BILL                 : Engineer     - RECORDING ENGINEER
WIT .         JIM                  : Witness      - WITNESSED BY
MUD .         GEL                  : Mud_type     - MUD TYPE
MATR.         SANDSTONE            : Logunit      - NEUTRON MATRIX
TMAX.C        43.3333              : BHT          - MAXIMUM RECORDED TEMPERATURE
BHTD.M        484.937              : BHTDEP       - MAXIMUM RECORDED TEMPERATURE
RMT .C        20                   : MDTP         - TEMPERATURE OF MUD
MUDD.KG/M     9200                 : MWT          - MUD DENSITY
NEUT.         1                    : NEUTRON      - NEUTRON TYPE
RESI.         0                    : RESIST       - RESISTIVITY TYPE
RM  .OHMM     1.6                  : RM           - RESISTIVITY OF MUD
RMC .OHMM     0.25                 : RMC          - RESISTIVITY OF MUD CAKE
RMF .OHMM     1.6                  : RMF          - RESISTIVITY OF MUD FILTRATE
SUFT.C        -20.5556             : SUFT         - SURFACE TEMPERATURE
~A  DEPTH     RESD     PHIN     PHID      CAL       GR
# ...
  377.800    9.199    0.374    0.214  167.328   81.709
  378.050    8.709    0.377    0.211  167.302   84.402
  378.300    8.170    0.367    0.208  167.269   87.090
  378.550    7.806    0.383    0.204  167.236   89.477
  378.800    7.390    0.390    0.209  166.704   91.867
  379.050    7.191    0.392    0.218  166.675   95.459
  379.300    6.933    0.389    0.232  166.645   93.638
  379.550    6.746    0.388    0.241  166.612   89.715
  379.800    6.808    0.405    0.248  166.583   84.585
  380.050    6.998    0.392    0.255  166.553   81.865
  380.300    7.193    0.387    0.265  166.524   78.239
  380.550    8.325    0.387    0.275  167.004   74.612
  380.800    9.548    0.368    0.262  167.476   73.692
  381.050    9.549    0.362    0.226  167.451   73.375
  381.300    9.123    0.340    0.135  167.923   72.761
  381.550    9.726    0.306    0.032  167.890   71.237
  381.800   11.570    0.279    0.017  167.861   70.018
  382.050   13.515    0.256    0.017  167.835   68.801
  382.300   14.809    0.248    0.023  167.299   69.386
  382.550   14.278    0.274    0.093  166.760   72.977
  382.800   12.796    0.307    0.135  166.225   77.470
  383.050   11.159    0.350    0.183  165.690   83.467
  383.300    9.467    0.381    0.177  165.660   87.357
  383.550    8.641    0.379    0.148  165.631   86.739
  383.800    8.181    0.360    0.131  166.609   86.723
  384.050    7.960    0.360    0.199  167.089   88.813
  384.300    7.961    0.392    0.191  168.068   89.395
  384.550    7.962    0.401    0.188  169.050   87.874
  384.800    8.035    0.393    0.193  169.530   87.260
  385.050    7.963    0.394    0.189  168.987   88.143
  385.300    7.891    0.397    0.186  167.448   90.231
  385.550    7.678    0.403    0.184  164.885   90.518
  385.800    7.539    0.400    0.178  163.844   91.100
  386.050    7.540    0.391    0.178  163.309   89.280
  386.300    7.540    0.409    0.184  164.288   88.662
  386.550    7.541    0.401    0.178  165.270   90.149
  386.800    7.541    0.389    0.173  165.240   90.732
  387.050    7.611    0.362    0.174  164.203   89.815
  387.300    7.751    0.358    0.175  163.664   90.398
  387.550    8.040    0.373    0.187  163.128   90.081
  387.800    8.264    0.375    0.200  163.608   90.064
  388.050    8.494    0.374    0.194  165.093   90.050
  388.300    8.495    0.379    0.198  165.562   88.225
  388.550    8.342    0.389    0.203  165.536   85.204
  388.800    7.897    0.394    0.202  166.518   84.887
  389.050    7.477    0.363    0.185  167.504   89.381
  389.300    7.275    0.376    0.184  169.999   89.362
  389.550    7.144    0.377    0.180  173.005   89.646
  389.800    7.015    0.388    0.176  174.489   90.233
  390.050    6.951    0.383    0.171  174.973   89.615
  390.300    6.952    0.390    0.171  175.449   88.093
  390.550    7.080    0.394    0.174  173.898   89.883
  390.800    7.146    0.393    0.174  172.351   91.666
  391.050    7.278    0.388    0.185  169.280   92.253
  391.300    7.413    0.376    0.201  167.740   89.529
  391.550    7.689    0.378    0.214  165.684   87.710
  391.800    8.197    0.373    0.225  165.149   87.092
  392.050    8.900    0.380    0.227  164.610   88.878
  392.300    9.488    0.366    0.242  165.093   88.561
  392.550    9.752    0.380    0.232  166.068   90.047
  392.800    9.318    0.366    0.228  167.054   86.425
  393.050    8.821    0.353    0.230  167.024   80.091
  393.300    8.903    0.341    0.223  167.497   83.383
  393.550    8.506    0.347    0.212  167.977   88.777
  393.800    8.053    0.353    0.181  168.959   92.669
  394.050    6.527    0.362    0.169  170.945   93.556
  394.300    6.123    0.372    0.169  173.445   92.335
  394.550    6.351    0.370    0.170  175.446   93.521
  394.800    6.710    0.363    0.169  178.451   94.409
  395.050    7.219    0.355    0.168  179.939   92.889
  395.300    7.557    0.362    0.167  179.902   89.563
  395.550    7.696    0.366    0.165  180.382   88.947
  395.800    7.627    0.370    0.164  180.859   89.227
  396.050    7.628    0.377    0.162  181.331   90.416
  396.300    7.559    0.375    0.164  181.804   89.495
  396.550    7.422    0.371    0.168  181.804   88.577
  396.800    7.423    0.381    0.166  181.752   88.558
  397.050    7.423    0.387    0.164  181.719   88.846
  397.300    7.423    0.385    0.159  181.180   89.732
  397.550    7.424    0.386    0.153  180.135   91.219
  397.800    7.357    0.394    0.154  180.113   91.501
  398.050    7.357    0.393    0.156  180.076   89.682
  398.300    7.358    0.386    0.156  180.560   89.664
  398.550    7.358    0.383    0.158  180.530   90.547
  398.800    7.359    0.378    0.161  180.497   90.533
  399.050    7.359    0.384    0.156  179.962   92.621
  399.300    7.360    0.386    0.144  178.921   93.807
  399.550    7.293    0.402    0.129  176.868   91.085
  399.800    7.227    0.387    0.149  174.812   90.467
  400.050    6.905    0.380    0.173  174.812   90.751
  400.300    6.905    0.372    0.191  172.715   89.832
  400.550    7.497    0.390    0.236  171.186   85.903
  400.800    8.838    0.399    0.255  168.628   78.974
  401.050   10.610    0.400    0.260  167.081   72.643
  401.300   13.091    0.393    0.265  165.531   65.411
  401.550   20.112    0.389    0.269  163.980   66.597
  401.800   22.649    0.382    0.271  162.943   69.886
  402.050   24.817    0.373    0.271  161.898   69.871
  402.300   25.978    0.362    0.269  161.861   70.154
  402.550   26.458    0.359    0.262  161.839   70.135
  402.800   26.460    0.354    0.220  162.308   66.513
  403.050   26.462    0.344    0.178  162.791   65.893
  403.300   26.463    0.324    0.218  162.740   67.081
  403.550   26.465    0.336    0.262  162.729   67.962
  403.800   26.466    0.343    0.255  163.205   67.048
  404.050   26.956    0.348    0.248  163.205   64.925
  404.300   27.707    0.323    0.243  163.637   63.405
  404.550   28.478    0.315    0.236  164.128   63.386
  404.800   30.639    0.287    0.232  165.110   61.869
  405.050   32.367    0.262    0.236  165.564   59.746
  405.300   32.666    0.241    0.223  166.063   59.731
  405.550   32.371    0.240    0.137  167.041   61.216
  405.800   30.368    0.247    0.075  167.019   63.003
  406.050   27.466    0.260    0.068  167.998   63.889
  406.300   25.532    0.309    0.135  167.946   65.075
  406.550   25.302    0.350    0.199  168.441   65.357
  406.800   26.006    0.368    0.227  168.921   66.844
  407.050   26.730    0.366    0.193  169.393   68.030
  407.300   28.238    0.352    0.170  170.379   69.216
  407.550   29.559    0.346    0.173  170.852   70.404
  407.800   30.661    0.351    0.182  171.834   70.388
  408.050   30.944    0.345    0.181  172.310   70.972
  408.300   30.946    0.332    0.168  173.798   66.745
  408.550   30.667    0.333    0.160  175.282   66.728
  408.800   30.390    0.332    0.165  176.264   70.021
  409.050   29.842    0.318    0.203  177.246   72.107
  409.300   27.488    0.339    0.209  177.217   73.291
  409.550   20.711    0.357    0.196  178.199   75.379
  409.800   16.635    0.352    0.181  178.675   76.269
  410.050   14.773    0.345    0.169  179.155   79.259
  410.300   13.362    0.356    0.171  179.632   83.452
  410.550   12.308    0.366    0.170  180.104   85.237
  410.800   11.652    0.375    0.175  180.078   85.221
  411.050   11.442    0.366    0.177  180.045   84.903
  411.300   11.868    0.361    0.168  179.506   85.188
  411.550   12.424    0.367    0.171  178.975   87.875
  411.800   13.125    0.362    0.263  178.941   88.159
  412.050   13.246    0.369    0.264  178.410   87.543
  412.300   12.771    0.382    0.240  178.377   89.028
  412.550   11.981    0.403    0.231  177.838   89.615
  412.800   11.447    0.398    0.212  177.816   90.500
  413.050   10.937    0.380    0.200  177.786   89.876
  413.300   10.838    0.379    0.218  178.255   89.866
  413.550   10.838    0.381    0.230  178.735   90.146
  413.800   11.039    0.374    0.228  179.717   90.132
  414.050   11.141    0.377    0.203  181.201   91.017
