~VERSION INFORMATION
 VERS.                 2.0:   CWLS LOG ASCII STANDARD -VERSION 2.0
 WRAP.                  NO:   ONE LINE PER DEPTH STEP
~WELL INFORMATION BLOCK
#MNEM.UNIT           DATA                    DESCRIPTION OF MNEMONIC
#---------    -------------------            -------------------------------
# Generated from Intellog Unique Number	CW_70_72/WELL/993
NULL.         -999.25                        : NULL_VALUE
WELL.         NORCEN ET AL VICTOR 08-01      : Well_name    - WELL              
LOC .         08-01-071-02W5                 : Location     - LOCATION          
UWI .         00/08-01-071-02W5/0            : Uwi          - UNIQUE WELL ID    
ENTR.         JAYE                           : Entered      - ENTERED BY        
SRVC.         COMPUTALOG                     : Scn          - SERVICE COMPANY   
DATE.         7 JUNE 82                      : Date         - LOG DATE          
STRT.M        375                            : top_depth    - START DEPTH       
STOP.M        625                            : bot_depth    - STOP DEPTH        
STEP.M        0.25                           : increment    - STEP LENGTH       
~CURVE INFORMATION BLOCK
#MNEM UNIT       ERCB CURVE CODE    CURVE DESCRIPTION
#-----------   ------------------   ----------------------------------
DEPT.M        00 001 00 00         : DEPTH        - DEPTH                       
DPHI.V/V      00 890 00 00         : PHID         - DENSITY POROSITY (SANDSTONE)
NPHI.V/V      00 330 00 00         : PHIN         - NEUTRON POROSITY (SANDSTONE)
GR  .API      00 310 00 00         : GR           - GAMMA RAY                   
CALI.MM       00 280 01 00         : CAL          - CALIPER                     
ILD .OHMM     00 120 00 00         : RESD         - DEEP RESISTIVITY (DIL)      
~PARAMETER INFORMATION       
#MNEM.UNIT           DATA             DESCRIPTION OF MNEMONIC
#---------         -----------     ------------------------------
GL  .M        593.49               : gl           - GROUND LEVEL ELEVATION      
EREF.M        597.61               : kb           - ELEVATION OF DEPTH REFERENCE
DATM.M        593.49               : datum        - DATUM ELEVATION             
TDD .M        655                  : tdd          - TOTAL DEPTH DRILLER         
RUN .         ONE                  : Run          - RUN NUMBER                  
ENG .         SVRCEK               : Engineer     - RECORDING ENGINEER          
WIT .         BOGNER/MOORE         : Witness      - WITNESSED BY                
BASE.         EDM                  : Branch       - HOME BASE OF LOGGING UNIT   
MUD .         GEL CHEM             : Mud_type     - MUD TYPE                    
MATR.         SANDSTONE            : Logunit      - NEUTRON MATRIX              
TMAX.C        31                   : BHT          - MAXIMUM RECORDED TEMPERATURE
BHTD.M        654.7                : BHTDEP       - MAXIMUM RECORDED TEMPERATURE
RMT .C        15.5                 : MDTP         - TEMPERATURE OF MUD          
MUDD.KG/M     1130                 : MWT          - MUD DENSITY                 
NEUT.         1                    : NEUTRON      - NEUTRON TYPE                
RESI.         0                    : RESIST       - RESISTIVITY TYPE            
RM  .OHMM     2.4                  : RM           - RESISTIVITY OF MUD          
RMC .OHMM     2.1                  : RMC          - RESISTIVITY OF MUD CAKE     
RMF .OHMM     2.05                 : RMF          - RESISTIVITY OF MUD FILTRATE 
SUFT.C        0                    : SUFT         - SURFACE TEMPERATURE         
~A  DEPTH     PHID     PHIN       GR      CAL     RESD
# ...
  594.000    0.045    0.270   91.661  223.833    7.098
  594.250    0.005    0.280   96.663  223.317    6.839
  594.500    0.033    0.324  102.101  222.283    6.517
  594.750    0.086    0.368  103.917  221.767    6.128
  595.000    0.101    0.366  107.106  220.836    5.377
  595.250    0.109    0.341  110.358  220.009    4.990
  595.500    0.114    0.314  111.799  219.285    4.453
  595.750    0.119    0.293  113.551  218.979    4.063
  596.000    0.123    0.319  116.179  218.985    3.652
  596.250    0.118    0.344  117.806  218.885    3.327
  596.500    0.108    0.390  109.251  218.058    3.053
  596.750    0.100    0.409   59.962  215.981    2.776
  597.000    0.147    0.344   39.349  209.531    2.547
  597.250    0.232    0.325   35.729  205.476    2.364
  597.500    0.258    0.336   33.670  202.775    2.240
  597.750    0.267    0.349   32.361  201.948    2.138
  598.000    0.274    0.346   33.053  201.746    2.034
  598.250    0.282    0.317   34.243  201.543    2.008
  598.500    0.281    0.312   35.934  201.236    1.991
  598.750    0.264    0.318   36.561  200.722    1.999
  599.000    0.258    0.303   36.127  200.622    2.019
  599.250    0.266    0.320   34.382  200.629    2.027
  599.500    0.272    0.335   33.885  200.323    2.048
  599.750    0.269    0.334   34.076  200.120    2.060
  600.000    0.266    0.312   35.017  200.125    2.077
  600.250    0.266    0.314   35.207  200.132    2.090
  600.500    0.272    0.320   35.648  200.555    2.098
  600.750    0.268    0.318   37.276  200.559    2.107
  601.000    0.261    0.332   39.528  200.878    2.108
  601.250    0.261    0.332   38.157  201.195    2.105
  601.500    0.260    0.323   37.536  201.617    2.126
  601.750    0.256    0.302   38.414  202.039    2.139
  602.000    0.267    0.328   39.980  202.358    2.132
  602.250    0.268    0.330   41.919  202.363    2.126
  602.500    0.265    0.307   42.923  202.265    2.111
  602.750    0.262    0.287   41.052  202.062    2.096
  603.000    0.260    0.301   37.994  201.859    2.085
  603.250    0.259    0.311   34.874  202.073    2.078
  603.500    0.260    0.323   33.315  201.870    2.064
  603.750    0.261    0.334   34.693  202.086    2.038
  604.000    0.261    0.350   36.571  202.090    2.024
  604.250    0.262    0.347   37.574  202.096    2.013
  604.500    0.263    0.320   37.765  202.103    2.014
  604.750    0.264    0.302   37.768  202.316    2.034
  605.000    0.266    0.317   37.772  202.323    2.063
  605.250    0.269    0.320   37.900  202.224    2.087
  605.500    0.270    0.317   38.028  202.126    2.107
  605.750    0.269    0.313   38.781  201.715    2.140
  606.000    0.266    0.303   40.159  201.720    2.149
  606.250    0.260    0.316   41.412  201.831    2.175
  606.500    0.258    0.306   45.039  201.836    2.209
  606.750    0.263    0.294   46.729  201.946    2.360
  607.000    0.265    0.312   41.610  201.952    2.493
  607.250    0.260    0.330   39.489  201.853    2.575
  607.500    0.251    0.340   40.055  201.650    2.611
  607.750    0.241    0.325   41.433  201.448    2.637
  608.000    0.246    0.309   43.623  201.038    2.688
  608.250    0.253    0.314   46.187  200.939    2.782
  608.500    0.254    0.306   47.253  200.944    2.923
  608.750    0.250    0.292   47.444  201.262    3.082
  609.000    0.237    0.275   49.509  203.142    3.406
  609.250    0.227    0.268   53.324  204.814    3.694
  609.500    0.230    0.274   58.138  206.277    3.962
  609.750    0.224    0.278   60.390  207.220    4.346
  610.000    0.207    0.274   62.892  207.746    4.749
  610.250    0.191    0.262   64.083  206.815    5.239
  610.500    0.180    0.258   62.899  206.508    5.725
  610.750    0.166    0.261   62.090  206.723    6.151
  611.000    0.173    0.278   62.844  207.248    6.584
  611.250    0.169    0.281   64.034  208.191    6.969
  611.500    0.156    0.272   64.600  209.342    7.213
  611.750    0.137    0.251   64.916  210.493    7.271
  612.000    0.141    0.265   66.231  211.853    7.152
  612.250    0.157    0.274   68.671  212.588    7.035
  612.500    0.169    0.282   71.548  213.427    7.014
  612.750    0.178    0.291   75.362  214.265    7.031
  613.000    0.177    0.299   76.990  215.104    7.007
  613.250    0.154    0.284   78.618  215.631    7.050
  613.500    0.102    0.281   78.684  216.469    7.133
  613.750    0.119    0.286   75.314  217.515    7.340
  614.000    0.135    0.297   75.942  219.083    7.726
  614.250    0.138    0.309   77.195  219.609    8.224
  614.500    0.145    0.307   78.947  219.511    8.754
  614.750    0.151    0.271   78.077  219.204    9.353
  615.000    0.114    0.243   73.831  219.106    9.715
  615.250    0.087    0.209   65.776  219.113    9.812
  615.500    0.069    0.194   60.281  218.909    9.726
  615.750    0.052    0.214   72.842  218.810    9.639
  616.000    0.089    0.241   79.281  218.504    9.536
  616.250    0.116    0.271   86.219  218.093    9.381
  616.500    0.147    0.299   89.346  217.578    9.263
  616.750    0.170    0.304   87.600  216.959    9.182
  617.000    0.187    0.306   84.105  216.548    9.134
  617.250    0.194    0.320   80.672  216.243    9.157
  617.500    0.192    0.317   86.298  216.040    9.195
  617.750    0.189    0.308   90.862  216.149    9.234
  618.000    0.181    0.305   95.677  216.364    9.309
  618.250    0.169    0.299   99.491  216.682    9.419
  618.500    0.160    0.286   99.557  216.895    9.619
  618.750    0.149    0.274   94.250  217.109    9.733
  619.000    0.143    0.258   91.317  217.011    9.593
  619.250    0.136    0.240   93.194  216.808    9.262
  619.500    0.131    0.279   97.571  216.710    8.661
  619.750    0.124    0.314   97.825  216.300    7.888
  620.000    0.113    0.317   98.203  215.992    7.377
  620.250    0.107    0.292  100.018  215.582    8.625
  620.500    0.091    0.332  103.582  214.756   11.202
  620.750    0.034    0.319   94.277  213.719   14.937
  621.000   -0.026    0.211   52.047  212.475   18.685
  621.250   -0.064    0.123   39.556  211.335   25.340
  621.500   -0.072    0.071   36.936  209.572   30.587
  621.750   -0.062    0.061   35.939  208.432   35.361
  622.000   -0.050    0.058   35.318  207.604   39.450
  622.250   -0.048    0.057   33.010  206.985   41.443
  622.500   -0.045    0.057   33.889  206.575   42.249
  622.750   -0.037    0.057   33.517  206.061   42.749
  623.000   -0.027    0.060   29.334  205.856   43.015
  623.250   -0.003    0.062   24.902  205.446   43.279
  623.500    0.018    0.066   23.656  204.827   43.461
  623.750    0.036    0.071   22.223  204.313   42.041
  624.000    0.053    0.078   17.541  203.902   40.890
  624.250    0.065    0.086   17.982  203.492   39.626
  624.500    0.074    0.096   19.297  203.289   38.691
  624.750    0.082    0.098   20.174  202.983   38.492
  625.000    0.090    0.097   19.616  202.989   38.876
