~VERSION INFORMATION
 VERS.                 2.0:   CWLS LOG ASCII STANDARD -VERSION 2.0
 WRAP.                  NO:   ONE LINE PER DEPTH STEP
~WELL INFORMATION BLOCK
#MNEM.UNIT           DATA                    DESCRIPTION OF MNEMONIC
#---------    -------------------            -------------------------------
# Generated from Intellog Unique Number	CC_80_83/WELL/1185
NULL.         -999.25                        : NULL_VALUE
WELL.         GULF RESDELN                   : Well_name    - WELL              
LOC .         07-16-083-07W4                 : Location     - LOCATION          
UWI .         00/07-16-083-07W4/0            : Uwi          - UNIQUE WELL ID    
ENTR.         DW                             : Entered      - ENTERED BY        
SRVC.         SCHLUMBERGER                   : Scn          - SERVICE COMPANY   
DATE.         16 MAR 81                      : Date         - LOG DATE
STRT.M        250                            : top_depth    - START DEPTH       
STOP.M        504.99                         : bot_depth    - STOP DEPTH        
STEP.M        0.3                            : increment    - STEP LENGTH       
~CURVE INFORMATION BLOCK
#MNEM UNIT       ERCB CURVE CODE    CURVE DESCRIPTION
#-----------   ------------------   ----------------------------------
DEPT.M        00 001 00 00         : DEPTH        - DEPTH                       
DPHI.V/V      00 890 00 00         : PHID         - DENSITY POROSITY (LIMESTONE)
NPHI.V/V      00 330 00 00         : PHIN         - NEUTRON POROSITY (LIMESTONE)
GR  .API      00 310 00 00         : GR           - GAMMA RAY                   
ILD .OHMM     00 120 00 00         : RESD         - DEEP RESISTIVITY (DIL)      
~PARAMETER INFORMATION       
#MNEM.UNIT           DATA             DESCRIPTION OF MNEMONIC
#---------         -----------     ------------------------------
GL  .M        711.2                : gl           - GROUND LEVEL ELEVATION      
EREF.M        715                  : kb           - ELEVATION OF DEPTH REFERENCE
DATM.M        715                  : datum        - DATUM ELEVATION             
TDD .M        542                  : tdd          - TOTAL DEPTH DRILLER         
RUN .         ONE                  : Run          - RUN NUMBER                  
ENG .         BILL                 : Engineer     - RECORDING ENGINEER          
WIT .         JIM                  : Witness      - WITNESSED BY                
MUD .         GEL                  : Mud_type     - MUD TYPE                    
MATR.         LIMESTONE            : Logunit      - NEUTRON MATRIX              
TMAX.C        26                   : BHT          - MAXIMUM RECORDED TEMPERATURE
BHTD.M        542                  : BHTDEP       - MAXIMUM RECORDED TEMPERATURE
MATR.         1                    : LOGUNIT      - NEUTRON MATRIX              
RMT .C        25                   : MDTP         - TEMPERATURE OF MUD          
NEUT.         1                    : NEUTRON      - NEUTRON TYPE                
RESI.         0                    : RESIST       - RESISTIVITY TYPE            
RMC .OHMM     0.25                 : RMC          - RESISTIVITY OF MUD CAKE     
RMF .OHMM     0.25                 : RMF          - RESISTIVITY OF MUD FILTRATE 
SUFT.C        4                    : SUFT         - SURFACE TEMPERATURE         
~A  DEPTH     PHID     PHIN       GR     RESD
# ...
  354.396    0.319    0.463   51.288   14.018
  354.696    0.344    0.423   51.358   19.055
  354.996    0.356    0.422   53.211   25.909
  355.296    0.355    0.459   56.853   25.469
  355.596    0.325    0.480   59.308   24.090
  355.896    0.314    0.483   61.761   22.787
  356.196    0.304    0.476   61.216   21.547
  356.496    0.295    0.475   57.684   20.781
  356.796    0.312    0.466   55.947   20.037
  357.096    0.308    0.457   55.401   20.075
  357.396    0.313    0.460   57.266   20.497
  357.696    0.307    0.473   59.709   21.325
  357.996    0.302    0.477   63.364   21.353
  358.296    0.304    0.473   64.026   20.987
  358.596    0.303    0.457   62.879   20.242
  358.896    0.304    0.453   62.350   19.893
  359.196    0.312    0.468   62.403   19.917
  359.496    0.309    0.462   60.661   20.342
  359.796    0.310    0.467   57.123   20.372
  360.096    0.302    0.456   52.393   21.198
  360.396    0.255    0.427   50.051   22.483
  360.696    0.207    0.378   48.907   24.771
  360.996    0.176    0.377   47.170   33.037
  361.296    0.160    0.332   48.431   44.915
  361.596    0.185    0.309   53.277   45.005
  361.896    0.233    0.323   59.328   39.428
  362.196    0.273    0.344   61.779   32.017
  362.496    0.286    0.469   61.262   24.549
  362.796    0.295    0.482   60.693   19.193
  363.096    0.322    0.474   58.954   18.157
  363.396    0.342    0.468   58.428   18.195
  363.696    0.322    0.455   59.669   18.214
  363.996    0.329    0.456   61.529   18.604
  364.296    0.311    0.470   60.987   18.980
  364.596    0.292    0.471   58.643   19.381
  364.896    0.316    0.464   58.707   19.784
  365.196    0.332    0.461   61.764   19.824
  365.496    0.319    0.463   63.624   19.479
  365.796    0.326    0.466   63.088   19.140
  366.096    0.321    0.490   64.927   18.455
  366.396    0.317    0.479   66.777   17.797
  366.696    0.326    0.432   61.455   17.830
  366.996    0.342    0.442   60.303   17.853
  367.296    0.328    0.448   61.560   18.236
  367.596    0.326    0.458   65.225   18.608
  367.896    0.336    0.456   65.273   19.007
  368.195    0.333    0.462   62.940   19.041
  368.495    0.328    0.454   61.798   18.708
  368.795    0.342    0.457   64.245   18.374
  369.095    0.314    0.477   63.705   17.728
  369.395    0.304    0.464   64.962   17.751
  369.695    0.304    0.462   66.818   17.787
  369.995    0.316    0.468   67.475   17.809
  370.295    0.301    0.460   70.524   18.183
  370.595    0.300    0.472   70.583   18.557
  370.895    0.269    0.453   59.858   18.954
  371.195    0.201    0.400   53.327   19.719
  371.495    0.180    0.319   55.191   25.321
  371.795    0.318    0.368   59.446   30.689
  372.095    0.323    0.464   61.289   35.133
  372.395    0.323    0.482   64.347   34.544
  372.695    0.344    0.479   66.800   29.128
  372.995    0.325    0.469   67.451   22.336
  373.295    0.298    0.471   65.119   18.137
  373.595    0.315    0.470   63.380   17.820
  373.895    0.329    0.464   64.040   18.903
  374.195    0.332    0.463   68.285   20.048
  374.495    0.275    0.491   73.138   19.334
  374.795    0.270    0.484   69.595   17.604
  375.095    0.293    0.461   66.662   15.720
  375.395    0.292    0.442   67.921   15.155
  375.695    0.286    0.465   67.379   15.780
  375.995    0.308    0.473   67.447   16.422
  376.295    0.315    0.462   69.896   17.419
  376.595    0.302    0.453   69.946   17.783
  376.895    0.293    0.453   68.804   16.820
  377.195    0.276    0.448   70.075   15.905
  377.495    0.307    0.443   71.329   15.057
  377.795    0.304    0.469   70.178   14.785
  378.095    0.308    0.475   69.036   15.388
  378.395    0.312    0.463   68.497   16.009
  378.695    0.308    0.445   72.155   16.040
  378.995    0.303    0.440   74.600   15.464
  379.295    0.303    0.462   74.069   13.818
  379.595    0.317    0.490   73.534   13.319
  379.895    0.309    0.481   74.184   13.341
  380.195    0.305    0.463   75.434   13.619
  380.495    0.310    0.473   79.091   13.639
  380.795    0.311    0.466   81.541   13.151
  381.095    0.288    0.453   82.803   11.309
  381.395    0.296    0.472   82.855   10.494
  381.695    0.286    0.486   78.716   11.564
  381.995    0.296    0.465   72.184   13.245
  382.295    0.310    0.466   75.235   14.595
  382.595    0.283    0.457   71.706   15.775
  382.895    0.270    0.465   69.375   16.108
  383.195    0.264    0.450   69.440   15.827
  383.495    0.243    0.437   70.680   13.870
  383.795    0.267    0.450   73.731   10.636
  384.095    0.278    0.452   78.579    8.156
  384.395    0.258    0.469   85.228    6.878
  384.695    0.223    0.488   93.670    4.886
  384.995    0.229    0.489   99.725    3.967
  385.295    0.219    0.476  102.772    3.478
  385.595    0.186    0.491   99.832    3.352
  385.895    0.214    0.538   98.699    3.626
  386.195    0.242    0.525  101.757    3.844
  386.495    0.263    0.513  104.206    4.750
  386.795    0.245    0.490   99.466    5.759
  387.095    0.203    0.491   95.944    6.721
  387.395    0.175    0.493   96.585    6.994
  387.695    0.172    0.489  100.257    6.618
  387.995    0.209    0.523  103.297    6.260
  388.295    0.197    0.524  102.156    5.698
  388.595    0.210    0.526  101.620    4.993
  388.895    0.235    0.547  104.073    4.293
  389.195    0.223    0.514  108.322    3.553
  389.495    0.237    0.533  109.570    2.998
  389.795    0.242    0.556  103.644    2.678
  390.095    0.245    0.585  106.112    2.486
  390.395    0.253    0.594  108.559    2.488
  390.695    0.262    0.585  111.006    2.591
  390.995    0.258    0.579  112.855    2.800
  391.295    0.226    0.550  105.130    3.330
  391.595    0.202    0.490   96.804    4.194
  391.895    0.219    0.505   92.673    5.086
  392.195    0.239    0.499   93.337    5.713
  392.495    0.205    0.504   93.983    6.297
  392.794    0.215    0.510   95.231    6.939
  393.094    0.210    0.485   92.894    7.218
  393.394    0.176    0.472   92.361    7.659
  393.694    0.209    0.459   94.811    7.525
  393.994    0.228    0.466   96.660    7.539
  394.294    0.267    0.482  102.113    7.693
  394.594    0.232    0.489  100.975    8.009
  394.894    0.213    0.483  101.028    8.493
  395.194    0.207    0.464  104.092    9.184
  395.494    0.225    0.422  105.941   10.318
  395.794    0.218    0.414  103.002   11.156
  396.094    0.199    0.420  101.874   11.834
  396.394    0.180    0.435  102.514   11.848
  396.694    0.211    0.448  105.567   11.868
  396.994    0.216    0.456  102.639   11.226
  397.294    0.202    0.465  103.289    9.653
  397.594    0.181    0.478   99.151    8.300
  397.894    0.186    0.496  101.613    7.135
  398.194    0.217    0.504  103.466    6.134
  398.494    0.209    0.525  102.929    5.694
  398.794    0.202    0.525  101.781    5.925
  399.094    0.197    0.490   95.854    7.322
  399.394    0.245    0.462   92.924    8.544
  399.694    0.238    0.418   92.371    9.599
  399.994    0.225    0.410   93.627    9.798
  400.294    0.213    0.439   96.682    9.813
  400.594    0.222    0.441   97.344    9.285
  400.894    0.216    0.437   94.996    8.783
  401.194    0.196    0.432   94.462    8.304
  401.494    0.188    0.455  100.504    6.491
  401.794    0.217    0.501  106.555    5.581
  402.094    0.247    0.483  102.431    5.183
  402.394    0.213    0.466  103.074    5.190
  402.694    0.215    0.475  103.743    5.398
  402.994    0.193    0.475  101.396    5.836
  403.294    0.194    0.491   99.053    6.073
  403.594    0.224    0.479   96.115    6.442
  403.894    0.251    0.459   94.376    7.519
  404.194    0.257    0.454   86.647    8.775
  404.494    0.242    0.461   83.709    9.668
  404.794    0.258    0.457   83.168    9.689
  405.094    0.269    0.463   88.630    9.161
  405.394    0.247    0.474   92.275    7.582
  405.694    0.269    0.523  100.117    3.819
  405.994    0.250    0.569  104.365    3.613
  406.294    0.230    0.545  105.028    3.981
