~VERSION INFORMATION
 VERS.                 2.0:   CWLS LOG ASCII STANDARD -VERSION 2.0
 WRAP.                  NO:   ONE LINE PER DEPTH STEP
~WELL INFORMATION BLOCK
#MNEM.UNIT           DATA                    DESCRIPTION OF MNEMONIC
#---------    -------------------            -------------------------------
# Generated from Intellog Unique Number	CS_77_79/WELL/3286
WELL.         ALLIED ROXANA MINERALS LTD.    : Well_name    - WELL
LOC .         00/06-12-079-18W4/0            : Location     - LOCATION
UWI .         00/06-12-079-18W4/0            : Uwi          - UNIQUE WELL ID
ENTR.         JOETTE                         : Entered      - ENTERED BY
SRVC.         SCHLUMBERGER                   : Scn          - SERVICE COMPANY
DATE.         08-24-92                       : Date         - LOG DATE
STRT.M        198.12                         : top_depth    - START DEPTH
STOP.M        411.37                         : bot_depth    - STOP DEPTH
STEP.M        0.25                           : increment    - STEP LENGTH
 NULL. -999.2500:NULL Value
~CURVE INFORMATION BLOCK
#MNEM UNIT       ERCB CURVE CODE    CURVE DESCRIPTION
#-----------   ------------------   ----------------------------------
DEPT.M        00 001 00 00         : DEPTH        - DEPTH
ILD .OHMM     00 120 00 00         : RESD         - DEEP RESISTIVITY (DIL)
DPHI.V/V      00 890 00 00         : PHID         - DENSITY POROSITY (SANDSTONE)
NPHI.V/V      00 330 00 00         : PHIN         - NEUTRON POROSITY (SANDSTONE)
GR  .API      00 310 00 00         : GR           - GAMMA RAY
~PARAMETER INFORMATION
#MNEM.UNIT           DATA             DESCRIPTION OF MNEMONIC
#---------         -----------     ------------------------------
GL  .M        541.477              : gl           - GROUND LEVEL ELEVATION
EREF.M        544.525              : kb           - ELEVATION OF DEPTH REFERENCE
DATM.M        544.525              : datum        - DATUM ELEVATION
TDD .M        411.48               : tdd          - TOTAL DEPTH DRILLER
RUN .         ONE                  : Run          - RUN NUMBER
ENG .         BILL                 : Engineer     - RECORDING ENGINEER
WIT .         JIM                  : Witness      - WITNESSED BY
MUD .         GEL                  : Mud_type     - MUD TYPE
MATR.         SANDSTONE            : Logunit      - NEUTRON MATRIX
TMAX.C        23.3333              : BHT          - MAXIMUM RECORDED TEMPERATURE
BHTD.M        411.48               : BHTDEP       - MAXIMUM RECORDED TEMPERATURE
MATR.         1                    : LOGUNIT      - NEUTRON MATRIX
RMT .C        18.3333              : MDTP         - TEMPERATURE OF MUD
NEUT.         1                    : NEUTRON      - NEUTRON TYPE
RESI.         0                    : RESIST       - RESISTIVITY TYPE
RMC .OHMM     1.73                 : RMC          - RESISTIVITY OF MUD CAKE
RMF .OHMM     1.24                 : RMF          - RESISTIVITY OF MUD FILTRATE
SUFT.C        5                    : SUFT         - SURFACE TEMPERATURE
~A  DEPTH     RESD     PHID     PHIN       GR
# ...
  241.620   12.923    0.284    0.426   69.648
  241.870   12.735    0.285    0.453   75.248
  242.120   12.552    0.295    0.468   75.308
  242.370   12.369    0.295    0.466   71.069
  242.620   12.191    0.297    0.443   71.129
  242.870   12.216    0.291    0.444   71.203
  243.120   12.028    0.287    0.441   71.262
  243.370   12.043    0.293    0.439   72.579
  243.620   12.073    0.299    0.428   71.381
  243.870   12.088    0.285    0.417   69.599
  244.120   12.103    0.278    0.417   69.044
  244.370   12.133    0.279    0.423   69.717
  244.620   12.148    0.280    0.433   71.005
  244.870   12.173    0.281    0.442   73.535
  245.120   11.995    0.284    0.438   74.208
  245.370   12.005    0.286    0.434   73.668
  245.620   12.030    0.287    0.435   71.886
  245.870   11.847    0.293    0.440   68.247
  246.120   11.659    0.300    0.454   66.464
  246.370   11.476    0.290    0.483   65.296
  246.620   10.695    0.295    0.480   65.969
  246.870   10.304    0.301    0.485   67.256
  247.120    9.715    0.295    0.469   69.772
  247.370    9.122    0.280    0.470   74.144
  247.620    8.132    0.279    0.473   79.729
  247.870    7.539    0.288    0.446   85.928
  248.120    6.752    0.291    0.441   90.300
  248.370    6.376    0.262    0.448   91.587
  248.620    6.391    0.258    0.464   91.647
  248.870    6.411    0.276    0.456   92.934
  249.120    6.832    0.272    0.459   94.835
  249.370    7.055    0.247    0.472   93.667
  249.620    7.693    0.248    0.490   90.656
  249.870    7.911    0.261    0.499   85.205
  250.120    8.550    0.282    0.491   80.338
  250.370    8.767    0.280    0.495   73.644
  250.620    8.985    0.289    0.495   69.405
  250.870    9.213    0.312    0.482   68.865
  251.120    9.228    0.316    0.483   68.925
  251.370    9.045    0.317    0.490   66.513
  251.620    8.664    0.320    0.491   63.503
  251.870    8.481    0.326    0.477   59.894
  252.120    8.501    0.340    0.476   62.409
  252.370    8.734    0.334    0.508   69.836
  252.620    8.947    0.308    0.482   69.910
  252.870    9.383    0.303    0.480   66.900
  253.120    9.595    0.269    0.454   63.889
  253.370    9.818    0.300    0.448   62.721
  253.620    9.843    0.302    0.441   63.394
  253.870    9.665    0.296    0.430   68.365
  254.120    9.685    0.297    0.421   73.965
  254.370    9.705    0.287    0.425   72.168
  254.620    9.720    0.290    0.444   69.157
  254.870    9.537    0.316    0.451   68.603
  255.120    9.156    0.292    0.447   70.504
  255.370    8.375    0.286    0.476   71.836
  255.620    8.177    0.282    0.488   72.480
  255.870    7.791    0.293    0.476   79.907
  256.120    7.005    0.283    0.479   81.194
  256.370    6.614    0.268    0.490   84.338
  256.620    6.233    0.269    0.489   90.537
  256.870    6.877    0.302    0.498   89.369
  257.120    7.089    0.305    0.512   86.972
  257.370    7.515    0.309    0.514   86.432
  257.620    7.936    0.317    0.476   88.334
  257.870    8.169    0.286    0.474   90.849
  258.120    7.976    0.275    0.477   95.206
  258.370    7.392    0.234    0.497  100.821
  258.620    7.204    0.241    0.494  103.336
  258.870    6.418    0.253    0.496  103.396
  259.120    5.834    0.255    0.505  103.455
  259.370    5.646    0.248    0.505  104.742
  259.620    5.473    0.243    0.498  103.574
  259.870    5.483    0.226    0.488  102.390
  260.120    5.503    0.262    0.488  101.222
  260.370    5.528    0.230    0.483  100.667
  260.620    5.548    0.228    0.484  103.826
  260.870    5.771    0.228    0.505  102.658
  261.120    5.994    0.258    0.510   98.404
  261.370    6.018    0.251    0.504   92.953
  261.620    6.241    0.249    0.492   91.171
  261.870    6.256    0.267    0.491   92.443
  262.120    6.276    0.278    0.499   94.344
  262.370    6.296    0.276    0.506   94.404
  262.620    5.925    0.281    0.519   92.621
  262.870    5.935    0.275    0.528   91.453
  263.120    5.752    0.265    0.503   91.512
  263.370    5.777    0.274    0.495   90.958
  263.620    5.792    0.283    0.487   89.804
  263.870    5.822    0.266    0.493   88.635
  264.120    5.822    0.262    0.534   87.467
  264.370    5.259    0.273    0.551   89.383
  264.620    5.066    0.281    0.522   91.883
  264.870    5.086    0.293    0.492   93.171
  265.120    5.106    0.275    0.487   91.403
  265.370    5.120    0.279    0.494   90.235
  265.620    5.140    0.277    0.502   90.294
  265.870    5.175    0.262    0.501   92.225
  266.120    5.185    0.278    0.481   92.869
  266.370    5.215    0.271    0.487   93.572
  266.620    5.225    0.273    0.491   93.602
  266.870    6.260    0.258    0.494   93.676
  267.120    8.110    0.256    0.448   94.349
  267.370    9.961    0.259    0.401   96.864
  267.620   10.382    0.209    0.357   95.696
  267.870   11.015    0.190    0.364   92.072
  268.120   11.238    0.260    0.394   89.675
  268.370   11.258    0.280    0.445   90.348
  268.620   11.075    0.289    0.449   92.864
  268.870   10.491    0.286    0.457   94.765
  269.120    9.898    0.232    0.473   95.453
  269.370    9.111    0.264    0.481   94.913
  269.620    8.320    0.264    0.480   94.973
  269.870    7.929    0.249    0.481   95.032
  270.120    7.746    0.251    0.483   95.092
  270.370    7.167    0.256    0.480   95.765
  270.620    6.974    0.259    0.494   98.280
  270.870    6.994    0.256    0.493   95.899
  271.120    6.816    0.237    0.483   93.487
  271.370    6.841    0.246    0.484   91.705
  271.620    7.059    0.253    0.482   93.007
  271.870    7.089    0.238    0.482   96.121
  272.120    7.307    0.240    0.474   96.181
  272.370    7.332    0.247    0.464   95.012
  272.620    7.545    0.241    0.475   95.072
  272.870    7.768    0.237    0.461   95.131
  273.120    8.005    0.244    0.433   97.676
  273.370    8.015    0.236    0.433   95.894
  273.620    8.040    0.228    0.442   94.740
  273.870    7.857    0.232    0.463   94.770
  274.120    7.482    0.223    0.485   96.671
  274.370    7.294    0.227    0.489   98.587
  274.620    7.101    0.225    0.498   99.275
  274.870    6.314    0.237    0.502   99.320
  275.120    5.721    0.249    0.505   99.993
  275.370    4.736    0.253    0.504  100.082
  275.620    4.345    0.232    0.494  100.112
  275.870    4.163    0.279    0.483  100.171
  276.120    3.980    0.278    0.482   99.617
  276.370    4.000    0.274    0.453   97.220
  276.620    4.019    0.289    0.459  100.365
  276.870    4.450    0.272    0.481   99.211
  277.120    4.673    0.263    0.492   96.799
  277.370    4.896    0.254    0.489   95.646
  277.620    5.119    0.260    0.476   95.690
  277.870    5.336    0.247    0.469   96.364
  278.120    5.564    0.256    0.486   96.423
  278.370    5.782    0.251    0.490   95.869
  278.620    5.807    0.249    0.474   95.943
  278.870    6.035    0.267    0.487   97.230
  279.120    5.847    0.265    0.488   97.290
  279.370    5.872    0.252    0.464   94.908
  279.620    5.689    0.249    0.442   93.740
  279.870    5.501    0.265    0.444   95.626
  280.120    5.120    0.284    0.483   99.399
  280.370    4.942    0.256    0.510   99.428
  280.620    4.749    0.249    0.530   98.275
  280.870    4.364    0.251    0.559   98.948
  281.120    3.978    0.270    0.567  101.464
  281.370    3.196    0.262    0.560  103.380
  281.620    3.013    0.263    0.524  102.211
  281.870    3.038    0.277    0.467   94.888
  282.120    3.459    0.283    0.443   85.738
  282.370    4.691    0.223    0.383   80.272
  282.620    7.556    0.197    0.295   74.192
  282.870   10.416    0.165    0.301   72.409
  283.120   12.267    0.133    0.361   72.483
  283.370   11.678    0.208    0.419   70.072
  283.620   10.679    0.202    0.374   70.131
  283.870    9.487    0.157    0.320   76.330
  284.120    8.690    0.194    0.368   83.173
  284.370    7.706    0.298    0.428   84.446
  284.620    7.122    0.299    0.483   85.733
  284.870    7.137    0.311    0.485   85.792
