~VERSION INFORMATION
 VERS.                 2.0:   CWLS LOG ASCII STANDARD -VERSION 2.0
 WRAP.                  NO:   ONE LINE PER DEPTH STEP
~WELL INFORMATION BLOCK
#MNEM.UNIT           DATA                    DESCRIPTION OF MNEMONIC
#---------    -------------------            -------------------------------
# Generated from Intellog Unique Number	CC_84_87/WELL/1070
NULL.         -999.25                        : NULL_VALUE
WELL.         MURPHY ET AL HOUSE             : Well_name    - WELL
LOC .         06-24-084-16W4                 : Location     - LOCATION          
UWI .         00/06-24-084-16W400            : Uwi          - UNIQUE WELL ID    
ENTR.         DW                             : Entered      - ENTERED BY        
SRVC.         SCHLUMBERGER                   : Scn          - SERVICE COMPANY   
DATE.         21 FEB 80                      : Date         - LOG DATE
STRT.M        100                            : top_depth    - START DEPTH       
STOP.M        267.101                        : bot_depth    - STOP DEPTH        
STEP.M        0.3                            : increment    - STEP LENGTH       
~CURVE INFORMATION BLOCK
#MNEM UNIT       ERCB CURVE CODE    CURVE DESCRIPTION
#-----------   ------------------   ----------------------------------
DEPT.M        00 001 00 00         : DEPTH        - DEPTH                       
DPHI.V/V      00 890 00 00         : PHID         - DENSITY POROSITY (LIMESTONE)
NPHI.V/V      00 330 00 00         : PHIN         - NEUTRON POROSITY (LIMESTONE)
GR  .API      00 310 00 00         : GR           - GAMMA RAY                   
ILD .OHMM     00 120 00 00         : RESD         - DEEP RESISTIVITY (DIL)      
~PARAMETER INFORMATION       
#MNEM.UNIT           DATA             DESCRIPTION OF MNEMONIC
#---------         -----------     ------------------------------
GL  .M        527.7                : gl           - GROUND LEVEL ELEVATION      
EREF.M        531.2                : kb           - ELEVATION OF DEPTH REFERENCE
DATM.M        531.2                : datum        - DATUM ELEVATION             
TDD .M        289                  : tdd          - TOTAL DEPTH DRILLER         
RUN .         ONE                  : Run          - RUN NUMBER                  
ENG .         BILL                 : Engineer     - RECORDING ENGINEER          
WIT .         JIM                  : Witness      - WITNESSED BY                
MUD .         GEL                  : Mud_type     - MUD TYPE                    
MATR.         LIMESTONE            : Logunit      - NEUTRON MATRIX              
TMAX.C        24                   : BHT          - MAXIMUM RECORDED TEMPERATURE
BHTD.M        289                  : BHTDEP       - MAXIMUM RECORDED TEMPERATURE
MATR.         1                    : LOGUNIT      - NEUTRON MATRIX              
RMT .C        25                   : MDTP         - TEMPERATURE OF MUD          
NEUT.         1                    : NEUTRON      - NEUTRON TYPE                
RESI.         0                    : RESIST       - RESISTIVITY TYPE            
RMC .OHMM     0.25                 : RMC          - RESISTIVITY OF MUD CAKE     
RMF .OHMM     0.25                 : RMF          - RESISTIVITY OF MUD FILTRATE 
SUFT.C        15                   : SUFT         - SURFACE TEMPERATURE         
~A  DEPTH     PHID     PHIN       GR     RESD
  100.000    0.276    0.400  103.049   11.664
  100.300    0.295    0.378   98.165   12.329
  100.600    0.247    0.358   89.011   12.792
  100.900    0.257    0.351   95.102   13.031
  101.200    0.277    0.351   98.145   13.521
  101.500    0.289    0.371  104.844   13.773
  101.800    0.291    0.390  107.889   13.773
  102.100    0.287    0.386  101.174   13.521
  102.400    0.275    0.397   98.118   12.103
  102.700    0.257    0.386   96.893   10.440
  103.000    0.262    0.393   90.179    9.878
  103.300    0.298    0.407  102.977   10.062
  103.600    0.297    0.417  116.386   10.249
  103.900    0.232    0.392  112.720   10.833
  104.200    0.253    0.383  101.128   11.450
  104.500    0.250    0.377   91.365   11.035
  104.800    0.197    0.371   82.822    9.697
  105.100    0.188    0.383   84.644    7.350
  105.400    0.165    0.401  104.151    6.341
  105.700    0.181    0.414  109.631    5.889
  106.000    0.198    0.410  110.846    5.676
  106.300    0.203    0.417  116.936    5.781
  106.600    0.223    0.397  122.417    5.781
  106.900    0.232    0.379  122.411    5.676
  107.200    0.231    0.398  111.429    5.370
  107.500    0.244    0.421  108.984    4.632
  107.800    0.262    0.439  117.513    4.146
  108.100    0.246    0.450  107.750    3.851
  108.400    0.194    0.439  112.012    3.996
  108.700    0.229    0.431  112.006    4.547
  109.000    0.274    0.408  101.023    6.579
  109.300    0.275    0.361   90.651   10.833
  109.600    0.273    0.345  113.815   11.241
  109.900    0.287    0.369  102.833   10.833
  110.200    0.267    0.386   99.166    9.519
  110.500    0.239    0.372   92.452    8.841
  110.800    0.244    0.380   94.276    7.914
  111.100    0.268    0.393  110.123    7.769
  111.400    0.244    0.393  107.068    7.769
  111.700    0.251    0.391  111.328    8.062
  112.000    0.287    0.396  111.934    9.174
  112.300    0.299    0.391  102.171   11.664
  112.600    0.349    0.375   88.139   14.829
  112.900    0.401    0.355   82.035   19.563
  113.200    0.358    0.348   70.442   21.063
  113.500    0.275    0.346   56.410   21.456
  113.800    0.283    0.340   55.184   22.264
  114.100    0.315    0.358   64.933   22.678
  114.400    0.340    0.377   68.587   24.418
  114.700    0.324    0.395   64.917   25.809
  115.000    0.319    0.410   62.474   26.290
  115.300    0.332    0.414   60.637   26.290
  115.600    0.340    0.406   60.634   25.809
  115.900    0.332    0.396   78.311   25.336
  116.200    0.322    0.392   65.498   23.971
  116.500    0.321    0.404   61.832   23.971
  116.800    0.328    0.397   64.266   24.418
  117.100    0.333    0.394   63.039   24.873
  117.400    0.338    0.406   52.056   24.418
  117.700    0.341    0.409   47.171   23.101
  118.000    0.339    0.422   67.288   21.856
  118.300    0.326    0.412   67.278   21.456
  118.600    0.310    0.390   67.275   21.456
  118.900    0.312    0.384   67.269   22.264
  119.200    0.321    0.379   56.895   22.678
  119.500    0.335    0.383   62.377   22.678
  119.800    0.338    0.411   63.589   22.678
  120.100    0.324    0.401   58.705   22.264
  120.400    0.332    0.401   55.039   21.456
  120.700    0.341    0.396   57.473   21.456
  121.000    0.329    0.378   59.294   21.063
  121.300    0.324    0.376   59.898   21.456
  121.600    0.303    0.385   61.110   21.456
  121.900    0.288    0.403   59.275   22.264
  122.200    0.289    0.408   59.269   22.678
  122.500    0.312    0.396   62.921   23.101
  122.800    0.331    0.389   59.257   23.101
  123.100    0.343    0.375   64.127   23.101
  123.400    0.349    0.364   56.803   22.678
  123.700    0.347    0.387   63.504   22.678
  124.000    0.340    0.399   63.496   22.264
  124.300    0.331    0.397   61.053   23.101
  124.600    0.336    0.389   54.949   25.336
  124.900    0.352    0.387   64.087   26.780
  125.200    0.361    0.372   68.349   28.306
  125.500    0.357    0.352   69.564   26.290
  125.800    0.316    0.331   66.507   19.928
  126.100    0.128    0.292   61.013   17.191
  126.400    0.272    0.387   53.080   15.106
  126.700    0.302    0.398   48.803   14.030
  127.000    0.312    0.388   56.115   13.031
  127.300    0.314    0.381   63.426   12.558
  127.600    0.306    0.377   65.859   11.664
  127.900    0.301    0.419   65.850   11.241
  128.200    0.312    0.401   68.283   10.440
  128.500    0.311    0.418   69.498   10.249
  128.800    0.307    0.441   63.393   10.249
  129.100    0.301    0.417   61.557   10.440
  129.400    0.290    0.404   67.648   11.450
  129.700    0.283    0.399   71.301   12.103
  130.000    0.290    0.415   68.855   13.274
  130.300    0.312    0.412   67.018   13.773
  130.600    0.330    0.412   70.671   13.274
  130.900    0.317    0.423   74.324   12.103
  131.200    0.310    0.441   68.829   10.833
  131.500    0.285    0.416   65.773   10.635
  131.800    0.258    0.404   66.376   12.558
  132.100    0.256    0.412   60.881   14.558
  132.400    0.322    0.412   60.875   17.191
  132.700    0.353    0.405   73.674   21.063
  133.000    0.333    0.404   71.839   24.873
  133.300    0.312    0.385   49.270   26.290
  133.600    0.330    0.381   44.385   26.780
  133.900    0.334    0.376   50.475   26.290
  134.200    0.334    0.368   51.079   25.336
  134.500    0.330    0.371   52.902   23.971
  134.800    0.326    0.370   48.626   23.532
  135.100    0.333    0.391   47.401   23.532
  135.400    0.338    0.403   50.443   23.971
  135.700    0.334    0.398   58.973   24.418
  136.000    0.320    0.359   63.846   24.418
  136.300    0.327    0.350   59.571   24.418
  136.600    0.325    0.359   51.027   23.532
  136.900    0.302    0.387   51.020   23.532
  137.200    0.302    0.364   53.452   23.532
  137.500    0.308    0.375   51.615   23.971
  137.800    0.329    0.376   49.169   24.418
  138.100    0.320    0.379   49.774   25.336
  138.400    0.322    0.361   57.696   26.290
  138.700    0.331    0.347   49.151   26.780
  139.000    0.333    0.355   44.877   26.780
  139.300    0.328    0.364   48.528   27.279
  139.600    0.317    0.366   50.961   28.833
  139.900    0.315    0.364   50.954   29.371
  140.200    0.334    0.363   52.167   29.918
  140.500    0.342    0.351   52.158   29.918
  140.800    0.339    0.346   52.155   29.918
  141.100    0.327    0.348   52.758   29.371
  141.400    0.309    0.348   54.581   28.306
  141.700    0.305    0.345   51.525   27.788
  142.000    0.320    0.342   48.470   26.780
  142.300    0.326    0.348   50.292   26.290
  142.600    0.327    0.361   49.065   26.290
  142.900    0.319    0.365   50.280   26.780
  143.200    0.330    0.365   55.151   27.279
  143.500    0.340    0.359   52.704   28.833
  143.800    0.343    0.349   51.477   30.476
  144.100    0.327    0.336   52.692   30.476
  144.400    0.232    0.310   48.417   29.918
  144.700    0.198    0.250   42.923   29.371
  145.000    0.281    0.291   39.866   27.788
  145.300    0.320    0.348   40.471   25.809
  145.600    0.324    0.382   44.122   25.336
  145.900    0.321    0.377   48.384   25.336
  146.200    0.321    0.354   48.378   25.809
  146.500    0.326    0.342   53.247   25.809
  146.800    0.329    0.344   55.681   24.873
  147.100    0.329    0.361   56.286   23.101
  147.400    0.324    0.382   48.962   22.678
  147.700    0.323    0.384   53.830   22.678
  148.000    0.329    0.374   58.093   23.101
  148.300    0.333    0.364   62.356   24.418
  148.600    0.336    0.367   54.423   24.873
  148.900    0.333    0.388   51.366   24.418
  149.201    0.332    0.399   55.017   24.418
  149.501    0.341    0.383   55.013   24.418
  149.801    0.344    0.378   51.347   24.873
  150.101    0.335    0.378   45.242   25.809
  150.401    0.331    0.370   42.798   26.290
  150.701    0.336    0.393   44.011   26.290
  151.001    0.340    0.397   46.444   22.678
  151.301    0.342    0.385   45.827   19.928
  151.601    0.340    0.367   47.038   12.792
  151.901    0.331    0.362   48.862    6.702
