~VERSION INFORMATION
 VERS.                 2.0:   CWLS LOG ASCII STANDARD -VERSION 2.0
 WRAP.                  NO:   ONE LINE PER DEPTH STEP
~WELL INFORMATION BLOCK
#MNEM.UNIT           DATA                    DESCRIPTION OF MNEMONIC
#---------    -------------------            -------------------------------
# Generated from Intellog Unique Number	CC_80_83/WELL/1164
NULL.         -999.25                        : NULL_VALUE
LOC .         06-34-080-17W4            : Location     - LOCATION          
UWI .         00/06-34-080-17W4/0            : Uwi          - UNIQUE WELL ID    
ENTR.         DW                             : Entered      - ENTERED BY        
SRVC.         SCHLUMBERGER                   : Scn          - SERVICE COMPANY   
STRT.M        150                            : top_depth    - START DEPTH       
STOP.M        320.098                        : bot_depth    - STOP DEPTH        
STEP.M        0.3                            : increment    - STEP LENGTH       
~CURVE INFORMATION BLOCK
#MNEM UNIT       ERCB CURVE CODE    CURVE DESCRIPTION
#-----------   ------------------   ----------------------------------
DEPT.M        00 001 00 00         : DEPTH        - DEPTH                       
DPHI.V/V      00 890 00 00         : PHID         - DENSITY POROSITY (LIMESTONE)
NPHI.V/V      00 330 00 00         : PHIN         - NEUTRON POROSITY (LIMESTONE)
GR  .API      00 310 00 00         : GR           - GAMMA RAY                   
ILD .OHMM     00 120 00 00         : RESD         - DEEP RESISTIVITY (DIL)      
~PARAMETER INFORMATION       
#MNEM.UNIT           DATA             DESCRIPTION OF MNEMONIC
#---------         -----------     ------------------------------
GL  .M        547                  : gl           - GROUND LEVEL ELEVATION      
EREF.M        550                  : kb           - ELEVATION OF DEPTH REFERENCE
DATM.M        550                  : datum        - DATUM ELEVATION             
TDD .M        321                  : tdd          - TOTAL DEPTH DRILLER         
RUN .         ONE                  : Run          - RUN NUMBER                  
ENG .         BILL                 : Engineer     - RECORDING ENGINEER          
WIT .         JIM                  : Witness      - WITNESSED BY                
MUD .         GEL                  : Mud_type     - MUD TYPE                    
MATR.         LIMESTONE            : Logunit      - NEUTRON MATRIX              
TMAX.C        15.5                 : BHT          - MAXIMUM RECORDED TEMPERATURE
BHTD.M        321                  : BHTDEP       - MAXIMUM RECORDED TEMPERATURE
MATR.         0                    : LOGUNIT      - NEUTRON MATRIX              
RMT .C        25                   : MDTP         - TEMPERATURE OF MUD          
NEUT.         1                    : NEUTRON      - NEUTRON TYPE                
RESI.         0                    : RESIST       - RESISTIVITY TYPE            
RMC .OHMM     0.25                 : RMC          - RESISTIVITY OF MUD CAKE     
RMF .OHMM     0.25                 : RMF          - RESISTIVITY OF MUD FILTRATE 
SUFT.C        15                   : SUFT         - SURFACE TEMPERATURE         
~A  DEPTH     PHID     PHIN       GR     RESD
# ...
  202.201    0.357    0.381   17.930   21.537
  202.501    0.368    0.365   16.760   17.902
  202.801    0.369    0.370   15.581   16.636
  203.101    0.381    0.378   15.626   16.964
  203.401    0.386    0.385   16.841   17.620
  203.701    0.386    0.385   37.880   19.349
  204.001    0.380    0.247   42.712   27.057
  204.301    0.057    0.187   36.140   84.133
  204.601    0.061    0.175   17.570   38.581
  204.901    0.212    0.271   14.591   18.362
  205.201    0.348    0.368   13.423   14.984
  205.501    0.428    0.416   16.467   15.277
  205.801    0.440    0.444   17.685   16.785
  206.101    0.355    0.383   17.717   17.109
  206.401    0.353    0.383   16.548   16.812
  206.701    0.369    0.410   15.384   16.822
  207.001    0.374    0.408   13.623   17.473
  207.301    0.366    0.393   11.842   17.819
  207.601    0.367    0.385   10.666   18.515
  207.901    0.373    0.374   10.101   18.872
  208.201    0.356    0.371   10.747   18.891
  208.501    0.345    0.373   11.367   19.261
  208.801    0.368    0.363   12.598   19.637
  209.101    0.357    0.365   14.420   20.026
  209.401    0.350    0.382   16.863   19.680
  209.701    0.355    0.403   16.901   19.329
  210.001    0.355    0.387   16.921   18.992
  210.301    0.351    0.370   16.342   18.655
  210.601    0.362    0.361   16.386   18.671
  210.901    0.373    0.373   16.403   19.042
  211.201    0.369    0.370   17.633   19.053
  211.501    0.359    0.367   22.471   18.039
  211.801    0.358    0.373   32.100   17.076
  212.101    0.350    0.378   38.135   16.465
  212.401    0.320    0.355   27.363   16.791
  212.701    0.229    0.306   20.195   17.441
  213.001    0.321    0.347   18.433   17.786
  213.301    0.365    0.396   19.052   17.473
  213.601    0.364    0.407   20.285   17.163
  213.901    0.339    0.382   18.511   16.867
  214.201    0.346    0.383   16.150   16.881
  214.501    0.353    0.374   17.370   16.899
  214.801    0.337    0.364   19.810   16.906
  215.101    0.331    0.381   20.439   17.240
  215.401    0.330    0.369   21.075   16.944
  215.701    0.337    0.362   22.300   16.954
  216.001    0.342    0.393   24.128   16.967
  216.301    0.349    0.407   24.765   16.981
  216.601    0.352    0.409   25.391   17.640
  216.901    0.337    0.391   24.828   18.325
  217.201    0.348    0.393   25.455   18.005
  217.501    0.342    0.398   26.680   17.689
  217.801    0.335    0.395   36.313   17.701
  218.101    0.347    0.384   39.346   17.390
  218.401    0.348    0.376   32.174   14.453
  218.701    0.329    0.377   29.207   13.939
  219.001    0.318    0.410   28.632   15.311
  219.301    0.331    0.413   28.071   16.202
  219.601    0.345    0.374   28.094   16.520
  219.901    0.352    0.384   28.739   16.539
  220.201    0.336    0.364   28.753   16.858
  220.501    0.308    0.361   26.390   16.874
  220.801    0.317    0.377   23.415   16.272
  221.101    0.334    0.388   25.858   17.223
  221.401    0.338    0.393   26.475   18.224
  221.701    0.340    0.380   25.306   18.584
  222.001    0.334    0.356   23.537   18.254
  222.301    0.316    0.368   21.771   18.613
  222.601    0.328    0.388   19.394   18.632
  222.901    0.335    0.379   18.832   18.306
  223.201    0.348    0.395   20.657   19.019
  223.501    0.361    0.407   25.500   19.387
  223.801    0.359    0.384   25.520   19.408
  224.101    0.348    0.389   22.549   20.163
  224.401    0.300    0.364   28.585   20.551
  224.701    0.296    0.378   35.818   20.569
  225.001    0.337    0.392   50.852   14.734
  225.301    0.322    0.378   46.697   11.370
  225.601    0.274    0.359   44.910   10.762
  225.901    0.281    0.354   41.342   11.823
  226.201    0.303    0.347   49.178   12.982
  226.501    0.304    0.389   56.417   13.998
  226.801    0.320    0.426   60.047   10.601
  227.101    0.284    0.414   61.877    8.976
  227.401    0.289    0.392   58.904    9.327
  227.701    0.281    0.376   47.527   10.242
  228.001    0.254    0.401   43.953   11.247
  228.301    0.258    0.405   48.198   14.335
  228.601    0.297    0.394   48.222   16.342
  228.901    0.304    0.344   44.647   16.660
  229.201    0.280    0.354   41.687   13.100
  229.501    0.282    0.376   42.307   14.934
  229.801    0.289    0.368   51.344   15.800
  230.101    0.286    0.352   52.578   14.409
  230.401    0.255    0.380   47.201   11.755
  230.701    0.268    0.381   44.232   13.156
  231.001    0.290    0.362   44.269   13.920
  231.301    0.277    0.352   39.496   12.934
  231.601    0.279    0.367   40.731   13.945
  231.901    0.288    0.411   42.555   15.321
  232.201    0.293    0.414   46.783   15.331
  232.501    0.292    0.403   53.418   14.511
  232.801    0.286    0.363   60.649   12.289
  233.101    0.276    0.361   66.090   10.212
  233.401    0.268    0.380   66.716    8.646
  233.701    0.273    0.424   64.347    8.819
  234.001    0.296    0.445   63.774    8.824
  234.301    0.297    0.446   66.215    8.201
  234.601    0.292    0.422   66.252    7.763
  234.901    0.274    0.428   65.070    7.625
  235.201    0.261    0.443   63.303    7.492
  235.501    0.251    0.394   60.929    8.078
  235.801    0.246    0.383   60.363    9.037
  236.101    0.245    0.420   62.196   11.732
  236.401    0.244    0.420   63.420   13.127
  236.701    0.223    0.383   63.450    9.580
  237.001    0.217    0.377   62.877    9.412
  237.301    0.240    0.361   59.910    9.421
  237.601    0.260    0.377   56.938    9.084
  237.901    0.269    0.427   54.568   10.952
  238.201    0.273    0.436   55.801   12.028
  238.501    0.274    0.403   56.436   11.815
  238.801    0.271    0.382   52.862   10.775
  239.101    0.270    0.381   48.696   10.587
  239.401    0.243    0.377   49.919   14.534
  239.701    0.206    0.366   56.555   16.567
  240.001    0.235    0.370   59.582   11.866
  240.301    0.281    0.384   61.419   10.624
  240.601    0.282    0.407   60.848   11.889
  240.901    0.277    0.440   62.687   11.680
  241.201    0.267    0.444   64.508   10.851
  241.501    0.264    0.400   65.144    9.899
  241.801    0.267    0.379   63.968    9.547
  242.101    0.273    0.396   55.001   10.101
  242.401    0.256    0.391   51.430    9.043
  242.701    0.277    0.398   48.455   11.104
  243.001    0.286    0.414   38.280    9.060
  243.301    0.288    0.417   34.106   10.136
  243.601    0.250    0.409   40.739   15.846
  243.901    0.303    0.386   52.180   20.573
  244.201    0.305    0.358   55.811   14.737
  244.501    0.269    0.373   64.249   10.559
  244.801    0.247    0.362   66.673   10.967
  245.101    0.237    0.373   64.309    9.285
  245.401    0.264    0.387   59.542    8.471
  245.701    0.284    0.397   58.374    9.134
  246.001    0.271    0.406   58.991    9.663
  246.301    0.233    0.407   61.430   10.038
  246.601    0.235    0.368   63.272    9.861
  246.901    0.234    0.369   63.291    9.335
  247.201    0.214    0.405   60.318    9.343
  247.501    0.212    0.397   57.346    9.708
  247.801    0.263    0.391   57.387   10.662
  248.101    0.272    0.375   59.213   11.928
  248.401    0.273    0.362   59.841   11.717
  248.701    0.247    0.372   58.669   11.511
  249.001    0.257    0.390   56.902   11.526
  249.301    0.268    0.395   56.340   11.533
  249.601    0.275    0.400   56.359   11.330
  249.901    0.275    0.384   58.196   11.990
  250.201    0.256    0.378   61.227   12.927
  250.501    0.240    0.373   64.864   13.179
  250.801    0.245    0.354   65.494   12.709
  251.101    0.242    0.415   65.514   10.179
  251.401    0.242    0.389   66.149    9.999
  251.701    0.242    0.379   66.179    9.644
  252.001    0.241    0.390   65.007    9.301
  252.301    0.240    0.416   60.833    8.483
  252.601    0.246    0.404   52.460    7.882
  252.901    0.256    0.392   45.289    7.600
  253.201    0.268    0.382   40.524   10.829
  253.501    0.323    0.370   36.949   13.545
  253.801    0.307    0.359   30.989   12.585
  254.101    0.310    0.356   30.402   12.832
