~VERSION INFORMATION
 VERS.                 2.0:   CWLS LOG ASCII STANDARD -VERSION 2.0
 WRAP.                  NO:   ONE LINE PER DEPTH STEP
~WELL INFORMATION BLOCK
#MNEM.UNIT           DATA                    DESCRIPTION OF MNEMONIC
#---------    -------------------            -------------------------------
# Generated from Intellog Unique Number	CS_73_76/WELL/2809
WELL.         ESSO WINEFRED LAKR             : Well_name    - WELL
LOC .         00/03-31-075-03W4/0            : Location     - LOCATION
UWI .         00/03-31-075-03W4/0            : Uwi          - UNIQUE WELL ID
ENTR.         TIM                            : Entered      - ENTERED BY
SRVC.         SCHLUMBERGER                   : Scn          - SERVICE COMPANY
STRT.M        250                            : top_depth    - START DEPTH
STOP.M        495                            : bot_depth    - STOP DEPTH
STEP.M        0.25                           : increment    - STEP LENGTH
 NULL. -999.2500:NULL Value
~CURVE INFORMATION BLOCK
#MNEM UNIT       ERCB CURVE CODE    CURVE DESCRIPTION
#-----------   ------------------   ----------------------------------
DEPT.M        00 001 00 00         : DEPTH        - DEPTH
ILD .OHMM     00 120 00 00         : RESD         - DEEP RESISTIVITY (DIL)
DPHI.V/V      00 890 00 00         : PHID         - DENSITY POROSITY (SANDSTONE)
NPHI.V/V      00 330 00 00         : PHIN         - NEUTRON POROSITY (SANDSTONE)
GR  .API      00 310 00 00         : GR           - GAMMA RAY
~PARAMETER INFORMATION
#MNEM.UNIT           DATA             DESCRIPTION OF MNEMONIC
#---------         -----------     ------------------------------
GL  .M        623.9                : gl           - GROUND LEVEL ELEVATION
EREF.M        627.65               : kb           - ELEVATION OF DEPTH REFERENCE
DATM.M        627.65               : datum        - DATUM ELEVATION
TDD .M        505                  : tdd          - TOTAL DEPTH DRILLER
RUN .         ONE                  : Run          - RUN NUMBER
ENG .         BILL                 : Engineer     - RECORDING ENGINEER
WIT .         JIM                  : Witness      - WITNESSED BY
MUD .         GEL                  : Mud_type     - MUD TYPE
MATR.         SANDSTONE            : Logunit      - NEUTRON MATRIX
TMAX.C        32                   : BHT          - MAXIMUM RECORDED TEMPERATURE
BHTD.M        505                  : BHTDEP       - MAXIMUM RECORDED TEMPERATURE
RMT .C        20                   : MDTP         - TEMPERATURE OF MUD
MUDD.KG/M     1160                 : MWT          - MUD DENSITY
NEUT.         1                    : NEUTRON      - NEUTRON TYPE
RESI.         0                    : RESIST       - RESISTIVITY TYPE
RM  .OHMM     1.5                  : RM           - RESISTIVITY OF MUD
RMC .OHMM     2.2                  : RMC          - RESISTIVITY OF MUD CAKE
RMF .OHMM     3.1                  : RMF          - RESISTIVITY OF MUD FILTRATE
SUFT.C        4                    : SUFT         - SURFACE TEMPERATURE
~A  DEPTH     RESD     PHID     PHIN       GR
# ...
  293.500   20.710    0.309    0.366   58.788
  293.750   19.976    0.307    0.369   63.177
  294.000   18.231    0.306    0.370   68.817
  294.250   16.633    0.300    0.373   71.954
  294.500   15.180    0.295    0.376   72.596
  294.750   13.359    0.286    0.381   71.981
  295.000   12.644    0.279    0.382   73.240
  295.250   11.547    0.263    0.382   77.629
  295.500   11.141    0.249    0.385   83.269
  295.750   10.746    0.232    0.405   92.664
  296.000   10.178    0.231    0.397   94.548
  296.250    9.820    0.232    0.390   95.812
  296.500    9.475    0.234    0.400   97.074
  296.750    9.142    0.233    0.411   97.082
  297.000    8.820    0.232    0.421   95.841
  297.250    8.510    0.230    0.431   95.229
  297.500    8.364    0.236    0.442   95.240
  297.750    8.375    0.245    0.435   95.250
  298.000    8.229    0.255    0.410   93.384
  298.250    8.397    0.265    0.407   89.642
  298.500    8.565    0.276    0.406   84.649
  298.750    9.239    0.282    0.402   79.658
  299.000    9.594    0.283    0.410   80.294
  299.250   10.546    0.296    0.419   79.682
  299.500   11.588    0.304    0.421   77.185
  299.750   12.263    0.306    0.418   74.068
  300.000   12.738    0.308    0.415   73.453
  300.250   13.740    0.300    0.411   74.089
  300.500   14.817    0.293    0.407   74.725
  300.750   15.977    0.291    0.401   70.983
  301.000   17.224    0.301    0.398   65.990
  301.250   18.579    0.324    0.391   57.869
  301.500   19.666    0.342    0.388   44.121
  301.750   20.818    0.340    0.385   43.507
  302.000   21.241    0.328    0.382   46.645
  302.250   21.666    0.317    0.381   51.659
  302.500   21.687    0.309    0.385   56.048
  302.750   20.931    0.293    0.388   59.814
  303.000   20.189    0.277    0.389   59.196
  303.250   18.093    0.271    0.386   55.454
  303.500   16.209    0.277    0.387   51.712
  303.750   15.347    0.269    0.391   52.350
  304.000   15.089    0.272    0.391   57.987
  304.250   15.684    0.299    0.381   64.253
  304.500   15.988    0.325    0.381   69.895
  304.750   16.929    0.340    0.388   67.404
  305.000   17.263    0.348    0.389   65.535
  305.250   18.279    0.345    0.390   65.546
  305.500   19.361    0.336    0.393   68.687
  305.750   19.736    0.314    0.394   68.697
  306.000   20.515    0.308    0.399   69.333
  306.250   20.541    0.299    0.400   70.595
  306.500   20.189    0.282    0.401   71.859
  306.750   18.771    0.269    0.401   72.495
  307.000   16.502    0.255    0.401   73.128
  307.250   14.784    0.246    0.404   72.519
  307.500   13.745    0.237    0.393   70.647
  307.750   14.827    0.243    0.381   66.280
  308.000   15.690    0.252    0.374   59.410
  308.250   16.608    0.264    0.361   53.791
  308.500   16.946    0.263    0.356   52.551
  308.750   17.291    0.257    0.364   51.936
  309.000   16.984    0.245    0.376   61.331
  309.250   16.694    0.229    0.379   70.727
  309.500   15.525    0.209    0.290   68.233
  309.750   14.709    0.122    0.243   61.988
  310.000   14.188    0.111    0.256   55.744
  310.250   13.949    0.195    0.276   53.255
  310.500   14.228    0.265    0.326   50.761
  310.750   14.513    0.276    0.356   52.023
  311.000   15.085    0.280    0.377   53.910
  311.250   15.382    0.282    0.369   55.799
  311.500   15.989    0.282    0.375   57.063
  311.750   16.304    0.281    0.379   57.069
  312.000   16.319    0.280    0.381   57.079
  312.250   16.651    0.275    0.381   57.090
  312.500   16.673    0.270    0.381   55.852
  312.750   16.694    0.269    0.379   55.863
  313.000   16.715    0.282    0.378   56.501
  313.250   16.424    0.286    0.375   57.135
  313.500   16.154    0.286    0.370   57.771
  313.750   16.174    0.288    0.365   56.535
  314.000   16.195    0.293    0.362   55.290
  314.250   16.216    0.297    0.365   54.678
  314.500   16.236    0.297    0.370   55.942
  314.750   16.252    0.298    0.374   56.578
  315.000   16.273    0.300    0.380   56.583
  315.250   16.599    0.305    0.389   55.968
  315.500   16.625    0.307    0.404   54.102
  315.750   16.952    0.304    0.393   51.613
  316.000   16.980    0.294    0.372   49.747
  316.250   17.001    0.272    0.359   48.504
  316.500   17.342    0.264    0.353   45.390
  316.750   17.358    0.272    0.353   44.150
  317.000   17.706    0.278    0.349   44.788
  317.250   18.066    0.287    0.346   45.424
  317.500   18.101    0.293    0.342   44.184
  317.750   18.457    0.297    0.332   42.318
  318.000   18.826    0.305    0.334   41.080
  318.250   19.197    0.307    0.352   40.463
  318.500   19.581    0.309    0.361   41.099
  318.750   20.353    0.313    0.369   41.107
  319.000   20.761    0.315    0.376   41.120
  319.250   20.780    0.319    0.378   40.502
  319.500   21.600    0.326    0.379   41.141
  319.750   22.032    0.329    0.385   42.403
  320.000   22.053    0.331    0.384   44.915
  320.250   22.081    0.330    0.382   46.179
  320.500   22.124    0.327    0.376   46.190
  320.750   22.152    0.327    0.356   44.949
  321.000   22.181    0.330    0.353   42.455
  321.250   22.209    0.333    0.366   39.964
  321.500   22.245    0.336    0.376   39.974
  321.750   22.259    0.339    0.384   41.236
  322.000   22.302    0.343    0.391   44.999
  322.250   22.316    0.347    0.395   45.635
  322.500   22.352    0.353    0.397   45.646
  322.750   21.969    0.359    0.401   45.656
  323.000   22.005    0.361    0.404   47.546
  323.250   21.621    0.365    0.406   48.807
  323.500   21.244    0.367    0.406   50.069
  323.750   20.881    0.366    0.398   50.705
  324.000   20.524    0.358    0.386   51.341
  324.250   19.808    0.360    0.384   51.352
  324.500   19.463    0.362    0.386   49.486
  324.750   19.130    0.363    0.390   48.245
  325.000   18.821    0.363    0.393   47.630
  325.250   18.839    0.357    0.397   48.266
  325.500   18.517    0.353    0.399   49.528
  325.750   18.541    0.351    0.405   50.789
  326.000   18.224    0.350    0.415   51.425
  326.250   17.912    0.346    0.419   52.064
  326.500   17.935    0.342    0.419   52.072
  326.750   17.628    0.342    0.416   50.206
  327.000   17.645    0.359    0.410   45.841
  327.250   17.343    0.357    0.408   41.473
  327.500   17.052    0.350    0.408   40.233
  327.750   16.765    0.350    0.408   40.869
  328.000   16.776    0.347    0.409   42.756
  328.250   16.494    0.344    0.406   46.519
  328.500   16.510    0.345    0.398   47.158
  328.750   16.228    0.351    0.398   47.166
  329.000   16.254    0.354    0.404   45.925
  329.250   16.269    0.359    0.407   45.936
  329.500   15.707    0.360    0.411   45.949
  329.750   15.155    0.360    0.411   45.331
  330.000   15.458    0.361    0.411   44.091
  330.250   15.763    0.364    0.409   44.730
  330.500   16.083    0.363    0.406   45.366
  330.750   16.405    0.358    0.405   47.253
  331.000   16.125    0.353    0.405   51.642
  331.250   15.277    0.344    0.404   54.157
  331.500   14.730    0.341    0.404   53.544
  331.750   13.960    0.337    0.406   52.924
  332.000   13.969    0.333    0.412   51.686
  332.250   13.992    0.335    0.417   49.818
  332.500   14.272    0.342    0.412   47.952
  332.750   14.285    0.348    0.400   46.086
  333.000   14.576    0.348    0.393   45.471
  333.250   14.599    0.348    0.403   46.735
  333.500   14.613    0.348    0.413   48.622
  333.750   14.363    0.354    0.422   49.884
  334.000   14.118    0.359    0.430   49.269
  334.250   13.880    0.356    0.444   48.028
  334.500   13.894    0.349    0.449   48.039
  334.750   13.925    0.343    0.427   49.300
  335.000   14.199    0.339    0.420   49.937
  335.250   14.208    0.339    0.425   48.073
  335.500   14.240    0.340    0.430   46.207
  335.750   14.245    0.340    0.426   45.592
  336.000   14.263    0.340    0.423   46.228
  336.250   14.019    0.344    0.423   46.239
  336.500   13.530    0.346    0.424   46.249
  336.750   13.303    0.351    0.420   47.511
