~VERSION INFORMATION
 VERS.                 2.0:   CWLS LOG ASCII STANDARD -VERSION 2.0
 WRAP.                  NO:   ONE LINE PER DEPTH STEP
~WELL INFORMATION BLOCK
#MNEM.UNIT           DATA                    DESCRIPTION OF MNEMONIC
#---------    -------------------            -------------------------------
# Generated from Intellog Unique Number	CS_77_79/WELL/858
WELL.         DOME COWPAR                    : Well_name    - WELL
LOC .         00/05-19-079-02W4/0            : Location     - LOCATION
UWI .         00/05-19-079-02W4/0            : Uwi          - UNIQUE WELL ID
ENTR.         JHS                            : Entered      - ENTERED BY
SRVC.         SCHLUMBERGER                   : Scn          - SERVICE COMPANY
STRT.M        105                            : top_depth    - START DEPTH
STOP.M        335                            : bot_depth    - STOP DEPTH
STEP.M        0.25                           : increment    - STEP LENGTH
 NULL. -999.2500:NULL Value
~CURVE INFORMATION BLOCK
#MNEM UNIT       ERCB CURVE CODE    CURVE DESCRIPTION
#-----------   ------------------   ----------------------------------
DEPT.M        00 001 00 00         : DEPTH        - DEPTH
DPHI.V/V      00 890 00 00         : PHID         - DENSITY POROSITY (LIMESTONE)
NPHI.V/V      00 330 00 00         : PHIN         - NEUTRON POROSITY (LIMESTONE)
GR  .API      00 310 00 00         : GR           - GAMMA RAY
ILD .OHMM     00 120 00 00         : RESD         - DEEP RESISTIVITY (DIL)
RHOB.KG/M3    00 350 00 00         : DENS         - BULK DENSITY
~PARAMETER INFORMATION
#MNEM.UNIT           DATA             DESCRIPTION OF MNEMONIC
#---------         -----------     ------------------------------
GL  .M        522.7                : gl           - GROUND LEVEL ELEVATION
EREF.M        526.2                : kb           - ELEVATION OF DEPTH REFERENCE
DATM.M        526.2                : datum        - DATUM ELEVATION
TDD .M        338.8                : tdd          - TOTAL DEPTH DRILLER
RUN .         ONE                  : Run          - RUN NUMBER
ENG .         BILL                 : Engineer     - RECORDING ENGINEER
WIT .         JIM                  : Witness      - WITNESSED BY
MUD .         GEL                  : Mud_type     - MUD TYPE
MATR.         LIMESTONE            : Logunit      - NEUTRON MATRIX
TMAX.C        22                   : BHT          - MAXIMUM RECORDED TEMPERATURE
BHTD.M        338.8                : BHTDEP       - MAXIMUM RECORDED TEMPERATURE
MATR.         1                    : LOGUNIT      - NEUTRON MATRIX
RMT .C        25                   : MDTP         - TEMPERATURE OF MUD
NEUT.         1                    : NEUTRON      - NEUTRON TYPE
RESI.         0                    : RESIST       - RESISTIVITY TYPE
RMC .OHMM     0.25                 : RMC          - RESISTIVITY OF MUD CAKE
RMF .OHMM     0.25                 : RMF          - RESISTIVITY OF MUD FILTRATE
SUFT.C        15                   : SUFT         - SURFACE TEMPERATURE
~A  DEPTH     PHID     PHIN       GR     RESD     DENS
# ...
  141.500    0.359    0.407   43.273   17.812    0.000
  141.750    0.370    0.428   39.028   17.839    0.000
  142.000    0.349    0.413   44.499   17.877    0.000
  142.250    0.331    0.403   49.970   17.899    0.000
  142.500    0.357    0.399   53.620   17.921    0.000
  142.750    0.355    0.408   53.624   18.301    0.000
  143.000    0.346    0.421   51.201   18.327    0.000
  143.250    0.348    0.426   48.778   18.349    0.000
  143.500    0.369    0.441   49.390   18.057    0.000
  143.750    0.344    0.457   50.004   18.076    0.000
  144.000    0.348    0.470   51.221   17.781    0.000
  144.250    0.372    0.481   54.870   17.482    0.000
  144.500    0.385    0.441   58.519   17.192    0.000
  144.750    0.372    0.425   63.383   16.891    0.000
  145.000    0.350    0.410   65.818   16.617    0.000
  145.250    0.333    0.402   66.430   16.348    0.000
  145.500    0.317    0.420   68.257   16.370    0.000
  145.750    0.327    0.398   68.870   16.388    0.000
  146.000    0.308    0.386   67.661   16.128    0.000
  146.250    0.302    0.392   64.628   16.445    0.000
  146.500    0.346    0.415   58.561   16.174    0.000
  146.750    0.341    0.429   60.388   15.611    0.000
  147.000    0.300    0.431   61.001   15.338    0.000
  147.250    0.298    0.427   56.148   14.806    0.000
  147.500    0.332    0.426   53.115   14.562    0.000
  147.750    0.345    0.438   56.157   15.142    0.000
  148.000    0.350    0.410   62.237   16.043    0.000
  148.250    0.368    0.395   62.849   16.363    0.000
  148.500    0.339    0.403   60.425   16.688    0.000
  148.750    0.366    0.416   62.860   16.727    0.000
  149.000    0.314    0.405   57.399   16.743    0.000
  149.250    0.312    0.404   50.723   16.165    0.000
  149.500    0.311    0.402   51.337   16.191    0.000
  149.750    0.329    0.393   61.058   16.524    0.000
  150.000    0.328    0.397   69.565   16.554    0.000
  150.250    0.316    0.392   78.073   15.968    0.000
  150.500    0.290    0.405   81.115   15.126    0.000
  150.750    0.274    0.427   79.905   14.069    0.000
  151.000    0.282    0.445   74.445   13.584    0.000
  151.250    0.306    0.417   68.985   13.363    0.000
  151.500    0.299    0.417   71.419   13.136    0.000
  151.750    0.294    0.427   73.853   13.394    0.000
  152.000    0.278    0.450   71.429   13.944    0.000
  152.250    0.269    0.438   70.828   14.217    0.000
  152.500    0.261    0.409   73.869   15.065    0.000
  152.750    0.247    0.394   74.481   15.362    0.000
  153.000    0.259    0.391   78.130   16.582    0.000
  153.250    0.272    0.408   83.602   16.912    0.000
  153.500    0.331    0.411   85.428   16.950    0.000
  153.750    0.350    0.399   79.361   16.969    0.000
  154.000    0.335    0.402   71.472   16.383    0.000
  154.250    0.316    0.408   71.476   15.811    0.000
  154.500    0.324    0.417   73.304   15.261    0.000
  154.750    0.335    0.417   75.737   14.996    0.000
  155.000    0.334    0.400   76.350   14.748    0.000
  155.250    0.327    0.391   72.712   14.504    0.000
  155.500    0.333    0.394   68.467   14.533    0.000
  155.750    0.343    0.409   71.508   14.819    0.000
  156.000    0.320    0.433   78.800   14.850    0.000
  156.250    0.310    0.439   88.523   14.866    0.000
  156.500    0.333    0.426   98.244   14.085    0.000
  156.750    0.282    0.418  109.181   13.102    0.000
  157.000    0.253    0.420  114.653   11.960    0.000
  157.250    0.257    0.433  117.086   10.918    0.000
  157.500    0.272    0.435  115.877    9.786    0.000
  157.750    0.262    0.435  113.453    9.274    0.000
  158.000    0.259    0.434  114.066    9.111    0.000
  158.250    0.268    0.422  111.643    9.133    0.000
  158.500    0.266    0.430  114.686    9.314    0.000
  158.750    0.253    0.464  115.297    9.510    0.000
  159.000    0.278    0.469  114.696    9.519    0.000
  159.250    0.269    0.451  112.270    9.716    0.000
  159.500    0.265    0.456  107.417    9.728    0.000
  159.750    0.271    0.462  100.134    9.566    0.000
  160.000    0.315    0.453   98.928    9.948    0.000
  160.250    0.315    0.438   96.502   10.732    0.000
  160.500    0.302    0.429   92.255   11.578    0.000
  160.750    0.301    0.422   86.794   12.264    0.000
  161.000    0.319    0.418   92.267   12.745    0.000
  161.250    0.300    0.418   95.915   13.008    0.000
  161.500    0.317    0.422  101.994   12.785    0.000
  161.750    0.303    0.427  106.249   12.579    0.000
  162.000    0.285    0.428  109.291   12.138    0.000
  162.250    0.275    0.431  108.082   11.929    0.000
  162.500    0.256    0.447  104.443   11.314    0.000
  162.750    0.269    0.466   98.983   11.115    0.000
  163.000    0.269    0.469   94.130   10.728    0.000
  163.250    0.249    0.457   93.527   10.354    0.000
  163.500    0.238    0.439   94.140    9.991    0.000
  163.750    0.218    0.441   92.931   10.386    0.000
  164.000    0.293    0.458   86.863   11.416    0.000
  164.250    0.314    0.443   75.329   12.781    0.000
  164.500    0.336    0.436   68.654   14.321    0.000
  164.750    0.325    0.445   72.304   14.893    0.000
  165.000    0.336    0.448   77.166   14.906    0.000
  165.250    0.373    0.439   82.638   14.659    0.000
  165.500    0.377    0.440   86.287   14.416    0.000
  165.750    0.390    0.458   92.366   14.168    0.000
  166.000    0.359    0.440   95.406   13.931    0.000
  166.250    0.339    0.434   92.375   13.964    0.000
  166.500    0.342    0.434   86.307   13.719    0.000
  166.750    0.345    0.430   85.097   14.008    0.000
  167.000    0.337    0.430   85.103   14.297    0.000
  167.250    0.328    0.434   82.072   14.313    0.000
  167.500    0.336    0.423   80.862   14.610    0.000
  167.750    0.311    0.409   84.512   14.635    0.000
  168.000    0.307    0.405   89.377   14.653    0.000
  168.250    0.285    0.400   91.202   14.692    0.000
  168.500    0.244    0.396   86.957   14.705    0.000
  168.750    0.219    0.426   80.281   14.463    0.000
  169.000    0.160    0.437   76.036   14.210    0.000
  169.250    0.146    0.444   79.685   13.972    0.000
  169.500    0.263    0.459   79.689   13.485    0.000
  169.750    0.291    0.466   74.837   13.262    0.000
  170.000    0.275    0.466   71.805   13.040    0.000
  170.250    0.173    0.473   71.810   13.067    0.000
  170.500    0.139    0.508   71.815   13.081    0.000
  170.750    0.093    0.485   65.141   13.111    0.000
  171.000    0.064    0.407   65.753   12.888    0.000
  171.250    0.183    0.392   72.439   12.443    0.000
  171.500    0.254    0.426   73.051   12.225    0.000
  171.750    0.286    0.443   69.412   11.587    0.000
  172.000    0.304    0.439   63.953   11.184    0.000
  172.250    0.304    0.427   63.351   10.995    0.000
  172.500    0.283    0.418   63.356   10.415    0.000
  172.750    0.266    0.424   62.146    9.684    0.000
  173.000    0.235    0.443   60.329    9.005    0.000
  173.250    0.252    0.456   60.333    8.535    0.000
  173.500    0.258    0.455   57.911    8.545    0.000
  173.750    0.248    0.459   56.700    8.720    0.000
  174.000    0.248    0.463   54.885    9.235    0.000
  174.250    0.253    0.460   49.423    9.601    0.000
  174.500    0.278    0.445   40.926    9.797    0.000
  174.750    0.267    0.438   36.073    9.818    0.000
  175.000    0.267    0.434   28.183    9.477    0.000
  175.250    0.258    0.439   18.472    8.975    0.000
  175.500    0.266    0.454   20.298    8.196    0.000
  175.750    0.280    0.471   23.949    7.759    0.000
  176.000    0.290    0.450   26.382    7.352    0.000
  176.250    0.301    0.450   35.497    7.644    0.000
  176.500    0.281    0.479   44.612    8.402    0.000
  176.750    0.301    0.477   37.937   10.327    0.000
  177.000    0.328    0.448   20.330   11.136    0.000
  177.250    0.340    0.428   30.659   12.475    0.000
  177.500    0.340    0.416   47.669   13.472    0.000
  177.750    0.319    0.415   59.821   13.740    0.000
