~VERSION INFORMATION
 VERS.                 2.0:   CWLS LOG ASCII STANDARD -VERSION 2.0
 WRAP.                  NO:   ONE LINE PER DEPTH STEP
~WELL INFORMATION BLOCK
#MNEM.UNIT           DATA                    DESCRIPTION OF MNEMONIC
#---------    -------------------            -------------------------------
# Generated from Intellog Unique Number	CS_73_76/WELL/3219
WELL.         BOW VALLEY INDUSTRIES          : Well_name    - WELL
LOC .         00/08-32-076-16W4/0            : Location     - LOCATION
UWI .         00/08-32-076-16W4/0            : Uwi          - UNIQUE WELL ID
ENTR.         SP                             : Entered      - ENTERED BY
SRVC.         SCHLUMBERGER                   : Scn          - SERVICE COMPANY
STRT.M        305                            : top_depth    - START DEPTH
STOP.M        555                            : bot_depth    - STOP DEPTH
STEP.M        0.25                           : increment    - STEP LENGTH
 NULL. -999.2500:NULL Value
~CURVE INFORMATION BLOCK
#MNEM UNIT       ERCB CURVE CODE    CURVE DESCRIPTION
#-----------   ------------------   ----------------------------------
DEPT.M        00 001 00 00         : DEPTH        - DEPTH
NPHI.V/V      00 330 00 00         : PHIN         - NEUTRON POROSITY (LIMESTONE)
DPHI.V/V      00 890 00 00         : PHID         - DENSITY POROSITY (LIMESTONE)
GR  .API      00 310 00 00         : GR           - GAMMA RAY
ILD .OHMM     00 120 00 00         : RESD         - DEEP RESISTIVITY (DIL)
~PARAMETER INFORMATION
#MNEM.UNIT           DATA             DESCRIPTION OF MNEMONIC
#---------         -----------     ------------------------------
GL  .M        680.5                : gl           - GROUND LEVEL ELEVATION
EREF.M        683.97               : kb           - ELEVATION OF DEPTH REFERENCE
DATM.M        680.5                : datum        - DATUM ELEVATION
TDD .M        642                  : tdd          - TOTAL DEPTH DRILLER
RUN .         ONE                  : Run          - RUN NUMBER
ENG .         BILL                 : Engineer     - RECORDING ENGINEER
WIT .         JIM                  : Witness      - WITNESSED BY
MUD .         GEL                  : Mud_type     - MUD TYPE
MATR.         LIMESTONE            : Logunit      - NEUTRON MATRIX
TMAX.C        17                   : BHT          - MAXIMUM RECORDED TEMPERATURE
BHTD.M        642                  : BHTDEP       - MAXIMUM RECORDED TEMPERATURE
MATR.         1                    : LOGUNIT      - NEUTRON MATRIX
RMT .C        25                   : MDTP         - TEMPERATURE OF MUD
NEUT.         1                    : NEUTRON      - NEUTRON TYPE
RESI.         0                    : RESIST       - RESISTIVITY TYPE
RMC .OHMM     0.25                 : RMC          - RESISTIVITY OF MUD CAKE
RMF .OHMM     0.25                 : RMF          - RESISTIVITY OF MUD FILTRATE
SUFT.C        15                   : SUFT         - SURFACE TEMPERATURE
~A  DEPTH     PHIN     PHID       GR     RESD
  305.000    0.451    0.232   89.256    2.493
  305.250    0.440    0.240   89.257    2.744
  305.500    0.442    0.243   92.977    2.852
  305.750    0.465    0.240   97.936    2.855
  306.000    0.460    0.225   94.218    2.967
  306.250    0.440    0.234   86.781    3.026
  306.500    0.446    0.260   81.823    3.087
  306.750    0.518    0.270   88.022    3.089
  307.000    0.487    0.247   91.122    3.033
  307.250    0.440    0.246   91.743    2.978
  307.500    0.438    0.252   88.644    2.924
  307.750    0.450    0.252   91.124    2.817
  308.000    0.465    0.243   92.985    2.714
  308.250    0.486    0.237   91.126    2.665
  308.500    0.496    0.234   88.648    2.667
  308.750    0.462    0.236   87.409    2.772
  309.000    0.463    0.246   86.790    2.937
  309.250    0.482    0.255   88.030    2.940
  309.500    0.487    0.247   89.270    2.941
  309.750    0.487    0.232   94.850    3.000
  310.000    0.493    0.236   94.231    3.002
  310.250    0.515    0.243   92.992    2.892
  310.500    0.547    0.250   91.133    2.840
  310.750    0.527    0.247   88.035    2.788
  311.000    0.484    0.242   89.895    2.738
  311.250    0.489    0.238   89.896    2.688
  311.500    0.473    0.242   89.277    2.640
  311.750    0.457    0.246   88.038    2.642
  312.000    0.453    0.250   86.179    2.643
  312.250    0.452    0.251   84.941    2.748
  312.500    0.442    0.245   84.941    3.024
  312.750    0.427    0.200   78.744    3.205
  313.000    0.405    0.174   70.067    3.663
  313.250    0.389    0.191   64.489    4.032
  313.500    0.396    0.240   65.730    4.523
  313.750    0.419    0.256   67.590    4.978
  314.000    0.426    0.268   75.649    5.078
  314.250    0.433    0.284   77.509    4.985
  314.500    0.437    0.312   78.130    5.182
  314.750    0.411    0.329   78.750    5.814
  315.000    0.368    0.307   78.751    6.399
  315.250    0.348    0.273   75.033    7.177
  315.500    0.328    0.281   71.314    8.525
  315.750    0.315    0.293   66.356    9.563
  316.000    0.325    0.276   65.118    9.753
  316.250    0.335    0.262   67.598    9.949
  316.500    0.358    0.253   70.078    9.768
  316.750    0.365    0.257   70.699    9.775
  317.000    0.371    0.267   70.079    9.598
  317.250    0.378    0.266   73.180    9.423
  317.500    0.383    0.265   75.660    8.907
  317.750    0.389    0.261   75.660    8.260
  318.000    0.391    0.258   75.041    7.517
  318.250    0.381    0.266   79.381    7.242
  318.500    0.366    0.281   83.721    7.247
  318.750    0.354    0.287   83.721    7.533
  319.000    0.350    0.312   70.086    8.291
  319.250    0.350    0.334   57.690   10.036
  319.500    0.353    0.340   51.492   11.257
  319.750    0.370    0.335   45.295   12.157
  320.000    0.407    0.320   45.296   12.165
  320.250    0.421    0.323   48.396   11.947
  320.500    0.417    0.324   47.777   11.508
  320.750    0.390    0.318   47.777   10.877
  321.000    0.375    0.313   50.877   10.282
  321.250    0.381    0.299   53.977    9.906
  321.500    0.396    0.287   57.078    9.914
  321.750    0.411    0.272   58.318    9.921
  322.000    0.401    0.260   57.699    9.927
  322.250    0.397    0.222   59.559    9.746
  322.500    0.395    0.207   62.659    9.213
  322.750    0.385    0.262   66.379    9.045
  323.000    0.375    0.283   70.099    9.227
  323.250    0.374    0.298   71.959    9.593
  323.500    0.373    0.314   68.861    9.782
  323.750    0.370    0.322   65.762    9.979
  324.000    0.386    0.320   65.143   10.178
  324.250    0.400    0.319   67.003    9.992
  324.500    0.397    0.319   74.442    9.999
  324.750    0.396    0.313   79.402    9.817
  325.000    0.399    0.303   86.840    9.640
  325.250    0.386    0.293   89.320    9.286
  325.500    0.375    0.286   91.801    9.119
  325.750    0.394    0.276   93.661    9.124
  326.000    0.425    0.281   91.183    9.134
  326.250    0.442    0.293   88.084    9.313
  326.500    0.435    0.305   84.986    9.684
  326.750    0.404    0.312   81.887   10.258
  327.000    0.360    0.310   75.690   11.955
  327.250    0.334    0.309   66.393   13.668
  327.500    0.292    0.324   55.237   15.331
  327.750    0.248    0.343   42.221   17.528
  328.000    0.223    0.366   34.784   21.625
  328.250    0.200    0.382   30.446   28.790
  328.500    0.165    0.392   27.967   32.917
  328.750    0.161    0.405   26.728   34.874
  329.000    0.176    0.390   25.489   34.246
  329.250    0.215    0.368   26.730   30.570
  329.500    0.263    0.349   28.590   17.956
  329.750    0.313    0.336   28.591   14.857
  330.000    0.344    0.339   26.113   13.263
  330.250    0.363    0.335   26.113   11.618
  330.500    0.359    0.327   29.213   10.372
  330.750    0.371    0.313   38.511    9.084
  331.000    0.395    0.288   63.926    8.266
  331.250    0.430    0.254   83.141    6.970
  331.500    0.450    0.225   96.159    5.767
  331.750    0.468    0.204   99.259    4.863
  332.000    0.494    0.184   98.020    4.259
  332.250    0.478    0.169   96.161    3.803
  332.500    0.452    0.168  100.501    3.594
  332.750    0.452    0.189  109.179    3.462
  333.000    0.459    0.205  112.899    3.273
  333.250    0.463    0.206  114.139    3.153
  333.500    0.440    0.196  114.140    3.038
  333.750    0.433    0.197  114.141    2.982
  334.000    0.464    0.195  112.282    2.820
  334.250    0.512    0.194  110.423    2.768
  334.500    0.563    0.197  111.664    2.718
  334.750    0.498    0.202  116.623    2.668
  335.000    0.505    0.212  116.624    2.827
  335.250    0.499    0.225  115.385    3.171
  335.500    0.440    0.237  116.006    3.558
  335.750    0.404    0.243  116.007    3.991
  336.000    0.405    0.254  111.669    4.563
  336.250    0.417    0.253   99.273    5.317
  336.500    0.430    0.247   94.315    6.685
  336.750    0.436    0.238   97.415    7.499
  337.000    0.443    0.233   99.895    7.365
  337.250    0.437    0.232   99.276    7.230
  337.500    0.415    0.236   99.277    6.966
  337.750    0.428    0.245   96.798    6.584
  338.000    0.446    0.245   92.460    6.223
  338.250    0.467    0.242   93.701    5.771
  338.500    0.448    0.247   95.561    5.560
  338.750    0.426    0.254   99.281    5.671
  339.000    0.412    0.264   95.562    6.123
  339.250    0.401    0.279   86.886    7.135
  339.500    0.389    0.273   81.308    8.314
  339.750    0.395    0.282   76.350    9.689
  340.000    0.401    0.297   74.491    9.882
  340.250    0.405    0.293   80.071    9.166
  340.500    0.411    0.284   87.510    8.341
  340.750    0.420    0.281   88.750    7.883
  341.000    0.428    0.284   90.610    7.450
  341.250    0.446    0.281   94.330    7.042
  341.500    0.458    0.273   98.050    6.914
  341.750    0.454    0.271  101.150    6.662
  342.000    0.427    0.262  104.870    6.666
  342.250    0.412    0.251  108.589    6.546
  342.500    0.433    0.247  109.830    6.550
  342.750    0.438    0.252  108.591    6.809
  343.000    0.420    0.264  104.873    7.214
  343.250    0.371    0.282  100.535    7.791
  343.500    0.356    0.304   83.180    8.575
  343.750    0.348    0.324   73.883    9.619
  344.000    0.343    0.345   62.727   10.586
  344.250    0.335    0.338   53.431   11.652
  344.500    0.330    0.326   49.712   12.113
  344.750    0.328    0.325   48.474   11.892
  345.000    0.330    0.329   50.954   11.457
  345.250    0.339    0.338   51.574   11.250
  345.500    0.412    0.344   50.335   11.048
  345.750    0.418    0.349   50.336   11.269
  346.000    0.423    0.355   50.957   11.492
  346.250    0.426    0.353   50.958   11.500
  346.500    0.407    0.349   50.958   11.730
  346.750    0.375    0.350   47.240   11.962
  347.000    0.401    0.353   44.142   11.745
  347.250    0.423    0.349   46.002   11.755
  347.500    0.437    0.344   50.342   11.548
  347.750    0.431    0.343   52.202   11.553
  348.000    0.451    0.341   54.062   11.339
  348.250    0.469    0.341   55.303   11.134
