~VERSION INFORMATION
 VERS.                 2.0:   CWLS LOG ASCII STANDARD -VERSION 2.0
 WRAP.                  NO:   ONE LINE PER DEPTH STEP
~WELL INFORMATION BLOCK
#MNEM.UNIT           DATA                    DESCRIPTION OF MNEMONIC
#---------    -------------------            -------------------------------
# Generated from Intellog Unique Number	CN_91_93/WELL/4153
WELL.         CDN-SUP LIEGE                  : Well_name    - WELL
LOC .         00/06-13-092-21W4/0            : Location     - LOCATION
UWI .         00/06-13-092-21W4/0            : Uwi          - UNIQUE WELL ID
ENTR.         TIM                            : Entered      - ENTERED BY
SRVC.         SCHLUMBERGER                   : Scn          - SERVICE COMPANY
DATE.         01/22/92                       : Date         - LOG DATE
STRT.M        50                             : top_depth    - START DEPTH
STOP.M        250                            : bot_depth    - STOP DEPTH
STEP.M        0.25                           : increment    - STEP LENGTH
 NULL. -999.2500:NULL Value
~CURVE INFORMATION BLOCK
#MNEM UNIT       ERCB CURVE CODE    CURVE DESCRIPTION
#-----------   ------------------   ----------------------------------
DEPT.M        00 001 00 00         : DEPTH        - DEPTH
GR  .API      00 310 00 00         : GR           - GAMMA RAY
NPHI.V/V      00 330 00 00         : PHIN         - NEUTRON POROSITY (SANDSTONE)
DPHI.V/V      00 890 00 00         : PHID         - DENSITY POROSITY (SANDSTONE)
ILD .OHMM     00 120 00 00         : RESD         - DEEP RESISTIVITY (DIL)
~PARAMETER INFORMATION
#MNEM.UNIT           DATA             DESCRIPTION OF MNEMONIC
#---------         -----------     ------------------------------
GL  .M        545.44               : gl           - GROUND LEVEL ELEVATION
EREF.M        549.3                : kb           - ELEVATION OF DEPTH REFERENCE
DATM.M        549.3                : datum        - DATUM ELEVATION
TDD .M        251                  : tdd          - TOTAL DEPTH DRILLER
RUN .         ONE                  : Run          - RUN NUMBER
ENG .         JO                   : Engineer     - RECORDING ENGINEER
WIT .         TIM                  : Witness      - WITNESSED BY
MUD .         GEL                  : Mud_type     - MUD TYPE
MATR.         SANDSTONE            : Logunit      - NEUTRON MATRIX
TMAX.C        20.5                 : BHT          - MAXIMUM RECORDED TEMPERATURE
BHTD.M        251                  : BHTDEP       - MAXIMUM RECORDED TEMPERATURE
RMT .C        18                   : MDTP         - TEMPERATURE OF MUD
MUDD.KG/M     1107                 : MWT          - MUD DENSITY
NEUT.         1                    : NEUTRON      - NEUTRON TYPE
RESI.         0                    : RESIST       - RESISTIVITY TYPE
RM  .OHMM     6.44                 : RM           - RESISTIVITY OF MUD
RMC .OHMM     6.5                  : RMC          - RESISTIVITY OF MUD CAKE
RMF .OHMM     6.35                 : RMF          - RESISTIVITY OF MUD FILTRATE
SUFT.C        4                    : SUFT         - SURFACE TEMPERATURE
~A  DEPTH       GR     PHIN     PHID     RESD
   50.000   63.713    0.356    0.216   24.820
   50.250   63.735    0.356    0.219   25.309
   50.500   63.138    0.357    0.224   26.324
   50.750   62.549    0.352    0.227   27.373
   51.000   62.576    0.342    0.219   26.878
   51.250   62.594    0.331    0.217   25.897
   51.500   62.001    0.326    0.217   24.475
   51.750   61.412    0.335    0.217   23.578
   52.000   60.833    0.342    0.217   22.708
   52.250   60.846    0.353    0.215   20.660
   52.500   60.864    0.359    0.214   19.522
   52.750   62.703    0.369    0.265   17.425
   53.000   65.143    0.395    0.287   15.847
   53.250   70.621    0.395    0.305   13.875
   53.500   78.527    0.453    0.315   12.148
   53.750   89.470    0.487    0.342   11.050
   54.000   88.886    0.521    0.363   10.250
   54.250   87.079    0.545    0.378   10.062
   54.500   84.064    0.528    0.383    9.878
   54.750   77.408    0.503    0.355   10.080
   55.000   68.326    0.485    0.347   10.684
   55.250   66.523    0.467    0.355   11.765
   55.500   72.609    0.448    0.366   13.717
   55.750   81.129    0.472    0.379   16.628
   56.000   82.352    0.521    0.391   16.638
   56.250   79.943    0.545    0.405   16.337
   56.500   66.007    0.558    0.449   15.741
   56.750   62.385    0.551    0.505   15.167
   57.000   69.077    0.531    0.475   14.886
   57.250   75.769    0.533    0.422   13.809
   57.500   78.218    0.536    0.397   13.299
   57.750   78.240    0.541    0.382   12.569
   58.000   79.472    0.538    0.375   11.881
   58.250   81.921    0.532    0.366   11.224
   58.500   83.751    0.531    0.354   10.608
   58.750   86.195    0.531    0.356   10.025
   59.000   86.218    0.534    0.370    9.475
   59.250   86.843    0.528    0.383    8.954
   59.500   88.074    0.525    0.387    8.466
   59.750   89.306    0.533    0.382    8.470
   60.000   90.537    0.543    0.379    8.159
   60.250   90.551    0.555    0.369    8.012
   60.500   89.967    0.562    0.363    8.018
   60.750   89.985    0.584    0.360    7.877
   61.000   90.003    0.617    0.366    7.882
   61.250   90.021    0.620    0.368    7.892
   61.500   88.830    0.597    0.366    7.897
   61.750   88.237    0.561    0.361    7.902
   62.000   88.255    0.527    0.353    8.219
   62.250   88.880    0.487    0.344    8.224
   62.500   90.111    0.471    0.330    8.552
   62.750   94.381    0.486    0.325    8.726
   63.000   98.034    0.493    0.330    8.734
   63.250   96.237    0.492    0.326    8.739
   63.500   93.824    0.528    0.318    8.748
   63.750   90.206    0.539    0.313    8.428
   64.000   87.793    0.515    0.307    7.965
   64.250   95.702    0.510    0.302    7.386
   64.500  100.574    0.514    0.296    7.113
   64.750   98.777    0.510    0.300    6.853
   65.000   96.368    0.503    0.303    6.859
   65.250   93.955    0.494    0.308    6.997
   65.500   89.119    0.483    0.316    8.160
   65.750   82.463    0.478    0.328    9.160
   66.000   71.561    0.468    0.366   10.684
   66.250   61.265    0.457    0.363   11.763
   66.500   53.396    0.447    0.333   13.458
   66.750   43.105    0.431    0.315   16.005
   67.000   38.264    0.395    0.349   17.621
   67.250   33.429    0.377    0.380   20.554
   67.500   29.807    0.382    0.345   23.066
   67.750   26.189    0.391    0.359   26.391
   68.000   24.387    0.408    0.380   30.777
   68.250   23.794    0.395    0.292   31.397
   68.500   22.599    0.352    0.297   32.044
   68.750   22.010    0.357    0.321   32.684
   69.000   21.421    0.375    0.320   33.986
   69.250   20.833    0.350    0.301   36.022
   69.500   20.860    0.311    0.279   40.451
   69.750   20.262    0.315    0.268   41.249
   70.000   20.289    0.318    0.269   42.090
   70.250   19.696    0.310    0.274   42.126
   70.500   19.709    0.303    0.283   41.364
   70.750   19.732    0.300    0.295   40.616
   71.000   19.746    0.309    0.298   39.126
   71.250   19.764    0.321    0.304   37.699
   71.500   19.786    0.342    0.306   37.001
   71.750   20.411    0.359    0.306   34.969
   72.000   20.434    0.372    0.311   33.063
   72.250   21.054    0.388    0.318   33.077
   72.500   22.290    0.378    0.318   32.479
   72.750   22.910    0.388    0.307   35.782
   73.000   23.535    0.427    0.295   37.917
   73.250   24.771    0.462    0.291   37.239
   73.500   26.002    0.475    0.316   35.873
   73.750   27.841    0.483    0.305   34.558
   74.000   30.285    0.496    0.315   33.283
   74.250   32.119    0.543    0.334   32.062
   74.500   38.815    0.574    0.358   30.308
   74.750   43.080    0.560    0.405   29.196
   75.000   44.923    0.528    0.463   28.662
   75.250   43.117    0.505    0.500   28.143
   75.500   34.034    0.487    0.457   27.640
   75.750   29.198    0.437    0.421   26.128
   76.000   29.221    0.407    0.376   26.139
   76.250   30.462    0.401    0.369   28.246
   76.500   31.077    0.412    0.360   29.365
   76.750   32.304    0.423    0.337   31.138
   77.000   35.967    0.447    0.359   28.865
   77.250   33.554    0.442    0.359   25.277
   77.500   30.543    0.431    0.339   23.884
   77.750   34.197    0.408    0.325   23.905
   78.000   39.679    0.379    0.326   23.472
   78.250   47.585    0.355    0.329   22.611
   78.500   53.063    0.355    0.313   20.970
   78.750   57.333    0.390    0.294   20.201
   79.000   59.773    0.422    0.279   19.459
   79.250   61.611    0.445    0.266   18.391
   79.500   62.843    0.425    0.254   17.716
   79.750   64.074    0.418    0.248   16.747
   80.000   66.519    0.468    0.259   16.126
   80.250   72.613    0.495    0.272   15.240
   80.500   73.845    0.482    0.279   14.134
   80.750   71.436    0.450    0.283   13.108
   81.000   69.629    0.445    0.284   12.624
   81.250   67.827    0.460    0.289   11.928
   81.500   66.025    0.481    0.300   11.065
   81.750   64.228    0.509    0.314   10.862
   82.000   64.246    0.532    0.326   10.869
   82.250   64.871    0.532    0.340   10.677
   82.500   66.102    0.507    0.320   10.684
   82.750   67.936    0.504    0.290   10.101
   83.000   66.740    0.504    0.283    9.729
   83.250   61.905    0.499    0.291    9.372
   83.500   54.036    0.472    0.295    9.028
   83.750   44.346    0.460    0.301    9.036
   84.000   38.297    0.439    0.300    9.575
   84.250   31.035    0.393    0.201   26.390
   84.500   23.773    0.316    0.132   41.002
   84.750   21.971    0.271    0.139   51.615
   85.000   26.236    0.284    0.188   54.708
   85.250   29.894    0.316    0.283   48.833
   85.500   34.770    0.389    0.308   45.268
   85.750   36.002    0.414    0.349   41.178
   86.000   35.418    0.405    0.348   35.370
   86.250   39.071    0.409    0.329   31.565
   86.500   45.763    0.456    0.323   28.169
   86.750   41.534    0.470    0.299   25.149
   87.000   37.310    0.461    0.333   23.763
   87.250   37.324    0.459    0.360   22.463
   87.500   35.526    0.407    0.309   22.047
   87.750   31.297    0.389    0.313   22.076
   88.000   30.704    0.391    0.338   22.511
   88.250   36.794    0.393    0.335   24.326
   88.500   38.627    0.371    0.326   26.799
   88.750   30.758    0.361    0.321   28.399
   89.000   23.496    0.361    0.315   30.094
   89.250   22.912    0.357    0.314   33.147
   89.500   23.532    0.354    0.311   36.510
   89.750   24.161    0.354    0.311   37.949
   90.000   24.791    0.355    0.311   41.790
   90.250   24.809    0.356    0.313   44.294
   90.500   24.827    0.351    0.314   47.864
   90.750   26.665    0.349    0.314   48.829
   91.000   28.503    0.353    0.309   50.797
   91.250   30.337    0.367    0.295   51.810
   91.500   30.966    0.392    0.289   51.865
   91.750   30.984    0.394    0.303   51.899
   92.000   31.604    0.392    0.317   51.954
   92.250   32.836    0.412    0.337   51.987
   92.500   34.674    0.498    0.367   51.036
   92.750   40.161    0.512    0.418   49.185
   93.000   41.995    0.501    0.415   48.275
   93.250   37.159    0.457    0.369   45.624
