~VERSION INFORMATION
 VERS.                 2.0:   CWLS LOG ASCII STANDARD -VERSION 2.0
 WRAP.                  NO:   ONE LINE PER DEPTH STEP
~WELL INFORMATION BLOCK
#MNEM.UNIT           DATA                    DESCRIPTION OF MNEMONIC
#---------    -------------------            -------------------------------
# Generated from Intellog Unique Number	CS_77_79/WELL/3271
WELL.         ALLIED ROXANA MINERALS LTD.    : Well_name    - WELL
LOC .         00/05-33-079-17W4/0            : Location     - LOCATION
UWI .         00/05-33-079-17W4/0            : Uwi          - UNIQUE WELL ID
ENTR.         JOETTE                         : Entered      - ENTERED BY
SRVC.         SCHLUMBERGER                   : Scn          - SERVICE COMPANY
DATE.         08/24/92                       : Date         - LOG DATE
STRT.M        198.12                         : top_depth    - START DEPTH
STOP.M        411.37                         : bot_depth    - STOP DEPTH
STEP.M        0.25                           : increment    - STEP LENGTH
 NULL. -999.2500:NULL Value
~CURVE INFORMATION BLOCK
#MNEM UNIT       ERCB CURVE CODE    CURVE DESCRIPTION
#-----------   ------------------   ----------------------------------
DEPT.M        00 001 00 00         : DEPTH        - DEPTH
ILD .OHMM     00 120 00 00         : RESD         - DEEP RESISTIVITY (DLL)
NPHI.V/V      00 330 00 00         : PHIN         - NEUTRON POROSITY (SANDSTONE)
GR  .API      00 310 00 00         : GR           - GAMMA RAY
~PARAMETER INFORMATION
#MNEM.UNIT           DATA             DESCRIPTION OF MNEMONIC
#---------         -----------     ------------------------------
GL  .M        554.736              : gl           - GROUND LEVEL ELEVATION
EREF.M        557.784              : kb           - ELEVATION OF DEPTH REFERENCE
DATM.M        557.784              : datum        - DATUM ELEVATION
TDD .M        410.87               : tdd          - TOTAL DEPTH DRILLER
RUN .         ONE                  : Run          - RUN NUMBER
ENG .         BILL                 : Engineer     - RECORDING ENGINEER
WIT .         JIM                  : Witness      - WITNESSED BY
MUD .         GEL                  : Mud_type     - MUD TYPE
MATR.         SANDSTONE            : Logunit      - NEUTRON MATRIX
TMAX.C        5                    : BHT          - MAXIMUM RECORDED TEMPERATURE
BHTD.M        74                   : BHTDEP       - MAXIMUM RECORDED TEMPERATURE
RMT .C        1348                 : MDTP         - TEMPERATURE OF MUD
MUDD.KG/M     58                   : MWT          - MUD DENSITY
NEUT.         9.8                  : NEUTRON      - NEUTRON TYPE
RESI.         1                    : RESIST       - RESISTIVITY TYPE
RM  .OHMM     0                    : RM           - RESISTIVITY OF MUD
RMC .OHMM     4.22                 : RMC          - RESISTIVITY OF MUD CAKE
RMF .OHMM     4.22                 : RMF          - RESISTIVITY OF MUD FILTRATE
SUFT.C        4.22                 : SUFT         - SURFACE TEMPERATURE
SUFT.C        15                   : SUFT         - SURFACE TEMPERATURE
~A  DEPTH     RESD     PHIN       GR
# ...
  306.620    5.316    0.501   79.145
  306.870    5.307    0.485   86.138
  307.120    5.493    0.491   96.057
  307.370    5.677    0.515   92.506
  307.620    5.867    0.520   87.800
  307.870    6.044    0.503   76.641
  308.120    6.237    0.452   71.342
  308.370    6.421    0.380   66.629
  308.620    6.611    0.307   62.501
  308.870    6.993    0.337   57.194
  309.120    7.376    0.398   60.675
  309.370    7.565    0.420   65.326
  309.620    7.755    0.348   67.628
  309.870    8.137    0.313   66.427
  310.120    9.116    0.279   64.640
  310.370   10.698    0.278   62.267
  310.620   13.472    0.284   62.244
  310.870   12.662    0.295   60.442
  311.120   10.463    0.328   59.825
  311.370    8.860    0.403   60.380
  311.620    7.457    0.454   61.519
  311.870    6.447    0.512   62.081
  312.120    6.032    0.520   63.798
  312.370    5.824    0.514   64.938
  312.620    5.815    0.519   65.492
  312.870    5.803    0.510   65.469
  313.120    5.788    0.506   66.007
  313.370    5.971    0.519   67.732
  313.620    6.155    0.521   67.701
  313.870    6.149    0.509   65.329
  314.120    6.531    0.507   65.305
  314.370    6.914    0.473   65.860
  314.620    7.305    0.378   64.065
  314.870    8.486    0.278   61.693
  315.120   10.661    0.225   57.565
  315.370   13.432    0.171   54.022
  315.620   16.601    0.170   49.308
  315.870   19.173    0.193   47.521
  316.120   19.757    0.220   51.572
  316.370   18.552    0.263   55.060
  316.620   16.950    0.297   60.297
  316.870   12.164    0.354   61.437
  317.120   11.155    0.400   60.227
  317.370    9.552    0.439   58.440
  317.620    8.347    0.490   58.994
  317.870    7.540    0.500   59.549
  318.120    6.931    0.513   60.680
  318.370    6.519    0.516   61.250
  318.620    6.305    0.504   64.130
  318.870    6.296    0.506   67.025
  319.120    6.287    0.520   69.929
  319.370    6.272    0.514   69.890
  319.620    6.260    0.522   68.688
  319.870    6.046    0.534   68.079
  320.120    6.031    0.544   67.455
  320.370    6.024    0.552   68.010
  320.620    6.009    0.546   68.564
  320.870    5.994    0.536   69.703
  321.120    5.982    0.513   70.835
  321.370    5.970    0.512   71.982
  321.620    5.759    0.517   74.862
  321.870    5.747    0.519   76.010
  322.120    5.536    0.510   77.157
  322.370    5.524    0.506   77.711
  322.620    5.316    0.488   77.087
  322.870    5.099    0.496   77.056
  323.120    4.693    0.498   78.195
  323.370    4.078    0.490   80.498
  323.620    3.867    0.509   80.467
  323.870    3.858    0.541   81.614
  324.120    3.846    0.560   83.924
  324.370    4.033    0.519   87.983
  324.620    4.614    0.516   92.056
  324.870    5.199    0.510   92.603
  325.120    6.174    0.500   87.889
  325.370    6.566    0.463   89.021
  325.620    6.954    0.447   91.331
  325.870    7.340    0.467   91.300
  326.120    7.725    0.471   89.521
  326.370    8.111    0.455   84.222
  326.620    8.298    0.449   77.745
  326.870    8.481    0.468   78.877
  327.120    8.668    0.489   79.431
  327.370    8.656    0.473   78.237
  327.620    8.644    0.467   75.857
  327.870    8.632    0.469   75.241
  328.120    8.816    0.460   77.559
  328.370    8.800    0.451   81.617
  328.620    8.993    0.451   82.179
  328.870    9.177    0.459   80.962
  329.120    9.165    0.456   77.419
  329.370    9.349    0.436   73.876
  329.620    9.339    0.477   73.252
  329.870    9.523    0.447   74.992
  330.120    9.514    0.449   79.058
  330.370    9.499    0.468   80.182
  330.620    9.490    0.434   78.973
  330.870    9.475    0.429   78.950
  331.120    9.662    0.432   78.333
  331.370   10.243    0.432   80.066
  331.620   10.631    0.436   82.360
  331.870   11.011    0.424   81.760
  332.120   11.002    0.399   79.973
  332.370   10.993    0.393   78.186
  332.620   10.384    0.407   80.480
  332.870    9.574    0.424   85.139
  333.120    8.360    0.450   90.376
  333.370    7.953    0.461   96.198
  333.620    7.348    0.484   96.752
  333.870    6.742    0.518   94.364
  334.120    5.932    0.535   93.178
  334.370    4.920    0.519   89.627
  334.620    4.513    0.527   86.678
  334.870    4.107    0.521   81.957
  335.120    3.495    0.561   77.235
  335.370    3.086    0.577   74.285
  335.620    3.073    0.598   70.735
  335.870    3.257    0.597   67.770
  336.120    3.248    0.587   65.405
  336.370    3.634    0.564   62.440
  336.620    5.013    0.548   58.889
  336.870    6.591    0.518   57.118
  337.120    8.368    0.484   55.331
  337.370   10.344    0.486   55.284
  337.620   11.522    0.499   56.431
  337.870   11.112    0.499   59.319
  338.120    9.513    0.460   61.052
  338.370    7.510    0.477   64.525
  338.620    6.302    0.502   68.598
  338.870    5.696    0.532   74.420
  339.120    4.886    0.560   78.486
  339.370    4.678    0.576   82.545
  339.620    4.464    0.555   83.692
  339.870    4.254    0.548   82.490
  340.120    4.241    0.541   80.110
  340.370    4.425    0.524   78.909
  340.620    4.413    0.519   79.463
  340.870    4.603    0.526   79.432
  341.120    4.985    0.543   78.815
  341.370    4.970    0.576   82.296
  341.620    5.157    0.528   80.509
  341.870    4.744    0.471   79.300
  342.120    4.341    0.502   83.951
  342.370    4.124    0.526   89.781
  342.620    4.115    0.517   96.188
  342.870    4.106    0.532  100.238
  343.120    4.093    0.558   98.451
  343.370    4.476    0.566   97.250
  343.620    4.864    0.505   95.471
  343.870    5.642    0.496   93.091
  344.120    6.030    0.485   92.482
  344.370    6.214    0.464   89.509
  344.620    6.404    0.435   88.315
  344.870    6.391    0.394   87.113
  345.120    6.379    0.413   84.741
  345.370    6.566    0.445   81.183
  345.620    6.554    0.447   78.818
  345.870    6.741    0.430   74.682
  346.120    6.924    0.439   71.147
  346.370    7.111    0.405   68.190
  346.620    7.494    0.390   67.573
  346.870    8.078    0.397   68.705
  347.120    8.268    0.415   68.682
  347.370    8.054    0.392   71.569
  347.620    7.840    0.393   80.326
  347.870    7.831    0.470   91.415
  348.120    8.614    0.492   94.896
  348.370   10.189    0.468   89.004
  348.620   11.174    0.385   76.097
  348.870   11.758    0.390   70.798
  349.120   11.547    0.391   73.693
  349.370   10.936    0.389   85.368
  349.620   10.924    0.400   88.263
  349.870   11.508    0.419   87.054
  350.120   12.096    0.417   86.430
  350.370   13.075    0.412   86.391
  350.620   13.463    0.415   86.953
  350.870   13.641    0.404   88.100
  351.120   13.635    0.393   90.988
  351.370   13.620    0.388   92.127
  351.620   13.207    0.382   90.926
  351.870   12.800    0.390   88.554
  352.120   12.195    0.403   89.108
  352.370   10.984    0.436   93.166
  352.620   10.577    0.469   96.061
  352.870    9.966    0.457   98.372
  353.120    9.957    0.491   98.926
  353.370   10.140    0.463   98.887
  353.620   10.725    0.429   98.286
  353.870   11.113    0.415   95.906
  354.120   12.092    0.416   95.282
  354.370   13.074    0.410   95.243
  354.620   14.258    0.398   94.635
  354.870   15.634    0.411   91.677
  355.120   16.815    0.399   87.557
  355.370   16.998    0.396   76.983
  355.620   16.387    0.391   69.343
  355.870   16.779    0.392   63.451
  356.120   18.155    0.413   64.013
  356.370   19.140    0.468   67.493
  356.620   20.321    0.556   73.315
  356.870   21.501    0.534   72.106
  357.120   22.679    0.462   67.978
  357.370   22.471    0.433   62.094
  357.620   21.863    0.411   56.202
  357.870   21.646    0.379   59.691
  358.120   22.628    0.375   67.268
  358.370   23.613    0.387   69.578
  358.620   24.992    0.477   66.028
  358.870   26.570    0.420   58.973
  359.120   28.149    0.397   51.919
  359.370   26.546    0.403   51.888
  359.620   24.944    0.387   58.295
  359.870   23.140    0.387   63.523
  360.120   21.140    0.409   63.492
  360.370   21.127    0.396   62.876
  360.620   23.501    0.390   65.772
