~VERSION INFORMATION
 VERS.                 2.0:   CWLS LOG ASCII STANDARD -VERSION 2.0
 WRAP.                  NO:   ONE LINE PER DEPTH STEP
~WELL INFORMATION BLOCK
#MNEM.UNIT           DATA                    DESCRIPTION OF MNEMONIC
#---------    -------------------            -------------------------------
# Generated from Intellog Unique Number	CS_67_68/WELL/2187
WELL.         08-29-067-07W4                 : Well_name    - WELL
LOC .         00/08-29-067-07W4/0            : Location     - LOCATION
UWI .         00/08-29-067-07W4/0            : Uwi          - UNIQUE WELL ID
ENTR.         SP                             : Entered      - ENTERED BY
SRVC.         SCHLUMBERGER                   : Scn          - SERVICE COMPANY
STRT.M        365                            : top_depth    - START DEPTH
STOP.M        595                            : bot_depth    - STOP DEPTH
STEP.M        0.25                           : increment    - STEP LENGTH
 NULL. -999.2500:NULL Value
~CURVE INFORMATION BLOCK
#MNEM UNIT       ERCB CURVE CODE    CURVE DESCRIPTION
#-----------   ------------------   ----------------------------------
DEPT.M        00 001 00 00         : DEPTH        - DEPTH
ILD .OHMM     00 120 00 00         : RESD         - DEEP RESISTIVITY (DIL)
DPHI.V/V      00 890 00 00         : PHID         - DENSITY POROSITY (LIMESTONE)
NPHI.V/V      00 330 00 00         : PHIN         - NEUTRON POROSITY (LIMESTONE)
GR  .API      00 310 00 00         : GR           - GAMMA RAY
CALI.MM       00 280 01 00         : CAL          - CALIPER
~PARAMETER INFORMATION
#MNEM.UNIT           DATA             DESCRIPTION OF MNEMONIC
#---------         -----------     ------------------------------
GL  .M        686.24               : gl           - GROUND LEVEL ELEVATION
EREF.M        690.14               : kb           - ELEVATION OF DEPTH REFERENCE
DATM.M        690.14               : datum        - DATUM ELEVATION
TDD .M        612                  : tdd          - TOTAL DEPTH DRILLER
RUN .         ONE                  : Run          - RUN NUMBER
ENG .         BILL                 : Engineer     - RECORDING ENGINEER
WIT .         JIM                  : Witness      - WITNESSED BY
MUD .         GEL                  : Mud_type     - MUD TYPE
MATR.         LIMESTONE            : Logunit      - NEUTRON MATRIX
TMAX.C        25                   : BHT          - MAXIMUM RECORDED TEMPERATURE
BHTD.M        612                  : BHTDEP       - MAXIMUM RECORDED TEMPERATURE
MATR.         1                    : LOGUNIT      - NEUTRON MATRIX
RMT .C        25                   : MDTP         - TEMPERATURE OF MUD
NEUT.         1                    : NEUTRON      - NEUTRON TYPE
RESI.         0                    : RESIST       - RESISTIVITY TYPE
RMC .OHMM     0.25                 : RMC          - RESISTIVITY OF MUD CAKE
RMF .OHMM     0.25                 : RMF          - RESISTIVITY OF MUD FILTRATE
SUFT.C        15                   : SUFT         - SURFACE TEMPERATURE
~A  DEPTH     RESD     PHID     PHIN       GR      CAL
  365.000    3.243    0.232    0.490  118.108  182.376
  365.250    3.188    0.241    0.523  126.712  183.534
  365.500    3.110    0.235    0.550  133.770  184.478
  365.750    2.900    0.235    0.562  131.498  185.116
  366.000    2.750    0.236    0.544  130.272  185.444
  366.250    2.693    0.238    0.519  129.543  185.981
  366.500    2.860    0.236    0.494  124.115  186.208
  366.750    2.993    0.232    0.477  117.514  186.333
  367.000    3.044    0.229    0.480  113.140  186.454
  367.250    3.090    0.223    0.520  119.455  186.989
  367.500    3.066    0.217    0.548  123.423  188.554
  367.750    3.026    0.213    0.540  124.547  190.121
  368.000    2.997    0.226    0.514  126.848  190.656
  368.250    2.996    0.232    0.512  130.814  190.574
  368.500    3.088    0.229    0.494  134.165  189.254
  368.750    3.219    0.224    0.484  130.592  185.568
  369.000    3.305    0.221    0.474  125.971  182.292
  369.250    3.280    0.218    0.458  123.755  180.665
  369.500    3.104    0.215    0.441  130.010  180.071
  369.750    2.994    0.219    0.458  129.466  180.088
  370.000    2.966    0.231    0.462  143.509  180.003
  370.250    3.091    0.229    0.449  145.374  179.613
  370.500    3.027    0.227    0.460  129.998  179.324
  370.750    2.931    0.231    0.479  115.795  178.418
  371.000    2.827    0.233    0.491  109.195  178.025
  371.250    3.102    0.229    0.490  113.965  177.533
  371.500    3.320    0.227    0.484  118.985  175.491
  371.750    3.567    0.228    0.472  122.148  170.053
  372.000    4.071    0.273    0.455  119.812  164.922
  372.250    4.458    0.281    0.426  107.279  162.578
  372.500    4.826    0.273    0.409  102.592  162.081
  372.750    4.945    0.264    0.404  104.088  162.513
  373.000    4.797    0.278    0.404   96.746  162.946
  373.250    4.524    0.299    0.401   78.093  162.758
  373.500    4.347    0.320    0.383   51.098  163.605
  373.750    4.289    0.320    0.368   42.766  164.449
  374.000    4.313    0.317    0.364   40.183  164.879
  374.250    4.387    0.322    0.363   44.830  164.591
  374.500    4.521    0.328    0.361   51.703  164.200
  374.750    4.712    0.323    0.370   54.744  164.530
  375.000    4.802    0.309    0.373   54.880  164.343
  375.250    4.893    0.300    0.369   56.808  164.056
  375.500    4.948    0.289    0.375   62.444  163.974
  375.750    4.976    0.294    0.383   72.036  164.716
  376.000    4.947    0.300    0.387   80.762  165.563
  376.250    5.128    0.290    0.378   88.500  165.991
  376.500    5.530    0.292    0.371   96.361  166.218
  376.750    5.908    0.264    0.377  101.071  166.238
  377.000    6.240    0.234    0.388  103.740  166.361
  377.250    6.591    0.211    0.393  110.181  166.588
  377.500    6.780    0.206    0.395  115.879  166.816
  377.750    6.896    0.205    0.397  122.690  167.043
  378.000    6.856    0.207    0.404  126.163  166.959
  378.250    6.613    0.232    0.418  126.733  166.877
  378.500    6.525    0.259    0.417  121.552  166.590
  378.750    6.427    0.268    0.413  117.918  166.197
  379.000    6.306    0.271    0.427  118.919  166.422
  379.250    6.117    0.276    0.437  116.522  166.957
  379.500    5.956    0.268    0.425  115.235  167.597
  379.750    5.855    0.254    0.404  115.927  168.443
  380.000    5.877    0.239    0.374  110.007  169.593
  380.250    6.149    0.214    0.362  105.817  170.850
  380.500    6.325    0.203    0.386  107.807  171.489
  380.750    6.089    0.212    0.407  109.117  171.922
  381.000    5.830    0.197    0.405  108.263  172.664
  381.250    5.570    0.180    0.418  111.491  173.199
  381.500    5.517    0.171    0.424  116.013  173.220
  381.750    5.579    0.181    0.423  117.756  171.386
  382.000    5.653    0.198    0.418  113.072  169.038
  382.250    5.706    0.226    0.412  109.624  167.924
  382.500    5.749    0.246    0.398  112.045  169.697
  382.750    5.759    0.286    0.599  118.918  171.982
  383.000    5.791    0.479    0.564  118.683  175.197
  383.250    5.824    0.335    0.521   96.878  178.101
  383.500    5.779    0.275    0.485  110.736  180.593
  383.750    5.595    0.249    0.454  116.990  177.525
  384.000    5.326    0.236    0.435  110.825  172.496
  384.250    5.080    0.240    0.427  107.991  168.501
  384.500    4.890    0.238    0.421  113.998  168.108
  384.750    4.807    0.232    0.424  119.943  168.335
  385.000    4.734    0.231    0.428  119.461  166.501
  385.250    4.716    0.236    0.425  115.765  164.873
  385.500    4.689    0.242    0.419  112.873  165.101
  385.750    4.653    0.262    0.444  108.621  165.328
  386.000    4.652    0.282    0.463   88.175  165.141
  386.250    4.687    0.292    0.416   67.236  165.062
  386.500    4.704    0.311    0.391   58.535  164.872
  386.750    4.695    0.315    0.390   57.125  164.277
  387.000    4.721    0.315    0.392   57.137  164.605
  387.250    4.738    0.314    0.382   56.594  164.935
  387.500    4.756    0.309    0.378   57.163  165.469
  387.750    4.792    0.292    0.373   61.193  165.490
  388.000    4.800    0.301    0.367   63.119  165.305
  388.250    4.736    0.335    0.363   59.609  164.811
  388.500    4.630    0.342    0.383   54.553  164.006
  388.750    4.508    0.344    0.401   59.695  163.615
  389.000    4.340    0.346    0.389   58.101  164.356
  389.250    4.218    0.336    0.392   54.528  164.999
  389.500    4.061    0.330    0.393   50.832  165.121
  389.750    3.992    0.334    0.377   55.172  165.140
  390.000    3.909    0.335    0.366   59.694  164.954
  390.250    3.836    0.339    0.392   68.978  164.255
  390.500    3.785    0.342    0.420   73.687  164.171
  390.750    3.742    0.334    0.421   76.604  163.881
  391.000    3.748    0.334    0.415   73.403  163.593
  391.250    3.820    0.341    0.416   68.719  163.099
  391.500    3.944    0.340    0.402   66.196  163.122
  391.750    4.065    0.335    0.394   63.737  164.070
  392.000    4.087    0.337    0.401   66.406  165.118
  392.250    4.110    0.333    0.408   73.897  165.858
  392.500    4.172    0.320    0.408   81.819  166.189
  392.750    4.292    0.306    0.409   92.957  166.623
  393.000    4.415    0.294    0.417  105.948  167.262
  393.250    4.516    0.286    0.426  115.231  167.386
  393.500    4.636    0.284    0.405  114.688  166.788
  393.750    4.787    0.282    0.385  107.346  166.086
  394.000    4.943    0.272    0.386  102.601  165.594
  394.250    5.018    0.268    0.390  100.447  165.612
  394.500    5.055    0.286    0.394   94.711  165.631
  394.750    4.998    0.294    0.405   93.425  165.238
  395.000    4.913    0.294    0.412   97.518  164.643
  395.250    4.884    0.291    0.417   97.840  163.736
  395.500    4.921    0.294    0.416   97.047  163.240
  395.750    4.986    0.296    0.412   92.239  163.777
  396.000    5.138    0.295    0.439   92.251  165.340
  396.250    5.286    0.303    0.466   91.584  167.011
  396.500    5.386    0.293    0.437   87.147  168.060
  396.750    5.509    0.265    0.421   84.068  169.112
  397.000    5.656    0.251    0.424   85.316  169.646
  397.250    5.764    0.265    0.442   89.903  170.285
  397.500    5.862    0.286    0.439   91.521  169.584
  397.750    6.030    0.297    0.409   88.691  168.679
  398.000    6.133    0.296    0.414   87.466  168.390
  398.250    6.144    0.292    0.423   85.934  167.379
  398.500    6.143    0.291    0.413   83.412  166.783
  398.750    6.142    0.293    0.407   82.065  166.288
  399.000    6.141    0.291    0.437   82.880  166.101
  399.250    6.164    0.287    0.456   83.325  166.121
  399.500    6.140    0.286    0.427   82.163  166.763
  399.750    6.128    0.293    0.404   82.485  167.299
  400.000    6.174    0.287    0.427   86.391  168.247
  400.250    6.435    0.242    0.285   90.049  168.780
  400.500    7.262    0.169    0.192   85.180  169.418
  400.750    8.941    0.041    0.165   78.331  170.159
  401.000   11.650    0.009    0.147   73.152  170.595
  401.250   15.916    0.000    0.134   67.603  171.128
