~VERSION INFORMATION
 VERS.                 2.0:   CWLS LOG ASCII STANDARD -VERSION 2.0
 WRAP.                  NO:   ONE LINE PER DEPTH STEP
~WELL INFORMATION BLOCK
#MNEM.UNIT           DATA                    DESCRIPTION OF MNEMONIC
#---------    -------------------            -------------------------------
# Generated from Intellog Unique Number	CW_82_90/WELL/591
WELL.         07-11-082-20W4                 : Well_name    - WELL
LOC .         00/07-11-082-20W4/0            : Location     - LOCATION
UWI .         00/07-11-082-20W4/0            : Uwi          - UNIQUE WELL ID
ENTR.         JAYE                           : Entered      - ENTERED BY
SRVC.         SCHLUMBERGER                   : Scn          - SERVICE COMPANY
DATE.         07 FEB 77                      : Date         - LOG DATE
STRT.M        182.88                         : top_depth    - START DEPTH
STOP.M        373.13                         : bot_depth    - STOP DEPTH
STEP.M        0.25                           : increment    - STEP LENGTH
 NULL. -999.2500:NULL Value
~CURVE INFORMATION BLOCK
#MNEM UNIT       ERCB CURVE CODE    CURVE DESCRIPTION
#-----------   ------------------   ----------------------------------
DEPT.M        00 001 00 00         : DEPTH        - DEPTH
CALI.MM       00 280 01 00         : CAL          - CALIPER
GR  .API      00 310 00 00         : GR           - GAMMA RAY
NPHI.V/V      00 330 00 00         : PHIN         - NEUTRON POROSITY (SANDSTONE)
DPHI.V/V      00 890 00 00         : PHID         - DENSITY POROSITY (SANDSTONE)
ILD .OHMM     00 120 00 00         : RESD         - DEEP RESISTIVITY (DIL)
~PARAMETER INFORMATION
#MNEM.UNIT           DATA             DESCRIPTION OF MNEMONIC
#---------         -----------     ------------------------------
GL  .M        572.719              : gl           - GROUND LEVEL ELEVATION
EREF.M        581.863              : kb           - ELEVATION OF DEPTH REFERENCE
DATM.M        572.719              : datum        - DATUM ELEVATION
TDD .M        384.048              : tdd          - TOTAL DEPTH DRILLER
RUN .         ONE                  : Run          - RUN NUMBER
ENG .         CERANTOIA            : Engineer     - RECORDING ENGINEER
WIT .         GRAHAM               : Witness      - WITNESSED BY
BASE.         EDMONTON             : Branch       - HOME BASE OF LOGGING UNIT
MUD .         GEL CHEM             : Mud_type     - MUD TYPE
MATR.         SANDSTONE            : Logunit      - NEUTRON MATRIX
TMAX.C        24.4444              : BHT          - MAXIMUM RECORDED TEMPERATURE
BHTD.M        375.514              : BHTDEP       - MAXIMUM RECORDED TEMPERATURE
RMT .C        24.4444              : MDTP         - TEMPERATURE OF MUD
MUDD.KG/M     0                    : MWT          - MUD DENSITY
NEUT.         1                    : NEUTRON      - NEUTRON TYPE
RESI.         0                    : RESIST       - RESISTIVITY TYPE
RM  .OHMM     5                    : RM           - RESISTIVITY OF MUD
RMC .OHMM     5                    : RMC          - RESISTIVITY OF MUD CAKE
RMF .OHMM     5                    : RMF          - RESISTIVITY OF MUD FILTRATE
SUFT.C        4                    : SUFT         - SURFACE TEMPERATURE
~A  DEPTH      CAL       GR     PHIN     PHID     RESD
  182.880  184.467  126.991    0.605    0.274    2.293
  183.130  183.714  125.788    0.599    0.268    2.304
  183.380  178.201  128.172    0.592    0.264    2.362
  183.630  169.791   92.436    0.560    0.277    2.408
  183.880  161.607  100.121    0.550    0.257    2.454
  184.130  170.843  100.223    0.565    0.267    2.484
  184.380  168.926   97.302    0.581    0.311    2.532
  184.630  174.672   97.053    0.598    0.315    2.544
  184.880  174.038  101.294    0.604    0.284    2.565
  185.130  187.571  102.015    0.585    0.278    2.596
  185.380  192.043  100.328    0.595    0.295    2.609
  185.630  186.415   95.470    0.600    0.299    2.626
  185.880  178.580   91.028    0.594    0.307    2.658
  186.130  178.753   86.995    0.580    0.319    2.709
  186.380  170.116   85.307    0.568    0.323    2.777
  186.630  171.792   86.100    0.558    0.312    2.878
  186.880  171.162   81.312    0.566    0.329    3.010
  187.130  175.395   74.046    0.552    0.333    3.188
  187.380  182.306   69.739    0.472    0.351    3.495
  187.630  172.846   69.155    0.440    0.255    3.819
  187.880  144.932   72.910    0.459    0.272    4.172
  188.130  145.692   75.292    0.469    0.271    4.435
  188.380  151.227   73.597    0.461    0.274    4.588
  188.630  155.917   72.463    0.464    0.270    4.575
  188.880  159.004   71.255    0.478    0.288    4.665
  189.130  159.875   73.149    0.484    0.304    5.032
  189.380  160.852   76.148    0.474    0.319    5.407
  189.630  157.204   75.769    0.454    0.253    5.574
  189.880  154.586   74.844    0.452    0.242    5.610
  190.130  151.529   75.357    0.464    0.232    5.494
  190.380  149.848   76.153    0.465    0.252    5.362
  190.630  149.427   75.565    0.457    0.262    5.243
  190.880  149.489   73.189    0.454    0.259    5.088
  191.130  150.835   70.814    0.455    0.252    5.011
  191.380  151.710   71.674    0.456    0.237    5.016
  191.630  151.765   73.499    0.457    0.239    5.057
  191.880  150.080   73.669    0.457    0.244    5.064
  192.130  144.340   73.709    0.446    0.224    5.023
  192.380  139.521   75.049    0.447    0.226    4.938
  192.630  134.016   75.084    0.447    0.218    4.890
  192.880  133.620   77.601    0.442    0.236    4.789
  193.130  136.920   78.534    0.446    0.248    4.597
  193.380  136.746   76.843    0.464    0.242    4.478
  193.630  137.633   72.948    0.463    0.256    4.386
  193.880  141.164   70.508    0.454    0.257    4.367
  194.130  148.312   71.367    0.446    0.268    4.427
  194.380  146.972   70.368    0.446    0.275    4.673
  194.630  145.533   71.849    0.455    0.253    5.095
  194.880  145.245   70.848    0.457    0.249    5.388
  195.130  145.302   64.963    0.432    0.264    5.403
  195.380  145.830   63.343    0.429    0.251    5.186
  195.630  146.252   63.512    0.435    0.249    5.071
  195.880  147.009   62.034    0.442    0.255    4.824
  196.130  147.066   64.201    0.448    0.261    4.742
  196.380  146.778   65.200    0.459    0.251    4.834
  196.630  146.602   58.418    0.470    0.246    5.009
  196.880  146.194   53.148    0.475    0.248    5.201
  197.130  146.483   51.251    0.471    0.269    5.449
  197.380  146.892   51.076    0.459    0.285    5.857
  197.630  146.478   60.965    0.454    0.286    6.611
  197.880  146.892   65.760    0.475    0.267    7.105
  198.130  147.302   66.068    0.509    0.265    7.471
  198.380  149.694   67.683    0.541    0.278    7.870
  198.630  149.624   66.758    0.581    0.292    7.965
  198.880  153.751   62.035    0.601    0.333    7.787
  199.130  158.917   55.938    0.500    0.331    7.503
  199.380  149.574   52.323    0.487    0.313    6.908
  199.630  148.825   50.838    0.485    0.319    6.268
  199.880  149.926   47.638    0.498    0.351    5.584
  200.130  151.382   45.810    0.541    0.373    5.264
  200.380  152.729   42.812    0.565    0.407    5.203
  200.630  154.991   38.781    0.559    0.445    5.799
  200.880  171.646   31.925    0.544    0.471    6.511
  201.130  188.305   40.713    0.512    0.458    6.859
  201.380  213.906   47.636    0.486    0.327    6.778
  201.630  144.432   49.325    0.450    0.322    6.207
  201.880  143.570   49.984    0.439    0.326    5.799
  202.130  136.774   56.217    0.446    0.332    5.773
  202.380  121.744   57.284    0.464    0.321    5.886
  202.630  123.312   58.633    0.462    0.269    6.669
  202.880  139.509   60.667    0.450    0.261    7.556
  203.130  146.654   64.141    0.444    0.259    8.329
  203.380  147.642   69.275    0.436    0.260    9.420
  203.630  147.595   72.823    0.435    0.260    9.959
  203.880  147.654   71.350    0.441    0.263   10.097
  204.130  147.250   71.932    0.454    0.299    9.927
  204.380  147.315   71.207    0.450    0.313    9.206
  204.630  147.720   77.854    0.447    0.322    8.614
  204.880  147.662   80.447    0.450    0.322    8.735
  205.130  147.499   79.307    0.468    0.323    9.068
  205.380  147.546   78.789    0.487    0.344    9.313
  205.630  148.188   82.267    0.523    0.336    9.476
  205.880  157.763   88.711    0.556    0.356    9.731
  206.130  173.850   92.741    0.551    0.366    9.584
  206.380  170.771   93.394    0.533    0.332    8.920
  206.630  161.892   89.227    0.518    0.343    7.498
  206.880  157.899   82.098    0.500    0.366    6.430
  207.130  165.614   81.923    0.533    0.394    5.544
  207.380  180.996   85.747    0.539    0.433    4.807
  207.630  184.430   90.537    0.531    0.410    4.564
  207.880  174.972   90.642    0.512    0.430    4.611
  208.130  168.411   89.647    0.491    0.270    4.991
  208.380  161.040   89.055    0.460    0.272    5.624
  208.630  158.081   88.541    0.433    0.283    5.968
  208.880  152.925   85.336    0.410    0.258    6.118
  209.130  149.728   82.409    0.406    0.253    6.456
  209.380  147.717   81.064    0.408    0.259    6.964
  209.630  146.723   80.484    0.417    0.251    7.257
  209.880  147.127   80.376    0.443    0.287    7.506
  210.130  149.047   81.170    0.443    0.257    8.275
  210.380  151.785   82.238    0.479    0.256    8.512
  210.630  153.814   82.828    0.505    0.276    8.538
  210.880  158.167   84.790    0.530    0.275    8.578
  211.130  159.625   88.406    0.532    0.309    8.221
  211.380  159.105   91.748    0.511    0.321    7.651
  211.630  155.215   98.052    0.508    0.342    7.161
  211.880  155.038  100.224    0.520    0.367    6.677
  212.130  163.460  102.533    0.551    0.395    6.226
  212.380  171.644  100.500    0.587    0.400    5.628
  212.630  173.450   99.364    0.569    0.413    5.051
  212.880  160.738   99.466    0.562    0.400    4.484
  213.130  173.218   96.268    0.590    0.420    4.084
  213.380  199.052   98.779    0.599    0.397    3.801
  213.630  172.994  109.217    0.593    0.307    3.743
  213.880  169.105  113.388    0.569    0.276    3.720
  214.130  181.357  115.281    0.570    0.255    3.724
  214.380  195.124  116.969    0.576    0.257    3.674
  214.630  193.784  114.458    0.589    0.289    3.527
  214.880  193.158  108.358    0.592    0.339    3.259
  215.130  208.183  105.636    0.574    0.365    3.011
  215.380  185.141  102.848    0.496    0.311    2.727
  215.630  153.161   98.609    0.471    0.296    2.623
  215.880  153.338   93.063    0.478    0.327    2.768
  216.130  156.880   88.965    0.493    0.361    3.511
  216.380  169.831   89.413    0.536    0.284    4.081
  216.630  180.226   95.784    0.589    0.273    5.214
  216.880  173.319  108.981    0.590    0.264    5.664
  217.130  164.669  106.743    0.536    0.257    5.518
  217.380  168.562   96.375    0.541    0.259    5.202
  217.630  176.756   88.414    0.547    0.264    4.931
  217.880  179.943   74.876    0.537    0.331    4.648
  218.130  147.499   63.677    0.509    0.352    4.544
  218.380  145.939   61.440    0.515    0.344    4.524
  218.630  150.413   57.616    0.535    0.344    4.579
  218.880  152.796   52.278    0.539    0.348    6.502
  219.130  153.080   49.901    0.526    0.351    7.851
