~VERSION INFORMATION
 VERS.                 2.0:   CWLS LOG ASCII STANDARD -VERSION 2.0
 WRAP.                  NO:   ONE LINE PER DEPTH STEP
~WELL INFORMATION BLOCK
#MNEM.UNIT           DATA                    DESCRIPTION OF MNEMONIC
#---------    -------------------            -------------------------------
# Generated from Intellog Unique Number	CX_WELLS/WELL/2544
WELL.         DOME ET AL NEWBY               : Well_name    - WELL
LOC .         00/07-25-080-03W4/0            : Location     - LOCATION
UWI .         00/07-25-080-03W400            : Uwi          - UNIQUE WELL ID
ENTR.         T                              : Entered      - ENTERED BY
SRVC.         SCHLUMBERGER                   : Scn          - SERVICE COMPANY
STRT.M        75                             : top_depth    - START DEPTH
STOP.M        330                            : bot_depth    - STOP DEPTH
STEP.M        0.25                           : increment    - STEP LENGTH
 NULL. -999.2500:NULL Value
~CURVE INFORMATION BLOCK
#MNEM UNIT       ERCB CURVE CODE    CURVE DESCRIPTION
#-----------   ------------------   ----------------------------------
DEPT.M        00 001 00 00         : DEPTH        - DEPTH
GR  .API      00 310 00 00         : GR           - GAMMA RAY
NPHI.V/V      00 330 00 00         : PHIN         - NEUTRON POROSITY (SANDSTONE)
DPHI.V/V      00 890 00 00         : PHID         - DENSITY POROSITY (SANDSTONE)
ILD .OHMM     00 120 00 00         : RESD         - DEEP RESISTIVITY (DIL)
~PARAMETER INFORMATION
#MNEM.UNIT           DATA             DESCRIPTION OF MNEMONIC
#---------         -----------     ------------------------------
GL  .M        482.7                : gl           - GROUND LEVEL ELEVATION
EREF.M        486.3                : kb           - ELEVATION OF DEPTH REFERENCE
DATM.M        486.3                : datum        - DATUM ELEVATION
TDD .M        338                  : tdd          - TOTAL DEPTH DRILLER
RUN .         ONE                  : Run          - RUN NUMBER
ENG .         BILL                 : Engineer     - RECORDING ENGINEER
WIT .         JIM                  : Witness      - WITNESSED BY
MUD .         GEL                  : Mud_type     - MUD TYPE
MATR.         SANDSTONE            : Logunit      - NEUTRON MATRIX
TMAX.C        20                   : BHT          - MAXIMUM RECORDED TEMPERATURE
BHTD.M        338                  : BHTDEP       - MAXIMUM RECORDED TEMPERATURE
MATR.         1                    : LOGUNIT      - NEUTRON MATRIX
RMT .C        18                   : MDTP         - TEMPERATURE OF MUD
NEUT.         1                    : NEUTRON      - NEUTRON TYPE
RESI.         2.4                  : RESIST       - RESISTIVITY TYPE
RMC .OHMM     2.16                 : RMC          - RESISTIVITY OF MUD CAKE
RMF .OHMM     2.16                 : RMF          - RESISTIVITY OF MUD FILTRATE
SUFT.C        5                    : SUFT         - SURFACE TEMPERATURE
~A  DEPTH       GR     PHIN     PHID     RESD
# ...
  249.000   89.156    0.379    0.237    8.988
  249.250   86.228    0.390    0.235    8.818
  249.500   86.206    0.397    0.233    8.643
  249.750   89.081    0.404    0.231    8.479
  250.000   91.388    0.404    0.231    8.318
  250.250   90.197    0.386    0.239    8.159
  250.500   87.856    0.390    0.244    7.999
  250.750   89.570    0.397    0.243    7.848
  251.000   90.709    0.406    0.241    7.699
  251.250   90.105    0.405    0.236    7.550
  251.500   90.663    0.399    0.238    7.404
  251.750   93.545    0.401    0.253    7.400
  252.000   96.426    0.405    0.246    7.255
  252.250   99.308    0.409    0.236    7.249
  252.500   98.698    0.416    0.231    7.112
  252.750   98.094    0.427    0.235    7.104
  253.000  100.970    0.435    0.235    6.968
  253.250  102.690    0.448    0.234    6.836
  253.500  102.667    0.460    0.234    6.703
  253.750  100.901    0.461    0.236    6.697
  254.000   97.393    0.450    0.240    6.569
  254.250   96.783    0.447    0.241    6.443
  254.500   97.928    0.452    0.243    6.318
  254.750  100.798    0.456    0.244    6.197
  255.000  101.948    0.461    0.246    6.078
  255.250  103.668    0.467    0.248    6.073
  255.500  104.220    0.476    0.250    5.957
  255.750  104.203    0.480    0.251    5.953
  256.000  104.755    0.485    0.253    5.946
  256.250  105.313    0.493    0.254    5.833
  256.500  105.871    0.488    0.255    5.826
  256.750  105.848    0.484    0.252    5.822
  257.000  104.082    0.465    0.247    5.708
  257.250  100.574    0.441    0.244    5.704
  257.500   98.808    0.434    0.242    5.700
  257.750   99.941    0.423    0.243    5.589
  258.000  100.499    0.410    0.245    5.585
  258.250   97.571    0.409    0.246    5.479
  258.500   94.638    0.417    0.250    5.473
  258.750   96.939    0.412    0.256    5.369
  259.000   98.664    0.406    0.258    5.365
  259.250   98.635    0.404    0.255    5.359
  259.500   98.618    0.408    0.247    5.256
  259.750  100.907    0.419    0.248    5.251
  260.000  102.627    0.447    0.251    5.055
  260.250  103.772    0.472    0.255    5.051
  260.500  104.910    0.487    0.260    4.955
  260.750  106.624    0.508    0.260    4.860
  261.000  107.182    0.513    0.259    4.678
  261.250  105.417    0.490    0.259    4.589
  261.500  103.070    0.499    0.259    4.501
  261.750  100.723    0.515    0.259    4.415
  262.000  104.767    0.524    0.259    4.409
  262.250  108.223    0.530    0.260    4.326
  262.500  108.787    0.536    0.260    4.321
  262.750  105.279    0.545    0.260    4.319
  263.000  101.770    0.549    0.260    4.314
  263.250  101.160    0.548    0.263    4.311
  263.500  104.042    0.531    0.265    4.386
  263.750  109.828    0.537    0.265    4.466
  264.000  108.057    0.535    0.263    4.459
  264.250  105.129    0.523    0.259    4.457
  264.500  105.112    0.522    0.251    4.536
  264.750  105.670    0.502    0.246    4.532
  265.000  105.066    0.504    0.244    4.528
  265.250  102.127    0.506    0.245    4.523
  265.500  100.948    0.504    0.250    4.520
  265.750  102.086    0.491    0.254    4.516
  266.000  103.800    0.481    0.254    4.347
  266.250  104.358    0.487    0.254    4.264
  266.500  104.335    0.492    0.253    3.957
  266.750  104.893    0.497    0.267    3.474
  267.000  106.613    0.502    0.276    3.165
  267.250  110.657    0.512    0.292    2.778
  267.500  109.472    0.515    0.310    2.485
  267.750   80.402    0.498    0.336    2.306
  268.000   68.755    0.439    0.340    2.179
  268.250   61.180    0.393    0.341    2.098
  268.500   51.862    0.403    0.345    2.058
  268.750   44.862    0.395    0.363    1.945
  269.000   41.354    0.386    0.381    1.909
  269.250   44.816    0.388    0.383    1.803
  269.500   49.441    0.392    0.383    1.770
  269.750   55.802    0.394    0.386    1.703
  270.000   57.528    0.414    0.364    1.640
  270.250   62.733    0.450    0.345    1.609
  270.500   57.482    0.481    0.359    1.607
  270.750   49.320    0.448    0.390    1.606
  271.000   45.225    0.403    0.401    1.634
  271.250   42.884    0.397    0.397    1.663
  271.500   41.118    0.396    0.393    1.662
  271.750   38.771    0.397    0.391    1.691
  272.000   35.251    0.400    0.385    1.721
  272.250   34.653    0.405    0.388    1.720
  272.500   34.619    0.411    0.395    1.750
  272.750   34.607    0.408    0.390    1.749
  273.000   35.165    0.402    0.387    1.747
  273.250   35.142    0.395    0.384    1.745
  273.500   35.119    0.396    0.382    1.744
  273.750   35.660    0.401    0.379    1.742
  274.000   36.810    0.396    0.376    1.740
  274.250   40.854    0.395    0.360    1.739
  274.500   47.802    0.399    0.365    1.737
  274.750   42.545    0.403    0.387    1.736
  275.000   39.042    0.404    0.399    1.766
  275.250   35.533    0.405    0.397    1.765
  275.500   30.270    0.407    0.394    1.796
  275.750   29.091    0.404    0.397    1.828
  276.000   36.034    0.399    0.388    1.861
  276.250   34.268    0.381    0.373    1.859
  276.500   33.089    0.367    0.370    1.927
  276.750   31.323    0.363    0.369    1.961
  277.000   31.875    0.361    0.350    1.996
  277.250   34.745    0.356    0.334    2.069
  277.500   36.471    0.352    0.327    2.068
  277.750   37.615    0.354    0.310    2.144
  278.000   39.910    0.346    0.303    2.222
  278.250   41.636    0.344    0.297    2.304
  278.500   52.070    0.354    0.292    2.477
  278.750   59.599    0.361    0.285    2.568
  279.000   66.541    0.362    0.280    2.662
  279.250   71.752    0.362    0.277    2.710
  279.500   82.767    0.366    0.270    2.758
  279.750   88.553    0.375    0.262    2.755
  280.000   93.752    0.387    0.252    2.702
  280.250   97.221    0.394    0.266    2.602
  280.500  100.683    0.408    0.294    2.553
  280.750   90.198    0.411    0.312    2.458
  281.000   90.169    0.415    0.313    2.366
  281.250   91.895    0.412    0.313    2.279
  281.500   89.548    0.407    0.328    2.194
  281.750   84.297    0.420    0.340    2.152
  282.000   63.935    0.420    0.340    2.072
  282.250   66.236    0.409    0.326    1.994
  282.500   67.956    0.400    0.304    1.993
  282.750   67.933    0.385    0.301    1.955
  283.000   65.005    0.375    0.309    1.882
  283.250   61.497    0.378    0.316    1.846
  283.500   57.402    0.388    0.328    1.810
  283.750   54.474    0.398    0.336    1.775
  284.000   51.546    0.401    0.345    1.742
  284.250   48.038    0.395    0.355    1.709
  284.500   45.110    0.395    0.360    1.676
  284.750   43.914    0.403    0.364    1.613
  285.000   43.897    0.405    0.367    1.583
  285.250   45.616    0.401    0.367    1.552
  285.500   49.079    0.397    0.360    1.522
  285.750   49.050    0.399    0.355    1.521
  286.000   46.709    0.408    0.359    1.519
  286.250   44.362    0.402    0.366    1.518
  286.500   45.495    0.392    0.375    1.517
  286.750   48.952    0.392    0.381    1.516
  287.000   47.767    0.391    0.376    1.514
  287.250   46.002    0.396    0.375    1.512
  287.500   45.979    0.398    0.375    1.511
  287.750   45.956    0.400    0.371    1.510
  288.000   47.681    0.394    0.367    1.537
  288.250   49.976    0.388    0.362    1.564
  288.500   46.468    0.380    0.361    1.592
  288.750   42.959    0.383    0.360    1.590
  289.000   38.870    0.387    0.357    1.618
  289.250   37.679    0.379    0.350    1.678
  289.500   39.404    0.351    0.337    1.707
  289.750   42.861    0.355    0.321    1.706
  290.000   46.324    0.367    0.304    1.769
  290.250   60.830    0.382    0.290    1.800
  290.500   73.001    0.392    0.289    1.866
  290.750   66.587    0.400    0.321    1.935
  291.000   58.426    0.402    0.337    1.969
  291.250   55.498    0.396    0.348    1.966
  291.500   51.414    0.388    0.341    1.965
  291.750   50.804    0.373    0.317    1.928
  292.000   50.770    0.336    0.308    1.855
  292.250   51.920    0.328    0.297    1.821
