~VERSION INFORMATION
 VERS.                 2.0:   CWLS LOG ASCII STANDARD -VERSION 2.0
 WRAP.                  NO:   ONE LINE PER DEPTH STEP
~WELL INFORMATION BLOCK
#MNEM.UNIT           DATA                    DESCRIPTION OF MNEMONIC
#---------    -------------------            -------------------------------
# Generated from Intellog Unique Number	CW_82_90/WELL/288
WELL.         04-19-083-23W4                 : Well_name    - WELL
LOC .         00/04-19-083-23W4/0            : Location     - LOCATION
UWI .         00/04-19-083-23W4/0            : Uwi          - UNIQUE WELL ID
ENTR.         JAYE                           : Entered      - ENTERED BY
SRVC.         SCHLUMBERGER                   : Scn          - SERVICE COMPANY
DATE.         22 JAN 76                      : Date         - LOG DATE
STRT.M        207.264                        : top_depth    - START DEPTH
STOP.M        417.514                        : bot_depth    - STOP DEPTH
STEP.M        0.25                           : increment    - STEP LENGTH
 NULL. -999.2500:NULL Value
~CURVE INFORMATION BLOCK
#MNEM UNIT       ERCB CURVE CODE    CURVE DESCRIPTION
#-----------   ------------------   ----------------------------------
DEPT.M        00 001 00 00         : DEPTH        - DEPTH
CALI.MM       00 280 01 00         : CAL          - CALIPER
GR  .API      00 310 00 00         : GR           - GAMMA RAY
NPHI.V/V      00 330 00 00         : PHIN         - NEUTRON POROSITY (SANDSTONE)
DPHI.V/V      00 890 00 00         : PHID         - DENSITY POROSITY (SANDSTONE)
ILD .OHMM     00 120 00 00         : RESD         - DEEP RESISTIVITY (DIL)
~PARAMETER INFORMATION
#MNEM.UNIT           DATA             DESCRIPTION OF MNEMONIC
#---------         -----------     ------------------------------
GL  .M        592.531              : gl           - GROUND LEVEL ELEVATION
EREF.M        595.884              : kb           - ELEVATION OF DEPTH REFERENCE
DATM.M        592.531              : datum        - DATUM ELEVATION
TDD .M        421.234              : tdd          - TOTAL DEPTH DRILLER
ENG .         DODSWORTH            : Engineer     - RECORDING ENGINEER
WIT .         7658                 : Witness      - WITNESSED BY
BASE.         EDMONTON             : Branch       - HOME BASE OF LOGGING UNIT
MUD .         GEL CHEM             : Mud_type     - MUD TYPE
MATR.         SANDSTONE            : Logunit      - NEUTRON MATRIX
TMAX.C        26.6667              : BHT          - MAXIMUM RECORDED TEMPERATURE
BHTD.M        421.234              : BHTDEP       - MAXIMUM RECORDED TEMPERATURE
RMT .C        -17.7778             : MDTP         - TEMPERATURE OF MUD
MUDD.KG/M     9000                 : MWT          - MUD DENSITY
NEUT.         1                    : NEUTRON      - NEUTRON TYPE
RESI.         0                    : RESIST       - RESISTIVITY TYPE
RM  .OHMM     0                    : RM           - RESISTIVITY OF MUD
RMC .OHMM     0                    : RMC          - RESISTIVITY OF MUD CAKE
RMF .OHMM     64.91                : RMF          - RESISTIVITY OF MUD FILTRATE
SUFT.C        -17.7778             : SUFT         - SURFACE TEMPERATURE
~A  DEPTH      CAL       GR     PHIN     PHID     RESD
# ...
  243.764  155.696   58.649    0.419    0.350    4.787
  244.014  155.623   59.836    0.410    0.356    5.246
  244.264  155.569   62.069    0.412    0.363    6.033
  244.514  155.608   63.133    0.411    0.369    8.016
  244.764  155.252   61.626    0.409    0.373   11.093
  245.014  155.066   59.079    0.407    0.380   14.389
  245.264  153.784   58.005    0.402    0.386   18.018
  245.514  153.492   58.763    0.404    0.385   21.543
  245.764  155.108   58.665    0.413    0.379   22.839
  246.014  155.548   62.305    0.419    0.372   23.238
  246.264  154.869   63.920    0.433    0.379   23.388
  246.514  155.433   64.006    0.439    0.377   23.497
  246.764  155.465   64.278    0.433    0.374   23.519
  247.014  155.515   64.056    0.432    0.369   23.452
  247.264  155.762   62.674    0.427    0.369   23.514
  247.514  156.112   61.108    0.421    0.372   23.405
  247.764  156.466   60.640    0.421    0.379   23.293
  248.014  154.956   60.911    0.427    0.379   23.312
  248.264  154.476   61.181    0.435    0.379   23.466
  248.514  157.632   60.530    0.431    0.382   23.356
  248.764  160.265   60.008    0.432    0.383   23.157
  249.014  156.997   59.846    0.435    0.383   22.882
  249.264  156.513   59.261    0.438    0.386   22.898
  249.514  155.945   58.184    0.436    0.393   22.875
  249.764  155.976   57.227    0.438    0.398   22.775
  250.014  156.017   56.154    0.448    0.400   23.003
  250.264  156.924   55.378    0.443    0.399   23.365
  250.514  157.244   54.793    0.431    0.403   23.563
  250.764  157.318   54.818    0.431    0.403   23.800
  251.014  157.432   55.881    0.434    0.399   24.129
  251.264  157.991   57.131    0.439    0.400   24.830
  251.514  156.294   58.387    0.440    0.403   25.316
  251.764  156.109   59.081    0.434    0.407   25.479
  252.014  155.231   59.599    0.430    0.408   25.551
  252.264  155.464   60.232    0.431    0.406   25.473
  252.514  156.232   60.750    0.436    0.402   25.264
  252.764  157.626   61.263    0.440    0.402   24.826
  253.014  157.997   62.084    0.432    0.407   24.523
  253.264  157.292   63.518    0.424    0.407   24.268
  253.514  156.300   63.420    0.420    0.404   23.799
  253.764  155.511   61.853    0.423    0.402   23.344
  254.014  155.511   59.184    0.423    0.403   23.274
  254.264  157.478   58.659    0.423    0.407   23.422
  254.514  157.611   59.540    0.423    0.409   24.058
  254.764  158.072   61.339    0.426    0.407   24.666
  255.014  158.420   62.714    0.424    0.411   25.151
  255.264  158.462   63.167    0.424    0.412   25.451
  255.514  155.810   64.294    0.429    0.410   25.806
  255.764  154.401   66.037    0.424    0.410   26.164
  256.014  153.716   67.224    0.421    0.415   26.628
  256.264  155.208   67.496    0.427    0.418   26.998
  256.514  158.160   65.987    0.438    0.418   27.578
  256.764  158.611   63.072    0.441    0.413   28.332
  257.014  158.341   62.607    0.435    0.410   28.833
  257.264  158.178   63.801    0.430    0.415   29.071
  257.514  156.353   64.435    0.430    0.410   29.037
  257.764  154.843   64.458    0.431    0.407   29.009
  258.014  154.364   63.624    0.429    0.403   28.873
  258.264  154.412   63.469    0.426    0.410   28.684
  258.514  155.081   62.147    0.422    0.407   28.451
  258.764  155.632   60.882    0.420    0.401   28.208
  259.014  156.428   58.949    0.421    0.403   27.972
  259.264  156.338   60.198    0.421    0.402   27.787
  259.514  156.803   62.305    0.431    0.399   27.458
  259.764  156.630   62.147    0.439    0.394   27.273
  260.014  155.451   63.643    0.434    0.390   26.801
  260.264  156.614   64.953    0.430    0.389   26.443
  260.514  157.794   66.942    0.431    0.394   26.302
  260.764  157.123   69.168    0.433    0.395   25.840
  261.014  156.737   68.335    0.430    0.397   25.297
  261.264  156.573   63.950    0.434    0.401   24.989
  261.514  156.096   62.200    0.441    0.404   24.738
  261.764  155.622   63.389    0.454    0.401   24.573
  262.014  155.247   62.801    0.459    0.397   24.457
  262.264  156.341   59.887    0.454    0.392   24.673
  262.514  157.614   58.809    0.447    0.387   24.637
  262.764  158.901   60.304    0.434    0.384   24.796
  263.014  157.388   60.636    0.424    0.381   24.828
  263.264  155.985   60.046    0.427    0.377   24.794
  263.514  154.576   59.217    0.433    0.372   24.630
  263.764  154.109   58.996    0.432    0.370   24.155
  264.014  154.654   60.061    0.425    0.376   23.819
  264.264  155.733   60.759    0.420    0.373   23.625
  264.514  157.024   62.316    0.417    0.369   23.509
  264.764  158.523   61.484    0.420    0.370   23.238
  265.014  158.151   59.976    0.428    0.377   23.077
  265.264  157.872   59.020    0.435    0.379   22.797
  265.514  156.672   57.882    0.441    0.380   22.607
  265.764  155.890   56.378    0.446    0.379   22.423
  266.014  155.890   56.159    0.446    0.378   22.314
  266.264  155.776   58.080    0.442    0.379   22.206
  266.514  156.528   60.309    0.435    0.384   22.079
  266.764  155.960   60.273    0.419    0.390   22.087
  267.014  154.455   59.013    0.415    0.394   22.018
  267.264  154.064   58.181    0.417    0.399   22.038
  267.514  154.210   56.919    0.437    0.401   22.038
  267.764  157.988   57.373    0.442    0.403   21.969
  268.014  158.028   58.506    0.436    0.390   21.935
  268.264  156.720   58.463    0.421    0.378   21.950
  268.514  158.736   58.488    0.395    0.300   21.950
  268.764  157.752   58.825    0.347    0.291   21.514
  269.014  157.262   58.849    0.247    0.128   21.405
  269.264  156.477   57.405    0.242    0.154   21.194
  269.514  155.816   55.649    0.276    0.190   21.088
  269.764  155.626   56.776    0.321    0.264   20.950
  270.014  155.467   60.052    0.374    0.332   20.892
  270.264  155.710   61.420    0.440    0.391   20.948
  270.514  155.788   61.140    0.437    0.416   22.409
  270.764  155.905   61.167    0.433    0.409   28.164
  271.014  155.837   61.679    0.441    0.410   37.420
  271.264  155.911   62.810    0.461    0.416   43.114
  271.514  155.924   63.199    0.463    0.405   39.775
  271.764  156.290   63.470    0.455    0.404   32.352
  272.014  156.290   66.372    0.459    0.403   25.689
  272.264  158.546   67.809    0.468    0.396   22.966
  272.514  160.146   68.691    0.468    0.387   21.862
  272.764  159.763   68.714    0.466    0.383   20.549
  273.014  156.593   70.759    0.462    0.380   20.149
  273.264  156.846   74.706    0.456    0.376   20.092
  273.514  156.779   77.427    0.451    0.382   20.186
  273.764  156.513   78.979    0.449    0.390   20.207
  274.014  156.868   80.658    0.444    0.385   20.143
  274.264  157.117   79.890    0.443    0.378   20.053
  274.514  157.571   77.953    0.448    0.376   19.995
  274.764  158.264   75.160    0.451    0.382   19.938
  275.014  157.864   71.144    0.444    0.389   19.843
  275.264  157.864   72.394    0.444    0.393   19.679
  275.514  156.923   74.560    0.452    0.392   19.480
  275.764  156.957   73.728    0.454    0.385   19.315
  276.014  156.686   73.753    0.453    0.383   19.048
  276.264  157.351   72.065    0.456    0.385   18.784
  276.514  158.346   71.416    0.467    0.387   18.522
  276.764  158.678   67.951    0.466    0.381   18.263
  277.014  158.723   66.811    0.458    0.374   17.944
  277.264  158.723   66.776    0.458    0.367   17.698
  277.514  155.800   68.147    0.447    0.365   17.579
  277.764  155.800   70.010    0.440    0.366   17.303
  278.014  157.045   70.829    0.447    0.377   17.000
  278.264  157.479   70.675    0.461    0.385   16.737
  278.514  158.352   69.411    0.460    0.391   16.596
  278.764  158.393   67.232    0.453    0.386   16.368
  279.014  157.834   65.112    0.441    0.379   16.289
  279.264  157.961   65.138    0.427    0.365   16.241
  279.514  158.111   64.916    0.400    0.244   16.195
  279.764  158.046   65.922    0.355    0.203   16.151
  280.014  158.645   68.216    0.343    0.214   16.165
