~VERSION INFORMATION
 VERS.                 2.0:   CWLS LOG ASCII STANDARD -VERSION 2.0
 WRAP.                  NO:   ONE LINE PER DEPTH STEP
~WELL INFORMATION BLOCK
#MNEM.UNIT           DATA                    DESCRIPTION OF MNEMONIC
#---------    -------------------            -------------------------------
# Generated from Intellog Unique Number	CW_73_75/WELL/591
WELL.         ASHLAND ET AL MCMILLAN 06-31   : Well_name    - WELL
LOC .         00/06-31-074-19W4/0            : Location     - LOCATION
UWI .         00/06-31-074-19W4/0            : Uwi          - UNIQUE WELL ID
ENTR.         JAYE                           : Entered      - ENTERED BY
SRVC.         WESTERN ATLAS                  : Scn          - SERVICE COMPANY
DATE.         17 JAN 76                      : Date         - LOG DATE
STRT.M        298.704                        : top_depth    - START DEPTH
STOP.M        508.954                        : bot_depth    - STOP DEPTH
STEP.M        0.25                           : increment    - STEP LENGTH
 NULL. -999.2500:NULL Value
~CURVE INFORMATION BLOCK
#MNEM UNIT       ERCB CURVE CODE    CURVE DESCRIPTION
#-----------   ------------------   ----------------------------------
DEPT.M        00 001 00 00         : DEPTH        - DEPTH
ILD .OHMM     00 120 00 00         : RESD         - DEEP RESISTIVITY (DIL)
GR  .API      00 310 00 00         : GR           - GAMMA RAY
CALI.MM       00 280 01 00         : CAL          - CALIPER
NPHI.V/V      00 330 00 00         : PHIN         - NEUTRON POROSITY (SANDSTONE)
DPHI.V/V      00 890 00 00         : PHID         - DENSITY POROSITY (SANDSTONE)
COND.MMHO                          : COND         - DEEP CONDUCTIVITY (DIL)
~PARAMETER INFORMATION
#MNEM.UNIT           DATA             DESCRIPTION OF MNEMONIC
#---------         -----------     ------------------------------
GL  .M        616.61               : gl           - GROUND LEVEL ELEVATION
EREF.M        619.658              : kb           - ELEVATION OF DEPTH REFERENCE
DATM.M        616.61               : datum        - DATUM ELEVATION
TDD .M        514.502              : tdd          - TOTAL DEPTH DRILLER
RUN .         ONE                  : Run          - RUN NUMBER
BASE.         EDMONTON             : Branch       - HOME BASE OF LOGGING UNIT
MATR.         SANDSTONE            : Logunit      - NEUTRON MATRIX
TMAX.C        23.8889              : BHT          - MAXIMUM RECORDED TEMPERATURE
BHTD.M        512.978              : BHTDEP       - MAXIMUM RECORDED TEMPERATURE
RMT .C        -15.7222             : MDTP         - TEMPERATURE OF MUD
MUDD.KG/M     0                    : MWT          - MUD DENSITY
NEUT.         1                    : NEUTRON      - NEUTRON TYPE
RESI.         0                    : RESIST       - RESISTIVITY TYPE
RM  .OHMM     4                    : RM           - RESISTIVITY OF MUD
RMC .OHMM     0                    : RMC          - RESISTIVITY OF MUD CAKE
RMF .OHMM     3.9                  : RMF          - RESISTIVITY OF MUD FILTRATE
SUFT.C        -17.7778             : SUFT         - SURFACE TEMPERATURE
~A  DEPTH     RESD       GR      CAL     PHIN     PHID     COND
# ...
  392.454    4.758   88.859  216.154    0.451    0.254  210.175
  392.704    4.675   86.391  226.532    0.446    0.352  213.921
  392.954    4.279   83.616  240.444    0.432    0.335  233.719
  393.204    3.848   82.499  243.647    0.409    0.287  259.858
  393.454    3.400   83.654  242.588    0.385    0.257  294.123
  393.704    3.386   85.729  219.693    0.373    0.232  295.292
  393.954    3.473   85.042  211.044    0.364    0.247  287.940
  394.204    3.755   82.084  200.627    0.353    0.271  266.319
  394.454    4.482   74.336  196.968    0.347    0.315  223.097
  394.704    4.817   71.499  194.763    0.346    0.316  207.619
  394.954    5.099   68.171  193.391    0.347    0.318  196.105
  395.204    5.332   69.142  192.644    0.346    0.325  187.563
  395.454    5.424   69.130  192.727    0.344    0.321  184.373
  395.704    5.483   68.934  192.605    0.346    0.315  182.371
  395.954    5.581   70.335  192.272    0.340    0.303  179.181
  396.204    5.676   70.016  192.149    0.328    0.303  176.188
  396.454    5.814   68.040  193.897    0.311    0.293  172.007
  396.704    6.155   62.562  196.269    0.299    0.143  162.475
  396.954    6.812   62.551  201.237    0.298    0.124  146.800
  397.204    7.767   64.320  204.755    0.299    0.131  128.746
  397.454    9.370   63.264  207.540    0.315    0.137  106.728
  397.704   10.503   63.683  208.144    0.334    0.131   95.214
  397.954   12.418   62.996  207.086    0.348    0.131   80.529
  398.204   12.702   61.510  202.492    0.356    0.161   78.727
  398.454   12.010   61.806  194.050    0.376    0.256   83.264
  398.704   11.187   64.004  189.351    0.393    0.276   89.387
  398.954   10.278   62.703  187.564    0.404    0.288   97.295
  399.204    8.672   61.831  190.144    0.407    0.309  115.310
  399.454    7.501   65.504  192.723    0.405    0.312  133.324
  399.704    6.831   65.062  194.262    0.403    0.311  146.384
  399.954    6.465   61.489  195.281    0.396    0.307  154.687
  400.204    6.466   63.258  195.470    0.388    0.304  154.667
  400.454    6.525   64.535  193.683    0.386    0.305  153.259
  400.704    6.543   61.945  190.336    0.385    0.312  152.844
  400.954    6.501   60.890  188.131    0.384    0.318  153.814
  401.204    6.245   62.781  191.439    0.384    0.324  160.137
  401.454    5.972   63.998  194.747    0.384    0.328  167.450
  401.704    5.768   64.478  197.324    0.384    0.328  173.374
  401.954    5.565   62.255  197.514    0.383    0.328  179.697
  402.204    5.523   61.630  196.559    0.381    0.324  181.064
  402.454    5.511   61.618  191.341    0.377    0.322  181.441
  402.704    5.452   63.754  189.449    0.372    0.321  183.402
  402.954    5.366   65.524  193.171    0.368    0.318  186.354
  403.204    5.327   66.801  195.440    0.372    0.316  187.722
  403.454    5.288   66.421  196.355    0.382    0.317  189.090
  403.704    5.261   64.629  196.647    0.387    0.324  190.060
  403.954    5.218   64.924  196.833    0.385    0.330  191.627
  404.204    5.198   66.815  196.503    0.382    0.340  192.399
  404.454    5.209   69.628  195.959    0.376    0.342  191.982
  404.704    5.226   70.292  195.632    0.370    0.336  191.369
  404.954    5.253   67.579  195.714    0.364    0.332  190.357
  405.204    5.281   65.725  195.485    0.358    0.329  189.347
  405.454    5.315   66.511  195.053    0.353    0.330  188.138
  405.704    5.338   66.623  194.824    0.349    0.338  187.327
  405.954    5.448   64.952  194.908    0.344    0.330  183.542
  406.204    5.813   64.081  196.967    0.337    0.319  172.027
  406.454    6.404   64.008  199.548    0.329    0.133  156.153
  406.704    7.252   60.435  201.709    0.334    0.153  137.901
  406.954    8.428   60.055  199.611    0.368    0.222  118.659
  407.204    9.049   62.315  192.937    0.380    0.265  110.515
  407.454    8.954   65.558  194.477    0.404    0.295  111.684
  407.704    8.094   66.835  194.873    0.402    0.314  123.554
  407.954    7.205   62.648  193.084    0.406    0.309  138.794
  408.204    6.085   61.593  193.273    0.407    0.296  164.339
  408.454    5.631   66.369  194.188    0.404    0.282  177.597
  408.704    5.508   65.929  193.855    0.400    0.274  181.541
  408.954    5.444   68.925  192.900    0.394    0.284  183.701
  409.204    5.398   74.808  192.464    0.397    0.297  185.265
  409.454    5.358   77.007  192.237    0.394    0.296  186.634
  409.704    5.308   74.844  191.907    0.391    0.294  188.396
  409.954    5.303   73.114  191.574    0.393    0.292  188.576
  410.204    5.265   72.305  191.449    0.401    0.290  189.943
  410.454    5.238   72.660  191.846    0.415    0.288  190.914
  410.704    5.211   74.553  192.762    0.424    0.280  191.885
  410.954    5.277   77.427  193.366    0.430    0.264  189.486
  411.204    5.328   79.626  193.761    0.427    0.241  187.684
  411.454    5.409   79.368  194.572    0.413    0.239  184.889
  411.704    5.522   79.786  196.528    0.405    0.242  181.104
  411.954    5.583   81.064  198.691    0.401    0.247  179.103
  412.204    5.547   82.772  201.374    0.392    0.252  180.271
  412.454    5.371   85.278  204.477    0.392    0.261  186.198
  412.704    5.184   86.924  199.880    0.397    0.272  192.916
  412.954    5.126   82.799  198.197    0.396    0.282  195.076
  413.204    5.153   79.347  197.136    0.386    0.280  194.064
  413.454    5.272   76.880  196.389    0.371    0.270  189.686
  413.704    5.490   74.043  195.642    0.362    0.256  182.134
  413.954    5.794   75.751  194.894    0.362    0.240  172.603
  414.204    6.008   77.950  194.145    0.360    0.237  166.439
  414.454    6.232   80.579  194.023    0.369    0.252  160.474
  414.704    6.240   86.032  194.522    0.372    0.269  160.255
  414.954    6.039   89.888  195.127    0.390    0.210  165.588
  415.204    5.858   92.946  196.667    0.399    0.185  170.719
  415.454    5.680   95.084  200.389    0.406    0.183  176.050
  415.704    5.550   96.976  202.344    0.408    0.183  180.193
  415.954    5.460   95.060  203.365    0.404    0.175  183.145
  416.204    5.514   94.250  204.173    0.394    0.176  181.343
  416.454    5.570   93.992  204.467    0.389    0.180  179.539
  416.704    5.677   93.367  205.072    0.373    0.178  176.150
  416.954    5.736   93.600  205.053    0.367    0.174  174.347
  417.204    5.749   94.693  205.032    0.373    0.172  173.931
  417.454    5.744   96.218  204.804    0.379    0.174  174.107
  417.704    5.725   97.373  204.680    0.378    0.177  174.683
  417.954    5.725   97.176  204.348    0.382    0.177  174.664
  418.204    5.732   96.857  204.226    0.391    0.176  174.446
  418.454    5.707   95.311  204.206    0.393    0.174  175.218
  418.704    5.747   89.344  203.977    0.397    0.173  174.010
  418.954    5.780   89.700  203.854    0.404    0.172  172.998
  419.204    5.808   93.188  203.731    0.410    0.172  172.187
  419.454    5.835   93.728  203.606    0.410    0.176  171.375
  419.704    5.789   93.226  203.585    0.407    0.177  172.742
  419.954    5.641   95.670  203.358    0.406    0.174  177.281
  420.204    5.447   95.658  203.547    0.400    0.168  183.602
  420.454    5.287   96.936  203.839    0.396    0.172  189.131
  420.704    5.111  100.854  204.027    0.396    0.177  195.651
  420.954    4.769  103.298  204.527    0.385    0.169  209.701
  421.204    4.638  101.936  205.234    0.385    0.171  215.628
  421.454    4.587   97.195  205.214    0.387    0.182  217.986
  421.704    4.669   91.352  201.348    0.375    0.188  214.201
  421.954    5.114   89.620  197.273    0.377    0.198  195.552
  422.204    5.615   90.775  195.486    0.380    0.184  178.093
  422.454    6.264   90.824  199.831    0.375    0.128  159.643
  422.704    6.618   92.163  202.619    0.377    0.120  151.102
  422.954    7.024   92.521  203.846    0.401    0.195  142.362
  423.204    6.863   89.561  204.450    0.401    0.199  145.711
  423.454    6.569   90.347  204.536    0.401    0.203  152.231
