~VERSION INFORMATION
 VERS.                 2.0:   CWLS LOG ASCII STANDARD -VERSION 2.0
 WRAP.                  NO:   ONE LINE PER DEPTH STEP
~WELL INFORMATION BLOCK
#MNEM.UNIT           DATA                    DESCRIPTION OF MNEMONIC
#---------    -------------------            -------------------------------
# Generated from Intellog Unique Number	CW_82_90/WELL/3055
WELL.         06-28-087-22W4                 : Well_name    - WELL
LOC .         00/06-28-087-22W4/0            : Location     - LOCATION
UWI .         00/06-28-087-22W4/0            : Uwi          - UNIQUE WELL ID
ENTR.         MAX                            : Entered      - ENTERED BY
SRVC.         SCHLUMBERGER                   : Scn          - SERVICE COMPANY
STRT.M        106.68                         : top_depth    - START DEPTH
STOP.M        303.68                         : bot_depth    - STOP DEPTH
STEP.M        0.25                           : increment    - STEP LENGTH
 NULL. -999.2500:NULL Value
~CURVE INFORMATION BLOCK
#MNEM UNIT       ERCB CURVE CODE    CURVE DESCRIPTION
#-----------   ------------------   ----------------------------------
DEPT.M        00 001 00 00         : DEPTH        - DEPTH
GR  .API      00 310 00 00         : GR           - GAMMA RAY
CALI.MM       00 280 01 00         : CAL          - CALIPER
DPHI.V/V      00 890 00 00         : PHID         - DENSITY POROSITY (SANDSTONE)
NPHI.V/V      00 330 00 00         : PHIN         - NEUTRON POROSITY (SANDSTONE)
ILD .OHMM     00 120 00 00         : RESD         - DEEP RESISTIVITY (DIL)
~PARAMETER INFORMATION
#MNEM.UNIT           DATA             DESCRIPTION OF MNEMONIC
#---------         -----------     ------------------------------
GL  .M        536.448              : gl           - GROUND LEVEL ELEVATION
EREF.M        539.801              : kb           - ELEVATION OF DEPTH REFERENCE
DATM.M        536.448              : datum        - DATUM ELEVATION
TDD .M        307.238              : tdd          - TOTAL DEPTH DRILLER
RUN .         ONE                  : Run          - RUN NUMBER
ENG .         BILL                 : Engineer     - RECORDING ENGINEER
WIT .         JIM                  : Witness      - WITNESSED BY
MUD .         GEL                  : Mud_type     - MUD TYPE
MATR.         SANDSTONE            : Logunit      - NEUTRON MATRIX
TMAX.C        20                   : BHT          - MAXIMUM RECORDED TEMPERATURE
BHTD.M        307.238              : BHTDEP       - MAXIMUM RECORDED TEMPERATURE
MATR.         1                    : LOGUNIT      - NEUTRON MATRIX
RMT .C        17.2222              : MDTP         - TEMPERATURE OF MUD
NEUT.         1                    : NEUTRON      - NEUTRON TYPE
RESI.         0                    : RESIST       - RESISTIVITY TYPE
RMC .OHMM     1.12                 : RMC          - RESISTIVITY OF MUD CAKE
RMF .OHMM     1.23                 : RMF          - RESISTIVITY OF MUD FILTRATE
SUFT.C        -15                  : SUFT         - SURFACE TEMPERATURE
~A  DEPTH       GR      CAL     PHID     PHIN     RESD
  106.680   63.305  235.679    0.206    0.468   19.831
  106.930   59.225  235.686    0.197    0.436   20.362
  107.180   53.978  236.186    0.202    0.422   21.486
  107.430   37.354  241.135    0.306    0.452   23.297
  107.680   32.107  247.564    0.336    0.461   25.492
  107.930   30.361  250.535    0.376    0.470   26.900
  108.180   29.782  253.506    0.377    0.477   28.128
  108.430   29.495  257.465    0.371    0.480   29.413
  108.680   28.333  262.411    0.374    0.455   30.757
  108.930   28.920  267.854    0.371    0.482   32.159
  109.180   31.842  266.872    0.369    0.511   32.728
  109.430   32.721  259.470    0.363    0.536   33.300
  109.680   33.600  254.537    0.332    0.560   32.379
  109.930   36.813  247.135    0.224    0.546   29.820
  110.180   52.571  240.721    0.168    0.363   21.102
  110.430   70.079  238.751    0.192    0.425   14.934
  110.680   76.501  240.241    0.252    0.463   11.261
  110.930   77.089  242.719    0.260    0.506    9.470
  111.180   77.386  244.703    0.270    0.551    7.541
  111.430   79.432  245.202    0.278    0.543    6.458
  111.680   82.645  246.198    0.277    0.556    5.529
  111.930   84.108  246.699    0.277    0.558    5.233
  112.180   84.987  246.706    0.280    0.557    4.862
  112.430   84.700  247.702    0.286    0.571    4.397
  112.680   84.121  247.708    0.298    0.584    4.086
  112.930   84.416  246.728    0.319    0.590    3.763
  113.180   83.545  246.241    0.323    0.597    3.593
  113.430   79.759  245.261    0.316    0.599    3.590
  113.680   79.178  244.774    0.306    0.593    3.652
  113.930   79.766  244.287    0.289    0.567    3.684
  114.180   76.561  244.789    0.279    0.588    3.681
  114.430   73.357  246.278    0.255    0.598    3.779
  114.680   72.486  245.791    0.299    0.583    3.811
  114.930   72.490  244.315    0.308    0.565    3.706
  115.180   69.869  243.829    0.316    0.595    3.475
  115.430   69.874  243.344    0.322    0.594    3.441
  115.680   71.045  243.845    0.325    0.584    3.439
  115.930   72.799  244.346    0.311    0.590    3.436
  116.180   73.971  244.846    0.307    0.590    3.465
  116.430   74.850  245.347    0.304    0.580    3.462
  116.680   74.562  245.849    0.295    0.586    3.429
  116.930   73.109  247.338    0.290    0.584    3.395
  117.180   72.529  247.839    0.279    0.565    3.392
  117.430   72.533  248.340    0.270    0.529    3.389
  117.680   72.830  248.842    0.246    0.542    3.387
  117.930   74.875  248.850    0.206    0.591    3.384
  118.180   78.672  248.857    0.248    0.595    3.382
  118.430   77.801  248.863    0.294    0.582    3.441
  118.680   76.640  248.377    0.291    0.566    3.471
  118.930   76.643  246.903    0.280    0.559    3.596
  119.180   77.231  245.922    0.267    0.544    3.760
  119.430   77.819  244.942    0.266    0.568    3.968
  119.680   78.407  243.962    0.271    0.573    4.187
  119.930   79.286  243.967    0.281    0.582    4.338
  120.180   79.582  243.481    0.298    0.580    4.536
  120.430   76.669  242.501    0.292    0.569    4.492
  120.680   74.340  241.519    0.280    0.551    4.368
  120.930   71.426  241.032    0.269    0.529    4.404
  121.180   65.013  240.546    0.261    0.531    4.690
  121.430   59.766  240.059    0.262    0.517    5.322
  121.680   57.728  239.079    0.269    0.519    6.795
  121.930   57.150  238.097    0.281    0.535    7.436
  122.180   57.446  239.588    0.290    0.542    9.322
  122.430   58.325  238.607    0.299    0.545   10.296
  122.680   58.912  234.662    0.293    0.526   12.449
  122.930   59.792  229.235    0.306    0.501   14.647
  123.180   59.796  225.784    0.295    0.492   15.039
  123.430   59.800  224.803    0.301    0.501   14.895
  123.680   59.513  223.824    0.310    0.540   14.352
  123.930   58.934  223.336    0.301    0.515   13.829
  124.180   58.938  223.344    0.294    0.513   13.569
  124.430   59.526  223.845    0.292    0.508   13.558
  124.680   59.530  224.346    0.285    0.523   13.428
  124.930   59.243  225.837    0.280    0.557   13.297
  125.180   57.497  226.337    0.277    0.572   13.166
  125.430   56.918  226.838    0.282    0.548   13.156
  125.680   56.923  226.846    0.288    0.518   13.266
  125.930   57.801  227.348    0.291    0.524   13.019
  126.180   58.972  227.848    0.280    0.565   12.891
  126.430   56.059  228.350    0.232    0.548   12.534
  126.680   56.063  227.862    0.220    0.549   12.872
  126.930   57.234  227.870    0.293    0.556   13.339
  127.180   57.823  227.876    0.311    0.573   13.947
  127.430   58.994  227.887    0.317    0.569   14.321
  127.680   60.456  227.891    0.321    0.560   14.182
  127.930   62.211  227.898    0.329    0.546   13.419
  128.180   65.425  228.402    0.324    0.548   11.702
  128.430   68.638  228.901    0.291    0.559    7.563
  128.680   71.559  230.885    0.274    0.573    5.255
  128.930   72.731  234.350    0.273    0.582    4.301
  129.180   71.568  235.839    0.260    0.597    4.144
  129.430   71.865  236.340    0.253    0.598    4.255
  129.680   72.743  236.347    0.255    0.599    4.614
  129.930   72.748  236.355    0.251    0.596    5.141
  130.180   72.752  236.363    0.247    0.598    5.425
  130.430   71.006  235.875    0.242    0.594    5.471
  130.680   69.551  235.389    0.243    0.588    5.517
  130.930   68.390  235.397    0.251    0.596    5.664
  131.180   67.226  235.897    0.259    0.568    5.817
  131.430   63.730  235.410    0.266    0.561    6.250
  131.680   57.608  234.924    0.274    0.555    7.091
  131.930   48.861  233.448    0.301    0.543    8.498
  132.180   41.863  229.998    0.319    0.537   11.150
  132.430   34.282  230.499    0.347    0.523   14.764
  132.680   26.120  231.495    0.354    0.521   19.727
  132.930   26.707  231.996    0.370    0.524   28.866
  133.180   27.586  230.027    0.367    0.509   33.966
  133.430   28.757  229.047    0.351    0.495   40.692
  133.680   29.053  228.561    0.352    0.478   41.789
  133.930   29.349  228.567    0.355    0.470   41.755
  134.180   29.353  228.080    0.354    0.454   40.974
  134.430   29.358  227.593    0.347    0.447   36.370
  134.680   29.947  227.600    0.341    0.455   37.360
  134.930   31.118  227.608    0.337    0.457   36.327
  135.180   31.996  227.615    0.334    0.457   35.654
  135.430   35.210  228.117    0.329    0.477   34.041
  135.680   39.590  228.617    0.313    0.467   33.105
  135.930   46.887  228.624    0.277    0.478   30.485
  136.180   56.518  228.140    0.252    0.492   24.720
  136.430   60.607  227.158    0.217    0.505   18.142
  136.680   61.486  226.670    0.181    0.524   11.002
  136.930   61.782  227.173    0.192    0.552    8.525
  137.180   61.495  227.674    0.271    0.550    7.640
  137.430   61.499  227.683    0.304    0.539    7.497
  137.680   57.711  227.687    0.303    0.543    7.837
  137.930   48.088  227.696    0.286    0.542    8.271
  138.180   43.133  228.197    0.286    0.525    9.051
  138.430   39.345  227.215    0.310    0.483    9.994
  138.680   35.558  226.238    0.324    0.455   11.975
  138.930   34.103  226.242    0.329    0.482   15.571
  139.180   34.691  227.238    0.316    0.505   22.577
  139.430   35.862  229.714    0.289    0.498   31.282
  139.680   37.617  231.700    0.267    0.481   39.224
  139.930   37.913  232.694    0.226    0.488   36.447
  140.180   35.874  232.702    0.242    0.498   35.118
  140.430   34.129  230.239    0.319    0.473   35.089
  140.680   33.550  228.765    0.327    0.456   36.696
  140.930   33.262  228.770    0.331    0.453   39.791
  141.180   33.266  229.766    0.334    0.447   41.229
  141.430   33.270  230.761    0.337    0.467   43.506
  141.680   32.691  231.262    0.336    0.489   45.497
  141.930   32.988  231.271    0.327    0.462   46.297
  142.180   34.159  231.278    0.327    0.480   47.111
  142.430   34.746  231.285    0.333    0.469   48.814
  142.680   35.626  231.291    0.340    0.459   49.219
  142.930   36.797  232.287    0.344    0.447   49.183
