~VERSION INFORMATION
 VERS.                 2.0:   CWLS LOG ASCII STANDARD -VERSION 2.0
 WRAP.                  NO:   ONE LINE PER DEPTH STEP
~WELL INFORMATION BLOCK
#MNEM.UNIT           DATA                    DESCRIPTION OF MNEMONIC
#---------    -------------------            -------------------------------
# Generated from Intellog Unique Number	CN_91_93/WELL/3225
WELL.         AMOCO CANADA PETROLEUM CO.LTD. : Well_name    - WELL
LOC .         00/06-35-092-19W4/0            : Location     - LOCATION
UWI .         00/06-35-092-19W4/0            : Uwi          - UNIQUE WELL ID
ENTR.         JOETTE                         : Entered      - ENTERED BY
SRVC.         SCHLUMBERGER                   : Scn          - SERVICE COMPANY
DATE.         04/14/92                       : Date         - LOG DATE
STRT.F        300                            : top_depth    - START DEPTH
STOP.F        879.888                        : bot_depth    - STOP DEPTH
STEP.F        0.82                           : increment    - STEP LENGTH
 NULL. -999.2500:NULL Value
~CURVE INFORMATION BLOCK
#MNEM UNIT       ERCB CURVE CODE    CURVE DESCRIPTION
#-----------   ------------------   ----------------------------------
DEPT.F        00 001 00 00         : DEPTH        - DEPTH
CALI.IN       00 280 01 00         : CAL          - CALIPER
GR  .API      00 310 00 00         : GR           - GAMMA RAY
NPHI.V/V      00 330 00 00         : PHIN         - NEUTRON POROSITY (SANDSTONE)
DPHI.V/V      00 890 00 00         : PHID         - DENSITY POROSITY (SANDSTONE)
ILD .OHMM     00 120 00 00         : RESD         - DEEP RESISTIVITY (DIL)
~PARAMETER INFORMATION
#MNEM.UNIT           DATA             DESCRIPTION OF MNEMONIC
#---------         -----------     ------------------------------
GL  .F        1707                 : gl           - GROUND LEVEL ELEVATION
EREF.F        1718                 : kb           - ELEVATION OF DEPTH REFERENCE
DATM.F        1718                 : datum        - DATUM ELEVATION
TDD .F        1331                 : tdd          - TOTAL DEPTH DRILLER
RUN .         ONE                  : Run          - RUN NUMBER
ENG .         JO                   : Engineer     - RECORDING ENGINEER
WIT .         TIM                  : Witness      - WITNESSED BY
MUD .         GEL                  : Mud_type     - MUD TYPE
MATR.         SANDSTONE            : Logunit      - NEUTRON MATRIX
TMAX.F        70                   : BHT          - MAXIMUM RECORDED TEMPERATURE
BHTD.F        331                  : BHTDEP       - MAXIMUM RECORDED TEMPERATURE
RMT .F        54                   : MDTP         - TEMPERATURE OF MUD
MUDD.LB/G     9.1                  : MWT          - MUD DENSITY
NEUT.         1                    : NEUTRON      - NEUTRON TYPE
RESI.         0                    : RESIST       - RESISTIVITY TYPE
RM  .OHMM     2.54                 : RM           - RESISTIVITY OF MUD
RMC .OHMM     2.54                 : RMC          - RESISTIVITY OF MUD CAKE
RMF .OHMM     2.54                 : RMF          - RESISTIVITY OF MUD FILTRATE
SUFT.F        39.2                 : SUFT         - SURFACE TEMPERATURE
~A  DEPTH      CAL       GR     PHIN     PHID     RESD
# ...
  659.252    9.121   85.386    0.402    0.112   14.867
  660.072    8.997   89.104    0.434    0.150   14.865
  660.892    8.997   90.343    0.444    0.194   14.586
  661.713    9.038   90.341    0.441    0.204   14.860
  662.533    9.080   88.479    0.430    0.215   16.322
  663.353    9.080   86.616    0.416    0.178   18.268
  664.173    9.079   87.855    0.396    0.155   26.103
  664.993    9.079   82.893    0.364    0.070   27.615
  665.814    9.079   77.310    0.271   -0.030   38.726
  666.634    9.079   73.588    0.236   -0.007   42.537
  667.454    9.079   66.144    0.218    0.020   51.324
  668.274    9.079   64.282    0.237    0.026   51.317
  669.094    9.079   66.141    0.256   -0.007   47.592
  669.915    9.079   66.759    0.246   -0.007   34.572
  670.735    9.078   66.137    0.208   -0.020   32.063
  671.555    9.078   66.135    0.229    0.002   29.183
  672.375    9.078   68.614    0.307    0.035   21.199
  673.196    9.037   73.573    0.351    0.084   20.034
  674.016    9.037   81.012    0.363    0.120   17.894
  674.836    9.036   84.731    0.415    0.200   16.596
  675.656    9.036   84.729    0.454    0.178   15.392
  676.476    9.078   85.347    0.481    0.157   14.008
  677.297    9.119   84.725    0.478    0.144   13.746
  678.117    9.160   85.963    0.452    0.098   13.746
  678.937    9.201   88.442    0.494    0.103   11.174
  679.757    9.242   90.921    0.499    0.190   11.602
  680.577    9.325   90.919    0.492    0.200   11.820
  681.398    9.366   93.397    0.500    0.206   12.043
  682.218    9.407   95.255    0.535    0.197   12.503
  683.038    9.449   95.253    0.548    0.191   13.226
  683.858    9.449   95.251    0.523    0.168   12.978
  684.678    9.448   95.250    0.515    0.149   12.734
  685.499    9.448   93.388    0.510    0.113   13.220
  686.319    9.448   89.666    0.492    0.082   13.985
  687.139    9.365   89.663    0.483    0.095   14.793
  687.959    9.448   93.382    0.506    0.122   14.791
  688.780    9.489   95.861    0.498    0.159   14.243
  689.600    9.406   93.999    0.494    0.162   13.976
  690.420    9.241   92.137    0.512    0.120   13.459
  691.240    9.199   95.855    0.541    0.143   13.207
  692.060    9.323   98.953    0.563    0.173   13.205
  692.881    9.447  101.432    0.538    0.153   13.203
  693.701    9.488  100.811    0.558    0.128   13.201
  694.521    9.406   97.088    0.569    0.104   12.953
  695.341    9.323   96.466    0.519    0.097   12.710
  696.161    9.405   97.085    0.503    0.143   12.707
  696.982    9.447  102.663    0.522    0.189   12.706
  697.802    9.529  105.141    0.512    0.184   12.945
  698.622    9.529  105.760    0.494    0.178   13.190
  699.442    9.488  106.378    0.474    0.187   12.942
  700.262    9.446  103.896    0.478    0.149   12.462
  701.083    9.446  100.174    0.469    0.137   12.460
  701.903    9.363   96.451    0.445    0.069   12.459
  702.723    9.239   95.210    0.407    0.018   12.457
  703.543    9.322  100.168    0.446    0.035   12.932
  704.364    9.528  106.367    0.518    0.191   12.221
  705.184    9.569  107.606    0.529    0.180   11.769
  706.004    9.611  109.464    0.501    0.168   10.124
  706.824    9.404  110.082    0.498    0.184    9.390
  707.644    9.321  109.460    0.529    0.198    8.708
  708.465    9.321  106.357    0.540    0.181    8.872
  709.285    9.321  104.496    0.564    0.181    9.211
  710.105    9.279  102.014    0.583    0.189    9.928
  710.925    9.196   97.671    0.583    0.155   10.308
  711.745    9.155   93.949    0.533    0.157   14.186
  712.566    9.114   67.904    0.495    0.192   15.581
  713.386    9.031   36.278    0.443    0.254   17.114
  714.206    8.948   25.114    0.388    0.291   18.798
  715.026    8.906   21.392    0.376    0.311   21.039
  715.846    8.865   20.770    0.385    0.305   20.643
  716.667    8.823   20.768    0.388    0.306   20.256
  717.487    8.823   21.386    0.378    0.317   21.029
  718.307    8.865   21.384    0.369    0.311   22.669
  719.127    8.865   22.003    0.379    0.306   27.351
  719.948    8.906   22.001    0.395    0.306   39.825
  720.768    8.906   22.619    0.412    0.309   44.574
  721.588    8.905   23.237    0.414    0.317   50.835
  722.408    8.905   23.236    0.417    0.315   59.072
  723.228    8.905   23.854    0.431    0.309   63.676
  724.049    8.905   23.852    0.442    0.308   64.873
  724.869    8.905   23.849    0.448    0.307   63.660
  725.689    8.905   23.848    0.464    0.305   59.039
  726.509    8.905   23.846    0.469    0.302   52.732
  727.329    8.905   24.464    0.461    0.305   50.783
  728.150    8.904   25.083    0.466    0.305   49.829
  728.970    8.904   25.701    0.483    0.300   48.892
  729.790    8.904   26.319    0.498    0.297   47.979
  730.610    8.904   28.178    0.513    0.302   47.969
  731.430    8.904   29.416    0.519    0.307   47.962
  732.251    8.904   30.654    0.519    0.312   45.325
  733.071    8.904   30.032    0.512    0.324   43.649
  733.891    8.904   28.790    0.505    0.331   36.850
  734.711    8.903   27.548    0.516    0.346   38.983
  735.531    8.903   27.545    0.594    0.354   47.927
  736.352    8.903   27.544    0.544    0.329   54.660
  737.172    8.903   27.543    0.489    0.309   61.175
  737.992    8.903   27.541    0.443    0.305   65.942
  738.812    8.903   26.919    0.431    0.305   67.186
  739.633    8.820   27.537    0.422    0.298   68.451
  740.453    8.737   28.155    0.430    0.313   64.687
  741.273    8.696   30.014    0.465    0.325   58.874
  742.093    8.613   31.872    0.465    0.319   53.588
  742.913    8.572   33.731    0.442    0.309   47.865
  743.734    8.571   34.970    0.436    0.300   46.094
  744.554    8.613   40.548    0.459    0.298   45.228
  745.374    8.654   43.026    0.488    0.304   45.228
  746.194    8.695   39.924    0.465    0.303   47.835
  747.014    8.736   38.683    0.455    0.308   44.363
  747.835    8.778   36.200    0.445    0.302   44.359
  748.655    8.819   36.199    0.452    0.297   43.527
  749.475    8.860   36.196    0.461    0.302   43.521
  750.295    8.901   38.054    0.472    0.290   43.515
  751.115    8.901   38.673    0.486    0.277   44.335
  751.936    8.901   39.291    0.495    0.273   46.898
  752.756    8.901   38.669    0.486    0.276   47.781
  753.576    8.901   38.048    0.480    0.271   47.773
  754.396    8.901   36.185    0.518    0.288   45.149
  755.217    8.942   37.423    0.570    0.301   42.669
  756.037    8.942   38.042    0.568    0.295   32.792
  756.857    8.942   38.660    0.547    0.302   27.685
  757.677    8.941   38.659    0.539    0.284   22.938
  758.497    8.941   40.517    0.534    0.269   25.194
  759.318    8.941   47.336    0.546    0.274   40.299
  760.138    8.941   49.815    0.523    0.283   45.961
  760.958    8.941   50.433    0.523    0.297   64.454
  761.778    8.941   49.191    0.551    0.298   82.279
  762.598    8.899   45.469    0.572    0.297  107.030
  763.419    8.858   41.746    0.571    0.279  117.560
  764.239    8.775   37.403    0.521    0.266  109.030
  765.059    8.734   39.881    0.527    0.273   88.654
  765.879    8.733   41.741    0.505    0.280   65.620
  766.699    8.733   46.699    0.459    0.271   57.520
  767.520    8.733   48.558    0.444    0.262   52.354
  768.340    8.774   50.416    0.412    0.257   52.346
  769.160    8.898   50.414    0.400    0.263   54.344
  769.980    8.981   51.032    0.424    0.268   58.575
  770.801    9.022   52.270    0.438    0.259   58.575
  771.621    9.063   52.889    0.449    0.251   83.688
  772.441    9.063   52.267    0.432    0.257   83.688
  773.261    9.022   46.065    0.437    0.259   69.327
  774.081    8.939   41.102    0.438    0.260   71.980
  774.902    8.897   40.480    0.425    0.263   79.061
  775.722    8.897   40.478    0.443    0.265   83.635
  776.542    8.897   40.477    0.475    0.251   88.471
  777.362    8.897   40.474    0.470    0.236   90.137
  778.182    8.938   40.473    0.438    0.240   90.121
