~VERSION INFORMATION
 VERS.                 2.0:   CWLS LOG ASCII STANDARD -VERSION 2.0
 WRAP.                  NO:   ONE LINE PER DEPTH STEP
~WELL INFORMATION BLOCK
#MNEM.UNIT           DATA                    DESCRIPTION OF MNEMONIC
#---------    -------------------            -------------------------------
# Generated from Intellog Unique Number	CW_79_81/WELL/2443
WELL.         04-01-080-22W4                 : Well_name    - WELL
LOC .         00/04-01-080-22W4/0            : Location     - LOCATION
UWI .         00/04-01-080-22W4/0            : Uwi          - UNIQUE WELL ID
ENTR.         MAX                            : Entered      - ENTERED BY
SRVC.         COMPUTALOG                     : Scn          - SERVICE COMPANY
STRT.M        215                            : top_depth    - START DEPTH
STOP.M        474.75                         : bot_depth    - STOP DEPTH
STEP.M        0.25                           : increment    - STEP LENGTH
 NULL. -999.2500:NULL Value
~CURVE INFORMATION BLOCK
#MNEM UNIT       ERCB CURVE CODE    CURVE DESCRIPTION
#-----------   ------------------   ----------------------------------
DEPT.M        00 001 00 00         : DEPTH        - DEPTH
ILD .OHMM     00 120 00 00         : RESD         - DEEP RESISTIVITY (DIL)
NPHI.V/V      00 330 00 00         : PHIN         - NEUTRON POROSITY (SANDSTONE)
DPHI.V/V      00 890 00 00         : PHID         - DENSITY POROSITY (SANDSTONE)
GR  .API      00 310 00 00         : GR           - GAMMA RAY
CALI.MM       00 280 01 00         : CAL          - CALIPER
~PARAMETER INFORMATION
#MNEM.UNIT           DATA             DESCRIPTION OF MNEMONIC
#---------         -----------     ------------------------------
GL  .M        585.4                : gl           - GROUND LEVEL ELEVATION
EREF.M        590                  : kb           - ELEVATION OF DEPTH REFERENCE
DATM.M        585.4                : datum        - DATUM ELEVATION
TDD .M        477                  : tdd          - TOTAL DEPTH DRILLER
RUN .         ONE                  : Run          - RUN NUMBER
ENG .         BILL                 : Engineer     - RECORDING ENGINEER
WIT .         JIM                  : Witness      - WITNESSED BY
MUD .         GEL                  : Mud_type     - MUD TYPE
MATR.         SANDSTONE            : Logunit      - NEUTRON MATRIX
TMAX.C        30                   : BHT          - MAXIMUM RECORDED TEMPERATURE
BHTD.M        477                  : BHTDEP       - MAXIMUM RECORDED TEMPERATURE
MATR.         1                    : LOGUNIT      - NEUTRON MATRIX
RMT .C        20                   : MDTP         - TEMPERATURE OF MUD
NEUT.         1                    : NEUTRON      - NEUTRON TYPE
RESI.         0                    : RESIST       - RESISTIVITY TYPE
RMC .OHMM     8                    : RMC          - RESISTIVITY OF MUD CAKE
RMF .OHMM     10                   : RMF          - RESISTIVITY OF MUD FILTRATE
SUFT.C        -20                  : SUFT         - SURFACE TEMPERATURE
~A  DEPTH     RESD     PHIN     PHID       GR      CAL
# ...
  434.000   17.043    0.278    0.114   64.721  224.884
  434.250   17.698    0.252    0.094   76.481  224.927
  434.500   17.007    0.222    0.060   90.220  224.963
  434.750   15.129    0.215    0.052   98.151  224.998
  435.000   13.147    0.253    0.086   98.535  225.135
  435.250   11.922    0.349    0.153   95.485  225.750
  435.500   11.667    0.367    0.147   94.506  226.618
  435.750   11.943    0.383    0.154   80.875  227.455
  436.000   13.235    0.386    0.165   65.984  227.092
  436.250   14.927    0.372    0.182   52.352  225.931
  436.500   16.634    0.342    0.215   42.795  224.672
  436.750   19.105    0.310    0.289   40.373  224.152
  437.000   20.991    0.340    0.328   40.148  223.352
  437.250   20.252    0.473    0.523   40.648  222.996
  437.500   16.569    0.574    0.590   55.702  223.235
  437.750   13.628    0.559    0.609   70.938  223.870
  438.000   11.697    0.441    0.547   78.567  224.903
  438.250   10.066    0.337    0.293   75.999  226.627
  438.500    9.411    0.357    0.411   69.034  227.087
  438.750    8.949    0.463    0.393   87.740  226.320
  439.000    8.847    0.495    0.315  102.855  224.064
  439.250    9.052    0.494    0.225  106.831  222.705
  439.500    9.539    0.477    0.172  101.465  222.940
  439.750   10.585    0.436    0.208   97.847  224.030
  440.000   12.383    0.429    0.224   97.622  225.318
  440.250   15.574    0.437    0.232   82.793  226.958
  440.500   19.195    0.425    0.247   70.836  227.094
  440.750   22.321    0.404    0.262   61.515  225.333
  441.000   23.869    0.387    0.275   55.011  222.473
  441.250   23.240    0.383    0.287   55.265  220.604
  441.500   21.079    0.361    0.290   72.008  221.064
  441.750   18.173    0.336    0.259   97.901  222.293
  442.000   17.387    0.312    0.232  117.331  222.635
  442.250   17.784    0.370    0.254  118.431  222.478
  442.500   19.084    0.499    0.315   99.828  222.414
  442.750   21.712    0.568    0.342   69.381  223.334
  443.000   24.614    0.408    0.310   63.167  223.786
  443.250   25.375    0.344    0.289   65.583  223.833
  443.500   25.594    0.412    0.270   68.540  222.972
  443.750   26.188    0.511    0.298   71.437  221.608
  444.000   27.410    0.565    0.352   72.716  220.143
  444.250   28.910    0.505    0.339   68.572  218.989
  444.500   30.084    0.403    0.302   62.109  219.038
  444.750   29.677    0.374    0.277   67.878  219.472
  445.000   27.834    0.327    0.253   74.369  217.810
  445.250   25.902    0.365    0.281   72.596  216.052
  445.500   24.273    0.503    0.378   65.609  215.792
  445.750   22.440    0.659    0.514   69.310  218.642
  446.000   20.984    0.599    0.452   73.327  220.757
  446.250   19.654    0.470    0.352   61.611  219.598
  446.500   18.724    0.430    0.291   56.002  218.745
  446.750   18.003    0.416    0.263   54.826  218.184
  447.000   17.275    0.397    0.254   55.089  217.520
  447.250   16.244    0.371    0.239   51.584  215.889
  447.500   15.892    0.353    0.229   47.114  215.505
  447.750   16.266    0.370    0.230   48.095  215.540
  448.000   15.928    0.384    0.228   46.739  215.886
  448.250   15.371    0.394    0.237   41.972  216.721
  448.500   14.918    0.391    0.258   35.646  217.945
  448.750   14.701    0.358    0.280   34.254  219.024
  449.000   14.607    0.326    0.266   42.762  218.232
  449.250   14.842    0.313    0.229   56.438  217.069
  449.500   15.245    0.341    0.183   75.147  217.709
  449.750   15.776    0.362    0.203   69.784  219.344
  450.000   16.362    0.354    0.334   44.949  220.876
  450.250   16.978    0.373    0.574   40.089  220.587
  450.500   17.534    0.603    0.509   45.596  218.968
  450.750   17.172    0.575    0.394   58.795  218.604
  451.000   16.719    0.402    0.258   74.868  218.539
  451.250   15.636    0.285    0.150   86.150  219.178
  451.500   14.189    0.280    0.090   93.239  220.518
  451.750   12.900    0.304    0.072  107.301  222.737
  452.000   12.337    0.314    0.098  118.806  225.693
  452.250   11.903    0.301    0.096  120.506  226.530
  452.500   11.551    0.282    0.094  126.699  226.759
  452.750   11.189    0.286    0.107  132.468  226.792
  453.000   10.840    0.314    0.147  135.421  226.832
  453.250   10.586    0.370    0.221  136.288  226.882
  453.500   10.437    0.508    0.226  139.306  226.918
  453.750   10.449    0.507    0.225  142.441  226.957
  454.000   10.463    0.492    0.219  137.315  226.992
  454.250   10.322    0.463    0.209  134.105  227.029
  454.500    9.938    0.437    0.196  135.802  227.168
  454.750    9.188    0.437    0.183  139.770  227.613
  455.000    8.591    0.427    0.169  147.530  227.649
  455.250    8.227    0.406    0.170  145.637  228.083
  455.500    7.969    0.375    0.182  146.077  228.221
  455.750    7.806    0.380    0.189  148.974  228.257
  456.000    7.745    0.406    0.187  152.413  228.193
  456.250    7.873    0.383    0.177  151.892  227.675
  456.500    8.191    0.367    0.169  149.166  226.888
  456.750    8.758    0.434    0.197  137.214  226.128
  457.000    9.316    0.474    0.206  128.132  225.366
  457.250    9.752    0.479    0.201  124.200  224.800
  457.500   10.002    0.459    0.189  125.658  224.534
  457.750   10.061    0.441    0.181  132.613  224.501
  458.000    9.920    0.441    0.178  142.122  224.121
  458.250    9.431    0.428    0.188  134.960  223.757
  458.500    9.119    0.416    0.189  135.697  223.395
  458.750    8.832    0.439    0.183  137.635  223.434
  459.000    8.542    0.480    0.172  136.700  223.773
  459.250    8.269    0.468    0.158  131.857  223.823
  459.500    8.092    0.440    0.137  133.875  223.859
  459.750    7.634    0.456    0.124  142.041  224.293
  460.000    7.082    0.487    0.112  143.563  224.131
  460.250    6.590    0.519    0.117  144.303  223.571
  460.500    6.224    0.530    0.133  146.540  222.710
  460.750    5.981    0.490    0.132  147.367  221.555
  461.000    5.852    0.481    0.125  139.406  221.591
  461.250    5.731    0.442    0.119  135.837  220.827
  461.500    5.708    0.454    0.146  140.349  220.666
  461.750    5.757    0.462    0.161  147.317  221.504
  462.000    5.838    0.462    0.155  152.731  222.742
  462.250    5.943    0.494    0.151  151.402  222.532
  462.500    6.232    0.493    0.136  137.450  221.329
  462.750    6.858    0.419    0.150  131.962  221.771
  463.000    7.513    0.418    0.165  128.810  222.201
  463.250    8.245    0.449    0.176  128.953  222.633
  463.500    9.014    0.481    0.183  131.910  223.373
  463.750    9.620    0.492    0.193  135.519  225.025
  464.000    9.857    0.446    0.202  134.295  225.050
  464.250    9.165    0.460    0.209  135.993  225.495
  464.500    8.423    0.429    0.200  134.998  225.932
  464.750    7.414    0.405    0.183  135.979  226.566
  465.000    6.268    0.390    0.160  129.117  227.199
  465.250    5.127    0.327    0.134   88.696  226.743
  465.500    4.757    0.280    0.162   81.736  224.288
  465.750    5.013    0.295    0.202   87.503  222.331
  466.000    5.426    0.333    0.205   92.017  220.673
  466.250    6.234    0.376    0.190   90.603  218.714
  466.500    7.417    0.402    0.174   81.342  217.253
  466.750    7.892    0.366    0.170   64.829  218.832
  467.000    7.663    0.278    0.173   63.608  220.528
  467.250    6.656    0.309    0.192   63.147  219.765
  467.500    6.063    0.345    0.226   58.379  218.710
  467.750    5.751    0.367    0.257   51.694  218.547
  468.000    5.613    0.365    0.274   46.805  219.676
  468.250    5.521    0.334    0.272   50.398  221.390
  468.500    5.444    0.322    0.261   58.657  219.767
  468.750    5.491    0.306    0.251   64.428  219.403
  469.000    5.815    0.297    0.244   70.377  220.236
  469.250    6.245    0.293    0.239   78.541  220.674
  469.500    6.670    0.294    0.233   91.979  220.315
  469.750    7.130    0.293    0.226  115.715  219.875
  470.000    7.364    0.286    0.220  120.480  219.495
  470.250    7.211    0.289    0.206  123.857  219.530
