~VERSION INFORMATION
 VERS.                 2.0:   CWLS LOG ASCII STANDARD -VERSION 2.0
 WRAP.                  NO:   ONE LINE PER DEPTH STEP
~WELL INFORMATION BLOCK
#MNEM.UNIT           DATA                    DESCRIPTION OF MNEMONIC
#---------    -------------------            -------------------------------
# Generated from Intellog Unique Number	CX_WELLS/WELL/3997
WELL.         BRALORNE                       : Well_name    - WELL
LOC .         00/06-23-077-15W4/0            : Location     - LOCATION
UWI .         00/06-23-077-15W4/0            : Uwi          - UNIQUE WELL ID
ENTR.         T                              : Entered      - ENTERED BY
SRVC.         SCHLUMBERGER                   : Scn          - SERVICE COMPANY
DATE.         03/04/92                       : Date         - LOG DATE
STRT.M        275                            : top_depth    - START DEPTH
STOP.M        515                            : bot_depth    - STOP DEPTH
STEP.M        0.25                           : increment    - STEP LENGTH
 NULL. -999.2500:NULL Value
~CURVE INFORMATION BLOCK
#MNEM UNIT       ERCB CURVE CODE    CURVE DESCRIPTION
#-----------   ------------------   ----------------------------------
DEPT.M        00 001 00 00         : DEPTH        - DEPTH
GR  .API      00 310 00 00         : GR           - GAMMA RAY
NPHI.V/V      00 330 00 00         : PHIN         - NEUTRON POROSITY (SANDSTONE)
DPHI.V/V      00 890 00 00         : PHID         - DENSITY POROSITY (SANDSTONE)
ILD .OHMM     00 120 00 00         : RESD         - DEEP RESISTIVITY (DIL)
~PARAMETER INFORMATION
#MNEM.UNIT           DATA             DESCRIPTION OF MNEMONIC
#---------         -----------     ------------------------------
GL  .M        673                  : gl           - GROUND LEVEL ELEVATION
EREF.M        676.9                : kb           - ELEVATION OF DEPTH REFERENCE
DATM.M        676.9                : datum        - DATUM ELEVATION
TDD .M        520                  : tdd          - TOTAL DEPTH DRILLER
RUN .         ONE                  : Run          - RUN NUMBER
ENG .         JO                   : Engineer     - RECORDING ENGINEER
WIT .         TIM                  : Witness      - WITNESSED BY
MUD .         GEL                  : Mud_type     - MUD TYPE
MATR.         SANDSTONE            : Logunit      - NEUTRON MATRIX
TMAX.C        21                   : BHT          - MAXIMUM RECORDED TEMPERATURE
BHTD.M        520                  : BHTDEP       - MAXIMUM RECORDED TEMPERATURE
RMT .C        18                   : MDTP         - TEMPERATURE OF MUD
MUDD.KG/M     1                    : MWT          - MUD DENSITY
NEUT.         1                    : NEUTRON      - NEUTRON TYPE
RESI.         0                    : RESIST       - RESISTIVITY TYPE
RM  .OHMM     4                    : RM           - RESISTIVITY OF MUD
RMC .OHMM     3.8                  : RMC          - RESISTIVITY OF MUD CAKE
RMF .OHMM     4.1                  : RMF          - RESISTIVITY OF MUD FILTRATE
SUFT.C        4                    : SUFT         - SURFACE TEMPERATURE
~A  DEPTH       GR     PHIN     PHID     RESD
# ...
  362.000   40.147    0.348    0.297   15.521
  362.250   42.684    0.374    0.299   15.264
  362.500   45.221    0.377    0.311   14.755
  362.750   44.638    0.376    0.318   14.510
  363.000   44.085    0.371    0.308   14.291
  363.250   44.740    0.361    0.309   14.054
  363.500   44.780    0.349    0.320   13.828
  363.750   44.207    0.336    0.325   13.856
  364.000   44.228    0.329    0.310   13.633
  364.250   43.020    0.340    0.297   13.414
  364.500   43.071    0.363    0.294   13.191
  364.750   44.350    0.372    0.294   13.224
  365.000   46.887    0.374    0.294   13.011
  365.250   48.810    0.366    0.294   13.044
  365.500   49.486    0.366    0.295   13.063
  365.750   50.140    0.375    0.297   13.336
  366.000   50.181    0.381    0.300   13.356
  366.250   50.866    0.375    0.287   13.628
  366.500   50.283    0.368    0.286   13.912
  366.750   50.303    0.362    0.288   14.196
  367.000   49.096    0.368    0.287   14.231
  367.250   49.137    0.382    0.286   14.245
  367.500   49.178    0.395    0.288   14.280
  367.750   48.001    0.393    0.292   14.316
  368.000   48.021    0.385    0.288   14.344
  368.250   49.944    0.383    0.274   14.113
  368.500   52.492    0.378    0.268   13.886
  368.750   54.384    0.373    0.258   13.175
  369.000   56.922    0.368    0.256   12.047
  369.250   59.459    0.380    0.260   11.224
  369.500   63.889    0.392    0.259   10.462
  369.750   67.040    0.403    0.255   10.289
  370.000   70.201    0.412    0.252    9.941
  370.250   70.876    0.414    0.249   10.149
  370.500   69.669    0.406    0.249   10.164
  370.750   67.203    0.395    0.251   10.376
  371.000   65.371    0.387    0.256   10.587
  371.250   66.036    0.382    0.257   10.608
  371.500   67.960    0.391    0.262   10.443
  371.750   69.873    0.391    0.253   10.458
  372.000   71.786    0.386    0.241   10.474
  372.250   73.709    0.374    0.257   10.693
  372.500   74.374    0.349    0.264   10.714
  372.750   74.404    0.338    0.259   10.541
  373.000   73.821    0.344    0.249   10.185
  373.250   68.869    0.354    0.230    9.668
  373.500   66.434    0.362    0.207    9.692
  373.750   67.702    0.354    0.205    9.706
  374.000   72.132    0.248    0.203    9.725
  374.250   67.170    0.242    0.159    9.745
  374.500   59.711    0.284    0.067    9.759
  374.750   52.897    0.303    0.118    9.783
  375.000   52.938    0.316    0.213    9.798
  375.250   61.716    0.378    0.226    9.998
  375.500   70.495    0.397    0.229    9.837
  375.750   76.776    0.379    0.218    9.337
  376.000   81.206    0.385    0.210    9.017
  376.250   79.385    0.408    0.224    8.712
  376.500   78.781    0.419    0.219    8.572
  376.750   80.694    0.424    0.205    8.593
  377.000   81.983    0.413    0.201    8.615
  377.250   82.024    0.402    0.208    8.173
  377.500   82.699    0.401    0.212    7.619
  377.750   83.374    0.401    0.211    7.361
  378.000   84.663    0.398    0.205    7.239
  378.250   85.952    0.384    0.201    7.119
  378.500   86.617    0.380    0.208    6.882
  378.750   86.668    0.373    0.214    6.646
  379.000   87.323    0.366    0.213    6.305
  379.250   87.977    0.366    0.219    5.988
  379.500   89.266    0.369    0.224    6.216
  379.750   88.683    0.376    0.216    6.947
  380.000   87.476    0.371    0.227    7.767
  380.250   85.644    0.364    0.246    8.680
  380.500   82.564    0.371    0.259    7.657
  380.750   83.874    0.383    0.245    6.630
  381.000   86.401    0.416    0.237    5.640
  381.250   90.186    0.441    0.226    4.978
  381.500   94.596    0.426    0.206    4.472
  381.750   98.391    0.423    0.214    4.241
  382.000   99.680    0.423    0.224    3.810
  382.250   99.731    0.422    0.234    3.487
  382.500  101.020    0.428    0.245    3.308
  382.750  101.675    0.445    0.257    3.137
  383.000  103.588    0.468    0.261    2.821
  383.250  104.253    0.473    0.244    2.773
  383.500  103.045    0.482    0.238    2.679
  383.750  101.838    0.479    0.239    2.686
  384.000   98.758    0.471    0.239    2.690
  384.250   96.303    0.453    0.240    2.746
  384.500   96.364    0.435    0.242    2.804
  384.750   97.653    0.463    0.239    2.859
  385.000   97.704    0.465    0.238    2.916
  385.250   97.100    0.468    0.236    3.144
  385.500   96.517    0.407    0.235    3.390
  385.750   94.685    0.392    0.226    3.521
  386.000   92.240    0.387    0.223    4.082
  386.250   89.774    0.389    0.229    4.562
  386.500   84.822    0.387    0.235    5.287
  386.750   81.128    0.380    0.246    6.127
  387.000   79.911    0.372    0.258    7.364
  387.250   78.703    0.367    0.262    8.856
  387.500   74.385    0.360    0.247   10.078
  387.750   72.544    0.354    0.162   11.475
  388.000   72.595    0.346    0.089   13.059
  388.250   71.387    0.323    0.064   14.331
  388.500   67.673    0.160    0.027   16.310
  388.750   59.601    0.161    0.001   19.612
  389.000   54.649    0.161   -0.001   23.572
  389.250   50.321    0.160    0.034   29.934
  389.500   51.610    0.241    0.071   31.090
  389.750   57.267    0.296    0.119   22.048
  390.000   62.946    0.322    0.189   17.759
  390.250   62.986    0.342    0.285   15.100
  390.500   59.907    0.355    0.278   13.320
  390.750   55.579    0.359    0.273   12.186
  391.000   52.489    0.352    0.276   11.562
  391.250   48.785    0.345    0.274   11.591
  391.500   43.833    0.349    0.271   11.608
  391.750   45.756    0.360    0.273   11.856
  392.000   48.283    0.362    0.278   11.874
  392.250   48.948    0.351    0.281   11.903
  392.500   48.365    0.336    0.279   11.706
  392.750   48.405    0.330    0.278   11.518
  393.000   48.456    0.333    0.266   11.338
  393.250   48.507    0.343    0.261   11.156
  393.500   48.548    0.349    0.265   10.982
  393.750   49.223    0.351    0.270   10.794
  394.000   49.868    0.339    0.275   10.430
  394.250   51.791    0.330    0.279   10.082
  394.500   53.080    0.327    0.285    9.920
  394.750   52.497    0.331    0.288    9.760
  395.000   51.289    0.336    0.293    9.779
  395.250   50.082    0.345    0.293    9.799
  395.500   50.123    0.348    0.288    9.994
  395.750   49.539    0.352    0.284   10.023
  396.000   49.580    0.359    0.282    9.862
  396.250   50.255    0.367    0.280    9.699
  396.500   51.544    0.373    0.290    9.375
  396.750   53.457    0.364    0.291    9.220
  397.000   55.994    0.350    0.285    9.238
  397.250   57.273    0.348    0.279    9.431
  397.500   60.445    0.348    0.279    9.450
  397.750   59.861    0.348    0.275    9.130
  398.000   60.526    0.350    0.266    8.979
  398.250   63.688    0.354    0.265    8.997
  398.500   66.225    0.357    0.265    9.015
  398.750   68.772    0.360    0.264    9.037
  399.000   65.682    0.366    0.261    8.896
  399.250   65.733    0.369    0.262    8.905
  399.500   68.270    0.367    0.262    8.604
  399.750   66.439    0.373    0.261    8.024
  400.000   62.745    0.378    0.262    7.749
  400.250   59.665    0.389    0.263    7.352
  400.500   57.834    0.403    0.259    6.971
  400.750   59.737    0.418    0.246    6.266
  401.000   66.019    0.420    0.236    5.838
  401.250   71.676    0.400    0.244    5.846
  401.500   71.113    0.383    0.252    6.193
  401.750   69.282    0.366    0.251    6.550
  402.000   70.581    0.361    0.256    7.058
  402.250   71.860    0.357    0.260    7.749
  402.500   73.139    0.362    0.265    7.907
  402.750   73.803    0.362    0.255    7.640
  403.000   72.606    0.367    0.253    7.521
  403.250   71.389    0.378    0.253    7.263
  403.500   69.578    0.385    0.243    7.143
  403.750   69.598    0.364    0.242    7.028
  404.000   70.273    0.354    0.238    7.577
  404.250   70.938    0.351    0.242    8.169
  404.500   73.475    0.364    0.238    8.185
  404.750   74.140    0.380    0.241    7.770
  405.000   72.943    0.376    0.248    7.507
  405.250   72.359    0.365    0.255    7.379
