~VERSION INFORMATION
 VERS.                 2.0:   CWLS LOG ASCII STANDARD -VERSION 2.0
 WRAP.                  NO:   ONE LINE PER DEPTH STEP
~WELL INFORMATION BLOCK
#MNEM.UNIT           DATA                    DESCRIPTION OF MNEMONIC
#---------    -------------------            -------------------------------
# Generated from Intellog Unique Number	CS_73_76/WELL/2163
WELL.         DOME PETROLEUM LIMITED         : Well_name    - WELL
LOC .         00/06-09-074-05W4/0            : Location     - LOCATION
UWI .         00/06-09-074-05W4/0            : Uwi          - UNIQUE WELL ID
ENTR.         SP                             : Entered      - ENTERED BY
SRVC.         SCHLUMBERGER                   : Scn          - SERVICE COMPANY
STRT.M        225                            : top_depth    - START DEPTH
STOP.M        475                            : bot_depth    - STOP DEPTH
STEP.M        0.25                           : increment    - STEP LENGTH
 NULL. -999.2500:NULL Value
~CURVE INFORMATION BLOCK
#MNEM UNIT       ERCB CURVE CODE    CURVE DESCRIPTION
#-----------   ------------------   ----------------------------------
DEPT.M        00 001 00 00         : DEPTH        - DEPTH
ILD .OHMM     00 120 00 00         : RESD         - DEEP RESISTIVITY (DIL)
DPHI.V/V      00 890 00 00         : PHID         - DENSITY POROSITY (LIMESTONE)
NPHI.V/V      00 330 00 00         : PHIN         - NEUTRON POROSITY (LIMESTONE)
GR  .API      00 310 00 00         : GR           - GAMMA RAY
~PARAMETER INFORMATION
#MNEM.UNIT           DATA             DESCRIPTION OF MNEMONIC
#---------         -----------     ------------------------------
GL  .M        618.6                : gl           - GROUND LEVEL ELEVATION
EREF.M        623.1                : kb           - ELEVATION OF DEPTH REFERENCE
DATM.M        618.6                : datum        - DATUM ELEVATION
TDD .M        483                  : tdd          - TOTAL DEPTH DRILLER
RUN .         ONE                  : Run          - RUN NUMBER
ENG .         BILL                 : Engineer     - RECORDING ENGINEER
WIT .         JIM                  : Witness      - WITNESSED BY
MUD .         GEL                  : Mud_type     - MUD TYPE
MATR.         LIMESTONE            : Logunit      - NEUTRON MATRIX
TMAX.C        20                   : BHT          - MAXIMUM RECORDED TEMPERATURE
BHTD.M        483                  : BHTDEP       - MAXIMUM RECORDED TEMPERATURE
MATR.         1                    : LOGUNIT      - NEUTRON MATRIX
RMT .C        25                   : MDTP         - TEMPERATURE OF MUD
NEUT.         1                    : NEUTRON      - NEUTRON TYPE
RESI.         0                    : RESIST       - RESISTIVITY TYPE
RMC .OHMM     0.25                 : RMC          - RESISTIVITY OF MUD CAKE
RMF .OHMM     0.25                 : RMF          - RESISTIVITY OF MUD FILTRATE
SUFT.C        15                   : SUFT         - SURFACE TEMPERATURE
~A  DEPTH     RESD     PHID     PHIN       GR
# ...
  355.500    4.281    0.231    0.460  101.813
  355.750    4.446    0.223    0.448  101.206
  356.000    4.531    0.212    0.444   99.993
  356.250    4.618    0.226    0.478   99.993
  356.500    4.706    0.244    0.487   98.779
  356.750    4.796    0.228    0.477   95.136
  357.000    4.888    0.222    0.440   89.064
  357.250    4.888    0.235    0.408   86.636
  357.500    4.797    0.216    0.379   93.317
  357.750    4.367    0.210    0.385   99.998
  358.000    3.901    0.179    0.424  103.035
  358.250    3.618    0.212    0.450   99.999
  358.500    3.552    0.222    0.464   95.749
  358.750    3.552    0.236    0.470   92.713
  359.000    3.553    0.218    0.467   90.892
  359.250    3.487    0.180    0.478   90.893
  359.500    3.358    0.190    0.492   90.894
  359.750    2.944    0.200    0.497   90.894
  360.000    2.680    0.206    0.506   90.288
  360.250    2.533    0.238    0.534   87.252
  360.500    2.440    0.231    0.552   83.609
  360.750    2.350    0.262    0.549   80.574
  361.000    2.263    0.265    0.556   81.789
  361.250    2.264    0.254    0.561   83.612
  361.500    2.264    0.254    0.562   84.827
  361.750    2.264    0.269    0.565   87.864
  362.000    2.307    0.254    0.570   90.294
  362.250    2.351    0.232    0.573   92.117
  362.500    2.536    0.245    0.571   95.154
  362.750    2.633    0.248    0.557   91.511
  363.000    2.839    0.261    0.528   90.297
  363.250    3.179    0.248    0.510   88.476
  363.500    4.061    0.255    0.481   85.441
  363.750    4.996    0.195    0.454   81.190
  364.000    6.146    0.211    0.434   73.296
  364.250    8.307    0.208    0.253   66.617
  364.500   10.812    0.255    0.163   63.581
  364.750   16.989    0.312    0.142   61.153
  365.000   22.113    0.468    0.130   59.939
  365.250   28.247    0.447    0.121   60.547
  365.500   36.767    0.443    0.128   61.155
  365.750   40.401    0.433    0.133   55.083
  366.000   43.566    0.413    0.135   53.869
  366.250   45.241    0.401    0.128   56.906
  366.500   49.715    0.398    0.121   58.122
  366.750   51.626    0.408    0.115   56.300
  367.000   53.611    0.429    0.116   55.086
  367.250   56.736    0.454    0.118   53.873
  367.500   57.819    0.470    0.121   52.051
  367.750   57.824    0.456    0.133   53.874
  368.000   55.695    0.431    0.143   55.090
  368.250   53.645    0.429    0.157   56.305
  368.500   51.668    0.435    0.169   56.913
  368.750   49.764    0.426    0.179   56.914
  369.000   47.932    0.408    0.194   55.093
  369.250   47.937    0.382    0.186   55.093
  369.500   49.782    0.356    0.160   55.094
  369.750   50.734    0.391    0.133   55.702
  370.000   51.705    0.465    0.120   55.703
  370.250   51.710    0.489    0.109   56.311
  370.500   49.806    0.466    0.107   56.312
  370.750   45.338    0.456    0.133   53.883
  371.000   40.502    0.440    0.158   52.669
  371.250   37.567    0.426    0.178   54.492
  371.500   34.847    0.408    0.191   55.100
  371.750   34.204    0.396    0.203   58.138
  372.000   32.944    0.384    0.217   58.745
  372.250   32.332    0.376    0.227   59.353
  372.500   30.561    0.360    0.234   59.962
  372.750   29.434    0.355    0.232   60.570
  373.000   27.821    0.328    0.212   60.570
  373.250   26.297    0.373    0.187   59.964
  373.500   24.856    0.436    0.169   55.714
  373.750   22.204    0.431    0.169   54.499
  374.000   19.466    0.404    0.191   52.071
  374.250   17.389    0.377    0.269   52.680
  374.500   15.534    0.350    0.423   53.895
  374.750   14.140    0.333    0.467   55.717
  375.000   12.632    0.306    0.477   56.933
  375.250   11.073    0.322    0.472   56.933
  375.500    9.349    0.344    0.466   56.327
  375.750    9.176    0.336    0.464   55.113
  376.000   11.078    0.325    0.472   56.328
  376.250   12.172    0.308    0.490   57.544
  376.500   14.695    0.324    0.509   57.544
  376.750   17.741    0.317    0.484   55.116
  377.000   20.241    0.294    0.469   55.117
  377.250   21.826    0.318    0.466   54.511
  377.500   21.421    0.335    0.461   54.511
  377.750   16.461    0.321    0.455   55.119
  378.000   13.898    0.329    0.452   55.120
  378.250   12.415    0.318    0.452   56.943
  378.500   10.884    0.308    0.462   58.765
  378.750   10.682    0.317    0.482   58.159
  379.000   10.684    0.331    0.487   55.730
  379.250   10.887    0.331    0.461   53.909
  379.500   11.964    0.183    0.430   53.303
  379.750   12.661    0.282    0.410   53.303
  380.000   12.902    0.315    0.434   53.912
  380.250   13.148    0.267    0.459   54.519
  380.500   13.150    0.228    0.447   55.127
  380.750   14.180    0.259    0.462   57.557
  381.000   16.487    0.342    0.489   56.951
  381.250   18.460    0.321    0.490   55.130
  381.500   20.669    0.312    0.478   52.702
  381.750   22.711    0.315    0.482   52.095
  382.000   24.490    0.335    0.500   51.488
  382.250   24.494    0.321    0.504   51.489
  382.500   21.881    0.314    0.484   52.704
  382.750   20.681    0.324    0.475   53.920
  383.000   19.920    0.313    0.470   54.528
  383.250   19.921    0.308    0.473   55.743
  383.500   19.924    0.292    0.486   56.959
  383.750   19.555    0.307    0.490   55.745
  384.000   16.202    0.326    0.479   55.138
  384.250   11.767    0.303    0.458   55.746
  384.500    9.749    0.305    0.445   57.569
  384.750    8.546    0.298    0.441   58.784
  385.000    7.492    0.282    0.443   59.999
  385.250    8.079    0.300    0.459   61.215
  385.500    9.393    0.294    0.475   61.823
  385.750   11.775    0.309    0.490   61.823
  386.000   13.184    0.316    0.496   59.395
  386.250   15.918    0.327    0.483   56.967
  386.500   16.843    0.327    0.477   55.146
  386.750   17.823    0.305    0.472   55.754
  387.000   17.826    0.315    0.464   54.540
  387.250   15.627    0.319    0.460   52.719
  387.500   12.706    0.299    0.465   55.149
  387.750   12.010    0.293    0.479   57.578
  388.000   10.729    0.305    0.480   58.794
  388.250   10.141    0.310    0.473   57.580
  388.500    9.585    0.315    0.459   56.366
  388.750    8.891    0.290    0.452   54.545
  389.000    7.942    0.285    0.443   55.153
  389.250    6.706    0.289    0.438   56.976
  389.500    5.662    0.266    0.472   58.191
  389.750    5.251    0.261    0.483   59.407
  390.000    4.780    0.285    0.488   58.800
  390.250    4.351    0.294    0.486   58.801
  390.500    4.113    0.301    0.457   58.194
  390.750    3.888    0.317    0.443   56.980
  391.000    3.539    0.324    0.449   53.945
  391.250    3.409    0.315    0.447   52.731
  391.500    3.474    0.321    0.443   54.554
  391.750    4.784    0.320    0.437   55.769
  392.000    5.458    0.319    0.423   55.770
  392.250    6.843    0.319    0.329   55.163
  392.500    8.417    0.122    0.287   54.556
  392.750    8.908    0.076    0.230   53.343
  393.000    8.109    0.059    0.246   55.773
  393.250    6.976    0.294    0.321   58.810
  393.500    6.002    0.289    0.390   60.633
  393.750    5.567    0.269    0.423   61.240
  394.000    5.262    0.287    0.476   60.634
  394.250    4.790    0.236    0.486   61.242
  394.500    4.701    0.267    0.480   63.065
  394.750    4.361    0.289    0.479   63.673
  395.000    4.122    0.295    0.490   64.888
  395.250    3.896    0.303    0.498   64.889
  395.500    3.546    0.321    0.485   63.068
  395.750    3.481    0.321    0.471   58.817
  396.000    3.290    0.306    0.460   56.996
  396.250    3.169    0.319    0.449   56.390
  396.500    3.110    0.295    0.445   58.819
  396.750    3.230    0.300    0.449   61.857
  397.000    3.826    0.285    0.450   63.072
  397.250    4.126    0.285    0.454   62.466
  397.500    5.271    0.301    0.427   61.252
  397.750    6.991    0.272    0.407   60.038
  398.000    8.600    0.245    0.396   52.144
  398.250   11.194    0.267    0.400   46.679
  398.500   13.014    0.280    0.383   53.360
  398.750   13.772    0.256    0.395   56.397
