~VERSION INFORMATION
 VERS.                 2.0:   CWLS LOG ASCII STANDARD -VERSION 2.0
 WRAP.                  NO:   ONE LINE PER DEPTH STEP
~WELL INFORMATION BLOCK
#MNEM.UNIT           DATA                    DESCRIPTION OF MNEMONIC
#---------    -------------------            -------------------------------
# Generated from Intellog Unique Number	CS_77_79/WELL/858
WELL.         DOME COWPAR                    : Well_name    - WELL
LOC .         00/05-19-079-02W4/0            : Location     - LOCATION
UWI .         00/05-19-079-02W4/0            : Uwi          - UNIQUE WELL ID
ENTR.         JHS                            : Entered      - ENTERED BY
SRVC.         SCHLUMBERGER                   : Scn          - SERVICE COMPANY
STRT.M        105                            : top_depth    - START DEPTH
STOP.M        335                            : bot_depth    - STOP DEPTH
STEP.M        0.25                           : increment    - STEP LENGTH
 NULL. -999.2500:NULL Value
~CURVE INFORMATION BLOCK
#MNEM UNIT       ERCB CURVE CODE    CURVE DESCRIPTION
#-----------   ------------------   ----------------------------------
DEPT.M        00 001 00 00         : DEPTH        - DEPTH
DPHI.V/V      00 890 00 00         : PHID         - DENSITY POROSITY (LIMESTONE)
NPHI.V/V      00 330 00 00         : PHIN         - NEUTRON POROSITY (LIMESTONE)
GR  .API      00 310 00 00         : GR           - GAMMA RAY
ILD .OHMM     00 120 00 00         : RESD         - DEEP RESISTIVITY (DIL)
RHOB.KG/M3    00 350 00 00         : DENS         - BULK DENSITY
~PARAMETER INFORMATION
#MNEM.UNIT           DATA             DESCRIPTION OF MNEMONIC
#---------         -----------     ------------------------------
GL  .M        522.7                : gl           - GROUND LEVEL ELEVATION
EREF.M        526.2                : kb           - ELEVATION OF DEPTH REFERENCE
DATM.M        526.2                : datum        - DATUM ELEVATION
TDD .M        338.8                : tdd          - TOTAL DEPTH DRILLER
RUN .         ONE                  : Run          - RUN NUMBER
ENG .         BILL                 : Engineer     - RECORDING ENGINEER
WIT .         JIM                  : Witness      - WITNESSED BY
MUD .         GEL                  : Mud_type     - MUD TYPE
MATR.         LIMESTONE            : Logunit      - NEUTRON MATRIX
TMAX.C        22                   : BHT          - MAXIMUM RECORDED TEMPERATURE
BHTD.M        338.8                : BHTDEP       - MAXIMUM RECORDED TEMPERATURE
MATR.         1                    : LOGUNIT      - NEUTRON MATRIX
RMT .C        25                   : MDTP         - TEMPERATURE OF MUD
NEUT.         1                    : NEUTRON      - NEUTRON TYPE
RESI.         0                    : RESIST       - RESISTIVITY TYPE
RMC .OHMM     0.25                 : RMC          - RESISTIVITY OF MUD CAKE
RMF .OHMM     0.25                 : RMF          - RESISTIVITY OF MUD FILTRATE
SUFT.C        15                   : SUFT         - SURFACE TEMPERATURE
~A  DEPTH     PHID     PHIN       GR     RESD     DENS
# ...
  287.500    0.327    0.367   40.091    1.711 2150.950
  287.750    0.326    0.372   41.931    1.745 2153.110
  288.000    0.318    0.370   41.340    1.779 2165.600
  288.250    0.332    0.351   38.340    1.814 2142.870
  288.500    0.341    0.333   41.382    1.885 2126.370
  288.750    0.298    0.332   47.453    1.887 2201.050
  289.000    0.298    0.362   45.060    1.888 2201.150
  289.250    0.324    0.385   42.054    1.890 2155.600
  289.500    0.319    0.359   40.256    1.857 2163.970
  289.750    0.310    0.358   42.096    1.825 2180.620
  290.000    0.299    0.358   41.514    1.793 2199.350
  290.250    0.303    0.363   39.721    1.795 2191.150
  290.500    0.311    0.359   37.922    1.764 2178.770
  290.750    0.297    0.348   36.733    1.765 2201.650
  291.000    0.294    0.342   36.151    1.767 2207.970
  291.250    0.298    0.330   33.759    1.769 2199.750
  291.500    0.308    0.325   34.381    1.770 2183.200
  291.750    0.325    0.336   35.611    1.740 2154.260
  292.000    0.325    0.349   38.048    1.742 2154.340
  292.250    0.314    0.367   38.680    1.776 2173.070
  292.500    0.315    0.365   38.099    1.811 2171.090
  292.750    0.316    0.353   39.929    1.846 2169.070
  293.000    0.294    0.339   44.792    1.955 2206.440
  293.250    0.267    0.350   46.624    2.030 2254.200
  293.500    0.260    0.359   47.252    2.032 2264.630
  293.750    0.285    0.345   42.434    1.960 2223.250
  294.000    0.289    0.366   35.194    1.822 2215.020
  294.250    0.306    0.385   27.962    1.724 2186.080
  294.500    0.318    0.367   27.980    1.633 2165.420
  294.750    0.326    0.355   32.233    1.604 2153.080
  295.000    0.323    0.346   49.798    1.636 2157.290
  295.250    0.304    0.356   56.474    1.668 2190.510
  295.500    0.315    0.368   49.239    1.701 2171.940
  295.750    0.334    0.359   38.974    1.703 2138.840
  296.000    0.344    0.356   37.181    1.612 2122.340
  296.250    0.344    0.357   44.463    1.526 2122.420
  296.500    0.338    0.358   48.113    1.528 2132.860
  296.750    0.325    0.347   52.365    1.617 2153.640
  297.000    0.295    0.344   61.461    1.711 2205.530
  297.250    0.285    0.363   53.618    1.778 2222.190
  297.500    0.313    0.371   50.012    1.813 2174.580
  297.750    0.341    0.368   52.450    1.781 2126.980
  298.000    0.348    0.362   47.031    1.718 2114.620
  298.250    0.349    0.364   41.606    1.627 2112.630
  298.500    0.355    0.375   37.998    1.569 2102.330
  298.750    0.343    0.384   36.815    1.570 2123.120
  299.000    0.355    0.390   36.225    1.543 2102.480
  299.250    0.339    0.381   32.012    1.545 2129.490
  299.500    0.339    0.365   30.823    1.575 2129.560
  299.750    0.324    0.360   37.499    1.667 2156.580
  300.000    0.296    0.355   42.361    1.797 2204.330
  300.250    0.276    0.349   42.986    1.867 2237.570
  300.500    0.276    0.340   39.377    1.904 2237.640
  300.750    0.314    0.333   32.747    1.870 2173.470
  301.000    0.320    0.329   26.112    1.838 2163.190
  301.250    0.321    0.331   24.925    1.773 2161.170
  301.500    0.318    0.346   27.971    1.709 2165.390
  301.750    0.320    0.343   30.410    1.648 2163.390
  302.000    0.333    0.335   30.432    1.590 2140.690
  302.250    0.337    0.329   29.851    1.622 2134.520
  302.500    0.328    0.330   31.081    1.623 2149.110
  302.750    0.313    0.330   43.802    1.686 2174.040
  303.000    0.292    0.323   52.291    1.784 2211.430
  303.250    0.268    0.347   59.571    2.034 2250.880
  303.500    0.255    0.380   62.013    2.193 2273.760
  303.750    0.273    0.381   52.961    2.321 2242.730
  304.000    0.307    0.382   46.332    2.367 2184.770
  304.250    0.323    0.386   45.744    2.283 2157.890
  304.500    0.311    0.377   50.611    2.243 2178.700
  304.750    0.292    0.365   54.862    2.246 2209.870
  305.000    0.282    0.362   62.744    2.248 2228.600
  305.250    0.255    0.370   71.843    2.378 2274.270
  305.500    0.260    0.380   70.653    2.518 2266.040
  305.750    0.249    0.387   62.808    2.520 2284.770
  306.000    0.270    0.388   48.919    2.386 2247.540
  306.250    0.304    0.389   36.842    2.097 2189.560
  306.500    0.347    0.395   32.631    1.776 2117.110
  306.750    0.353    0.412   32.654    1.590 2106.800
  307.000    0.361    0.411   32.670    1.533 2092.380
  307.250    0.364    0.398   30.878    1.565 2088.290
  307.500    0.339    0.376   27.875    1.656 2129.820
  307.750    0.307    0.376   25.477    1.751 2185.860
  308.000    0.274    0.390   52.717    2.073 2241.900
  308.250    0.262    0.399   73.305    2.193 2262.720
  308.500    0.263    0.379   75.146    2.501 2260.700
  308.750    0.229    0.402   73.955    2.646 2318.820
  309.000    0.209    0.402   73.367    2.801 2352.050
  309.250    0.209    0.402   73.999    2.803 2352.120
  309.500    0.271    0.412   72.809    2.655 2246.500
  309.750    0.281    0.406   71.014    2.560 2229.970
  310.000    0.292    0.398   67.405    2.424 2211.400
  310.250    0.298    0.389   62.588    2.252 2201.100
  310.500    0.287    0.388   59.585    2.172 2219.830
  310.750    0.285    0.421   53.557    2.018 2221.970
  311.000    0.348    0.404   42.691    1.808 2114.250
  311.250    0.337    0.388   36.056    1.679 2133.000
  311.500    0.335    0.386   36.683    1.504 2137.200
  311.750    0.337    0.393   39.127    1.347 2133.140
  312.000    0.368    0.397   37.329    1.299 2081.380
  312.250    0.353    0.401   34.935    1.300 2106.330
  312.500    0.351    0.414   37.373    1.302 2110.550
  312.750    0.343    0.412   37.999    1.327 2123.060
  313.000    0.358    0.407   36.204    1.353 2098.260
  313.250    0.354    0.400   35.020    1.380 2104.550
  313.500    0.350    0.388   35.041    1.382 2110.830
  313.750    0.349    0.378   36.274    1.358 2112.990
  314.000    0.339    0.373   37.499    1.359 2129.630
  314.250    0.338    0.385   39.340    1.360 2131.780
  314.500    0.345    0.401   39.963    1.413 2119.430
  314.750    0.340    0.397   43.011    1.441 2127.800
  315.000    0.340    0.385   43.028    1.469 2127.860
  315.250    0.337    0.383   41.843    1.443 2134.160
  315.500    0.329    0.390   41.255    1.419 2146.660
  315.750    0.320    0.395   41.882    1.343 2163.320
  316.000    0.343    0.383   40.697    1.295 2124.000
  316.250    0.334    0.375   38.904    1.296 2138.600
  316.500    0.328    0.366   43.161    1.298 2149.020
  316.750    0.332    0.364   44.995    1.324 2142.870
  317.000    0.339    0.384   43.808    1.325 2130.520
  317.250    0.329    0.386   41.408    1.351 2147.160
  317.500    0.328    0.374   38.404    1.377 2149.330
  317.750    0.331    0.365   38.425    1.431 2143.170
  318.000    0.331    0.373   40.867    1.432 2143.240
  318.250    0.323    0.371   41.497    1.461 2157.820
  318.500    0.324    0.363   42.725    1.462 2155.830
  318.750    0.319    0.354   42.145    1.464 2164.190
  319.000    0.312    0.351   41.554    1.493 2176.700
  319.250    0.302    0.340   39.159    1.494 2193.350
  319.500    0.288    0.324   37.366    1.552 2218.300
  319.750    0.278    0.308   35.571    1.673 2234.970
  320.000    0.277    0.298   34.384    1.706 2237.120
  320.250    0.291    0.296   33.196    1.708 2212.300
  320.500    0.301    0.320   32.002    1.647 2195.780
  320.750    0.306    0.342   34.449    1.618 2187.590
  321.000    0.307    0.342   35.676    1.533 2185.570
  321.250    0.304    0.330   36.305    1.534 2189.790
  321.500    0.308    0.322   36.322    1.536 2183.660
  321.750    0.309    0.319   35.748    1.595 2181.650
  322.000    0.303    0.319   35.769    1.596 2192.080
  322.250    0.299    0.339   35.781    1.628 2198.370
  322.500    0.319    0.402   35.197    1.629 2165.290
  322.750    0.316    0.384   33.409    1.631 2169.500
  323.000    0.318    0.339   32.215    1.602 2165.420
  323.250    0.298    0.327   30.425    1.604 2200.740
  323.500    0.286    0.323   31.055    1.576 2221.530
  323.750    0.294    0.326   30.465    1.578 2207.100
