~VERSION INFORMATION
 VERS.                 2.0:   CWLS LOG ASCII STANDARD -VERSION 2.0
 WRAP.                  NO:   ONE LINE PER DEPTH STEP
~WELL INFORMATION BLOCK
#MNEM.UNIT           DATA                    DESCRIPTION OF MNEMONIC
#---------    -------------------            -------------------------------
# Generated from Intellog Unique Number	CW_70_72/WELL/2902
NULL.         -999.25                        : NULL_VALUE
WELL.         CHEVRON GAMBLER                : Well_name    - WELL              
LOC .         06-33-070-21W4                 : Location     - LOCATION          
UWI .         00/06-33-070-21W4/0            : Uwi          - UNIQUE WELL ID    
ENTR.         MAX                            : Entered      - ENTERED BY        
SRVC.         SCHLUMBERGER                   : Scn          - SERVICE COMPANY   
DATE.         01 FEB 76                      : Date         - LOG DATE
STRT.M        405.384                        : top_depth    - START DEPTH       
STOP.M        588.384                        : bot_depth    - STOP DEPTH        
STEP.M        0.25                           : increment    - STEP LENGTH       
~CURVE INFORMATION BLOCK
#MNEM UNIT       ERCB CURVE CODE    CURVE DESCRIPTION
#-----------   ------------------   ----------------------------------
DEPT.M        00 001 00 00         : DEPTH        - DEPTH                       
ILD .OHMM     00 120 00 00         : RESD         - DEEP RESISTIVITY (DIL)      
NPHI.V/V      00 330 00 00         : PHIN         - NEUTRON POROSITY (SANDSTONE)
DPHI.V/V      00 890 00 00         : PHID         - DENSITY POROSITY (SANDSTONE)
CALI.MM       00 280 01 00         : CAL          - CALIPER                     
GR  .API      00 310 00 00         : GR           - GAMMA RAY                   
~PARAMETER INFORMATION       
#MNEM.UNIT           DATA             DESCRIPTION OF MNEMONIC
#---------         -----------     ------------------------------
GL  .M        651.358              : gl           - GROUND LEVEL ELEVATION      
EREF.M        654.71               : kb           - ELEVATION OF DEPTH REFERENCE
DATM.M        651.358              : datum        - DATUM ELEVATION             
TDD .M        586.74               : tdd          - TOTAL DEPTH DRILLER         
RUN .         ONE                  : Run          - RUN NUMBER                  
ENG .         BILL                 : Engineer     - RECORDING ENGINEER          
WIT .         JIM                  : Witness      - WITNESSED BY                
MUD .         GEL                  : Mud_type     - MUD TYPE                    
MATR.         SANDSTONE            : Logunit      - NEUTRON MATRIX              
TMAX.C        23.8889              : BHT          - MAXIMUM RECORDED TEMPERATURE
BHTD.M        586.74               : BHTDEP       - MAXIMUM RECORDED TEMPERATURE
RMT .C        14.4444              : MDTP         - TEMPERATURE OF MUD          
MUDD.KG/M     9200                 : MWT          - MUD DENSITY                 
NEUT.         1                    : NEUTRON      - NEUTRON TYPE                
RESI.         0                    : RESIST       - RESISTIVITY TYPE            
RM  .OHMM     3.72                 : RM           - RESISTIVITY OF MUD          
RMC .OHMM     3.3                  : RMC          - RESISTIVITY OF MUD CAKE     
RMF .OHMM     6.4                  : RMF          - RESISTIVITY OF MUD FILTRATE 
SUFT.C        -20.5556             : SUFT         - SURFACE TEMPERATURE         
~A  DEPTH     RESD     PHIN     PHID      CAL       GR
# ...
  441.884    8.486    0.319    0.022  190.974   63.415
  442.134    6.546    0.386    0.141  189.426   75.166
  442.384    5.570    0.423    0.181  191.964   85.108
  442.634    5.091    0.450    0.197  192.969   90.226
  442.884    4.953    0.461    0.211  191.930   89.611
  443.134    4.953    0.461    0.223  190.380   88.095
  443.384    4.947    0.462    0.242  190.364   86.880
  443.634    4.990    0.465    0.247  189.837   85.964
  443.884    4.899    0.471    0.257  188.800   86.558
  444.134    4.724    0.481    0.264  186.740   87.150
  444.384    4.724    0.529    0.266  185.704   88.044
  444.634    4.635    0.563    0.258  184.661   90.146
  444.884    4.470    0.540    0.260  184.647   92.551
  445.134    4.271    0.464    0.260  184.631   93.748
  445.384    4.047    0.475    0.245  185.637   93.134
  445.634    3.832    0.483    0.236  186.640   92.521
  445.884    3.832    0.453    0.250  188.669   92.814
  446.134    3.761    0.458    0.251  190.185   96.422
  446.384    3.758    0.465    0.247  191.697   98.523
  446.634    3.824    0.470    0.242  192.194   99.116
  446.884    3.856    0.476    0.243  193.708   98.202
  447.134    3.923    0.477    0.244  193.692   96.383
  447.384    4.027    0.478    0.239  194.697   94.562
  447.634    4.025    0.478    0.235  195.192   94.253
  447.884    4.025    0.484    0.229  196.708   92.735
  448.134    4.019    0.478    0.223  198.733   95.740
  448.384    3.982    0.476    0.214  199.738   96.033
  448.634    4.015    0.493    0.226  200.744   94.514
  448.884    4.086    0.492    0.225  201.747   97.215
  449.134    4.194    0.511    0.226  201.219   98.718
  449.384    4.344    0.572    0.205  200.692  101.723
  449.634    4.499    0.513    0.217  200.164  101.713
  449.884    4.619    0.497    0.230  198.103   98.387
  450.134    4.870    0.496    0.262  195.538   90.536
  450.384    5.044    0.500    0.259  191.943   78.161
  450.634    5.087    0.500    0.271  191.927   65.788
  450.884    4.950    0.484    0.271  192.424   55.826
  451.134    4.647    0.447    0.299  191.385   46.769
  451.384    3.850    0.430    0.307  189.324   42.838
  451.634    3.713    0.434    0.301  187.775   43.129
  451.884    3.454    0.435    0.293  187.252   44.929
  452.134    3.301    0.426    0.308  189.275   44.015
  452.384    3.301    0.433    0.317  189.770   41.895
  452.634    3.210    0.440    0.310  188.730   41.886
  452.884    3.068    0.437    0.312  186.672   42.780
  453.134    3.068    0.430    0.313  184.105   44.278
  453.384    2.956    0.438    0.308  182.044   44.570
  453.634    2.903    0.484    0.300  181.513   43.053
  453.884    2.775    0.539    0.292  180.480   43.946
  454.134    2.700    0.477    0.313  178.930   46.049
  454.384    2.650    0.441    0.326  179.938   46.943
  454.634    2.602    0.442    0.311  182.984   46.631
  454.884    2.601    0.434    0.312  182.966   49.035
  455.134    2.622    0.442    0.302  183.463   53.248
  455.384    2.668    0.464    0.307  183.443   54.140
  455.634    2.739    0.474    0.305  183.936   55.338
  455.884    2.837    0.459    0.295  183.922   57.440
  456.134    2.964    0.445    0.289  183.904   62.859
  456.384    3.071    0.461    0.284  184.398   66.468
  456.634    3.238    0.468    0.292  184.383   65.854
  456.884    3.294    0.485    0.307  185.388   62.830
  457.134    3.148    0.468    0.323  185.368   59.503
  457.384    3.148    0.449    0.347  185.865   57.985
  457.634    3.006    0.454    0.361  186.362   62.197
  457.884    2.849    0.460    0.326  186.344   67.616
  458.134    2.747    0.484    0.306  186.326   72.734
  458.384    2.673    0.568    0.299  186.306   70.009
  458.634    2.624    0.526    0.319  186.294   57.937
  458.884    2.624    0.474    0.324  186.294   53.101
  459.134    2.574    0.454    0.320  186.254   50.677
  459.384    2.505    0.449    0.316  186.244   50.969
  459.634    2.481    0.438    0.320  186.735   50.056
  459.884    2.436    0.435    0.322  187.232   47.634
  460.134    2.413    0.443    0.326  187.216   47.021
  460.384    2.390    0.440    0.330  187.707   47.010
  460.634    2.389    0.430    0.326  187.693   47.905
  460.884    2.366    0.429    0.321  187.677   49.103
  461.134    2.344    0.428    0.323  187.659   48.792
  461.384    2.342    0.441    0.321  187.641   49.684
  461.634    2.362    0.445    0.328  187.629   51.486
  461.884    2.403    0.449    0.314  187.611   54.493
  462.134    2.445    0.459    0.310  187.593   58.703
  462.384    2.487    0.469    0.319  187.067   60.504
  462.634    2.486    0.464    0.313  187.053   60.795
  462.884    2.463    0.451    0.314  187.033   58.675
  463.134    2.417    0.495    0.307  187.019   55.046
  463.384    2.394    0.538    0.327  187.001   57.147
  463.634    2.372    0.452    0.319  186.983   55.932
  463.884    2.349    0.445    0.318  186.459   52.605
  464.134    2.369    0.444    0.331  185.932   52.897
  464.384    2.432    0.443    0.327  185.400   54.996
  464.634    2.681    0.440    0.314  184.877   57.702
  464.884    2.983    0.436    0.308  184.859   62.518
  465.134    3.440    0.513    0.313  185.867   63.413
  465.384    3.725    0.551    0.304  188.913   63.101
  465.634    3.529    0.550    0.290  191.961   60.978
  465.884    3.464    0.496    0.332  191.434   58.257
  466.134    3.253    0.452    0.353  187.840   54.930
  466.384    2.946    0.443    0.326  186.804   52.809
  466.634    2.717    0.444    0.322  186.786   50.387
  466.884    2.597    0.444    0.323  187.790   47.661
  467.134    2.527    0.452    0.309  187.263   49.461
  467.384    2.527    0.470    0.330  186.739   51.865
  467.634    2.501    0.568    0.322  187.232   54.869
  467.884    2.501    0.532    0.323  187.214   54.860
  468.134    2.432    0.499    0.329  187.708   54.852
  468.384    2.367    0.468    0.331  187.690   55.444
  468.634    2.303    0.458    0.341  187.677   55.737
  468.884    2.301    0.456    0.346  187.659   57.234
  469.134    2.362    0.451    0.326  189.175   56.924
  469.384    2.425    0.463    0.326  189.670   58.118
  469.634    2.512    0.468    0.320  187.609   60.220
  469.884    2.696    0.439    0.322  187.591   59.305
  470.134    2.920    0.411    0.307  188.090   57.187
  470.384    3.649    0.374    0.282  190.111   55.365
  470.634    4.096    0.317    0.253  192.141   51.738
  470.884    4.983    0.176    0.100  194.677   47.203
  471.134    7.118    0.167    0.077  195.171   46.891
  471.384    9.055    0.167    0.073  195.662   49.900
  471.634    9.462    0.182    0.070  195.648   54.411
  471.884    8.649    0.194    0.062  195.630   53.800
  472.134    6.156    0.230    0.066  193.572   51.377
  472.384    5.728    0.295    0.092  189.979   49.858
  472.634    4.498    0.339    0.205  187.412   52.264
  472.884    3.230    0.382    0.231  186.375   57.682
  473.134    2.447    0.422    0.250  185.336   57.974
  473.384    2.339    0.442    0.313  185.830   55.852
  473.634    2.339    0.456    0.307  186.325   54.938
  473.884    2.315    0.469    0.300  186.818   57.642
  474.134    2.273    0.478    0.305  186.293   59.742
  474.384    2.273    0.482    0.302  186.276   61.845
  474.634    2.271    0.476    0.305  185.747   60.930
  474.884    2.290    0.474    0.310  186.242   60.017
  475.134    2.290    0.469    0.314  186.226   59.102
  475.384    2.307    0.462    0.316  186.208   57.885
  475.634    2.348    0.455    0.313  186.190   56.066
  475.884    2.348    0.445    0.315  186.176   55.152
  476.134    2.366    0.447    0.316  185.139   49.411
  476.384    2.407    0.455    0.318  184.612   49.100
  476.634    2.406    0.493    0.317  184.592   50.600
  476.884    2.448    0.529    0.315  184.577   53.001
  477.134    2.448    0.520    0.321  184.563   53.895
  477.384    2.510    0.482    0.338  184.543   53.884
  477.634    2.555    0.458    0.335  184.529   54.180
  477.884    2.646    0.472    0.327  184.513   55.074
  478.134    2.841    0.457    0.318  184.495   55.668
