~VERSION INFORMATION
 VERS.                 2.0:   CWLS LOG ASCII STANDARD -VERSION 2.0
 WRAP.                  NO:   ONE LINE PER DEPTH STEP
~WELL INFORMATION BLOCK
#MNEM.UNIT           DATA                    DESCRIPTION OF MNEMONIC
#---------    -------------------            -------------------------------
# Generated from Intellog Unique Number	CS_69_70/WELL/819
NULL.         -999.25                        : NULL_VALUE
WELL.         AEC OIL AND GAS COMPANY        : Well_name    - WELL              
LOC .         00/07-14-070-05W4/0            : Location     - LOCATION          
UWI .         00/07-14-070-05W4/0            : Uwi          - UNIQUE WELL ID    
ENTR.         SP                             : Entered      - ENTERED BY        
SRVC.         SCHLUMBERGER                   : Scn          - SERVICE COMPANY   
STRT.M        300                            : top_depth    - START DEPTH       
STOP.M        535                            : bot_depth    - STOP DEPTH        
STEP.M        0.25                           : increment    - STEP LENGTH       
~CURVE INFORMATION BLOCK
#MNEM UNIT       ERCB CURVE CODE    CURVE DESCRIPTION
#-----------   ------------------   ----------------------------------
DEPT.M        00 001 00 00         : DEPTH        - DEPTH                       
ILD .OHMM     00 120 00 00         : RESD         - DEEP RESISTIVITY (DIL)      
DPHI.V/V      00 890 00 00         : PHID         - DENSITY POROSITY (LIMESTONE)
NPHI.V/V      00 330 00 00         : PHIN         - NEUTRON POROSITY (LIMESTONE)
GR  .API      00 310 00 00         : GR           - GAMMA RAY                   
~PARAMETER INFORMATION       
#MNEM.UNIT           DATA             DESCRIPTION OF MNEMONIC
#---------         -----------     ------------------------------
GL  .M        676.5                : gl           - GROUND LEVEL ELEVATION      
EREF.M        680.4                : kb           - ELEVATION OF DEPTH REFERENCE
DATM.M        676.5                : datum        - DATUM ELEVATION             
TDD .M        547                  : tdd          - TOTAL DEPTH DRILLER         
RUN .         ONE                  : Run          - RUN NUMBER                  
ENG .         BILL                 : Engineer     - RECORDING ENGINEER          
WIT .         JIM                  : Witness      - WITNESSED BY                
MUD .         GEL                  : Mud_type     - MUD TYPE                    
MATR.         LIMESTONE            : Logunit      - NEUTRON MATRIX              
TMAX.C        28                   : BHT          - MAXIMUM RECORDED TEMPERATURE
BHTD.M        547                  : BHTDEP       - MAXIMUM RECORDED TEMPERATURE
MATR.         1                    : LOGUNIT      - NEUTRON MATRIX              
RMT .C        25                   : MDTP         - TEMPERATURE OF MUD          
NEUT.         1                    : NEUTRON      - NEUTRON TYPE                
RESI.         0                    : RESIST       - RESISTIVITY TYPE            
RMC .OHMM     0.25                 : RMC          - RESISTIVITY OF MUD CAKE     
RMF .OHMM     0.25                 : RMF          - RESISTIVITY OF MUD FILTRATE 
SUFT.C        15                   : SUFT         - SURFACE TEMPERATURE         
~A  DEPTH     RESD     PHID     PHIN       GR
# ...
  343.500    6.187    0.265    0.496   89.066
  343.750    6.307    0.262    0.509   86.640
  344.000    6.429    0.251    0.497   85.427
  344.250    6.553    0.248    0.490   95.701
  344.500    6.806    0.247    0.483   98.721
  344.750    6.809    0.247    0.486   99.319
  345.000    6.811    0.251    0.490   99.918
  345.250    6.812    0.261    0.493  101.726
  345.500    7.076    0.270    0.494   98.696
  345.750    7.212    0.278    0.479   96.876
  346.000    7.634    0.274    0.449   92.030
  346.250    7.930    0.272    0.438   87.186
  346.500    8.082    0.279    0.421   86.575
  346.750    8.240    0.284    0.415   87.172
  347.000    8.241    0.285    0.428   88.982
  347.250    8.245    0.284    0.435   94.421
  347.500    8.247    0.283    0.424   90.784
  347.750    8.249    0.282    0.419   88.963
  348.000    8.409    0.280    0.430   88.959
  348.250    8.411    0.271    0.417   90.162
  348.500    8.256    0.262    0.413   90.157
  348.750    8.105    0.261    0.441   90.149
  349.000    7.956    0.262    0.451   91.959
  349.250    7.665    0.262    0.446   95.582
  349.500    7.666    0.264    0.457   97.995
  349.750    7.669    0.261    0.475   98.594
  350.000    7.818    0.260    0.463   90.724
  350.250    7.820    0.261    0.432   81.645
  350.500    7.822    0.265    0.410   79.222
  350.750    7.825    0.272    0.400   81.634
  351.000    7.681    0.268    0.440   83.443
  351.250    7.684    0.260    0.464   72.549
  351.500    7.685    0.272    0.447   64.680
  351.750    7.545    0.289    0.438   62.861
  352.000    7.406    0.303    0.416   65.275
  352.250    7.135    0.317    0.413   61.639
  352.500    7.004    0.315    0.407   53.770
  352.750    6.621    0.321    0.412   47.112
  353.000    6.499    0.348    0.412   39.847
  353.250    6.261    0.355    0.407   38.028
  353.500    6.147    0.355    0.408   38.021
  353.750    6.034    0.355    0.408   39.225
  354.000    6.036    0.357    0.409   39.217
  354.250    6.037    0.352    0.412   42.236
  354.500    6.039    0.348    0.413   48.882
  354.750    6.041    0.353    0.417   55.529
  355.000    6.043    0.359    0.412   59.153
  355.250    6.045    0.344    0.406   62.172
  355.500    6.162    0.337    0.408   66.400
  355.750    6.163    0.327    0.412   76.070
  356.000    6.282    0.328    0.409   83.322
  356.250    6.285    0.332    0.415   89.968
  356.500    6.286    0.340    0.425   85.727
  356.750    6.289    0.340    0.435   82.094
  357.000    6.290    0.335    0.420   75.435
  357.250    6.292    0.331    0.414   72.406
  357.500    6.294    0.330    0.423   69.373
  357.750    6.297    0.329    0.429   65.738
  358.000    6.298    0.332    0.431   63.314
  358.250    6.300    0.330    0.429   66.332
  358.500    6.302    0.325    0.438   69.956
  358.750    6.304    0.325    0.453   72.974
  359.000    6.306    0.324    0.431   71.756
  359.250    6.190    0.327    0.419   71.145
  359.500    6.191    0.336    0.412   71.747
  359.750    6.194    0.338    0.408   71.135
  360.000    6.196    0.336    0.423   74.757
  360.250    6.316    0.329    0.427   77.171
  360.500    6.438    0.320    0.430   78.376
  360.750    6.561    0.314    0.435   77.763
  361.000    6.563    0.309    0.429   80.178
  361.250    6.691    0.303    0.428   83.196
  361.500    6.568    0.303    0.438   76.536
  361.750    6.448    0.313    0.440   64.433
  362.000    6.328    0.318    0.423   54.146
  362.250    6.213    0.324    0.410   45.672
  362.500    5.985    0.335    0.396   49.898
  362.750    5.876    0.337    0.381   51.709
  363.000    5.768    0.335    0.392   49.887
  363.250    5.769    0.332    0.430   51.694
  363.500    5.663    0.332    0.452   54.712
  363.750    5.665    0.336    0.428   55.918
  364.000    5.666    0.340    0.413   58.935
  364.250    5.776    0.337    0.429   57.721
  364.500    5.887    0.330    0.439   53.480
  364.750    6.115    0.301    0.421   52.264
  365.000    6.353    0.235    0.377   50.445
  365.250    6.354    0.227    0.364   48.625
  365.500    6.355    0.253    0.393   55.269
  365.750    6.123    0.285    0.410   58.288
  366.000    6.010    0.318    0.410   60.097
  366.250    5.790    0.333    0.432   58.883
  366.500    5.578    0.334    0.453   58.271
  366.750    5.476    0.335    0.462   63.707
  367.000    5.276    0.319    0.418   69.748
  367.250    5.178    0.312    0.407   70.955
  367.500    5.180    0.298    0.436   73.972
  367.750    5.181    0.294    0.453   72.757
  368.000    5.183    0.287    0.461   69.725
  368.250    5.088    0.283    0.444   64.879
  368.500    5.090    0.281    0.443   61.246
  368.750    4.996    0.295    0.438   57.007
  369.000    4.998    0.314    0.427   50.950
  369.250    4.906    0.334    0.406   48.528
  369.500    4.727    0.334    0.400   47.916
  369.750    4.639    0.329    0.398   49.120
  370.000    4.470    0.327    0.401   49.719
  370.250    4.388    0.329    0.384   49.107
  370.500    4.389    0.324    0.395   47.892
  370.750    4.391    0.326    0.401   46.677
  371.000    4.392    0.334    0.409   50.903
  371.250    4.393    0.343    0.406   52.108
  371.500    4.394    0.348    0.398   50.891
  371.750    4.395    0.351    0.395   50.282
  372.000    4.397    0.349    0.400   49.065
  372.250    4.399    0.342    0.404   48.455
  372.500    4.400    0.337    0.395   49.054
  372.750    4.401    0.329    0.386   51.464
  373.000    4.402    0.326    0.382   52.671
  373.250    4.404    0.332    0.387   53.270
  373.500    4.323    0.339    0.403   50.841
  373.750    4.324    0.343    0.394   49.024
  374.000    4.326    0.346    0.373   47.808
  374.250    4.327    0.340    0.366   50.827
  374.500    4.328    0.340    0.375   53.239
  374.750    4.330    0.348    0.383   52.024
  375.000    4.331    0.350    0.387   50.809
  375.250    4.332    0.353    0.398   48.988
  375.500    4.333    0.348    0.387   47.771
  375.750    4.334    0.343    0.377   47.161
  376.000    4.337    0.342    0.383   48.363
  376.250    4.257    0.342    0.398   49.567
  376.500    4.257    0.342    0.408   50.772
  376.750    4.102    0.344    0.393   51.370
  377.000    4.103    0.352    0.415   52.573
  377.250    4.029    0.358    0.427   54.381
  377.500    3.954    0.361    0.430   55.586
  377.750    3.955    0.363    0.432   55.581
  378.000    3.883    0.361    0.416   50.130
  378.250    3.883    0.360    0.410   48.916
  378.500    3.885    0.360    0.405   47.095
  378.750    3.886    0.366    0.401   45.880
  379.000    3.961    0.370    0.419   44.664
  379.250    4.038    0.364    0.417   45.263
  379.500    4.115    0.364    0.408   45.860
  379.750    4.275    0.366    0.431   47.064
  380.000    4.357    0.359    0.437   50.081
  380.250    4.441    0.357    0.455   52.496
  380.500    4.527    0.355    0.469   56.723
  380.750    4.703    0.355    0.436   57.928
  381.000    4.793    0.350    0.417   56.712
  381.250    4.885    0.324    0.436   59.123
  381.500    5.471    0.112    0.444   56.699
  381.750    6.363    0.036    0.390   50.644
  382.000    6.485    0.026    0.325   45.801
  382.250    6.864    0.040    0.204   40.956
  382.500    6.866    0.171    0.261   52.442
  382.750    6.614    0.266    0.366   59.089
  383.000    5.910    0.315    0.423   60.896
  383.250    5.381    0.346    0.434   60.889
  383.500    5.087    0.353    0.440   60.884
  383.750    5.283    0.351    0.435   62.089
  384.000    5.187    0.348    0.430   64.502
  384.250    5.287    0.353    0.428   67.519
  384.500    5.190    0.354    0.428   66.909
  384.750    5.192    0.346    0.419   64.482
  385.000    5.292    0.336    0.417   65.688
  385.250    5.295    0.325    0.429   68.704
  385.500    5.100    0.320    0.445   70.512
  385.750    5.198    0.330    0.455   69.299
  386.000    5.103    0.336    0.430   68.688
  386.250    5.105    0.350    0.412   72.914
  386.500    5.106    0.350    0.413   74.118
  386.750    5.205    0.342    0.419   73.508
