~VERSION INFORMATION
 VERS.                 2.0:   CWLS LOG ASCII STANDARD -VERSION 2.0
 WRAP.                  NO:   ONE LINE PER DEPTH STEP
~WELL INFORMATION BLOCK
#MNEM.UNIT           DATA                    DESCRIPTION OF MNEMONIC
#---------    -------------------            -------------------------------
# Generated from Intellog Unique Number	CX_WELLS/WELL/3232
WELL.         CHEVRON ALGAR                  : Well_name    - WELL
LOC .         00/06-14-083-16W4/0            : Location     - LOCATION
UWI .         00/06-14-083-16W400            : Uwi          - UNIQUE WELL ID
ENTR.         T                              : Entered      - ENTERED BY
SRVC.         SCHLUMBERGER                   : Scn          - SERVICE COMPANY
STRT.F        350                            : top_depth    - START DEPTH
STOP.F        879.856                        : bot_depth    - STOP DEPTH
STEP.F        0.82                           : increment    - STEP LENGTH
 NULL. -999.2500:NULL Value
~CURVE INFORMATION BLOCK
#MNEM UNIT       ERCB CURVE CODE    CURVE DESCRIPTION
#-----------   ------------------   ----------------------------------
DEPT.F        00 001 00 00         : DEPTH        - DEPTH
GR  .API      00 310 00 00         : GR           - GAMMA RAY
NPHI.V/V      00 330 00 00         : PHIN         - NEUTRON POROSITY (SANDSTONE)
DPHI.V/V      00 890 00 00         : PHID         - DENSITY POROSITY (SANDSTONE)
ILD .OHMM     00 120 00 00         : RESD         - DEEP RESISTIVITY (DIL)
~PARAMETER INFORMATION
#MNEM.UNIT           DATA             DESCRIPTION OF MNEMONIC
#---------         -----------     ------------------------------
GL  .F        1713.5               : gl           - GROUND LEVEL ELEVATION
EREF.F        1731                 : kb           - ELEVATION OF DEPTH REFERENCE
DATM.F        1731                 : datum        - DATUM ELEVATION
TDD .F        883                  : tdd          - TOTAL DEPTH DRILLER
RUN .         ONE                  : Run          - RUN NUMBER
ENG .         BILL                 : Engineer     - RECORDING ENGINEER
WIT .         JIM                  : Witness      - WITNESSED BY
MUD .         GEL                  : Mud_type     - MUD TYPE
MATR.         SANDSTONE            : Logunit      - NEUTRON MATRIX
TMAX.F        85                   : BHT          - MAXIMUM RECORDED TEMPERATURE
BHTD.F        883                  : BHTDEP       - MAXIMUM RECORDED TEMPERATURE
MATR.         1                    : LOGUNIT      - NEUTRON MATRIX
RMT .F        77                   : MDTP         - TEMPERATURE OF MUD
NEUT.         1                    : NEUTRON      - NEUTRON TYPE
RESI.         3.55                 : RESIST       - RESISTIVITY TYPE
RMC .OHMM     3.55                 : RMC          - RESISTIVITY OF MUD CAKE
RMF .OHMM     3.55                 : RMF          - RESISTIVITY OF MUD FILTRATE
SUFT.F        32                   : SUFT         - SURFACE TEMPERATURE
~A  DEPTH       GR     PHIN     PHID     RESD
  350.000   75.933    0.503    0.309   15.540
  350.820   78.399    0.498    0.309   15.850
  351.640   79.657    0.497    0.308   16.155
  352.461   80.280    0.489    0.317   16.477
  353.281   81.538    0.480    0.330   16.799
  354.101   82.199    0.474    0.329   16.820
  354.921   82.237    0.472    0.324   16.846
  355.741   82.910    0.469    0.322   16.867
  356.562   83.533    0.462    0.314   16.589
  357.382   83.609    0.452    0.307   16.316
  358.202   80.073    0.453    0.302   16.032
  359.022   76.525    0.456    0.291   15.205
  359.843   73.003    0.463    0.284   13.907
  360.663   71.858    0.469    0.278   13.182
  361.483   72.506    0.472    0.284   12.277
  362.303   73.764    0.469    0.283   12.518
  363.123   75.010    0.452    0.298   12.763
  363.944   77.451    0.444    0.299   12.779
  364.764   80.489    0.453    0.307   11.065
  365.584   83.528    0.466    0.319    9.408
  366.404   87.189    0.493    0.331    7.044
  367.224   89.630    0.517    0.355    6.213
  368.045   90.863    0.545    0.403    5.580
  368.865   92.121    0.558    0.433    5.388
  369.685   92.769    0.576    0.405    5.296
  370.505   93.417    0.577    0.394    5.307
  371.325   95.870    0.570    0.361    5.312
  372.146   97.116    0.569    0.362    5.317
  372.966   97.776    0.567    0.378    5.137
  373.786   97.229    0.567    0.310    4.960
  374.606   99.072    0.560    0.288    4.703
  375.427  100.318    0.552    0.268    4.539
  376.247   99.771    0.543    0.257    4.229
  377.067   98.626    0.551    0.241    4.161
  377.887   97.506    0.557    0.262    4.090
  378.707   97.544    0.568    0.309    4.095
  379.528   97.607    0.570    0.366    4.173
  380.348   97.060    0.550    0.387    4.921
  381.168   93.525    0.532    0.327    6.353
  381.988   91.172    0.502    0.303    9.491
  382.808   87.052    0.479    0.293    9.857
  383.629   84.712    0.459    0.293    9.688
  384.449   84.762    0.488    0.338    9.026
  385.269   86.008    0.512    0.337    8.715
  386.089   89.084    0.540    0.327    8.889
  386.909   89.707    0.549    0.337    9.398
  387.730   90.368    0.529    0.331    9.933
  388.550   90.405    0.518    0.322   10.695
  389.370   90.481    0.498    0.324   11.730
  390.190   89.921    0.498    0.327   12.633
  391.010   89.387    0.502    0.335   13.353
  391.831   88.839    0.507    0.338   14.118
  392.651   85.304    0.505    0.341   14.658
  393.471   81.171    0.507    0.339   15.792
  394.291   75.843    0.509    0.339   16.702
  395.112   69.918    0.508    0.341   17.018
  395.932   58.016    0.499    0.345   17.675
  396.752   54.481    0.488    0.346   18.027
  397.572   49.153    0.479    0.348   18.374
  398.392   43.240    0.474    0.355   19.095
  399.213   41.485    0.473    0.362   19.457
  400.033   42.743    0.476    0.370   19.481
  400.853   47.002    0.481    0.370   19.869
  401.673   48.235    0.477    0.365   19.900
  402.493   51.273    0.470    0.350   19.925
  403.314   53.714    0.471    0.332   18.886
  404.134   56.752    0.478    0.318   12.009
  404.954   59.791    0.483    0.307    7.636
  405.774   63.440    0.506    0.303   10.997
  406.594   65.880    0.511    0.316   11.840
  407.415   61.150    0.513    0.329   13.713
  408.235   53.431    0.511    0.346   15.591
  409.055   48.701    0.507    0.362   17.732
  409.875   53.545    0.504    0.363   18.753
  410.696   54.193    0.501    0.364   18.782
  411.516   50.670    0.496    0.363   18.800
  412.336   48.318    0.489    0.358   18.157
  413.156   46.575    0.481    0.351   17.847
  413.976   47.248    0.474    0.343   16.922
  414.797   48.481    0.475    0.332   15.756
  415.617   49.727    0.478    0.326   13.901
  416.437   51.595    0.489    0.318   12.477
  417.257   52.828    0.527    0.312   10.046
  418.077   55.294    0.533    0.311    9.023
  418.898   55.917    0.540    0.308    9.369
  419.718   56.578    0.540    0.304    9.905
  420.538   54.250    0.528    0.303   10.473
  421.358   53.691    0.499    0.302   10.118
  422.178   54.339    0.495    0.305    9.594
  422.999   59.182    0.492    0.308    8.930
  423.819   63.429    0.487    0.308    8.167
  424.639   68.272    0.479    0.301    7.744
  425.459   71.909    0.470    0.286    7.344
  426.280   73.739    0.450    0.290    7.221
  427.100   75.010    0.480    0.299    7.102
  427.920   76.268    0.509    0.296    7.107
  428.740   77.489    0.503    0.291    6.990
  429.560   81.150    0.497    0.285    7.000
  430.381   82.395    0.495    0.282    7.009
  431.201   83.628    0.497    0.277    7.020
  432.021   84.899    0.497    0.268    7.155
  432.841   85.534    0.493    0.271    7.568
  433.661   87.390    0.493    0.278    7.568
  434.482   88.038    0.492    0.292    8.781
  435.302   87.504    0.489    0.302    9.445
  436.122   86.944    0.484    0.312   10.359
  436.942   85.201    0.489    0.324   11.157
  437.762   82.862    0.508    0.347   11.584
  438.583   79.924    0.495    0.349   11.598
  439.403   76.401    0.485    0.334    9.864
  440.223   76.464    0.483    0.337   10.617
  441.043   78.905    0.484    0.343   11.858
  441.864   81.346    0.485    0.347   11.243
  442.684   82.591    0.517    0.361    9.735
  443.504   81.459    0.549    0.392    8.741
  444.324   80.912    0.582    0.412    7.997
  445.144   80.950    0.617    0.425    8.610
  445.965   76.830    0.585    0.419    8.937
  446.785   70.306    0.535    0.324    9.622
  447.605   67.369    0.487    0.309    9.466
  448.425   70.433    0.479    0.303    9.308
  449.245   71.665    0.479    0.288    9.487
  450.066   73.509    0.479    0.289    9.856
  450.886   72.962    0.486    0.302   10.052
  451.706   70.037    0.509    0.313   10.062
  452.526   67.099    0.510    0.316   10.450
  453.346   64.759    0.514    0.317   10.651
  454.167   63.614    0.513    0.320   11.472
  454.987   60.676    0.490    0.322   12.133
  455.807   58.362    0.488    0.323   12.597
  456.627   58.984    0.491    0.324   12.840
  457.448   60.828    0.492    0.324   13.829
  458.268   60.293    0.493    0.325   14.358
  459.088   59.161    0.497    0.328   15.181
  459.908   58.601    0.496    0.331   15.776
  460.728   58.651    0.486    0.333   16.075
  461.549   56.934    0.480    0.333   16.390
  462.369   53.997    0.475    0.335   17.028
  463.189   52.839    0.477    0.339   17.674
  464.009   51.694    0.482    0.340   18.351
  464.829   51.757    0.489    0.338   19.059
  465.650   51.210    0.496    0.335   20.903
  466.470   50.078    0.495    0.330   22.498
  467.290   50.116    0.474    0.325   25.588
  468.110   50.776    0.471    0.309   29.625
  468.930   49.657    0.468    0.250   37.572
  469.751   46.694    0.467    0.150   41.950
  470.571   43.159    0.436    0.080   39.071
  471.391   40.819    0.205    0.034   36.378
  472.211   42.675    0.218    0.032   33.882
  473.031   46.311    0.305    0.086   32.125
  473.852   49.959    0.426    0.176   31.008
  474.672   49.412    0.446    0.208   28.880
  475.492   47.110    0.465    0.269   27.884
  476.312   45.952    0.491    0.319   27.936
  477.133   45.380    0.517    0.282   28.466
  477.953   45.443    0.381    0.198   28.510
  478.773   45.493    0.405    0.239   28.545
  479.593   45.544    0.450    0.276   28.580
  480.413   46.192    0.483    0.321   27.604
  481.234   48.645    0.476    0.343   26.652
  482.054   49.891    0.473    0.343   26.213
  482.874   55.320    0.487    0.347   26.245
  483.694   61.346    0.479    0.355   25.348
  484.514   67.983    0.473    0.357   23.602
  485.335   62.057    0.491    0.374   21.968
  486.155   54.339    0.514    0.376   21.211
  486.975   46.620    0.519    0.346   21.633
  487.795   47.268    0.518    0.337   22.475
  488.615   47.344    0.490    0.341   22.901
  489.436   44.991    0.489    0.347   24.228
  490.256   43.846    0.483    0.352   23.822
  491.076   44.507    0.483    0.378   23.844
  491.896   45.753    0.480    0.382   23.458
