~VERSION INFORMATION
 VERS.                 2.0:   CWLS LOG ASCII STANDARD -VERSION 2.0
 WRAP.                  NO:   ONE LINE PER DEPTH STEP
~WELL INFORMATION BLOCK
#MNEM.UNIT           DATA                    DESCRIPTION OF MNEMONIC
#---------    -------------------            -------------------------------
# Generated from Intellog Unique Number	CS_67_68/WELL/737
WELL.         BRASCAN RESOURCES              : Well_name    - WELL
LOC .         00/06-31-068-18W4/0            : Location     - LOCATION
UWI .         00/06-31-068-18W4/0            : Uwi          - UNIQUE WELL ID
ENTR.         SP                             : Entered      - ENTERED BY
SRVC.         SCHLUMBERGER                   : Scn          - SERVICE COMPANY
STRT.M        274.32                         : top_depth    - START DEPTH
STOP.M        517.82                         : bot_depth    - STOP DEPTH
STEP.M        0.25                           : increment    - STEP LENGTH
 NULL. -999.2500:NULL Value
~CURVE INFORMATION BLOCK
#MNEM UNIT       ERCB CURVE CODE    CURVE DESCRIPTION
#-----------   ------------------   ----------------------------------
DEPT.M        00 001 00 00         : DEPTH        - DEPTH
GR  .API      00 310 00 00         : GR           - GAMMA RAY
DPHI.V/V      00 890 00 00         : PHID         - DENSITY POROSITY (SANDSTONE)
NPHI.V/V      00 330 00 00         : PHIN         - NEUTRON POROSITY (SANDSTONE)
ILD .OHMM     00 120 00 00         : RESD         - DEEP RESISTIVITY (DIL)
~PARAMETER INFORMATION
#MNEM.UNIT           DATA             DESCRIPTION OF MNEMONIC
#---------         -----------     ------------------------------
GL  .M        551.993              : gl           - GROUND LEVEL ELEVATION
EREF.M        554.431              : kb           - ELEVATION OF DEPTH REFERENCE
DATM.M        551.993              : datum        - DATUM ELEVATION
TDD .M        525.78               : tdd          - TOTAL DEPTH DRILLER
RUN .         ONE                  : Run          - RUN NUMBER
ENG .         BILL                 : Engineer     - RECORDING ENGINEER
WIT .         JIM                  : Witness      - WITNESSED BY
MUD .         GEL                  : Mud_type     - MUD TYPE
MATR.         SANDSTONE            : Logunit      - NEUTRON MATRIX
TMAX.C        15                   : BHT          - MAXIMUM RECORDED TEMPERATURE
BHTD.M        526.085              : BHTDEP       - MAXIMUM RECORDED TEMPERATURE
MATR.         1                    : LOGUNIT      - NEUTRON MATRIX
RMT .C        25                   : MDTP         - TEMPERATURE OF MUD
NEUT.         1                    : NEUTRON      - NEUTRON TYPE
RESI.         0                    : RESIST       - RESISTIVITY TYPE
RMC .OHMM     0.25                 : RMC          - RESISTIVITY OF MUD CAKE
RMF .OHMM     0.25                 : RMF          - RESISTIVITY OF MUD FILTRATE
SUFT.C        15                   : SUFT         - SURFACE TEMPERATURE
~A  DEPTH       GR     PHID     PHIN     RESD
# ...
  491.820  106.770    0.210    0.448    6.223
  492.070  112.364    0.176    0.484    6.466
  492.320  102.811    0.183    0.496    6.716
  492.570   91.830    0.218    0.434    7.009
  492.820   78.231    0.221    0.398    7.048
  493.070   72.851    0.169    0.351    6.839
  493.320   72.597    0.155    0.344    6.427
  493.570   68.520    0.187    0.361    5.687
  493.820   60.273    0.219    0.349    5.080
  494.070   52.330    0.219    0.340    4.581
  494.320   47.767    0.226    0.355    4.247
  494.570   44.948    0.237    0.366    3.958
  494.820   46.221    0.246    0.374    3.841
  495.070   45.300    0.260    0.386    3.726
  495.320   43.668    0.272    0.380    3.658
  495.570   46.138    0.252    0.354    3.737
  495.820   53.239    0.224    0.324    3.919
  496.070   58.232    0.225    0.331    4.153
  496.320   55.258    0.201    0.361    4.584
  496.570   44.515    0.198    0.375    5.166
  496.820   38.245    0.254    0.367    4.950
  497.070   35.738    0.251    0.351    4.317
  497.320   32.095    0.229    0.347    3.828
  497.570   35.183    0.228    0.348    3.407
  497.820   39.591    0.242    0.345    3.101
  498.070   41.637    0.247    0.356    2.919
  498.320   42.752    0.248    0.377    2.749
  498.570   40.643    0.252    0.379    2.640
  498.820   42.541    0.259    0.364    2.579
  499.070   58.542    0.265    0.354    2.832
  499.320   69.918    0.245    0.346    3.136
  499.570   83.623    0.213    0.355    3.693
  499.820   95.066    0.119    0.371    4.483
  500.070  104.133    0.108    0.418    5.229
  500.320  112.013    0.146    0.548    5.823
  500.570  117.876    0.186    0.517    6.268
  500.820  123.343    0.212    0.477    6.422
  501.070  117.060    0.179    0.476    6.585
  501.320   88.801    0.211    0.523    6.880
  501.570   64.366    0.520    0.555    7.431
  501.820   49.842    0.457    0.595    7.150
  502.070   48.352    0.342    0.655    6.209
  502.320   47.781    0.306    0.453    5.436
  502.570   48.439    0.259    0.383    4.778
  502.820   53.370    0.214    0.340    4.345
  503.070   55.140    0.189    0.361    3.889
  503.320   49.742    0.201    0.368    3.436
  503.570   48.264    0.230    0.367    3.117
  503.820   49.417    0.256    0.382    2.939
  504.070   50.114    0.261    0.380    2.798
  504.320   48.295    0.241    0.372    2.637
  504.570   43.751    0.242    0.392    2.598
  504.820   42.377    0.262    0.405    2.708
  505.070   46.832    0.280    0.427    2.860
  505.320   55.273    0.301    0.441    3.114
  505.570   58.985    0.273    0.429    3.386
  505.820   66.599    0.216    0.361    3.925
  506.070   72.165    0.186    0.338    4.468
  506.320   79.261    0.175    0.352    5.180
  506.570   84.944    0.172    0.389    5.844
  506.820   89.801    0.186    0.429    6.276
  507.070   84.318    0.213    0.458    6.466
  507.320   69.194    0.239    0.403    5.773
  507.570   52.469    0.234    0.386    5.074
  507.820   40.533    0.255    0.379    4.105
  508.070   36.766    0.281    0.429    3.737
  508.320   37.859    0.327    0.462    3.386
  508.570   43.814    0.359    0.449    3.146
  508.820   62.800    0.348    0.420    2.998
  509.070   76.842    0.264    0.395    3.168
  509.320   90.140    0.239    0.380    3.430
  509.570  102.239    0.196    0.374    3.630
  509.820  111.762    0.147    0.386    3.856
  510.070  111.448    0.127    0.387    4.060
  510.320  106.955    0.130    0.382    4.098
  510.570  103.811    0.150    0.372    4.009
  510.820  100.276    0.139    0.376    3.916
  511.070  100.216    0.122    0.393    3.837
  511.320  106.975    0.143    0.401    3.788
  511.570  112.291    0.162    0.419    3.810
  511.820  116.315    0.145    0.440    3.837
  512.070  118.328    0.141    0.455    3.915
  512.320  114.188    0.129    0.424    3.974
  512.570  110.700    0.120    0.408    3.990
  512.820  107.501    0.135    0.397    3.954
  513.070  105.438    0.171    0.398    3.883
  513.320  106.295    0.197    0.407    3.801
  513.570  109.986    0.203    0.418    3.696
  513.820  113.761    0.207    0.449    3.513
  514.070  117.443    0.199    0.472    3.386
  514.320  119.252    0.184    0.501    3.230
  514.570  120.377    0.175    0.537    3.082
  514.820  120.944    0.169    0.582    2.954
  515.070  120.792    0.179    0.618    2.876
  515.320  119.121    0.220    0.636    2.823
  515.570   99.028    0.233    0.617    2.859
  515.820   67.266    0.128    0.457    2.941
  516.070   38.313    0.065    0.326    3.079
  516.320   25.864    0.042    0.288    3.251
  516.570   22.391    0.018    0.274    3.493
  516.820   21.814   -0.006    0.259    3.732
  517.070   21.946   -0.019    0.294    4.024
  517.320   21.637   -0.022    0.339    4.087
  517.570   21.160   -0.006    0.380    3.954
  517.820   21.231    0.013    0.443    3.774
