~VERSION INFORMATION
 VERS.                 2.0:   CWLS LOG ASCII STANDARD -VERSION 2.0
 WRAP.                  NO:   ONE LINE PER DEPTH STEP
~WELL INFORMATION BLOCK
#MNEM.UNIT           DATA                    DESCRIPTION OF MNEMONIC
#---------    -------------------            -------------------------------
# Generated from Intellog Unique Number	CS_69_70/WELL/786
WELL.         SCEPTRE RESOURCES              : Well_name    - WELL
LOC .         00/06-34-069-14W4/0            : Location     - LOCATION
UWI .         00/06-34-069-14W4/0            : Uwi          - UNIQUE WELL ID
ENTR.         SP                             : Entered      - ENTERED BY
SRVC.         SCHLUMBERGER                   : Scn          - SERVICE COMPANY
STRT.M        280                            : top_depth    - START DEPTH
STOP.M        497                            : bot_depth    - STOP DEPTH
STEP.M        0.25                           : increment    - STEP LENGTH
 NULL. -999.2500:NULL Value
~CURVE INFORMATION BLOCK
#MNEM UNIT       ERCB CURVE CODE    CURVE DESCRIPTION
#-----------   ------------------   ----------------------------------
DEPT.M        00 001 00 00         : DEPTH        - DEPTH
ILD .OHMM     00 120 00 00         : RESD         - DEEP RESISTIVITY (DIL)
DPHI.V/V      00 890 00 00         : PHID         - DENSITY POROSITY (LIMESTONE)
NPHI.V/V      00 330 00 00         : PHIN         - NEUTRON POROSITY (LIMESTONE)
GR  .API      00 310 00 00         : GR           - GAMMA RAY
~PARAMETER INFORMATION
#MNEM.UNIT           DATA             DESCRIPTION OF MNEMONIC
#---------         -----------     ------------------------------
GL  .M        579.8                : gl           - GROUND LEVEL ELEVATION
EREF.M        583.24               : kb           - ELEVATION OF DEPTH REFERENCE
DATM.M        579.8                : datum        - DATUM ELEVATION
TDD .M        505                  : tdd          - TOTAL DEPTH DRILLER
RUN .         ONE                  : Run          - RUN NUMBER
ENG .         BILL                 : Engineer     - RECORDING ENGINEER
WIT .         JIM                  : Witness      - WITNESSED BY
MUD .         GEL                  : Mud_type     - MUD TYPE
MATR.         LIMESTONE            : Logunit      - NEUTRON MATRIX
TMAX.C        23                   : BHT          - MAXIMUM RECORDED TEMPERATURE
BHTD.M        505                  : BHTDEP       - MAXIMUM RECORDED TEMPERATURE
MATR.         1                    : LOGUNIT      - NEUTRON MATRIX
RMT .C        25                   : MDTP         - TEMPERATURE OF MUD
NEUT.         1                    : NEUTRON      - NEUTRON TYPE
RESI.         0                    : RESIST       - RESISTIVITY TYPE
RMC .OHMM     0.25                 : RMC          - RESISTIVITY OF MUD CAKE
RMF .OHMM     0.25                 : RMF          - RESISTIVITY OF MUD FILTRATE
SUFT.C        15                   : SUFT         - SURFACE TEMPERATURE
~A  DEPTH     RESD     PHID     PHIN       GR
# ...
  454.000    2.571    0.229    0.457  110.686
  454.250    2.805    0.223    0.470  106.655
  454.500    3.343    0.221    0.431  102.746
  454.750    3.961    0.213    0.415  104.097
  455.000    4.420    0.187    0.408   99.332
  455.250    4.859    0.161    0.387   91.694
  455.500    5.392    0.222    0.332   83.627
  455.750    5.894    0.259    0.331   74.155
  456.000    6.371    0.273    0.342   66.149
  456.250    6.899    0.268    0.351   65.482
  456.500    7.305    0.265    0.357   66.833
  456.750    7.632    0.267    0.361   67.388
  457.000    7.990    0.270    0.352   60.300
  457.250    8.413    0.269    0.331   58.288
  457.500    8.841    0.265    0.319   61.228
  457.750    9.117    0.222    0.300   57.687
  458.000    9.313    0.085    0.272   48.581
  458.250    7.870    0.047    0.257   51.399
  458.500    6.651    0.157    0.279   65.041
  458.750    5.947    0.203    0.305   80.945
  459.000    5.510    0.234    0.315   93.608
  459.250    5.251    0.220    0.305   92.635
  459.500    5.099    0.204    0.299   87.931
  459.750    5.142    0.198    0.301   92.890
  460.000    5.176    0.203    0.321   97.053
  460.250    5.189    0.209    0.317  106.659
  460.500    5.192    0.217    0.303  114.247
  460.750    5.166    0.223    0.326  112.540
  461.000    5.112    0.227    0.348  106.553
  461.250    5.068    0.217    0.327  103.623
  461.500    5.034    0.196    0.317  117.998
  461.750    4.963    0.184    0.329  124.608
  462.000    4.947    0.196    0.358  129.505
  462.250    4.997    0.205    0.377  132.384
  462.500    5.145    0.214    0.366  120.894
  462.750    5.246    0.225    0.371  115.334
  463.000    5.471    0.229    0.363  122.860
  463.250    5.803    0.198    0.351  128.430
  463.500    6.416    0.139    0.348  108.868
  463.750    6.729    0.108    0.336   99.272
  464.000    7.058    0.125    0.325   95.976
  464.250    7.418    0.175    0.321   91.945
  464.500    7.606    0.202    0.334   84.491
  464.750    7.784    0.226    0.342   78.809
  465.000    7.983    0.252    0.343   83.708
  465.250    8.311    0.242    0.337   87.380
  465.500    8.490    0.233    0.327   91.849
  465.750    8.608    0.225    0.320   86.290
  466.000    8.566    0.234    0.312   86.479
  466.250    8.335    0.234    0.303   90.581
  466.500    8.063    0.219    0.294   94.867
  466.750    7.861    0.209    0.294   90.408
  467.000    7.836    0.199    0.302   83.749
  467.250    7.827    0.216    0.306   78.495
  467.500    7.803    0.233    0.310   79.968
  467.750    7.736    0.228    0.320   86.944
  468.000    7.684    0.213    0.326   94.287
  468.250    7.532    0.204    0.327   93.864
  468.500    7.411    0.194    0.320   94.543
  468.750    7.252    0.200    0.316   96.382
  469.000    7.149    0.217    0.311   83.852
  469.250    7.061    0.196    0.316   79.760
  469.500    7.065    0.180    0.327   83.006
  469.750    7.031    0.194    0.332   87.170
  470.000    7.023    0.218    0.326   87.297
  470.250    7.015    0.223    0.318   84.551
  470.500    6.993    0.197    0.312   90.977
  470.750    6.959    0.177    0.319   97.586
  471.000    6.925    0.179    0.336   93.249
  471.250    6.918    0.218    0.349   81.454
  471.500    6.896    0.263    0.347   74.304
  471.750    6.889    0.256    0.357   77.122
  472.000    6.868    0.247    0.362   77.739
  472.250    6.809    0.240    0.347   81.046
  472.500    6.775    0.227    0.336   87.472
  472.750    6.679    0.204    0.324   93.042
  473.000    6.498    0.188    0.313   95.554
  473.250    6.033    0.180    0.306   91.524
  473.500    5.475    0.163    0.314  100.824
  473.750    5.025    0.140    0.338  115.199
  474.000    4.570    0.113    0.364  123.337
  474.250    4.322    0.093    0.404  114.782
  474.500    4.073    0.107    0.435  117.845
  474.750    4.114    0.112    0.421  121.885
  475.000    4.465    0.154    0.395  112.046
  475.250    4.781    0.206    0.373   94.134
  475.500    5.091    0.249    0.352   76.162
  475.750    5.400    0.288    0.335   68.523
  476.000    5.557    0.259    0.324   68.773
  476.250    5.975    0.229    0.317   76.728
  476.500    6.102    0.211    0.307   89.269
  476.750    6.352    0.208    0.309   99.731
  477.000    6.612    0.208    0.297  108.297
  477.250    6.692    0.209    0.303   93.687
  477.500    6.535    0.205    0.318   96.077
  477.750    6.299    0.202    0.308   98.712
  478.000    6.221    0.193    0.301   97.861
  478.250    6.203    0.213    0.317   93.036
  478.500    6.138    0.244    0.325   83.502
  478.750    6.063    0.261    0.320   77.881
  479.000    5.989    0.234    0.315   85.714
  479.250    5.949    0.209    0.308  104.064
  479.500    5.943    0.201    0.300  108.044
  479.750    5.925    0.196    0.320  113.797
  480.000    5.939    0.192    0.341  120.590
  480.250    5.975    0.190    0.350  120.840
  480.500    6.221    0.187    0.337  109.472
  480.750    6.536    0.182    0.318   96.513
  481.000    6.974    0.178    0.299   83.677
  481.250    7.245    0.207    0.282   77.628
  481.500    7.599    0.222    0.293   76.105
  481.750    7.910    0.225    0.307   74.520
  482.000    8.188    0.225    0.307   71.040
  482.250    8.397    0.242    0.307   66.459
  482.500    8.530    0.249    0.307   61.328
  482.750    8.504    0.248    0.306   57.542
  483.000    8.259    0.262    0.303   57.303
  483.250    7.885    0.254    0.297   59.326
  483.500    7.362    0.248    0.293   61.838
  483.750    6.885    0.246    0.299   66.308
  484.000    6.368    0.243    0.306   73.283
  484.250    5.855    0.235    0.314   76.040
  484.500    5.446    0.238    0.317   67.485
  484.750    5.180    0.256    0.321   64.983
  485.000    4.955    0.242    0.339   63.949
  485.250    4.696    0.253    0.331   63.465
  485.500    4.409    0.269    0.326   63.531
  485.750    4.001    0.263    0.332   61.090
  486.000    3.749    0.251    0.335   58.711
  486.250    3.333    0.265    0.317   39.087
  486.500    3.089    0.288    0.327   44.291
  486.750    2.905    0.289    0.337   49.188
  487.000    2.790    0.272    0.339   55.246
  487.250    2.714    0.279    0.329   58.982
  487.500    2.655    0.307    0.321   50.855
  487.750    2.356    0.322    0.318   44.745
  488.000    2.258    0.313    0.320   43.894
  488.250    2.312    0.306    0.334   45.306
  488.500    2.375    0.301    0.330   52.833
  488.750    2.482    0.292    0.320   61.521
  489.000    2.559    0.276    0.323   71.861
  489.250    2.629    0.260    0.310   72.539
  489.500    2.686    0.283    0.300   62.271
  489.750    2.678    0.299    0.301   51.452
  490.000    2.435    0.311    0.304   46.321
  490.250    2.202    0.306    0.307   42.963
  490.500    2.399    0.286    0.314   47.799
  490.750    2.612    0.256    0.322   73.243
  491.000    2.860    0.236    0.322   74.471
  491.250    3.277    0.242    0.315   76.127
  491.500    3.678    0.237    0.311   83.165
  491.750    3.908    0.211    0.319   86.716
  492.000    4.137    0.208    0.324   79.567
  492.250    4.299    0.207    0.320   83.792
  492.500    4.367    0.209    0.311   88.016
  492.750    4.362    0.215    0.301   87.227
  493.000    4.111    0.217    0.295   83.380
  493.250    3.970    0.205    0.301   88.583
  493.500    3.826    0.196    0.307   90.117
  493.750    3.667    0.192    0.310   83.029
  494.000    3.495    0.215    0.311   74.351
  494.250    3.318    0.232    0.320   70.442
  494.500    3.097    0.219    0.321   75.340
  494.750    2.881    0.217    0.318   80.298
  495.000    2.604    0.234    0.326   72.844
  495.250    2.373    0.287    0.329   71.687
  495.500    2.550    0.278    0.324   73.222
  495.750    2.783    0.272    0.322   73.226
  496.000    2.985    0.264    0.319   73.537
  496.250    3.433    0.247    0.314   72.686
  496.500    3.904    0.228    0.309   69.206
  496.750    4.299    0.216    0.303   66.154
  497.000    4.700    0.230    0.307   65.609
