~VERSION INFORMATION
 VERS.                 2.0:   CWLS LOG ASCII STANDARD -VERSION 2.0
 WRAP.                  NO:   ONE LINE PER DEPTH STEP
~WELL INFORMATION BLOCK
#MNEM.UNIT           DATA                    DESCRIPTION OF MNEMONIC
#---------    -------------------            -------------------------------
# Generated from Intellog Unique Number	CS_77_79/WELL/894
WELL.         AMOCO LEISMER                  : Well_name    - WELL
LOC .         00/07-11-078-09W4/0            : Location     - LOCATION
UWI .         00/07-11-078-09W4/0            : Uwi          - UNIQUE WELL ID
ENTR.         JHS                            : Entered      - ENTERED BY
SRVC.         SCHLUMBERGER                   : Scn          - SERVICE COMPANY
STRT.M        167.640                        : top_depth    - START DEPTH
STOP.M        399.140                        : bot_depth    - STOP DEPTH
STEP.M        0.25                           : increment    - STEP LENGTH
 NULL. -999.2500:NULL Value
~CURVE INFORMATION BLOCK
#MNEM UNIT       ERCB CURVE CODE    CURVE DESCRIPTION
#-----------   ------------------   ----------------------------------
DEPT.M        00 001 00 00         : DEPTH        - DEPTH
RHOB.KG/M3    00 350 00 00         : DENS         - BULK DENSITY
GR  .API      00 310 00 00         : GR           - GAMMA RAY
DPHI.V/V      00 890 00 00         : PHID         - DENSITY POROSITY (SANDSTONE)
NPHI.V/V      00 330 00 00         : PHIN         - NEUTRON POROSITY (SANDSTONE)
ILD .OHMM     00 120 00 00         : RESD         - DEEP RESISTIVITY (DIL)
~PARAMETER INFORMATION
#MNEM.UNIT           DATA             DESCRIPTION OF MNEMONIC
#---------         -----------     ------------------------------
GL  .M        597.164              : gl           - GROUND LEVEL ELEVATION
EREF.M        600.669              : kb           - ELEVATION OF DEPTH REFERENCE
DATM.M        600.669              : datum        - DATUM ELEVATION
TDD .M        405.384              : tdd          - TOTAL DEPTH DRILLER
RUN .         ONE                  : Run          - RUN NUMBER
ENG .         BILL                 : Engineer     - RECORDING ENGINEER
WIT .         JIM                  : Witness      - WITNESSED BY
MUD .         GEL                  : Mud_type     - MUD TYPE
MATR.         SANDSTONE            : Logunit      - NEUTRON MATRIX
TMAX.C        21.1111              : BHT          - MAXIMUM RECORDED TEMPERATURE
BHTD.M        405.384              : BHTDEP       - MAXIMUM RECORDED TEMPERATURE
MATR.         1                    : LOGUNIT      - NEUTRON MATRIX
RMT .C        25                   : MDTP         - TEMPERATURE OF MUD
NEUT.         1                    : NEUTRON      - NEUTRON TYPE
RESI.         0                    : RESIST       - RESISTIVITY TYPE
RMC .OHMM     0.25                 : RMC          - RESISTIVITY OF MUD CAKE
RMF .OHMM     0.25                 : RMF          - RESISTIVITY OF MUD FILTRATE
SUFT.C        15                   : SUFT         - SURFACE TEMPERATURE
~A  DEPTH     DENS       GR     PHID     PHIN     RESD
# ...
  350.140 2383.330   89.784    0.191    0.417    7.838
  350.390 2410.150   95.562    0.175    0.406    7.307
  350.640 2426.510  102.125    0.166    0.412    6.846
  350.890 2433.490  105.261    0.162    0.423    6.657
  351.140 2438.130  104.545    0.159    0.415    6.462
  351.390 2392.830  102.110    0.185    0.405    6.380
  351.640 2390.070  102.066    0.187    0.410    6.317
  351.890 2365.490  104.406    0.201    0.416    6.236
  352.140 2375.160  109.726    0.196    0.425    6.102
  352.390 2389.610  110.900    0.187    0.436    6.267
  352.640 2374.110  107.732    0.196    0.444    6.453
  352.890 2371.000  102.155    0.198    0.440    6.841
  353.140 2356.380   98.220    0.207    0.429    7.436
  353.390 2395.280   96.219    0.184    0.423    8.153
  353.640 2400.760   91.148    0.181    0.404    8.617
  353.890 2399.600   86.918    0.182    0.383    9.064
  354.140 2412.550   84.498    0.174    0.379    9.188
  354.390 2393.900   79.195    0.185    0.384    9.660
  354.640 2329.140   74.327    0.223    0.381    9.744
  354.890 2323.060   73.121    0.226    0.373    9.747
  355.140 2369.310   75.429    0.199    0.369    9.747
  355.390 2395.640   81.075    0.184    0.376    9.763
  355.640 2402.660   85.878    0.180    0.386    9.599
  355.890 2361.690   86.443    0.204    0.386    9.210
  356.140 2371.360   78.129    0.198    0.380    9.089
  356.390 2383.980   73.916    0.191    0.375    9.005
  356.640 2348.460   76.400    0.211    0.375    8.714
  356.890 2349.620   84.487    0.211    0.368    8.184
  357.140 2374.890   91.033    0.196    0.368    7.931
  357.390 2404.360   93.129    0.179    0.384    7.537
  357.640 2422.740   94.218    0.168    0.413    7.087
  357.890 2406.220   97.171    0.178    0.422    6.852
  358.140 2407.400  103.694    0.177    0.433    6.641
  358.390 2413.260  105.814    0.174    0.460    6.565
  358.640 2414.470  106.702    0.173    0.443    6.499
  358.890 2415.310  106.210    0.172    0.427    6.408
  359.140 2425.300  105.669    0.166    0.422    6.280
  359.390 2418.800  107.464    0.170    0.420    6.305
  359.640 2389.940  109.022    0.187    0.420    6.415
  359.890 2434.710  108.489    0.161    0.407    6.416
  360.140 2446.910  110.252    0.154    0.401    6.421
  360.390 2466.510  110.373    0.142    0.415    6.544
  360.640 2447.680  108.196    0.153    0.436    6.541
  360.890 2422.970  106.485    0.168    0.452    6.540
  361.140 2413.920  104.005    0.173    0.441    6.663
  361.390 2401.400   94.036    0.180    0.402    6.838
  361.640 2415.030   92.583    0.172    0.374    6.917
  361.890 2416.660   94.703    0.172    0.374    7.195
  362.140 2387.390   88.766    0.189    0.396    7.670
  362.390 2385.680   84.846    0.190    0.383    8.422
  362.640 2372.380   88.494    0.197    0.376    8.897
  362.890 2327.550   84.457    0.224    0.388    9.166
  363.140 2310.560   77.495    0.234    0.393    9.318
  363.390 2326.230   84.644    0.224    0.406    9.271
  363.640 2337.410   89.695    0.218    0.434    8.797
  363.890 2391.200   97.163    0.186    0.421    8.049
  364.140 2403.890  102.312    0.179    0.418    7.247
  364.390 2421.310  105.453    0.169    0.430    7.201
  364.640 2438.120  107.027    0.159    0.435    7.426
  364.890 2424.260  108.835    0.167    0.417    7.660
  365.140 2403.070  108.639    0.179    0.407    7.865
  365.390 2417.200  104.899    0.171    0.415    8.319
  365.640 2429.700  102.640    0.164    0.422   12.692
  365.890 2388.690   98.352    0.188    0.431   14.405
  366.140 2317.300   88.954    0.230    0.432   15.681
  366.390 2250.920   80.145    0.268    0.432   16.146
  366.640 2217.840   73.352    0.288    0.435   15.960
  366.890 2239.790   75.656    0.275    0.421   15.037
  367.140 2260.830   77.716    0.263    0.412   14.754
  367.390 2262.410   79.398    0.262    0.413   14.205
  367.640 2250.420   81.187    0.269    0.420   14.325
  367.890 2258.260   79.567    0.264    0.425   14.550
  368.140 2232.840   75.654    0.279    0.437   14.591
  368.390 2201.790   73.300    0.297    0.434   14.301
  368.640 2230.180   75.382    0.281    0.437   14.111
  368.890 2288.720   81.142    0.246    0.448   13.567
  369.140 2550.950   85.258    0.093    0.425   13.019
  369.390 2651.650   81.000    0.034    0.369   12.046
  369.640 2600.190   77.649    0.064    0.345   10.892
  369.890 2441.840   92.916    0.157    0.388    9.743
  370.140 2288.960   99.049    0.246    0.414    8.400
  370.390 2301.000  102.956    0.239    0.422    7.376
  370.640 2334.720  114.231    0.219    0.423    6.656
  370.890 2360.450  117.605    0.204    0.431    6.533
  371.140 2341.470  112.508    0.216    0.443    6.539
  371.390 2366.760  123.108    0.201    0.448    6.657
  371.640 2370.460  126.661    0.199    0.462    7.571
  371.890 2389.720  119.418    0.187    0.444    8.987
  372.140 2404.230  111.533    0.179    0.427   11.041
  372.390 2398.720  102.789    0.182    0.417   12.652
  372.640 2364.800   87.659    0.202    0.401   14.118
  372.890 2410.370   70.222    0.175    0.373   13.920
  373.140 2372.180   66.572    0.198    0.361   12.922
  373.390 2278.370   64.387    0.252    0.368   10.083
  373.640 2295.590   59.129    0.242    0.391    7.426
  373.890 2287.890   56.200    0.247    0.405    5.960
  374.140 2241.450   57.760    0.274    0.412    5.521
  374.390 2190.490   64.667    0.304    0.419    5.582
  374.640 2163.160   97.164    0.320    0.462    5.777
  374.890 2195.330  114.566    0.301    0.527    6.815
  375.140 2314.460  110.897    0.231    0.585    8.122
  375.390 2357.660   93.795    0.206    0.505    9.395
  375.640 2312.150   80.682    0.233    0.455    9.715
  375.890 2245.470   78.354    0.272    0.420    9.449
  376.140 2282.270   82.816    0.250    0.395    9.173
  376.390 2338.810   82.372    0.217    0.381    8.658
  376.640 2370.050   82.224    0.199    0.367    8.022
  376.890 2392.210   86.737    0.186    0.349    7.670
  377.140 2423.190   95.071    0.168    0.336    7.219
  377.390 2462.020  116.881    0.145    0.335    6.982
  377.640 2474.000  126.640    0.138    0.346    6.658
  377.890 2473.190  123.981    0.138    0.384    6.512
  378.140 2466.940  118.222    0.142    0.412    6.513
  378.390 2462.770  115.290    0.145    0.413    6.413
  378.640 2482.480  116.906    0.133    0.411    6.425
  378.890 2495.290  118.572    0.126    0.415    6.433
  379.140 2461.340  113.247    0.145    0.424    6.537
  379.390 2443.460  111.409    0.156    0.413    6.557
  379.640 2463.220  114.102    0.144    0.388    6.707
  379.890 2444.990  120.432    0.155    0.401    6.694
  380.140 2451.800  124.948    0.151    0.412    6.860
  380.390 2458.560  120.187    0.147    0.412    6.852
  380.640 2479.650  113.136    0.135    0.407    6.858
  380.890 2476.050  111.309    0.137    0.420    6.844
  381.140 2474.690  106.542    0.138    0.437    6.758
  381.390 2500.680  110.542    0.122    0.448    6.620
  381.640 2523.240  114.605    0.109    0.454    6.629
  381.890 2485.170  114.992    0.131    0.451    6.528
  382.140 2456.150  113.337    0.148    0.438    6.550
  382.390 2454.470  113.148    0.149    0.447    6.423
  382.640 2446.600  117.927    0.154    0.436    6.437
  382.890 2452.750  115.609    0.150    0.452    6.445
  383.140 2435.130  113.575    0.161    0.455    6.452
  383.390 2455.230  118.573    0.149    0.431    6.473
  383.640 2468.830  123.284    0.141    0.423    6.337
  383.890 2458.210  122.569    0.147    0.448    6.357
  384.140 2447.910  119.166    0.153    0.419    6.366
  384.390 2407.050  118.968    0.177    0.399    6.372
  384.640 2441.180  121.094    0.157    0.419    6.381
  384.890 2457.560  118.557    0.148    0.434    6.376
  385.140 2442.490  119.688    0.156    0.432    6.524
  385.390 2463.070  118.893    0.144    0.418    6.526
  385.640 2489.790  115.586    0.129    0.407    6.580
  385.890 2509.660  113.234    0.117    0.437    6.663
  386.140 2504.740  112.145    0.120    0.431    6.685
  386.390 2505.380  114.257    0.120    0.425    6.544
