~VERSION INFORMATION
 VERS.                 2.0:   CWLS LOG ASCII STANDARD -VERSION 2.0
 WRAP.                  NO:   ONE LINE PER DEPTH STEP
~WELL INFORMATION BLOCK
#MNEM.UNIT           DATA                    DESCRIPTION OF MNEMONIC
#---------    -------------------            -------------------------------
# Generated from Intellog Unique Number	CC_80_83/WELL/2321
NULL.         -999.25                        : NULL_VALUE
WELL.         NOVALTA GARSON                 : Well_name    - WELL
LOC .         09-13-083-02W4                 : Location     - LOCATION          
UWI .         00/09-13-083-02W400            : Uwi          - UNIQUE WELL ID    
ENTR.         DW                             : Entered      - ENTERED BY        
SRVC.         COMPUTALOG                     : Scn          - SERVICE COMPANY   
DATE.         01 FEB 83                      : Date         - LOG DATE
STRT.M        90                             : top_depth    - START DEPTH       
STOP.M        335.098                        : bot_depth    - STOP DEPTH        
STEP.M        0.3                            : increment    - STEP LENGTH       
~CURVE INFORMATION BLOCK
#MNEM UNIT       ERCB CURVE CODE    CURVE DESCRIPTION
#-----------   ------------------   ----------------------------------
DEPT.M        00 001 00 00         : DEPTH        - DEPTH                       
DPHI.V/V      00 890 00 00         : PHID         - DENSITY POROSITY (LIMESTONE)
NPHI.V/V      00 330 00 00         : PHIN         - NEUTRON POROSITY (LIMESTONE)
GR  .API      00 310 00 00         : GR           - GAMMA RAY                   
ILD .OHMM     00 120 00 00         : RESD         - DEEP RESISTIVITY (DIL)      
~PARAMETER INFORMATION       
#MNEM.UNIT           DATA             DESCRIPTION OF MNEMONIC
#---------         -----------     ------------------------------
GL  .M        477.66               : gl           - GROUND LEVEL ELEVATION      
EREF.M        480.66               : kb           - ELEVATION OF DEPTH REFERENCE
DATM.M        480.66               : datum        - DATUM ELEVATION             
TDD .M        340                  : tdd          - TOTAL DEPTH DRILLER         
RUN .         ONE                  : Run          - RUN NUMBER                  
ENG .         BILL                 : Engineer     - RECORDING ENGINEER          
WIT .         JIM                  : Witness      - WITNESSED BY                
MUD .         GEL                  : Mud_type     - MUD TYPE                    
MATR.         LIMESTONE            : Logunit      - NEUTRON MATRIX              
TMAX.C        22                   : BHT          - MAXIMUM RECORDED TEMPERATURE
BHTD.M        340                  : BHTDEP       - MAXIMUM RECORDED TEMPERATURE
MATR.         1                    : LOGUNIT      - NEUTRON MATRIX              
RMT .C        25                   : MDTP         - TEMPERATURE OF MUD          
NEUT.         1                    : NEUTRON      - NEUTRON TYPE                
RESI.         0                    : RESIST       - RESISTIVITY TYPE            
RMC .OHMM     0.25                 : RMC          - RESISTIVITY OF MUD CAKE     
RMF .OHMM     0.25                 : RMF          - RESISTIVITY OF MUD FILTRATE 
SUFT.C        15                   : SUFT         - SURFACE TEMPERATURE         
~A  DEPTH     PHID     PHIN       GR     RESD
# ...
  142.201    0.339    0.425   64.021   26.339
  142.501    0.340    0.409   65.872   26.362
  142.801    0.344    0.404   62.785   24.942
  143.101    0.344    0.408   60.932   24.046
  143.401    0.344    0.412   63.400   23.176
  143.701    0.341    0.415   63.399   22.761
  144.001    0.331    0.412   58.461   22.356
  144.301    0.327    0.387   53.522   23.223
  144.601    0.337    0.374   51.669   21.975
  144.901    0.325    0.367   54.137   19.654
  145.201    0.297    0.429   73.887   16.310
  145.501    0.279    0.520   96.724    7.032
  145.801    0.279    0.551  109.067    4.931
  146.101    0.285    0.576  111.535    3.728
  146.401    0.288    0.586  110.299    3.461
  146.701    0.266    0.494   90.547    3.596
  147.001    0.230    0.476   90.546    4.026
  147.301    0.210    0.494  106.593    4.508
  147.601    0.216    0.506  110.296    4.863
  147.901    0.232    0.485  105.357    4.866
  148.201    0.245    0.504  102.270    4.779
  148.501    0.249    0.492  101.651    4.694
  148.801    0.237    0.482  103.502    4.697
  149.101    0.237    0.483  106.587    4.700
  149.401    0.266    0.490  107.821    4.447
  149.701    0.271    0.496  108.437    4.129
  150.001    0.259    0.508  104.733    3.834
  150.301    0.278    0.523  104.732    3.560
  150.601    0.287    0.504  106.582    3.433
  150.901    0.278    0.491  107.199    3.565
  151.201    0.305    0.486   85.595    4.383
  151.501    0.342    0.466   71.398    6.378
  151.801    0.357    0.440   62.756   11.400
  152.101    0.357    0.405   58.434   16.587
  152.401    0.352    0.416   58.433   18.923
  152.701    0.351    0.426   60.284   20.035
  153.001    0.351    0.415   63.369   20.047
  153.301    0.347    0.399   67.689   20.832
  153.601    0.341    0.399   68.922   21.235
  153.901    0.337    0.418   59.046   22.069
  154.201    0.337    0.426   59.045   22.501
  154.501    0.351    0.419   63.981   22.940
  154.801    0.355    0.418   67.066   22.954
  155.101    0.347    0.414   62.128   22.971
  155.401    0.341    0.408   56.572   22.986
  155.701    0.355    0.400   57.805   22.574
  156.001    0.352    0.429   60.890   22.173
  156.301    0.350    0.450   61.507   22.189
  156.601    0.358    0.457   60.888   21.793
  156.901    0.357    0.460   59.653   22.233
  157.201    0.352    0.426   59.652   22.247
  157.501    0.355    0.416   60.268   22.262
  157.801    0.353    0.423   60.885   22.700
  158.101    0.345    0.428   62.735   22.710
  158.401    0.339    0.414   62.734   22.729
  158.701    0.339    0.404   57.178   22.323
  159.001    0.361    0.407   54.091   21.919
  159.301    0.384    0.426   57.794   21.539
  159.601    0.369    0.410   59.027   21.551
  159.901    0.350    0.429   59.026   21.971
  160.201    0.343    0.434   58.408   22.409
  160.501    0.342    0.408   57.173   22.421
  160.801    0.343    0.390   57.172   22.432
  161.101    0.348    0.393   59.639   21.629
  161.401    0.357    0.398   61.490   21.240
  161.701    0.345    0.405   62.724   20.867
  162.001    0.336    0.428   55.316   20.880
  162.301    0.334    0.442   60.870   21.695
  162.601    0.335    0.394   62.721   22.114
  162.901    0.346    0.192   57.782   24.299
  163.201    0.369    0.275   60.250   28.779
  163.501    0.268    0.378   61.483   35.384
  163.801    0.153    0.289   59.014   46.889
  164.101    0.000    0.124   41.730   60.968
  164.401    0.046    0.107   38.026   68.269
  164.701    0.167    0.155   41.728   62.219
  165.001    0.207    0.263   47.282   48.813
  165.301    0.277    0.362   58.391   29.476
  165.601    0.350    0.400   61.477   24.460
  165.901    0.340    0.414   61.476   19.930
  166.201    0.338    0.428   59.005   19.206
  166.501    0.351    0.442   57.153   18.181
  166.801    0.353    0.435   56.535   18.192
  167.101    0.342    0.420   57.768   17.867
  167.401    0.338    0.420   60.853   17.877
  167.701    0.338    0.414   60.852   17.556
  168.001    0.343    0.435   60.234   17.248
  168.301    0.337    0.425   58.382   16.938
  168.601    0.335    0.409   58.381   16.642
  168.901    0.333    0.415   61.465   16.342
  169.201    0.343    0.424   62.082   16.351
  169.501    0.351    0.437   60.846   16.060
  169.801    0.351    0.419   60.228   16.070
  170.101    0.348    0.405   58.993   15.789
  170.401    0.347    0.411   58.992   15.505
  170.701    0.342    0.410   61.460   15.225
  171.001    0.335    0.385   64.545   14.960
  171.301    0.329    0.393   66.396   14.969
  171.601    0.337    0.428   66.395   14.700
  171.901    0.355    0.414   63.925   14.712
  172.201    0.355    0.408   62.689   14.447
  172.501    0.350    0.408   63.306   14.195
  172.801    0.343    0.406   68.860   13.942
  173.101    0.337    0.406   72.562   13.951
  173.401    0.337    0.427   68.241   13.959
  173.701    0.338    0.434   63.919   13.710
  174.001    0.336    0.414   63.918   13.719
  174.301    0.332    0.387   58.979   13.728
  174.601    0.327    0.392   62.682   13.483
  174.901    0.331    0.408   63.298   13.498
  175.201    0.336    0.413   64.531   13.507
  175.501    0.332    0.405   69.468   13.513
  175.801    0.330    0.411   70.702   13.275
  176.101    0.331    0.418   62.677   13.286
  176.401    0.327    0.418   59.590   13.291
  176.701    0.335    0.411   60.206   13.308
  177.001    0.336    0.415   67.612   13.315
  177.301    0.335    0.421   68.845   13.076
  177.601    0.336    0.419   68.844   13.083
  177.901    0.338    0.430   70.695   12.613
  178.201    0.338    0.445   73.163   12.622
  178.501    0.332    0.434   65.755   12.400
  178.801    0.320    0.420   68.223   12.406
  179.101    0.310    0.427   70.691   12.416
  179.401    0.309    0.424   71.307   11.529
  179.701    0.320    0.425   75.010   11.324
  180.001    0.324    0.447   76.860   10.914
  180.301    0.304    0.452   71.922   10.924
  180.601    0.322    0.414   69.452   11.137
  180.901    0.332    0.411   70.068   11.151
  181.201    0.341    0.414   67.598   11.158
  181.501    0.345    0.415   63.894   11.588
  181.801    0.330    0.404   65.127   11.595
  182.101    0.305    0.393   72.533   11.183
  182.401    0.290    0.398   77.470   10.981
  182.701    0.285    0.422   79.938   10.783
  183.001    0.281    0.440   79.320   10.205
  183.301    0.288    0.409   76.232   10.210
  183.601    0.293    0.426   75.614    9.660
  183.901    0.296    0.457   74.379    8.803
  184.201    0.295    0.440   83.636    7.038
  184.501    0.286    0.472   89.807    5.522
  184.801    0.276    0.507   99.065    4.582
  185.101    0.257    0.523  107.705    3.875
  185.401    0.268    0.530  111.407    3.598
  185.701    0.265    0.534  113.875    3.280
  186.001    0.257    0.534  112.640    3.221
  186.301    0.239    0.516  110.170    3.163
  186.601    0.221    0.500  108.935    3.226
  186.901    0.207    0.525  101.527    3.352
  187.201    0.203    0.503   97.205    3.417
  187.501    0.208    0.477  100.290    3.484
  187.801    0.232    0.489  106.462    3.620
  188.101    0.250    0.467  111.398    3.622
  188.401    0.263    0.486  110.780    3.693
  188.701    0.270    0.481  104.607    3.909
  189.001    0.267    0.461  100.903    4.216
  189.301    0.238    0.463  104.605    4.721
  189.601    0.236    0.507  105.839    5.488
  189.901    0.257    0.490   96.579    6.146
  190.201    0.270    0.443   87.320    6.383
  190.501    0.263    0.425   86.085    6.508
  190.801    0.262    0.452   89.787    6.637
  191.101    0.270    0.474   92.872    6.642
  191.401    0.291    0.483   92.254    6.524
  191.701    0.296    0.469   91.636    6.650
  192.001    0.286    0.429   93.486    6.909
  192.301    0.257    0.456   84.227    7.452
  192.601    0.242    0.461   82.374    7.888
  192.901    0.249    0.442   84.225    8.195
  193.201    0.263    0.462   86.076    8.515
  193.501    0.278    0.484   85.457    8.680
  193.801    0.294    0.442   83.605    9.023
  194.101    0.299    0.403   81.752    9.372
