~VERSION INFORMATION
 VERS.                 2.0:   CWLS LOG ASCII STANDARD -VERSION 2.0
 WRAP.                  NO:   ONE LINE PER DEPTH STEP
~WELL INFORMATION BLOCK
#MNEM.UNIT           DATA                    DESCRIPTION OF MNEMONIC
#---------    -------------------            -------------------------------
# Generated from Intellog Unique Number	CW_76_78/WELL/2572
WELL.         BAYSEL WILLOW R                : Well_name    - WELL
LOC .         00/07-10-078-03W5/0            : Location     - LOCATION
UWI .         00/07-10-078-03W5/0            : Uwi          - UNIQUE WELL ID
ENTR.         MAX                            : Entered      - ENTERED BY
SRVC.         SCHLUMBERGER                   : Scn          - SERVICE COMPANY
STRT.M        365.76                         : top_depth    - START DEPTH
STOP.M        640.01                         : bot_depth    - STOP DEPTH
STEP.M        0.25                           : increment    - STEP LENGTH
 NULL. -999.2500:NULL Value
~CURVE INFORMATION BLOCK
#MNEM UNIT       ERCB CURVE CODE    CURVE DESCRIPTION
#-----------   ------------------   ----------------------------------
DEPT.M        00 001 00 00         : DEPTH        - DEPTH
ILD .OHMM     00 120 00 00         : RESD         - DEEP RESISTIVITY (DIL)
NPHI.V/V      00 330 00 00         : PHIN         - NEUTRON POROSITY (SANDSTONE)
DPHI.V/V      00 890 00 00         : PHID         - DENSITY POROSITY (SANDSTONE)
CALI.MM       00 280 01 00         : CAL          - CALIPER
GR  .API      00 310 00 00         : GR           - GAMMA RAY
~PARAMETER INFORMATION
#MNEM.UNIT           DATA             DESCRIPTION OF MNEMONIC
#---------         -----------     ------------------------------
GL  .M        660.197              : gl           - GROUND LEVEL ELEVATION
EREF.M        664.403              : kb           - ELEVATION OF DEPTH REFERENCE
DATM.M        660.197              : datum        - DATUM ELEVATION
TDD .M        658.063              : tdd          - TOTAL DEPTH DRILLER
RUN .         ONE                  : Run          - RUN NUMBER
ENG .         BILL                 : Engineer     - RECORDING ENGINEER
WIT .         JIM                  : Witness      - WITNESSED BY
MUD .         GEL                  : Mud_type     - MUD TYPE
MATR.         SANDSTONE            : Logunit      - NEUTRON MATRIX
TMAX.C        26.6667              : BHT          - MAXIMUM RECORDED TEMPERATURE
BHTD.M        658.063              : BHTDEP       - MAXIMUM RECORDED TEMPERATURE
RMT .C        15                   : MDTP         - TEMPERATURE OF MUD
MUDD.KG/M     9300                 : MWT          - MUD DENSITY
NEUT.         1                    : NEUTRON      - NEUTRON TYPE
RESI.         0                    : RESIST       - RESISTIVITY TYPE
RM  .OHMM     0.25                 : RM           - RESISTIVITY OF MUD
RMC .OHMM     0.25                 : RMC          - RESISTIVITY OF MUD CAKE
RMF .OHMM     3.74                 : RMF          - RESISTIVITY OF MUD FILTRATE
SUFT.C        -15                  : SUFT         - SURFACE TEMPERATURE
~A  DEPTH     RESD     PHIN     PHID      CAL       GR
  365.760    5.440    0.419    0.218  171.584   86.111
  366.010    4.744    0.480    0.215  174.660   88.865
  366.260    3.883    0.476    0.247  178.807   92.544
  366.510    2.929    0.503    0.240  190.812   97.466
  366.760    2.131    0.554    0.241  195.994  103.007
  367.010    1.909    0.607    0.247  205.902  109.168
  367.260    1.742    0.621    0.242  208.461  107.892
  367.510    1.648    0.610    0.277  206.300  107.545
  367.760    1.648    0.610    0.266  206.236  109.366
  368.010    1.629    0.604    0.254  205.131  108.094
  368.260    1.658    0.582    0.246  204.019  106.504
  368.510    1.717    0.587    0.259  203.963  105.232
  368.760    1.762    0.593    0.255  206.515  105.822
  369.010    1.826    0.575    0.243  206.466  107.330
  369.260    1.908    0.562    0.237  205.878  108.849
  369.510    1.941    0.549    0.248  204.235  110.980
  369.760    1.955    0.560    0.245  205.759  112.805
  370.010    1.972    0.566    0.233  206.220  111.215
  370.260    1.972    0.551    0.245  206.171  110.566
  370.510    1.968    0.553    0.243  205.583  113.932
  370.760    1.966    0.581    0.236  207.093  110.496
  371.010    1.963    0.584    0.228  207.037  111.999
  371.260    1.998    0.573    0.217  206.450  111.660
  371.510    2.126    0.587    0.203  206.386  114.096
  371.760    2.305    0.591    0.217  206.330  114.988
  372.010    2.475    0.565    0.218  206.267  115.273
  372.260    2.586    0.557    0.238  205.162  113.687
  372.510    2.632    0.558    0.234  202.484  110.247
  372.760    2.632    0.556    0.231  201.896  107.728
  373.010    2.723    0.539    0.238  199.742  106.452
  373.260    2.951    0.523    0.217  192.854  107.661
  373.510    3.141    0.536    0.208  192.805  105.146
  373.760    3.373    0.550    0.222  202.692   89.314
  374.010    3.656    0.536    0.250  204.216   83.083
  374.260    4.146    0.522    0.281  207.824   77.785
  374.510    4.874    0.506    0.314  210.915   80.221
  374.760    5.003    0.497    0.344  191.979   83.594
  375.010    5.003    0.544    0.338  179.322   86.349
  375.260    5.038    0.556    0.299  186.608   87.546
  375.510    5.172    0.543    0.303  184.978   87.827
  375.760    5.455    0.492    0.309  171.804   90.577
  376.010    5.966    0.481    0.291  170.699   94.264
  376.260    6.292    0.490    0.254  175.349   98.253
  376.510    6.636    0.467    0.232  177.391   97.596
  376.760    7.127    0.461    0.260  167.895   92.608
  377.010    7.795    0.470    0.239  165.727   86.996
  377.260    8.526    0.463    0.240  166.202   81.070
  377.510   10.209    0.471    0.261  165.607   77.634
  377.760   11.265    0.474    0.267  164.509   77.894
  378.010   12.546    0.477    0.280  163.922   79.731
  378.260   14.097    0.480    0.283  163.858   80.929
  378.510   15.840    0.481    0.284  165.900   78.732
  378.760   16.264    0.473    0.281  171.088   74.045
  379.010   16.993    0.474    0.280  171.018   65.959
  379.260   17.762    0.473    0.280  168.871   58.489
  379.510   18.238    0.439    0.289  164.612   52.869
  379.760   19.061    0.424    0.293  160.354   52.530
  380.010   20.102    0.413    0.295  159.249   52.493
  380.260   20.448    0.427    0.294  158.122   51.530
  380.510   20.616    0.441    0.286  158.080   50.869
  380.760   21.154    0.445    0.273  158.010   52.690
  381.010   21.330    0.438    0.277  156.898   53.590
  381.260   21.306    0.433    0.273  155.786   52.628
  381.510   21.281    0.430    0.268  154.681   51.666
  381.760   21.456    0.429    0.268  155.156   51.938
  382.010   21.431    0.427    0.265  156.666   52.830
  382.260   21.407    0.427    0.280  158.708   52.173
  382.510   21.582    0.426    0.301  157.589   53.069
  382.760   21.560    0.425    0.299  157.526   57.058
  383.010   21.535    0.427    0.286  159.553   57.339
  383.260   21.317    0.433    0.289  158.462   56.682
  383.510   21.100    0.435    0.292  157.350   55.402
  383.760   20.894    0.429    0.296  156.762   55.682
  384.010   20.857    0.430    0.302  156.713   56.269
  384.260   20.658    0.444    0.302  157.181   55.917
  384.510   20.637    0.451    0.302  158.677   55.265
  384.760   20.613    0.436    0.303  157.579   56.161
  385.010   20.592    0.434    0.306  157.516   58.911
  385.260   20.759    0.431    0.299  157.453   60.116
  385.510   20.737    0.423    0.288  156.872   57.915
  385.760   21.284    0.455    0.273  156.285   60.971
  386.010   21.848    0.479    0.284  156.753   63.729
  386.260   23.254    0.481    0.292  158.263   63.692
  386.510   24.973    0.454    0.293  158.214   61.487
  386.760   26.818    0.442    0.292  158.151   60.215
  387.010   27.532    0.426    0.291  157.563   60.177
  387.260   27.754    0.417    0.282  160.129   61.065
  387.510   27.476    0.424    0.272  162.171   58.868
  387.760   26.230    0.422    0.282  162.632   55.738
  388.010   24.372    0.422    0.298  162.576   56.630
  388.260   23.691    0.430    0.281  164.086   53.805
  388.510   24.537    0.377    0.250  165.079   50.365
  388.760   25.419    0.344    0.218  167.630   50.947
  389.010   26.330    0.390    0.183  164.959   57.108
  389.260   27.024    0.435    0.126  160.700   65.437
  389.510   27.490    0.449    0.252  160.637   65.086
  389.760   27.490    0.459    0.270  161.106   62.575
  390.010   28.175    0.464    0.286  161.560   62.224
  390.260   30.273    0.471    0.280  161.504   63.120
  390.510   35.920    0.472    0.284  164.056   63.091
  390.760   48.829    0.448    0.288  166.636   63.986
  391.010   73.987    0.445    0.278  164.475   61.158
  391.260   94.386    0.430    0.275  163.894   58.028
  391.510  127.132    0.418    0.262  165.921   59.535
  391.760  127.002    0.386    0.249  167.446   58.263
  392.010   70.415    0.341    0.209  170.529   52.655
  392.260   46.793    0.254    0.113  175.717   45.808
  392.510   38.291    0.142    0.058  180.367   42.983
  392.760   32.494    0.122    0.012  179.786   44.176
  393.010   30.748    0.152   -0.041  178.674   45.696
  393.260   30.162    0.189   -0.030  179.149   47.215
  393.510   30.162    0.226   -0.004  176.457   50.891
  393.760   30.370    0.309    0.037  171.688   55.197
  394.010   32.033    0.417    0.263  164.807   59.496
  394.260   34.405    0.447    0.258  164.744   59.459
  394.510   40.085    0.406    0.235  166.779   58.182
  394.760   43.059    0.312    0.206  167.247   57.844
  395.010   54.930    0.311    0.180  167.715   57.492
  395.260   73.320    0.396    0.139  167.645   55.291
  395.510   88.588    0.388    0.226  166.540   52.467
  395.760   89.303    0.333    0.201  169.623   49.948
  396.010   77.870    0.254    0.177  173.762   48.374
  396.260   55.134    0.197    0.127  178.419   44.616
  396.510   44.721    0.135    0.037  179.943   43.030
  396.760   34.661    0.103   -0.016  180.405   43.001
  397.010   28.370    0.110   -0.032  179.299   44.822
  397.260   23.430    0.111   -0.033  177.663   46.024
  397.510   20.249    0.130   -0.032  180.753   47.845
  397.760   18.986    0.227   -0.030  181.208   49.674
  398.010   18.621    0.299   -0.009  179.061   53.972
  398.260   18.602    0.382    0.138  169.558   56.409
  398.510   18.755    0.419    0.177  163.726   56.380
  398.760   19.076    0.442    0.196  163.145   57.271
  399.010   18.880    0.435    0.253  163.606   60.335
  399.260   18.194    0.442    0.268  163.550   64.638
  399.510   17.057    0.460    0.268  163.487   66.463
  399.760   15.993    0.467    0.259  164.983   69.523
  400.010   14.995    0.475    0.270  164.934   71.340
  400.260   14.182    0.467    0.272  164.871   70.385
  400.510   14.043    0.463    0.287  165.346   70.658
  400.760   14.284    0.458    0.284  166.332   68.754
  401.010   14.796    0.450    0.271  166.275   64.699
  401.260   15.326    0.451    0.268  166.212   63.728
  401.510   15.590    0.445    0.261  166.212   61.531
  401.760   15.151    0.431    0.256  166.079   57.777
  402.010   14.730    0.412    0.248  166.037   53.718
