~VERSION INFORMATION
 VERS.                 2.0:   CWLS LOG ASCII STANDARD -VERSION 2.0
 WRAP.                  NO:   ONE LINE PER DEPTH STEP
~WELL INFORMATION BLOCK
#MNEM.UNIT           DATA                    DESCRIPTION OF MNEMONIC
#---------    -------------------            -------------------------------
# Generated from Intellog Unique Number	CW_73_75/WELL/2730
WELL.         MANNVILLE ET AL MITSUE 07-21   : Well_name    - WELL
LOC .         00/07-21-073-02W5/0            : Location     - LOCATION
UWI .         00/07-21-073-02W5/0            : Uwi          - UNIQUE WELL ID
ENTR.         JAYE                           : Entered      - ENTERED BY
SRVC.         SCHLUMBERGER                   : Scn          - SERVICE COMPANY
DATE.         31 JULY 77                     : Date         - LOG DATE
STRT.M        381                            : top_depth    - START DEPTH
STOP.M        603.5                          : bot_depth    - STOP DEPTH
STEP.M        0.25                           : increment    - STEP LENGTH
 NULL. -999.2500:NULL Value
~CURVE INFORMATION BLOCK
#MNEM UNIT       ERCB CURVE CODE    CURVE DESCRIPTION
#-----------   ------------------   ----------------------------------
DEPT.M        00 001 00 00         : DEPTH        - DEPTH
DPHI.V/V      00 890 00 00         : PHID         - DENSITY POROSITY (SANDSTONE)
NPHI.V/V      00 330 00 00         : PHIN         - NEUTRON POROSITY (SANDSTONE)
GR  .API      00 310 00 00         : GR           - GAMMA RAY
CALI.MM       00 280 01 00         : CAL          - CALIPER
ILD .OHMM     00 120 00 00         : RESD         - DEEP RESISTIVITY (DLL)
~PARAMETER INFORMATION
#MNEM.UNIT           DATA             DESCRIPTION OF MNEMONIC
#---------         -----------     ------------------------------
GL  .M        615.086              : gl           - GROUND LEVEL ELEVATION
EREF.M        618.134              : kb           - ELEVATION OF DEPTH REFERENCE
DATM.M        615.086              : datum        - DATUM ELEVATION
TDD .M        612.648              : tdd          - TOTAL DEPTH DRILLER
RUN .         ONE                  : Run          - RUN NUMBER
ENG .         MACKAY               : Engineer     - RECORDING ENGINEER
WIT .         SPICER               : Witness      - WITNESSED BY
BASE.         EDM                  : Branch       - HOME BASE OF LOGGING UNIT
MUD .         GEL                  : Mud_type     - MUD TYPE
MATR.         SANDSTONE            : Logunit      - NEUTRON MATRIX
TMAX.C        27.2222              : BHT          - MAXIMUM RECORDED TEMPERATURE
BHTD.M        612.953              : BHTDEP       - MAXIMUM RECORDED TEMPERATURE
RMT .C        18.8889              : MDTP         - TEMPERATURE OF MUD
MUDD.KG/M     1128                 : MWT          - MUD DENSITY
NEUT.         1                    : NEUTRON      - NEUTRON TYPE
RESI.         1                    : RESIST       - RESISTIVITY TYPE
RM  .OHMM     5.1                  : RM           - RESISTIVITY OF MUD
RMC .OHMM     0                    : RMC          - RESISTIVITY OF MUD CAKE
RMF .OHMM     6.58                 : RMF          - RESISTIVITY OF MUD FILTRATE
SUFT.C        -17.7778             : SUFT         - SURFACE TEMPERATURE
~A  DEPTH     PHID     PHIN       GR      CAL     RESD
# ...
  490.500    0.288    0.428   68.016  160.284    4.092
  490.750    0.271    0.419   69.258  160.595    4.597
  491.000    0.258    0.406   70.563  160.696    5.306
  491.250    0.238    0.393   68.506  160.903    6.777
  491.500    0.224    0.363   61.159  161.109   10.204
  491.750    0.205    0.348   57.982  161.420   13.882
  492.000    0.145    0.210   56.362  162.155   16.424
  492.250    0.103    0.189   55.798  163.520   17.258
  492.500    0.070    0.172   56.045  164.359   14.386
  492.750    0.035    0.158   58.159  164.566   11.675
  493.000    0.016    0.143   61.206  164.666    9.585
  493.250   -0.005    0.156   61.390  164.768    7.616
  493.500    0.034    0.187   63.130  164.658    6.410
  493.750    0.047    0.206   66.053  164.337    5.272
  494.000    0.067    0.246   69.474  163.489    4.214
  494.250    0.256    0.390   70.840  162.115    3.756
  494.500    0.298    0.433   72.954  160.740    3.552
  494.750    0.299    0.426   75.379  159.682    3.579
  495.000    0.279    0.411   74.753  159.151    3.626
  495.250    0.265    0.409   68.589  158.620    3.653
  495.500    0.261    0.424   69.147  158.615    3.688
  495.750    0.268    0.416   67.837  158.400    3.687
  496.000    0.278    0.409   65.781  158.290    3.700
  496.250    0.287    0.407   66.961  158.391    3.785
  496.500    0.288    0.430   67.083  158.386    3.993
  496.750    0.282    0.435   66.209  158.699    4.260
  497.000    0.270    0.422   66.268  158.799    4.417
  497.250    0.276    0.408   67.759  158.900    4.475
  497.500    0.288    0.383   70.433  159.108    4.398
  497.750    0.277    0.367   72.298  159.841    4.160
  498.000    0.237    0.337   72.980  160.680    3.882
  498.250    0.232    0.365   73.475  161.307    3.643
  498.500    0.247    0.389   75.589  161.303    3.499
  498.750    0.262    0.412   78.138  161.299    3.386
  499.000    0.282    0.423   80.065  161.294    3.265
  499.250    0.285    0.432   80.996  161.078    3.172
  499.500    0.284    0.440   80.682  160.970    3.105
  499.750    0.282    0.454   78.999  160.964    2.999
  500.000    0.278    0.451   76.943  160.961    2.964
  500.250    0.283    0.441   76.940  160.850    2.869
  500.500    0.291    0.433   77.622  160.952    2.835
  500.750    0.311    0.430   78.989  161.158    2.770
  501.000    0.307    0.443   76.434  161.259    2.728
  501.250    0.292    0.437   71.764  161.465    2.696
  501.500    0.282    0.441   71.388  161.672    2.670
  501.750    0.280    0.458   72.754  161.667    2.649
  502.000    0.287    0.473   73.436  161.768    2.628
  502.250    0.295    0.461   73.496  161.658    2.648
  502.500    0.309    0.445   73.555  161.655    2.698
  502.750    0.299    0.435   70.254  161.861    2.819
  503.000    0.275    0.428   70.688  161.962    3.037
  503.250    0.295    0.431   70.872  162.590    3.309
  503.500    0.290    0.433   68.006  163.323    3.504
  503.750    0.257    0.428   63.087  163.741    3.646
  504.000    0.219    0.416   60.906  164.685    3.709
  504.250    0.163    0.367   62.708  166.156    3.631
  504.500    0.137    0.270   66.626  163.622    3.460
  504.750    0.116    0.293   71.043  161.932    3.336
  505.000    0.148    0.391   74.775  160.556    3.235
  505.250    0.255    0.414   76.826  160.026    3.137
  505.500    0.269    0.457   77.508  160.021    3.071
  505.750    0.279    0.437   78.314  159.911    2.983
  506.000    0.287    0.447   79.743  159.907    2.943
  506.250    0.283    0.458   81.110  159.692    2.903
  506.500    0.284    0.448   83.535  159.476    2.886
  506.750    0.291    0.453   78.242  159.262    2.874
  507.000    0.287    0.451   76.559  159.151    2.873
  507.250    0.277    0.433   76.930  158.936    2.873
  507.500    0.260    0.418   79.541  159.037    2.866
  507.750    0.251    0.424   80.597  159.244    2.855
  508.000    0.252    0.435   80.470  159.450    2.843
  508.250    0.271    0.445   81.650  159.551    2.826
  508.500    0.282    0.454   81.274  159.336    2.788
  508.750    0.283    0.457   78.159  159.543    2.761
  509.000    0.270    0.453   79.028  159.433    2.745
  509.250    0.263    0.449   81.328  159.639    2.728
  509.500    0.283    0.446   84.998  159.951    2.696
  509.750    0.275    0.452   86.364  159.946    2.691
  510.000    0.270    0.470   84.121  159.942    2.685
  510.250    0.291    0.466   80.384  159.938    2.705
  510.500    0.266    0.452   77.643  159.723    2.720
  510.750    0.244    0.453   77.329  159.613    2.756
  511.000    0.261    0.451   78.820  157.817    2.830
  511.250    0.257    0.441   78.382  157.391    2.890
  511.500    0.244    0.433   78.815  157.492    2.951
  511.750    0.260    0.428   79.808  157.066    3.007
  512.000    0.255    0.427   80.490  156.640    3.076
  512.250    0.240    0.431   81.048  156.214    3.123
  512.500    0.258    0.439   82.041  156.525    3.176
  512.750    0.268    0.434   83.159  157.048    3.231
  513.000    0.240    0.422   85.522  158.519    3.311
  513.250    0.224    0.423   89.689  159.569    3.446
  513.500    0.242    0.421   94.230  160.197    3.628
  513.750    0.204    0.402   91.489  160.509    3.901
  514.000    0.202    0.405   92.544  160.610    4.333
  514.250    0.205    0.423   90.052  161.027    4.794
  514.500    0.219    0.447   84.386  161.761    5.116
  514.750    0.214    0.410   86.437  162.705    5.344
  515.000    0.182    0.376   85.065  163.017    5.202
  515.250    0.077    0.333   84.565  163.328    4.790
  515.500    0.049    0.310   88.919  163.430    4.369
  515.750    0.087    0.343   92.838  163.635    4.038
  516.000    0.172    0.378   95.511  163.737    3.864
  516.250    0.204    0.417   96.691  163.838    3.818
  516.500    0.219    0.422   96.128  163.622    3.832
  516.750    0.194    0.469   95.815  163.513    3.883
  517.000    0.179    0.465   98.302  163.509    3.942
  517.250    0.191    0.457   96.743  163.609    3.987
  517.500    0.201    0.440   98.919  163.921    4.039
  517.750    0.219    0.428  101.779  164.444    4.070
  518.000    0.200    0.419  102.026  165.072    4.076
  518.250    0.166    0.433  100.716  165.700    4.076
  518.500    0.181    0.448   99.904  166.117    4.098
  518.750    0.204    0.450  101.707  166.324    4.137
  519.000    0.194    0.446  103.883  166.636    4.207
  519.250    0.187    0.446  105.934  166.947    4.304
  519.500    0.193    0.442  103.317  167.258    4.558
  519.750    0.198    0.440   99.331  167.465    5.170
  520.000    0.205    0.445   94.723  167.672    5.966
  520.250    0.215    0.452   89.181  167.773    6.221
  520.500    0.215    0.446   87.622  167.873    6.256
  520.750    0.174    0.434   88.305  167.764    6.124
  521.000    0.147    0.411   93.094  167.233    5.961
  521.250    0.119    0.367   99.067  167.123    5.780
  521.500    0.156    0.386  105.849  166.908    5.467
  521.750    0.178    0.407  104.850  166.692    5.240
  522.000    0.202    0.415  101.798  166.477    5.071
  522.250    0.190    0.412  100.426  166.156    4.974
  522.500    0.200    0.401  101.606  166.468    4.851
  522.750    0.200    0.394  103.346  166.675    4.758
  523.000    0.183    0.400  100.480  166.881    4.720
  523.250    0.158    0.412  107.199  167.298    4.639
  523.500    0.151    0.415  108.006  167.189    4.489
  523.750    0.158    0.417  104.767  167.606    4.361
  524.000    0.194    0.432  107.689  167.707    4.302
  524.250    0.185    0.436  110.177  167.808    4.310
  524.500    0.181    0.434  110.361  167.803    4.325
  524.750    0.196    0.431  108.678  167.694    4.383
  525.000    0.184    0.425  105.625  167.689    4.605
  525.250    0.166    0.410  101.639  167.579    4.932
  525.500    0.160    0.411   98.898  167.575    5.232
  525.750    0.183    0.429   96.904  167.360    5.477
  526.000    0.169    0.436   94.474  167.567    5.476
  526.250    0.157    0.437   92.169  167.878    5.340
  526.500    0.161    0.435   97.581  168.401    4.974
  526.750    0.172    0.405  106.666  168.713    4.468
