~VERSION INFORMATION
 VERS.                 2.0:   CWLS LOG ASCII STANDARD -VERSION 2.0
 WRAP.                  NO:   ONE LINE PER DEPTH STEP
~WELL INFORMATION BLOCK
#MNEM.UNIT           DATA                    DESCRIPTION OF MNEMONIC
#---------    -------------------            -------------------------------
# Generated from Intellog Unique Number	CS_71_72/WELL/699
WELL.         AMOCO AEC IPIATIK              : Well_name    - WELL
LOC .         00/06-01-072-05W4/0            : Location     - LOCATION
UWI .         00/06-01-072-05W4/0            : Uwi          - UNIQUE WELL ID
ENTR.         SP                             : Entered      - ENTERED BY
SRVC.         SCHLUMBERGER                   : Scn          - SERVICE COMPANY
STRT.M        285                            : top_depth    - START DEPTH
STOP.M        505                            : bot_depth    - STOP DEPTH
STEP.M        0.25                           : increment    - STEP LENGTH
 NULL. -999.2500:NULL Value
~CURVE INFORMATION BLOCK
#MNEM UNIT       ERCB CURVE CODE    CURVE DESCRIPTION
#-----------   ------------------   ----------------------------------
DEPT.M        00 001 00 00         : DEPTH        - DEPTH
ILD .OHMM     00 120 00 00         : RESD         - DEEP RESISTIVITY (DIL)
DPHI.V/V      00 890 00 00         : PHID         - DENSITY POROSITY (LIMESTONE)
NPHI.V/V      00 330 00 00         : PHIN         - NEUTRON POROSITY (LIMESTONE)
GR  .API      00 310 00 00         : GR           - GAMMA RAY
~PARAMETER INFORMATION
#MNEM.UNIT           DATA             DESCRIPTION OF MNEMONIC
#---------         -----------     ------------------------------
GL  .M        671                  : gl           - GROUND LEVEL ELEVATION
EREF.M        674.85               : kb           - ELEVATION OF DEPTH REFERENCE
DATM.M        671                  : datum        - DATUM ELEVATION
TDD .M        517                  : tdd          - TOTAL DEPTH DRILLER
RUN .         ONE                  : Run          - RUN NUMBER
ENG .         BILL                 : Engineer     - RECORDING ENGINEER
WIT .         JIM                  : Witness      - WITNESSED BY
MUD .         GEL                  : Mud_type     - MUD TYPE
MATR.         LIMESTONE            : Logunit      - NEUTRON MATRIX
TMAX.C        22                   : BHT          - MAXIMUM RECORDED TEMPERATURE
BHTD.M        517                  : BHTDEP       - MAXIMUM RECORDED TEMPERATURE
MATR.         1                    : LOGUNIT      - NEUTRON MATRIX
RMT .C        25                   : MDTP         - TEMPERATURE OF MUD
NEUT.         1                    : NEUTRON      - NEUTRON TYPE
RESI.         0                    : RESIST       - RESISTIVITY TYPE
RMC .OHMM     0.25                 : RMC          - RESISTIVITY OF MUD CAKE
RMF .OHMM     0.25                 : RMF          - RESISTIVITY OF MUD FILTRATE
SUFT.C        15                   : SUFT         - SURFACE TEMPERATURE
~A  DEPTH     RESD     PHID     PHIN       GR
# ...
  459.000   17.890    0.251    0.411   75.290
  459.250   16.927    0.263    0.396   66.225
  459.500   13.072    0.273    0.384   61.395
  459.750   10.868    0.240    0.377   68.662
  460.000    9.551    0.202    0.373   78.953
  460.250    9.205    0.167    0.383   87.430
  460.500    9.037    0.159    0.388   94.090
  460.750    9.731    0.160    0.383  100.147
  461.000   11.492    0.173    0.377  101.367
  461.250   12.840    0.196    0.385   95.325
  461.500   14.083    0.218    0.392   88.679
  461.750   17.258    0.225    0.403   79.010
  462.000   18.928    0.245    0.418   63.292
  462.250   22.354    0.270    0.430   57.252
  462.500   17.583    0.287    0.438   53.027
  462.750   13.086    0.301    0.430   53.035
  463.000   10.880    0.298    0.383   60.907
  463.250    9.739    0.278    0.398   69.989
  463.500    9.387    0.240    0.413   79.673
  463.750    9.563    0.190    0.423   86.939
  464.000   10.108    0.171    0.391   90.577
  464.250   12.853    0.177    0.347   85.746
  464.500   14.098    0.189    0.349   78.498
  464.750   17.275    0.202    0.356   74.877
  465.000   20.781    0.199    0.363   73.069
  465.250   22.793    0.199    0.372   67.634
  465.500   25.941    0.188    0.380   59.779
  465.750   27.421    0.183    0.375   54.947
  466.000   24.547    0.239    0.382   51.327
  466.250   20.409    0.265    0.405   51.942
  466.500   18.957    0.288    0.411   55.579
  466.750   16.355    0.286    0.403   59.217
  467.000   15.191    0.285    0.402   61.038
  467.250   14.110    0.291    0.408   64.072
  467.500   12.632    0.286    0.415   66.501
  467.750   11.951    0.277    0.422   68.927
  468.000   11.101    0.273    0.417   71.960
  468.250    9.577    0.263    0.409   75.600
  468.500    8.262    0.247    0.403   76.813
  468.750    7.261    0.236    0.397   79.242
  469.000    6.870    0.232    0.392   78.645
  469.250    6.500    0.224    0.389   77.443
  469.500    6.382    0.218    0.397   82.290
  469.750    6.382    0.214    0.401   87.743
  470.000    6.623    0.205    0.399   90.170
  470.250    7.001    0.208    0.392   94.411
  470.500    7.968    0.208    0.398  101.074
  470.750    8.423    0.201    0.406  103.501
  471.000    8.903    0.188    0.406   98.066
  471.250    9.411    0.180    0.392   87.792
  471.500    9.766    0.194    0.377   78.728
  471.750    9.589    0.215    0.359   72.081
  472.000    9.414    0.214    0.348   71.485
  472.250    9.073    0.186    0.337   77.543
  472.500    8.908    0.168    0.332   86.622
  472.750    8.909    0.154    0.334   95.703
  473.000    8.909    0.147    0.352  103.575
  473.250    9.076    0.146    0.361  102.378
  473.500    9.077    0.162    0.364  100.569
  473.750    9.247    0.165    0.366   98.156
  474.000    9.596    0.186    0.385   93.325
  474.250    9.957    0.214    0.370   83.656
  474.500   10.922    0.204    0.353   77.615
  474.750   11.334    0.197    0.347   83.071
  475.000   11.761    0.179    0.347   68.354
  475.250   12.205    0.174    0.356   71.394
  475.500   12.206    0.174    0.370   73.220
  475.750   11.764    0.192    0.382   75.657
  476.000   11.550    0.228    0.372   73.257
  476.250   11.551    0.226    0.355   71.454
  476.500   11.768    0.196    0.348   69.046
  476.750   12.211    0.185    0.341   69.067
  477.000   13.148    0.184    0.341   69.078
  477.250   14.964    0.210    0.351   63.650
  477.500   18.002    0.214    0.356   61.244
  477.750   21.259    0.211    0.354   58.840
  478.000   25.574    0.197    0.357   53.410
  478.250   28.574    0.198    0.373   49.191
  478.500   29.650    0.219    0.379   48.606
  478.750   30.206    0.242    0.369   49.824
  479.000   27.544    0.240    0.375   53.469
  479.250   26.061    0.265    0.390   58.326
  479.500   24.207    0.260    0.385   60.758
  479.750   24.209    0.272    0.386   58.957
  480.000   26.553    0.259    0.386   54.744
  480.250   31.359    0.247    0.378   51.133
  480.500   33.766    0.240    0.367   48.725
  480.750   38.430    0.254    0.379   47.525
  481.000   42.151    0.269    0.386   44.520
  481.250   47.096    0.289    0.392   42.720
  481.500   50.711    0.288    0.399   40.918
  481.750   51.660    0.290    0.391   39.120
  482.000   51.665    0.305    0.393   37.921
  482.250   50.722    0.305    0.398   39.755
  482.500   42.958    0.299    0.397   45.218
  482.750   37.061    0.297    0.384   48.250
  483.000   33.176    0.305    0.385   57.339
  483.250   25.149    0.297    0.375   62.191
  483.500   19.065    0.285    0.350   65.229
  483.750   16.147    0.260    0.334   68.271
  484.000   16.148    0.225    0.339   68.287
  484.250   17.713    0.201    0.344   65.278
  484.500   18.723    0.185    0.341   62.270
  484.750   19.791    0.184    0.351   59.865
  485.000   22.525    0.203    0.362   59.271
  485.250   23.810    0.213    0.356   59.287
  485.500   26.116    0.229    0.360   61.118
  485.750   26.605    0.260    0.370   64.763
  486.000   25.174    0.276    0.392   69.616
  486.250   24.714    0.293    0.384   75.072
  486.500   23.384    0.299    0.381   81.136
  486.750   23.822    0.267    0.381   69.659
  487.000   24.720    0.252    0.399   67.864
  487.250   24.270    0.249    0.405   66.663
  487.500   21.328    0.261    0.392   60.630
  487.750   19.449    0.253    0.384   62.461
  488.000   18.402    0.250    0.394   74.575
  488.250   18.746    0.267    0.398   85.476
  488.500   20.561    0.244    0.370   77.022
  488.750   23.401    0.212    0.352   61.310
  489.000   28.676    0.196    0.359   49.227
  489.250   34.496    0.217    0.378   40.773
  489.500   39.994    0.275    0.384   35.954
  489.750   43.063    0.313    0.388   34.759
  490.000   50.856    0.315    0.388   34.771
  490.250   54.759    0.311    0.381   34.785
  490.500   57.883    0.312    0.383   36.016
  490.750   51.817    0.315    0.387   36.026
  491.000   48.129    0.315    0.401   36.652
  491.250   41.523    0.315    0.407   36.664
  491.500   37.863    0.316    0.409   36.680
  491.750   35.169    0.323    0.413   36.695
  492.000   30.908    0.319    0.418   37.918
  492.250   29.243    0.312    0.423   38.541
  492.500   27.669    0.311    0.425   38.548
  492.750   24.316    0.312    0.427   36.750
  493.000   22.585    0.317    0.433   36.161
  493.250   19.485    0.323    0.447   35.571
  493.500   18.098    0.324    0.455   34.982
  493.750   16.503    0.322    0.457   34.998
  494.000   14.503    0.330    0.443   35.622
  494.250   12.745    0.332    0.427   35.628
  494.500   10.794    0.327    0.414   39.273
  494.750    9.142    0.315    0.404   43.522
  495.000    7.462    0.307    0.397   48.375
  495.250    6.679    0.298    0.386   47.788
  495.500    5.762    0.292    0.385   43.568
  495.750    5.064    0.288    0.399   38.745
  496.000    4.369    0.306    0.399   34.526
  496.250    3.984    0.317    0.391   32.726
  496.500    3.437    0.321    0.399   30.927
  496.750    3.312    0.322    0.399   30.343
  497.000    3.077    0.321    0.385   30.959
  497.250    2.858    0.317    0.393   31.573
  497.500    2.754    0.315    0.395   32.803
  497.750    2.704    0.308    0.382   34.023
  498.000    2.755    0.292    0.373   35.855
  498.250    3.194    0.259    0.351   37.075
  498.500    3.842    0.211    0.276   39.512
  498.750    5.663    0.168    0.237   42.561
  499.000    7.611   -0.012    0.211   44.388
  499.250   10.811   -0.016    0.190   45.610
  499.500   19.168   -0.016    0.179   46.228
  499.750   24.372   -0.016    0.174   46.843
  500.000   24.374   -0.013    0.174   46.865
  500.250   23.492   -0.010    0.181   46.873
  500.500   23.064   -0.007    0.183   45.074
  500.750   22.644   -0.006    0.185   45.090
  501.000   22.646   -0.006    0.181   45.105
  501.250   23.501   -0.005    0.180   45.723
  501.500   23.941   -0.006    0.179   46.349
  501.750   24.389   -0.007    0.181   47.572
  502.000   24.390   -0.007    0.187   48.189
  502.250   25.310   -0.009    0.188   49.412
