~VERSION INFORMATION
 VERS.                 2.0:   CWLS LOG ASCII STANDARD -VERSION 2.0
 WRAP.                  NO:   ONE LINE PER DEPTH STEP
~WELL INFORMATION BLOCK
#MNEM.UNIT           DATA                    DESCRIPTION OF MNEMONIC
#---------    -------------------            -------------------------------
# Generated from Intellog Unique Number	CS_67_68/WELL/662
WELL.         BURNT LAKE                     : Well_name    - WELL
LOC .         00/06-13-068-03W4/0            : Location     - LOCATION
UWI .         00/06-13-068-03W4/0            : Uwi          - UNIQUE WELL ID
ENTR.         SP                             : Entered      - ENTERED BY
SRVC.         SCHLUMBERGER                   : Scn          - SERVICE COMPANY
STRT.M        380                            : top_depth    - START DEPTH
STOP.M        620                            : bot_depth    - STOP DEPTH
STEP.M        0.25                           : increment    - STEP LENGTH
 NULL. -999.2500:NULL Value
~CURVE INFORMATION BLOCK
#MNEM UNIT       ERCB CURVE CODE    CURVE DESCRIPTION
#-----------   ------------------   ----------------------------------
DEPT.M        00 001 00 00         : DEPTH        - DEPTH
ILD .OHMM     00 120 00 00         : RESD         - DEEP RESISTIVITY (DIL)
DPHI.V/V      00 890 00 00         : PHID         - DENSITY POROSITY (LIMESTONE)
NPHI.V/V      00 330 00 00         : PHIN         - NEUTRON POROSITY (LIMESTONE)
GR  .API      00 310 00 00         : GR           - GAMMA RAY
~PARAMETER INFORMATION
#MNEM.UNIT           DATA             DESCRIPTION OF MNEMONIC
#---------         -----------     ------------------------------
GL  .M        722.86               : gl           - GROUND LEVEL ELEVATION
EREF.M        726.87               : kb           - ELEVATION OF DEPTH REFERENCE
DATM.M        722.86               : datum        - DATUM ELEVATION
TDD .M        630                  : tdd          - TOTAL DEPTH DRILLER
RUN .         ONE                  : Run          - RUN NUMBER
ENG .         BILL                 : Engineer     - RECORDING ENGINEER
WIT .         JIM                  : Witness      - WITNESSED BY
MUD .         GEL                  : Mud_type     - MUD TYPE
MATR.         LIMESTONE            : Logunit      - NEUTRON MATRIX
TMAX.C        18.3                 : BHT          - MAXIMUM RECORDED TEMPERATURE
BHTD.M        630                  : BHTDEP       - MAXIMUM RECORDED TEMPERATURE
MATR.         1                    : LOGUNIT      - NEUTRON MATRIX
RMT .C        25                   : MDTP         - TEMPERATURE OF MUD
NEUT.         1                    : NEUTRON      - NEUTRON TYPE
RESI.         0                    : RESIST       - RESISTIVITY TYPE
RMC .OHMM     0.25                 : RMC          - RESISTIVITY OF MUD CAKE
RMF .OHMM     0.25                 : RMF          - RESISTIVITY OF MUD FILTRATE
SUFT.C        15                   : SUFT         - SURFACE TEMPERATURE
~A  DEPTH     RESD     PHID     PHIN       GR
# ...
  510.500    2.602    0.294    0.529   96.563
  510.750    2.510    0.291    0.498   98.518
  511.000    2.481    0.292    0.488  100.289
  511.250    2.466    0.288    0.500  101.267
  511.500    2.508    0.277    0.519  101.817
  511.750    2.764    0.266    0.538  101.391
  512.000    3.211    0.269    0.548   98.888
  512.250    3.772    0.279    0.533   91.075
  512.500    4.814    0.288    0.521   80.087
  512.750    6.403    0.296    0.530   74.410
  513.000    9.129    0.311    0.544   70.687
  513.250   16.398    0.322    0.537   68.368
  513.500   20.193    0.327    0.516   67.209
  513.750   23.153    0.334    0.492   66.722
  514.000   26.249    0.339    0.463   66.234
  514.250   28.608    0.340    0.474   64.953
  514.500   30.029    0.340    0.482   63.610
  514.750   29.849    0.339    0.474   62.574
  515.000   28.792    0.338    0.470   62.819
  515.250   27.358    0.339    0.489   63.491
  515.500   25.943    0.342    0.496   63.919
  515.750   25.450    0.342    0.483   63.066
  516.000   25.254    0.339    0.477   64.776
  516.250   24.587    0.336    0.486   65.876
  516.500   24.078    0.333    0.497   65.144
  516.750   22.580    0.333    0.514   63.496
  517.000   21.255    0.338    0.526   62.399
  517.250   20.233    0.338    0.491   61.972
  517.500   19.591    0.336    0.467   61.851
  517.750   18.721    0.335    0.478   62.157
  518.000   16.345    0.327    0.490   62.586
  518.250   14.903    0.320    0.476   63.075
  518.500   12.162    0.315    0.465   64.296
  518.750   10.461    0.311    0.471   67.228
  519.000    8.748    0.309    0.488   68.755
  519.250    7.610    0.312    0.498   70.832
  519.500    6.448    0.303    0.489   73.519
  519.750    5.322    0.294    0.476   76.450
  520.000    4.673    0.283    0.468   78.282
  520.250    4.399    0.278    0.474   79.993
  520.500    4.331    0.272    0.489   81.398
  520.750    4.338    0.267    0.485   79.994
  521.000    4.444    0.269    0.481   78.530
  521.250    4.586    0.271    0.480   77.982
  521.500    4.663    0.272    0.476   78.776
  521.750    4.839    0.274    0.467   79.143
  522.000    4.939    0.276    0.485   77.923
  522.250    5.059    0.277    0.492   76.154
  522.500    5.182    0.272    0.470   75.056
  522.750    5.278    0.272    0.471   74.385
  523.000    5.346    0.278    0.463   74.081
  523.250    5.395    0.284    0.457   74.814
  523.500    5.464    0.277    0.477   76.463
  523.750    5.535    0.279    0.490   75.488
  524.000    5.616    0.283    0.497   75.488
  524.250    5.667    0.285    0.473   76.710
  524.500    5.708    0.283    0.461   77.871
  524.750    5.727    0.279    0.462   76.773
  525.000    5.747    0.277    0.462   76.652
  525.250    5.777    0.277    0.452   78.179
  525.500    5.808    0.277    0.451   80.073
  525.750    5.816    0.274    0.478   81.905
  526.000    5.771    0.270    0.485   83.615
  526.250    5.736    0.264    0.465   85.753
  526.500    5.691    0.258    0.458   87.097
  526.750    5.615    0.251    0.460   88.563
  527.000    5.315    0.250    0.484   89.236
  527.250    5.108    0.253    0.512   88.443
  527.500    4.927    0.256    0.503   86.612
  527.750    5.065    0.259    0.490   85.819
  528.000    5.764    0.281    0.481   84.477
  528.250    6.572    0.293    0.487   79.472
  528.500    7.824    0.308    0.532   71.903
  528.750   10.004    0.320    0.499   66.043
  529.000   13.971    0.312    0.473   63.174
  529.250   18.477    0.302    0.461   62.687
  529.500   22.667    0.295    0.449   65.313
  529.750   25.362    0.293    0.441   70.747
  530.000   23.474    0.293    0.446   78.685
  530.250   19.889    0.285    0.450   87.965
  530.500   16.231    0.272    0.446   95.903
  530.750   13.024    0.259    0.439   97.857
  531.000   10.122    0.240    0.452   97.003
  531.250    7.911    0.239    0.476   93.524
  531.500    6.678    0.243    0.469   86.138
  531.750    6.031    0.241    0.463   81.683
  532.000    5.551    0.247    0.460   78.570
  532.250    5.147    0.260    0.467   78.693
  532.500    4.872    0.272    0.473   86.020
  532.750    4.569    0.267    0.475   96.399
  533.000    4.221    0.256    0.488   99.330
  533.250    3.834    0.251    0.501   95.302
  533.500    3.392    0.260    0.513   89.564
  533.750    3.046    0.265    0.538   85.292
  534.000    2.731    0.269    0.561   82.912
  534.250    2.457    0.276    0.536   80.532
  534.500    2.266    0.287    0.517   80.777
  534.750    2.113    0.294    0.543   81.999
  535.000    1.981    0.294    0.576   81.450
  535.250    1.904    0.291    0.582   80.352
  535.500    1.826    0.292    0.573   80.658
  535.750    1.788    0.296    0.561   82.002
  536.000    1.748    0.300    0.546   84.262
  536.250    1.747    0.296    0.535   84.690
  536.500    1.783    0.291    0.529   84.691
  536.750    1.796    0.286    0.532   86.462
  537.000    1.829    0.279    0.535   88.722
  537.250    1.902    0.273    0.518   91.348
  537.500    1.963    0.268    0.504   93.364
  537.750    2.096    0.264    0.503   94.158
  538.000    2.254    0.260    0.511   92.877
  538.250    2.344    0.266    0.520   92.145
  538.500    2.352    0.274    0.541   92.085
  538.750    2.299    0.282    0.537   92.391
  539.000    2.276    0.266    0.535   96.055
  539.250    2.341    0.240    0.532   98.315
  539.500    2.494    0.231    0.525   96.484
  539.750    2.658    0.236    0.518   93.860
  540.000    2.816    0.239    0.512   93.312
  540.250    2.901    0.239    0.510   93.923
  540.500    2.966    0.239    0.516   93.436
  540.750    2.993    0.238    0.526   92.826
  541.000    2.958    0.243    0.520   94.536
  541.250    2.848    0.247    0.514   91.363
  541.500    2.950    0.251    0.472   87.761
  541.750    3.320    0.253    0.456   82.146
  542.000    3.771    0.244    0.461   76.408
  542.250    4.348    0.145    0.364   70.792
  542.500    4.995    0.139    0.341   65.970
  542.750    5.846    0.235    0.381   68.352
  543.000    6.678    0.275    0.406   70.978
  543.250    7.170    0.292    0.418   73.848
  543.500    7.400    0.284    0.423   76.230
  543.750    7.164    0.276    0.456   78.429
  544.000    6.693    0.274    0.480   80.384
  544.250    6.218    0.271    0.479   79.835
  544.500    5.831    0.264    0.455   77.455
  544.750    5.520    0.258    0.432   82.645
  545.000    5.304    0.251    0.439   88.812
  545.250    5.224    0.241    0.447   94.735
  545.500    5.134    0.227    0.442   98.338
  545.750    5.027    0.211    0.435   98.461
  546.000    4.904    0.212    0.440   89.121
  546.250    4.838    0.218    0.430   76.606
  546.500    4.873    0.225    0.410   70.624
  546.750    5.232    0.215    0.407   67.817
  547.000    6.055    0.077    0.370   67.330
  547.250    6.839    0.053    0.324   69.711
  547.500    7.930    0.039    0.299   71.422
  547.750    9.195    0.260    0.379   71.423
  548.000    9.743    0.274    0.414   69.775
  548.250    9.001    0.283    0.426   67.639
  548.500    8.283    0.292    0.432   66.236
  548.750    7.710    0.301    0.439   65.688
  549.000    7.340    0.309    0.443   66.299
  549.250    6.858    0.300    0.439   66.788
  549.500    6.335    0.284    0.417   66.240
  549.750    5.963    0.268    0.411   64.348
  550.000    5.677    0.263    0.424   63.189
  550.250    5.465    0.276    0.435   62.274
  550.500    5.423    0.294    0.417   67.892
  550.750    5.451    0.291    0.395   74.730
  551.000    5.418    0.271    0.387   79.493
  551.250    5.256    0.255    0.393   83.645
  551.500    4.892    0.247    0.405   88.652
  551.750    4.427    0.240    0.431   92.499
  552.000    4.006    0.241    0.458   96.713
  552.250    3.632    0.247    0.463   99.033
  552.500    3.237    0.267    0.484   85.298
  552.750    3.059    0.291    0.483   66.984
  553.000    3.241    0.304    0.400   63.994
  553.250    3.661    0.308    0.380   67.352
  553.500    4.285    0.309    0.392   71.443
  553.750    5.006    0.301    0.396   73.215
