~VERSION INFORMATION
 VERS.                 2.0:   CWLS LOG ASCII STANDARD -VERSION 2.0
 WRAP.                  NO:   ONE LINE PER DEPTH STEP
~WELL INFORMATION BLOCK
#MNEM.UNIT           DATA                    DESCRIPTION OF MNEMONIC
#---------    -------------------            -------------------------------
# Generated from Intellog Unique Number	CS_71_72/WELL/806
WELL.         MAYNARD ET AL LOGAN            : Well_name    - WELL
LOC .         00/07-09-072-13W4/0            : Location     - LOCATION
UWI .         00/07-09-072-13W4/0            : Uwi          - UNIQUE WELL ID
ENTR.         SP                             : Entered      - ENTERED BY
SRVC.         SCHLUMBERGER                   : Scn          - SERVICE COMPANY
STRT.M        300                            : top_depth    - START DEPTH
STOP.M        535                            : bot_depth    - STOP DEPTH
STEP.M        0.25                           : increment    - STEP LENGTH
 NULL. -999.2500:NULL Value
~CURVE INFORMATION BLOCK
#MNEM UNIT       ERCB CURVE CODE    CURVE DESCRIPTION
#-----------   ------------------   ----------------------------------
DEPT.M        00 001 00 00         : DEPTH        - DEPTH
ILD .OHMM     00 120 00 00         : RESD         - DEEP RESISTIVITY (DIL)
DPHI.V/V      00 890 00 00         : PHID         - DENSITY POROSITY (LIMESTONE)
NPHI.V/V      00 330 00 00         : PHIN         - NEUTRON POROSITY (LIMESTONE)
GR  .API      00 310 00 00         : GR           - GAMMA RAY
~PARAMETER INFORMATION
#MNEM.UNIT           DATA             DESCRIPTION OF MNEMONIC
#---------         -----------     ------------------------------
GL  .M        632.57               : gl           - GROUND LEVEL ELEVATION
EREF.M        636.97               : kb           - ELEVATION OF DEPTH REFERENCE
DATM.M        632.57               : datum        - DATUM ELEVATION
TDD .M        545                  : tdd          - TOTAL DEPTH DRILLER
RUN .         ONE                  : Run          - RUN NUMBER
ENG .         BILL                 : Engineer     - RECORDING ENGINEER
WIT .         JIM                  : Witness      - WITNESSED BY
MUD .         GEL                  : Mud_type     - MUD TYPE
MATR.         LIMESTONE            : Logunit      - NEUTRON MATRIX
TMAX.C        23                   : BHT          - MAXIMUM RECORDED TEMPERATURE
BHTD.M        5456                 : BHTDEP       - MAXIMUM RECORDED TEMPERATURE
MATR.         1                    : LOGUNIT      - NEUTRON MATRIX
RMT .C        25                   : MDTP         - TEMPERATURE OF MUD
NEUT.         1                    : NEUTRON      - NEUTRON TYPE
RESI.         0                    : RESIST       - RESISTIVITY TYPE
RMC .OHMM     0.25                 : RMC          - RESISTIVITY OF MUD CAKE
RMF .OHMM     0.25                 : RMF          - RESISTIVITY OF MUD FILTRATE
SUFT.C        15                   : SUFT         - SURFACE TEMPERATURE
~A  DEPTH     RESD     PHID     PHIN       GR
# ...
  474.000   10.893    0.202    0.354   68.764
  474.250   11.537    0.226    0.347   65.740
  474.500   11.698    0.243    0.342   62.713
  474.750   12.422    0.265    0.340   62.084
  475.000   15.303    0.276    0.339   65.656
  475.250   16.437    0.283    0.340   69.233
  475.500   16.922    0.288    0.347   71.605
  475.750   17.570    0.281    0.355   70.976
  476.000   18.217    0.256    0.357   67.950
  476.250   21.132    0.233    0.355   65.518
  476.500   22.022    0.199    0.355   64.297
  476.750   21.779    0.239    0.361   64.873
  477.000   20.807    0.286    0.369   69.651
  477.250   17.244    0.313    0.379  100.216
  477.500   13.924    0.304    0.378  111.583
  477.750   12.385    0.277    0.371  116.362
  478.000   11.899    0.260    0.365  112.729
  478.250   11.493    0.241    0.362  103.701
  478.500   11.493    0.225    0.360   99.487
  478.750   11.493    0.227    0.359   92.860
  479.000   11.573    0.236    0.358   89.237
  479.250   11.168    0.230    0.355   86.208
  479.500   10.682    0.226    0.353   83.179
  479.750    9.710    0.247    0.351   81.960
  480.000    8.981    0.266    0.348   84.335
  480.250    8.252    0.277    0.359   95.706
  480.500    7.766    0.260    0.365  103.477
  480.750    7.523    0.247    0.369  107.050
  481.000    7.927    0.236    0.370  107.617
  481.250    8.494    0.231    0.378  108.186
  481.500    9.546    0.239    0.385  108.772
  481.750    9.869    0.240    0.387  108.742
  482.000   11.084    0.236    0.384  105.121
  482.250   11.569    0.233    0.377   92.496
  482.500   12.540    0.227    0.371   84.073
  482.750   13.350    0.241    0.366   76.242
  483.000   14.078    0.258    0.365   73.820
  483.250   14.402    0.261    0.363   74.984
  483.500   14.806    0.232    0.364   76.170
  483.750   14.968    0.211    0.364   77.929
  484.000   14.806    0.201    0.362   78.501
  484.250   14.562    0.212    0.360   77.886
  484.500   14.319    0.231    0.360   76.664
  484.750   14.238    0.249    0.364   76.631
  485.000   14.075    0.256    0.364   77.805
  485.250   13.913    0.247    0.357   77.779
  485.500   13.589    0.234    0.349   74.760
  485.750   13.346    0.237    0.343   69.331
  486.000   13.264    0.241    0.340   67.499
  486.250   13.264    0.245    0.342   68.080
  486.500   13.264    0.235    0.350   79.453
  486.750   13.344    0.225    0.356   86.623
  487.000   13.587    0.227    0.357   88.392
  487.250   13.992    0.227    0.359   85.369
  487.500   14.477    0.240    0.356   79.345
  487.750   15.286    0.245    0.350   75.718
  488.000   16.339    0.226    0.348   82.890
  488.250   18.282    0.212    0.346   86.470
  488.500   22.490    0.222    0.346   78.045
  488.750   23.293    0.257    0.351   64.816
  489.000   24.900    0.278    0.363   59.396
  489.250   24.900    0.310    0.374   61.162
  489.500   27.309    0.310    0.379   66.539
  489.750   28.112    0.297    0.378   70.710
  490.000   30.522    0.288    0.379   71.289
  490.250   32.129    0.283    0.383   68.255
  490.500   32.932    0.289    0.385   66.438
  490.750   32.129    0.296    0.388   61.604
  491.000   31.325    0.306    0.382   57.988
  491.250   29.719    0.316    0.375   50.161
  491.500   26.506    0.302    0.371   42.936
  491.750   11.152    0.295    0.365   39.914
  492.000    8.722    0.294    0.363   62.680
  492.250    7.669    0.286    0.368   93.850
  492.500    6.778    0.262    0.385  110.615
  492.750    5.806    0.237    0.403  115.991
  493.000    6.211    0.192    0.431  119.564
  493.250    7.668    0.166    0.449  119.530
  493.500    9.125    0.193    0.449  114.710
  493.750   10.663    0.212    0.409   99.090
  494.000   12.525    0.232    0.384   83.466
  494.250   13.820    0.260    0.373   75.645
  494.500   14.549    0.276    0.368   78.014
  494.750   15.277    0.292    0.366   77.392
  495.000   15.520    0.284    0.362   75.559
  495.250   15.600    0.262    0.355   72.527
  495.500   15.114    0.201    0.353   71.311
  495.750   13.899    0.221    0.346   71.280
  496.000   12.927    0.241    0.346   74.259
  496.250   12.360    0.259    0.363   81.415
  496.500   11.631    0.272    0.371   82.004
  496.750   11.064    0.284    0.377   81.370
  497.000   10.659    0.264    0.376   80.156
  497.250   10.172    0.258    0.370   82.516
  497.500    9.929    0.254    0.368   86.689
  497.750    9.686    0.247    0.365   89.669
  498.000    9.362    0.235    0.363   92.645
  498.250    9.199    0.222    0.358   91.415
  498.500    9.118    0.211    0.356   89.597
  498.750    8.875    0.207    0.356   94.968
  499.000    8.794    0.210    0.349  102.726
  499.250    8.793    0.212    0.345  105.111
  499.500    8.874    0.215    0.354  109.879
  499.750    9.197    0.221    0.364  112.259
  500.000    9.683    0.234    0.366   94.195
  500.250   10.249    0.238    0.363   79.787
  500.500   10.492    0.250    0.368   67.778
  500.750   10.492    0.278    0.373   61.170
  501.000    9.358    0.295    0.371   56.963
  501.250    8.467    0.310    0.370   56.355
  501.500    7.899    0.298    0.370   59.946
  501.750    7.494    0.302    0.386   64.138
  502.000    7.170    0.306    0.376   62.329
  502.250    6.846    0.302    0.372   54.519
  502.500    6.684    0.298    0.370   48.512
  502.750    6.440    0.294    0.366   40.704
  503.000    6.359    0.301    0.366   36.495
  503.250    6.440    0.310    0.365   39.487
  503.500    6.925    0.317    0.364   52.075
  503.750    7.573    0.324    0.371   61.069
  504.000    8.058    0.325    0.377   68.261
  504.250    9.110    0.326    0.389   76.051
  504.500   10.163    0.326    0.393   77.243
  504.750   10.729    0.301    0.393   79.035
  505.000   10.648    0.250    0.384   84.427
  505.250    9.676    0.229    0.379   90.418
  505.500    9.352    0.202    0.373   97.007
  505.750    8.866    0.192    0.359   99.401
  506.000    8.622    0.185    0.353   98.792
  506.250    8.703    0.186    0.348   92.183
  506.500    9.026    0.195    0.347   86.775
  506.750    9.755    0.207    0.347   81.368
  507.000   10.807    0.213    0.354   84.356
  507.250   11.778    0.227    0.351   82.550
  507.500   12.831    0.147    0.330   72.342
  507.750   13.802    0.164    0.322   62.734
  508.000   15.016    0.180    0.312   53.126
  508.250   15.826    0.209    0.322   56.718
  508.500   14.368    0.243    0.334   68.106
  508.750   12.748    0.219    0.342   75.295
  509.000   12.019    0.200    0.336   77.689
  509.250   11.290    0.200    0.334   78.883
  509.500   10.561    0.202    0.337   79.475
  509.750   10.156    0.200    0.339   86.663
  510.000   10.074    0.191    0.338   89.657
  510.250   10.155    0.200    0.338   92.049
  510.500   10.316    0.217    0.340   84.237
  510.750   10.478    0.248    0.346   81.232
  511.000   10.559    0.266    0.352   75.222
  511.250   10.639    0.262    0.357   71.613
  511.500   10.720    0.257    0.359   68.605
  511.750   10.639    0.245    0.363   66.794
  512.000   10.477    0.234    0.359   66.190
  512.250   10.071    0.239    0.357   67.379
  512.500    9.828    0.248    0.357   68.574
  512.750    9.180    0.252    0.355   71.564
  513.000    8.694    0.254    0.349   71.555
  513.250    8.451    0.252    0.344   68.545
  513.500    8.045    0.241    0.334   69.138
  513.750    7.802    0.236    0.332   69.727
  514.000    7.478    0.242    0.329   69.122
  514.250    7.154    0.247    0.332   67.910
  514.500    6.991    0.250    0.335   67.305
  514.750    6.748    0.244    0.340   66.095
  515.000    6.586    0.234    0.338   64.886
  515.250    6.423    0.233    0.335   63.077
  515.500    6.342    0.236    0.337   62.472
  515.750    6.261    0.245    0.339   60.660
  516.000    6.180    0.250    0.344   60.054
  516.250    6.098    0.255    0.344   59.447
  516.500    6.017    0.238    0.340   58.235
  516.750    5.936    0.217    0.339   58.229
  517.000    5.854    0.208    0.338   58.222
  517.250    5.773    0.220    0.340   59.410
