~VERSION INFORMATION
 VERS.                 2.0:   CWLS LOG ASCII STANDARD -VERSION 2.0
 WRAP.                  NO:   ONE LINE PER DEPTH STEP
~WELL INFORMATION BLOCK
#MNEM.UNIT           DATA                    DESCRIPTION OF MNEMONIC
#---------    -------------------            -------------------------------
# Generated from Intellog Unique Number	CS_69_70/WELL/474
NULL.         -999.25                        : NULL_VALUE
WELL.         07-03-070-08W4                 : Well_name    - WELL              
LOC .         00/07-03-070-08W4/0            : Location     - LOCATION          
UWI .         00/07-03-070-08W4/0            : Uwi          - UNIQUE WELL ID    
ENTR.         JOETTE                         : Entered      - ENTERED BY        
SRVC.         SCHLUMBERGER                   : Scn          - SERVICE COMPANY   
DATE.         05\15\92                       : Date         - LOG DATE          
STRT.M        300                            : top_depth    - START DEPTH       
STOP.M        520                            : bot_depth    - STOP DEPTH        
STEP.M        0.25                           : increment    - STEP LENGTH       
~CURVE INFORMATION BLOCK
#MNEM UNIT       ERCB CURVE CODE    CURVE DESCRIPTION
#-----------   ------------------   ----------------------------------
DEPT.M        00 001 00 00         : DEPTH        - DEPTH                       
GR  .API      00 310 00 00         : GR           - GAMMA RAY                   
NPHI.V/V      00 330 00 00         : PHIN         - NEUTRON POROSITY (SANDSTONE)
DPHI.V/V      00 890 00 00         : PHID         - DENSITY POROSITY (SANDSTONE)
ILD .OHMM     00 120 00 00         : RESD         - DEEP RESISTIVITY (DIL)      
CALI.MM       00 280 01 00         : CAL          - CALIPER                     
~PARAMETER INFORMATION       
#MNEM.UNIT           DATA             DESCRIPTION OF MNEMONIC
#---------         -----------     ------------------------------
GL  .M        640                  : gl           - GROUND LEVEL ELEVATION      
EREF.M        648.7                : kb           - ELEVATION OF DEPTH REFERENCE
DATM.M        648.7                : datum        - DATUM ELEVATION             
TDD .M        625                  : tdd          - TOTAL DEPTH DRILLER         
RUN .         ONE                  : Run          - RUN NUMBER                  
ENG .         JO                   : Engineer     - RECORDING ENGINEER          
WIT .         TIM                  : Witness      - WITNESSED BY                
MUD .         GEL                  : Mud_type     - MUD TYPE                    
MATR.         SANDSTONE            : Logunit      - NEUTRON MATRIX              
TMAX.C        25                   : BHT          - MAXIMUM RECORDED TEMPERATURE
BHTD.M        625                  : BHTDEP       - MAXIMUM RECORDED TEMPERATURE
RMT .C        15                   : MDTP         - TEMPERATURE OF MUD          
MUDD.KG/M     1080                 : MWT          - MUD DENSITY                 
NEUT.         1                    : NEUTRON      - NEUTRON TYPE                
RESI.         0                    : RESIST       - RESISTIVITY TYPE            
RM  .OHMM     3.3                  : RM           - RESISTIVITY OF MUD          
RMC .OHMM     3.3                  : RMC          - RESISTIVITY OF MUD CAKE     
RMF .OHMM     3.3                  : RMF          - RESISTIVITY OF MUD FILTRATE 
SUFT.C        4                    : SUFT         - SURFACE TEMPERATURE         
~A  DEPTH       GR     PHIN     PHID     RESD      CAL
# ...
  336.500  113.307    0.440    0.262    6.475  155.334
  336.750  110.935    0.451    0.265    6.251  157.460
  337.000   94.053    0.446    0.279    6.262  158.605
  337.250   76.549    0.438    0.292    6.513  158.741
  337.500   74.193    0.426    0.309    6.901  157.786
  337.750   80.916    0.415    0.321    7.168  152.878
  338.000   89.471    0.405    0.292    7.322  150.997
  338.250   94.379    0.397    0.281    7.328  151.051
  338.500   99.891    0.412    0.269    7.348  156.230
  338.750  106.630    0.421    0.260    7.358  163.428
  339.000  106.090    0.432    0.251    7.371  167.571
  339.250  104.340    0.445    0.240    6.989  170.733
  339.500   99.563    0.474    0.230    6.504  170.788
  339.750   98.417    0.499    0.229    6.390  168.906
  340.000   99.088    0.490    0.238    6.287  166.015
  340.250   98.548    0.482    0.249    6.413  164.079
  340.500   95.587    0.474    0.250    6.551  162.143
  340.750   92.037    0.444    0.255    6.683  159.226
  341.000   92.085    0.472    0.262    6.820  157.344
  341.250   93.966    0.498    0.264    6.960  155.408
  341.500   94.637    0.502    0.278    7.106  153.526
  341.750   97.123    0.477    0.279    7.255  152.626
  342.000   97.793    0.466    0.274    7.265  153.743
  342.250   98.464    0.473    0.268    7.414  155.869
  342.500  100.377    0.466    0.263    7.427  159.032
  342.750   97.384    0.450    0.275    7.580  158.131
  343.000   80.502    0.433    0.294    7.736  155.214
  343.250   79.356    0.421    0.305    7.753  154.286
  343.500   84.869    0.408    0.303    7.916  152.405
  343.750   92.819    0.416    0.285    8.071  152.513
  344.000   95.910    0.426    0.261    8.093  152.595
  344.250   94.781    0.428    0.261    8.104  153.766
  344.500   89.988    0.428    0.267    8.122  154.857
  344.750   85.227    0.432    0.268    8.129  159.055
  345.000   82.855    0.433    0.267    8.148  161.154
  345.250   81.710    0.427    0.258    8.012  162.244
  345.500   85.423    0.416    0.251    7.735  163.388
  345.750   88.514    0.420    0.242    7.467  164.506
  346.000   92.833    0.435    0.237    7.079  164.587
  346.250   94.076    0.452    0.237    6.831  164.750
  346.500   92.947    0.476    0.242    6.479  164.832
  346.750   91.212    0.496    0.248    6.488  163.904
  347.000   90.656    0.497    0.251    6.383  162.050
  347.250   88.922    0.487    0.251    6.392  161.122
  347.500   87.760    0.482    0.257    6.520  158.205
  347.750   83.588    0.481    0.278    6.911  156.296
  348.000   82.443    0.483    0.295    7.182  154.387
  348.250   87.956    0.470    0.283    7.333  153.487
  348.500   95.889    0.454    0.280    7.480  153.596
  348.750   97.165    0.436    0.284    7.497  154.713
  349.000   92.993    0.447    0.277    7.507  153.813
  349.250   88.838    0.445    0.265    7.520  151.931
  349.500   86.466    0.445    0.257    7.396  153.048
  349.750   84.715    0.455    0.248    7.143  156.183
  350.000   84.780    0.465    0.248    7.024  158.309
  350.250   87.266    0.469    0.252    6.781  162.507
  350.500   90.979    0.481    0.255    6.546  162.562
  350.750   90.439    0.494    0.249    6.322  160.707
  351.000   87.495    0.489    0.244    6.215  158.744
  351.250   82.701    0.479    0.247    6.226  155.881
  351.500   79.119    0.476    0.265    6.354  154.926
  351.750   74.963    0.476    0.275    6.732  153.017
  352.000   73.213    0.474    0.301    7.266  151.136
  352.250   72.673    0.464    0.310    7.550  150.235
  352.500   70.922    0.457    0.309    7.996  150.344
  352.750   66.734    0.434    0.317    8.317  150.480
  353.000   61.368    0.421    0.323    8.328  150.561
  353.250   59.013    0.417    0.320    8.343  151.679
  353.500   60.288    0.412    0.315    8.208  151.787
  353.750   65.817    0.409    0.307    8.223  151.896
  354.000   70.103    0.402    0.305    8.238  152.005
  354.250   73.799    0.401    0.311    8.256  152.140
  354.500   73.259    0.410    0.326    8.271  152.249
  354.750   68.499    0.413    0.321    8.441  152.330
  355.000   66.748    0.409    0.310    8.456  152.439
  355.250   67.402    0.399    0.300    8.630  152.548
  355.500   70.510    0.406    0.293    8.807  152.656
  355.750   74.828    0.409    0.295    8.827  152.819
  356.000   77.920    0.410    0.296    9.012  152.901
  356.250   80.995    0.404    0.294    9.020  154.045
  356.500   82.271    0.395    0.285    9.210  155.135
  356.750   81.731    0.398    0.279    9.395  156.253
  357.000   83.611    0.409    0.272    9.592  157.370
  357.250   81.861    0.418    0.267    9.793  157.506
  357.500   77.100    0.416    0.275    9.802  157.615
  357.750   74.728    0.408    0.282    9.828  157.696
  358.000   82.073    0.409    0.288    9.846  158.813
  358.250   88.190    0.404    0.290    9.678  161.948
  358.500   94.913    0.393    0.288    9.176  165.083
  358.750  100.458    0.417    0.286    9.020  168.245
  359.000  101.129    0.444    0.279    8.398  169.390
  359.250   98.757    0.451    0.268    8.255  166.445
  359.500   92.164    0.452    0.260    7.969  160.528
  359.750   86.160    0.443    0.272    7.690  158.565
  360.000   78.357    0.441    0.294    7.707  153.657
  360.250   78.422    0.439    0.295    7.717  150.739
  360.500   82.119    0.408    0.281    8.337  148.858
  360.750   84.033    0.377    0.269    8.505  148.966
  361.000   79.845    0.380    0.258    8.841  149.102
  361.250   77.505    0.392    0.260    9.023  148.175
  361.500   75.149    0.393    0.260    9.208  147.275
  361.750   75.820    0.389    0.262    9.397  145.366
  362.000   72.237    0.396    0.271    9.414  144.466
  362.250   64.418    0.372    0.274    9.431  145.556
  362.500   66.904    0.362    0.264    9.448  148.691
  362.750   70.633    0.367    0.266    9.474  150.817
  363.000   68.883    0.383    0.281    9.482  150.925
  363.250   66.527    0.397    0.286    9.504  151.061
  363.500   65.365    0.398    0.286    9.517  150.134
  363.750   67.262    0.395    0.284    9.534  150.297
  364.000   70.354    0.398    0.280    9.555  149.397
  364.250   72.235    0.401    0.274    9.568  149.478
  364.500   71.695    0.401    0.268    9.594  148.605
  364.750   73.592    0.402    0.264    9.615  148.714
  365.000   74.868    0.402    0.263    9.624  148.795
  365.250   76.143    0.402    0.256    9.822  148.931
  365.500   76.192    0.405    0.248    9.844  149.040
  365.750   75.652    0.406    0.244    9.862  149.121
  366.000   71.497    0.407    0.252   10.060  149.230
  366.250   71.562    0.422    0.258   10.078  149.338
  366.500   74.637    0.407    0.259   10.100  150.483
  366.750   80.150    0.389    0.258   10.119  151.600
  367.000   89.915    0.394    0.247    9.955  159.779
  367.250   96.049    0.404    0.245    9.786  159.915
  367.500   93.677    0.412    0.258    9.451  153.971
  367.750   87.690    0.421    0.261    9.298  150.044
  368.000   79.281    0.443    0.272    9.307  150.153
  368.250   76.320    0.436    0.279    9.157  150.235
  368.500   75.175    0.414    0.270    9.177  151.352
  368.750   71.608    0.407    0.260    9.185  156.531
  369.000   66.226    0.396    0.258    9.378  154.623
  369.250   68.729    0.393    0.261    9.575  152.741
  369.500   68.778    0.408    0.269    9.588  151.786
  369.750   60.975    0.416    0.279    9.610  149.932
  370.000   55.576    0.410    0.307    9.803  150.013
  370.250   52.615    0.405    0.328    9.825  149.140
  370.500   53.907    0.402    0.350    9.847  149.249
  370.750   55.804    0.403    0.354   10.040  149.330
  371.000   55.264    0.408    0.359   10.062  149.466
  371.250   53.514    0.413    0.359   10.081  149.548
  371.500   52.385    0.421    0.341   10.099  149.683
  371.750   53.022    0.418    0.337    9.931  150.828
  372.000   53.088    0.398    0.341    9.949  151.891
  372.250   51.942    0.406    0.340    9.784  153.036
  372.500   51.402    0.419    0.326    9.635  154.153
  372.750   52.694    0.432    0.327    9.471  154.262
