~VERSION INFORMATION
 VERS.                 2.0:   CWLS LOG ASCII STANDARD -VERSION 2.0
 WRAP.                  NO:   ONE LINE PER DEPTH STEP
~WELL INFORMATION BLOCK
#MNEM.UNIT           DATA                    DESCRIPTION OF MNEMONIC
#---------    -------------------            -------------------------------
# Generated from Intellog Unique Number	CW_76_78/WELL/2563
WELL.         SCURRY ET AL DOUCETTE          : Well_name    - WELL
LOC .         00/02-08-078-02W5/0            : Location     - LOCATION
UWI .         00/02-08-078-02W5/0            : Uwi          - UNIQUE WELL ID
ENTR.         MAX                            : Entered      - ENTERED BY
SRVC.         WESTERN ATLAS                  : Scn          - SERVICE COMPANY
STRT.M        355                            : top_depth    - START DEPTH
STOP.M        605                            : bot_depth    - STOP DEPTH
STEP.M        0.25                           : increment    - STEP LENGTH
 NULL. -999.2500:NULL Value
~CURVE INFORMATION BLOCK
#MNEM UNIT       ERCB CURVE CODE    CURVE DESCRIPTION
#-----------   ------------------   ----------------------------------
DEPT.M        00 001 00 00         : DEPTH        - DEPTH
ILD .OHMM     00 120 00 00         : RESD         - DEEP RESISTIVITY (DIL)
NPHI.V/V      00 330 00 00         : PHIN         - NEUTRON POROSITY (SANDSTONE)
DPHI.V/V      00 890 00 00         : PHID         - DENSITY POROSITY (SANDSTONE)
CALI.MM       00 280 01 00         : CAL          - CALIPER
GR  .API      00 310 00 00         : GR           - GAMMA RAY
~PARAMETER INFORMATION
#MNEM.UNIT           DATA             DESCRIPTION OF MNEMONIC
#---------         -----------     ------------------------------
GL  .M        647.79               : gl           - GROUND LEVEL ELEVATION
EREF.M        652.05               : kb           - ELEVATION OF DEPTH REFERENCE
DATM.M        647.79               : datum        - DATUM ELEVATION
TDD .M        628                  : tdd          - TOTAL DEPTH DRILLER
RUN .         ONE                  : Run          - RUN NUMBER
ENG .         BILL                 : Engineer     - RECORDING ENGINEER
WIT .         JIM                  : Witness      - WITNESSED BY
MUD .         GEL                  : Mud_type     - MUD TYPE
MATR.         SANDSTONE            : Logunit      - NEUTRON MATRIX
TMAX.C        30                   : BHT          - MAXIMUM RECORDED TEMPERATURE
BHTD.M        627.3                : BHTDEP       - MAXIMUM RECORDED TEMPERATURE
RMT .C        13                   : MDTP         - TEMPERATURE OF MUD
MUDD.KG/M     1190                 : MWT          - MUD DENSITY
NEUT.         1                    : NEUTRON      - NEUTRON TYPE
RESI.         0                    : RESIST       - RESISTIVITY TYPE
RM  .OHMM     3.5                  : RM           - RESISTIVITY OF MUD
RMC .OHMM     2.2                  : RMC          - RESISTIVITY OF MUD CAKE
RMF .OHMM     3.9                  : RMF          - RESISTIVITY OF MUD FILTRATE
SUFT.C        -10                  : SUFT         - SURFACE TEMPERATURE
~A  DEPTH     RESD     PHIN     PHID      CAL       GR
# ...
  537.500   17.457    0.265    0.145  192.691   79.690
  537.750   16.381    0.271    0.155  192.681   88.392
  538.000   14.963    0.292    0.160  192.651   88.090
  538.250   12.831    0.301    0.159  193.595   90.400
  538.500   11.510    0.306    0.161  194.055   92.126
  538.750   10.898    0.310    0.162  194.033   93.272
  539.000   10.508    0.310    0.164  194.493   91.513
  539.250   10.410    0.308    0.165  194.462   91.212
  539.500   10.499    0.306    0.163  194.922   91.776
  539.750   10.782    0.302    0.139  195.869   91.471
  540.000   11.071    0.300    0.128  196.811   91.454
  540.250   11.167    0.301    0.136  197.752   94.348
  540.500   11.365    0.299    0.139  198.215   98.693
  540.750   11.463    0.296    0.128  199.643  101.295
  541.000   11.252    0.296    0.123  202.041  103.894
  541.250   11.252    0.300    0.130  204.439  108.239
  541.500   10.841    0.316    0.141  207.793  114.329
  541.750   10.085    0.340    0.147  208.259  108.500
  542.000    9.379    0.347    0.147  207.265   96.566
  542.250    8.801    0.347    0.131  204.815   90.447
  542.500    8.486    0.346    0.128  202.850   88.105
  542.750    8.405    0.340    0.130  202.341   95.650
  543.000    8.405    0.335    0.145  202.807   95.633
  543.250    8.473    0.333    0.150  202.807   91.838
  543.500    8.780    0.333    0.153  203.239   91.532
  543.750    8.856    0.333    0.171  203.211   93.264
  544.000    8.932    0.340    0.162  202.705   94.991
  544.250    8.926    0.348    0.149  202.190   94.684
  544.500    8.924    0.353    0.140  203.140   96.122
  544.750    9.001    0.354    0.138  205.532   96.109
  545.000    8.993    0.351    0.159  205.510   87.954
  545.250    9.155    0.348    0.162  205.970   80.963
  545.500    9.747    0.340    0.170  204.974   74.263
  545.750    9.747    0.328    0.206  201.558   60.292
  546.000   11.048    0.320    0.229  199.595   51.559
  546.250   13.588    0.327    0.265  199.571   40.788
  546.500   17.323    0.333    0.300  198.090   31.181
  546.750   25.743    0.333    0.321  195.637   26.221
  547.000   38.954    0.326    0.331  195.128   25.627
  547.250   51.026    0.318    0.330  194.140   26.482
  547.500   57.859    0.320    0.330  193.147   26.175
  547.750   63.284    0.320    0.327  193.116   24.124
  548.000   64.990    0.316    0.326  193.573   22.657
  548.250   64.960    0.309    0.326  193.551   21.773
  548.500   64.935    0.306    0.326  193.524   20.886
  548.750   64.316    0.308    0.325  193.496   20.869
  549.000   63.142    0.311    0.321  194.443   23.180
  549.250   61.426    0.313    0.318  195.875   29.267
  549.500   60.302    0.317    0.315  197.304   30.704
  549.750   58.663    0.320    0.312  197.760   29.528
  550.000   57.076    0.324    0.305  198.217   29.221
  550.250   55.528    0.327    0.304  198.196   31.239
  550.500   53.052    0.329    0.306  198.171   32.681
  550.750   51.150    0.330    0.308  197.178   34.698
  551.000   48.874    0.331    0.311  196.665   33.815
  551.250   46.702    0.331    0.321  196.641   32.054
  551.500   43.824    0.333    0.326  196.610   31.456
  551.750   40.389    0.335    0.325  196.591   32.896
  552.000   37.223    0.338    0.323  197.048   34.333
  552.250   34.309    0.339    0.323  197.024   35.481
  552.500   30.227    0.338    0.323  197.480   37.499
  552.750   26.633    0.338    0.320  198.903   36.905
  553.000   22.029    0.336    0.316  199.369   33.981
  553.250   17.418    0.334    0.320  198.372   32.802
  553.500   13.048    0.331    0.323  196.894   33.661
  553.750    9.512    0.329    0.324  195.904   34.809
  554.000    7.869    0.327    0.322  195.879   33.922
  554.250    7.587    0.329    0.321  195.852   34.193
  554.500    7.056    0.334    0.320  196.305   36.505
  554.750    6.742    0.339    0.316  196.284   39.106
  555.000    6.678    0.341    0.312  196.259   41.128
  555.250    6.555    0.339    0.308  196.231   41.111
  555.500    6.435    0.334    0.304  196.188   37.318
  555.750    6.205    0.325    0.300  196.179   31.780
  556.000    5.771    0.302    0.294  196.642   26.823
  556.250    4.993    0.287    0.290  197.583   26.515
  556.500    4.993    0.286    0.283  197.562   27.952
  556.750    4.811    0.287    0.278  198.021   27.360
  557.000    4.395    0.292    0.277  197.997   25.019
  557.250    4.395    0.297    0.280  197.972   24.999
  557.500    4.159    0.301    0.280  197.938   24.984
  557.750    4.011    0.303    0.280  197.920   25.843
  558.000    3.867    0.306    0.285  197.892   26.989
  558.250    3.831    0.310    0.291  197.383   26.688
  558.500    3.831    0.310    0.296  197.358   25.797
  558.750    3.793    0.310    0.298  197.334   25.784
  559.000    3.793    0.313    0.298  196.822   25.768
  559.250    3.788    0.313    0.286  196.800   25.172
  559.500    3.787    0.312    0.286  198.220   23.413
  559.750    3.787    0.309    0.291  198.683   23.398
  560.000    3.783    0.305    0.292  198.655   24.255
  560.250    3.851    0.302    0.287  198.149   25.692
  560.500    3.954    0.300    0.284  198.124   27.421
  560.750    4.061    0.297    0.280  198.097   29.441
  561.000    4.061    0.295    0.278  198.069   31.752
  561.250    4.206    0.295    0.278  198.047   33.481
  561.500    4.519    0.295    0.277  198.510   35.501
  561.750    4.854    0.296    0.266  197.995   39.844
  562.000    5.075    0.297    0.259  197.001   41.574
  562.250    5.212    0.296    0.256  196.974   43.010
  562.500    5.450    0.289    0.236  196.955   45.611
  562.750    5.750    0.265    0.222  198.381   46.758
  563.000    6.177    0.252    0.153  200.288   48.196
  563.250    6.696    0.266    0.176  199.782   50.216
  563.500    7.002    0.278    0.189  198.788   50.783
  563.750    7.125    0.286    0.218  197.310   51.351
  564.000    6.995    0.289    0.221  196.798   53.660
  564.250    6.805    0.291    0.218  196.777   56.261
  564.500    6.681    0.293    0.212  197.237   56.535
  564.750    6.677    0.292    0.214  196.721   55.358
  565.000    6.675    0.289    0.219  196.700   56.505
  565.250    6.671    0.284    0.215  198.610   59.688
  565.500    6.913    0.278    0.197  200.039   62.582
  565.750    7.100    0.271    0.173  200.498   66.635
  566.000    7.357    0.274    0.160  200.952   69.527
  566.250    7.622    0.290    0.162  201.418   70.093
  566.500    7.969    0.294    0.171  201.390   66.881
  566.750    8.112    0.289    0.171  201.366   64.830
  567.000    8.330    0.280    0.144  201.341   66.268
  567.250    8.402    0.285    0.124  201.310   69.451
  567.500    8.474    0.296    0.143  201.292   74.957
  567.750    8.471    0.310    0.161  201.267   81.920
  568.000    8.390    0.320    0.164  201.240   86.847
  568.250    8.017    0.326    0.166  201.212   91.192
  568.500    7.591    0.330    0.169  201.187   94.662
  568.750    7.124    0.333    0.175  201.166   96.972
  569.000    6.806    0.336    0.173  201.141   96.376
  569.250    6.682    0.339    0.160  200.623   95.200
  569.500    6.619    0.341    0.159  200.623   94.603
  569.750    6.616    0.343    0.153  200.567   94.878
  570.000    6.553    0.345    0.151  200.552   96.317
  570.250    6.375    0.348    0.155  201.493   99.788
  570.500    5.929    0.349    0.168  202.434  102.101
  570.750    5.564    0.351    0.174  202.416  105.282
  571.000    5.269    0.352    0.172  202.388  101.488
  571.250    5.080    0.350    0.167  202.851  100.888
  571.500    4.987    0.349    0.158  203.305  101.747
  571.750    4.940    0.357    0.164  203.283  104.056
  572.000    4.938    0.363    0.179  203.743  109.568
  572.250    4.938    0.363    0.187  204.687  111.586
  572.500    4.931    0.364    0.196  205.141  109.536
  572.750    4.799    0.369    0.210  205.598  104.869
  573.000    4.753    0.391    0.227  205.579  100.494
  573.250    4.709    0.408    0.260  204.586   95.246
  573.500    4.581    0.441    0.296  202.136   96.393
  573.750    4.377    0.449    0.268  199.686  103.355
