~VERSION INFORMATION
 VERS.                 2.0:   CWLS LOG ASCII STANDARD -VERSION 2.0
 WRAP.                  NO:   ONE LINE PER DEPTH STEP
~WELL INFORMATION BLOCK
#MNEM.UNIT           DATA                    DESCRIPTION OF MNEMONIC
#---------    -------------------            -------------------------------
# Generated from Intellog Unique Number	CW_70_72/WELL/994
NULL.         -999.25                        : NULL_VALUE
WELL.         CHIEFCO ET AL CALLW 09-19      : Well_name    - WELL              
LOC .         09-19-071-20W4                 : Location     - LOCATION          
UWI .         00/09-19-071-20W4/0            : Uwi          - UNIQUE WELL ID    
ENTR.         JAYE                           : Entered      - ENTERED BY        
SRVC.         SCHLUMBERGER                   : Scn          - SERVICE COMPANY   
DATE.         20 JAN 83                      : Date         - LOG DATE          
STRT.M        320                            : top_depth    - START DEPTH       
STOP.M        495                            : bot_depth    - STOP DEPTH        
STEP.M        0.25                           : increment    - STEP LENGTH       
~CURVE INFORMATION BLOCK
#MNEM UNIT       ERCB CURVE CODE    CURVE DESCRIPTION
#-----------   ------------------   ----------------------------------
DEPT.M        00 001 00 00         : DEPTH        - DEPTH                       
DPHI.V/V      00 890 00 00         : PHID         - DENSITY POROSITY (SANDSTONE)
NPHI.V/V      00 330 00 00         : PHIN         - NEUTRON POROSITY (SANDSTONE)
GR  .API      00 310 00 00         : GR           - GAMMA RAY                   
CALI.MM       00 280 01 00         : CAL          - CALIPER                     
ILD .OHMM     00 120 00 00         : RESD         - DEEP RESISTIVITY (DIL)      
~PARAMETER INFORMATION       
#MNEM.UNIT           DATA             DESCRIPTION OF MNEMONIC
#---------         -----------     ------------------------------
GL  .M        593.2                : gl           - GROUND LEVEL ELEVATION      
EREF.M        596.2                : kb           - ELEVATION OF DEPTH REFERENCE
DATM.M        593.2                : datum        - DATUM ELEVATION             
TDD .M        498                  : tdd          - TOTAL DEPTH DRILLER         
RUN .         ONE                  : Run          - RUN NUMBER                  
ENG .         GAGGINO              : Engineer     - RECORDING ENGINEER          
WIT .         BAILEY               : Witness      - WITNESSED BY                
BASE.         EDM                  : Branch       - HOME BASE OF LOGGING UNIT   
MUD .         GEL CHEM             : Mud_type     - MUD TYPE                    
MATR.         SANDSTONE            : Logunit      - NEUTRON MATRIX              
TMAX.C        22.2                 : BHT          - MAXIMUM RECORDED TEMPERATURE
BHTD.M        496.5                : BHTDEP       - MAXIMUM RECORDED TEMPERATURE
RMT .C        32.7                 : MDTP         - TEMPERATURE OF MUD          
MUDD.KG/M     1100                 : MWT          - MUD DENSITY                 
NEUT.         1                    : NEUTRON      - NEUTRON TYPE                
RESI.         0                    : RESIST       - RESISTIVITY TYPE            
RM  .OHMM     11                   : RM           - RESISTIVITY OF MUD          
RMC .OHMM     0                    : RMC          - RESISTIVITY OF MUD CAKE     
RMF .OHMM     9.9                  : RMF          - RESISTIVITY OF MUD FILTRATE 
SUFT.C        0                    : SUFT         - SURFACE TEMPERATURE         
~A  DEPTH     PHID     PHIN       GR      CAL     RESD
# ...
  429.500    0.760    0.754   77.799  252.071    2.271
  429.750    0.699    0.733   83.396  245.944    2.350
  430.000    0.614    0.584   90.923  224.256    2.520
  430.250    0.510    0.479   94.404  205.370    2.764
  430.500    0.239    0.443   94.151  188.973    2.998
  430.750    0.261    0.434   95.080  186.165    3.239
  431.000    0.291    0.457   95.076  192.796    3.474
  431.250    0.316    0.479   95.133  196.109    3.649
  431.500    0.345    0.525   94.694  190.811    3.840
  431.750    0.349    0.480   94.067  181.261    4.095
  432.000    0.277    0.419   88.150  173.889    4.350
  432.250    0.217    0.394   83.664  167.346    4.691
  432.500    0.162    0.382   85.838  166.094    4.900
  432.750    0.131    0.371   85.461  165.982    5.014
  433.000    0.155    0.403   87.137  165.871    5.015
  433.250    0.175    0.421   92.672  165.656    4.933
  433.500    0.202    0.416   94.660  165.547    4.816
  433.750    0.196    0.407   91.730  165.644    4.763
  434.000    0.196    0.412   94.091  165.948    4.737
  434.250    0.205    0.429   96.141  166.355    4.766
  434.500    0.200    0.437   97.941  166.867    4.794
  434.750    0.189    0.434   96.567  167.378    4.933
  435.000    0.173    0.411   94.074  168.200    5.192
  435.250    0.136    0.381   83.115  168.609    5.620
  435.500    0.100    0.334   74.584  168.914    5.993
  435.750    0.095    0.344   73.584  169.114    5.950
  436.000    0.127    0.365   76.380  169.106    5.765
  436.250    0.194    0.387   81.542  169.100    5.502
  436.500    0.203    0.402   90.749  169.196    5.231
  436.750    0.219    0.414   93.173  169.396    5.049
  437.000    0.242    0.417   93.044  169.596    4.948
  437.250    0.227    0.404   91.671  169.589    4.821
  437.500    0.206    0.411   93.657  169.686    4.733
  437.750    0.206    0.429   92.222  169.887    4.663
  438.000    0.213    0.428   89.728  169.879    4.630
  438.250    0.215    0.412   93.520  170.288    4.597
  438.500    0.208    0.392   99.367  170.695    4.572
  438.750    0.213    0.382   97.993  170.792    4.514
  439.000    0.212    0.401   95.188  170.370    4.457
  439.250    0.203    0.427   95.371  169.948    4.392
  439.500    0.210    0.442   94.059  169.525    4.336
  439.750    0.203    0.447   88.018  169.000    4.288
  440.000    0.193    0.454   84.466  168.681    4.234
  440.250    0.204    0.450   82.906  168.674    4.195
  440.500    0.219    0.454   83.586  168.667    4.142
  440.750    0.244    0.458   82.959  168.660    4.105
  441.000    0.254    0.468   76.918  168.548    4.360
  441.250    0.222    0.458   71.747  168.750    5.404
  441.500    0.198    0.320   65.768  168.743    6.524
  441.750    0.170    0.264   59.167  168.735    7.862
  442.000    0.142    0.266   52.191  168.625    9.744
  442.250    0.194    0.278   51.752  168.618   12.032
  442.500    0.239    0.286   52.183  168.507   13.832
  442.750    0.203    0.279   51.867  168.499   14.695
  443.000    0.144    0.262   53.170  168.597   13.919
  443.250    0.121    0.271   55.157  168.900   12.346
  443.500    0.191    0.314   56.211  169.722   10.950
  443.750    0.231    0.337   55.958  170.132    9.530
  444.000    0.219    0.357   54.958  170.642    8.695
  444.250    0.182    0.364   51.033  170.740    8.314
  444.500    0.105    0.273   46.484  170.628    7.860
  444.750    0.102    0.243   42.062  170.413    7.051
  445.000    0.172    0.299   43.427  170.407    6.324
  445.250    0.203    0.356   46.721  170.399    5.412
  445.500    0.218    0.375   48.460  170.393    4.702
  445.750    0.234    0.399   51.069  170.282    4.258
  446.000    0.239    0.403   53.866  170.066    4.041
  446.250    0.234    0.404   58.467  170.060    3.907
  446.500    0.231    0.396   58.836  170.053    3.814
  446.750    0.231    0.387   56.778  170.253    3.751
  447.000    0.248    0.395   57.521  170.558    3.704
  447.250    0.269    0.417   58.202  170.757    3.698
  447.500    0.279    0.437   58.757  171.059    3.699
  447.750    0.257    0.434   59.313  171.156    3.728
  448.000    0.237    0.405   60.055  171.149    3.779
  448.250    0.219    0.392   60.425  171.039    3.888
  448.500    0.221    0.389   60.981  171.032    4.001
  448.750    0.241    0.405   61.848  170.818    4.093
  449.000    0.243    0.393   63.337  170.499    4.087
  449.250    0.236    0.369   64.080  170.285    4.073
  449.500    0.243    0.373   58.163  170.071    4.036
  449.750    0.266    0.388   56.914  169.961    4.060
  450.000    0.271    0.400   58.092  170.161    4.154
  450.250    0.253    0.392   58.275  170.258    4.219
  450.500    0.229    0.373   57.275  170.458    4.284
  450.750    0.229    0.375   56.274  170.451    4.367
  451.000    0.230    0.385   55.648  170.443    4.418
  451.250    0.223    0.391   55.270  170.435    4.486
  451.500    0.228    0.381   54.581  170.430    4.522
  451.750    0.170    0.355   56.817  170.422    4.439
  452.000    0.110    0.330   56.751  170.519    4.491
  452.250    0.122    0.361   53.697  170.719    4.384
  452.500    0.160    0.400   53.132  170.919    4.255
  452.750    0.242    0.394   55.369  171.223    4.115
  453.000    0.247    0.377   57.232  171.423    4.032
  453.250    0.273    0.373   56.480  171.831    4.156
  453.500    0.235    0.341   57.348  172.239    4.457
  453.750    0.204    0.320   56.970  172.647    4.191
  454.000    0.222    0.333   54.227  173.159    3.586
  454.250    0.278    0.351   53.165  176.057    3.265
  454.500    0.320    0.379   54.094  177.398    3.230
  454.750    0.284    0.381   58.135  175.317    3.361
  455.000    0.236    0.379   60.248  172.508    3.518
  455.250    0.236    0.390   60.866  170.841    3.702
  455.500    0.246    0.392   58.745  170.523    3.918
  455.750    0.241    0.373   56.749  170.929    4.170
  456.000    0.238    0.354   56.558  171.235    4.171
  456.250    0.274    0.367   54.812  171.642    3.827
  456.500    0.270    0.375   60.844  172.466    3.625
  456.750    0.210    0.408   73.474  176.815    3.493
  457.000    0.170    0.446   82.869  183.448    3.474
  457.250    0.217    0.476   94.441  188.005    3.475
  457.500    0.212    0.464  100.847  189.345    3.476
  457.750    0.199    0.445  102.337  189.337    3.510
  458.000    0.243    0.458  101.959  190.058    3.538
  458.250    0.252    0.476   99.715  192.437    3.627
  458.500    0.258    0.509   93.922  196.371    3.810
  458.750    0.181    0.448   88.938  192.630    4.055
  459.000    0.165    0.428   86.818  183.391    4.381
  459.250    0.153    0.409   91.481  177.159    4.646
  459.500    0.140    0.409   96.146  175.804    4.853
  459.750    0.144    0.411  102.490  175.485    4.993
  460.000    0.158    0.405  103.793  175.166    5.128
  460.250    0.167    0.400  100.551  175.471    5.316
  460.500    0.170    0.408   99.054  175.775    5.490
  460.750    0.160    0.411   98.676  175.559    5.703
  461.000    0.143    0.407   94.377  174.828    5.901
  461.250    0.067    0.399   86.344  173.160    6.141
  461.500    0.067    0.392   87.211  171.909    6.378
  461.750    0.088    0.388   94.800  171.071    6.550
  462.000    0.144    0.388   95.543  170.960    6.614
  462.250    0.138    0.383   90.621  171.265    6.592
  462.500    0.138    0.375   90.804  172.502    6.508
  462.750    0.152    0.388   97.397  174.155    6.425
  463.000    0.165    0.404  100.567  178.920    6.355
  463.250    0.175    0.387   97.886  176.008    6.285
  463.500    0.174    0.366   98.256  174.133    6.217
  463.750    0.156    0.380  101.363  174.022    6.184
  464.000    0.137    0.398  104.844  174.015    6.151
  464.250    0.117    0.396  106.210  174.320    6.096
  464.500    0.131    0.385  106.517  175.039    6.018
  464.750    0.144    0.374  107.384  176.070    5.986
  465.000    0.154    0.388  109.184  176.684    5.910
  465.250    0.150    0.397  108.433  176.885    5.867
  465.500    0.143    0.416  106.561  176.359    5.825
  465.750    0.137    0.396  102.761  172.928    5.960
