~VERSION INFORMATION
 VERS.                 2.0:   CWLS LOG ASCII STANDARD -VERSION 2.0
 WRAP.                  NO:   ONE LINE PER DEPTH STEP
~WELL INFORMATION BLOCK
#MNEM.UNIT           DATA                    DESCRIPTION OF MNEMONIC
#---------    -------------------            -------------------------------
# Generated from Intellog Unique Number	CW_82_90/WELL/3063
WELL.         PARA ET AL LIVOCK 07-19        : Well_name    - WELL
LOC .         00/07-19-085-19W4/0            : Location     - LOCATION
UWI .         00/07-19-085-19W4/0            : Uwi          - UNIQUE WELL ID
ENTR.         JAYE                           : Entered      - ENTERED BY
SRVC.         COMPUTALOG                     : Scn          - SERVICE COMPANY
DATE.         21 FEB 78                      : Date         - LOG DATE
STRT.M        192.024                        : top_depth    - START DEPTH
STOP.M        347.524                        : bot_depth    - STOP DEPTH
STEP.M        0.25                           : increment    - STEP LENGTH
 NULL. -999.2500:NULL Value
~CURVE INFORMATION BLOCK
#MNEM UNIT       ERCB CURVE CODE    CURVE DESCRIPTION
#-----------   ------------------   ----------------------------------
DEPT.M        00 001 00 00         : DEPTH        - DEPTH
CALI.MM       00 280 01 00         : CAL          - CALIPER
GR  .API      00 310 00 00         : GR           - GAMMA RAY
DPHI.V/V      00 890 00 00         : PHID         - DENSITY POROSITY (SANDSTONE)
NPHI.V/V      00 330 00 00         : PHIN         - NEUTRON POROSITY (SANDSTONE)
ILD .OHMM     00 120 00 00         : RESD         - DEEP RESISTIVITY (DLL)
~PARAMETER INFORMATION
#MNEM.UNIT           DATA             DESCRIPTION OF MNEMONIC
#---------         -----------     ------------------------------
GL  .M        610.057              : gl           - GROUND LEVEL ELEVATION
EREF.M        613.105              : kb           - ELEVATION OF DEPTH REFERENCE
DATM.M        610.057              : datum        - DATUM ELEVATION
TDD .M        350.215              : tdd          - TOTAL DEPTH DRILLER
RUN .         ONE                  : Run          - RUN NUMBER
ENG .         DOPF                 : Engineer     - RECORDING ENGINEER
WIT .         GEORGE               : Witness      - WITNESSED BY
BASE.         EDMONTON             : Branch       - HOME BASE OF LOGGING UNIT
MUD .         GEL CHEM             : Mud_type     - MUD TYPE
MATR.         SANDSTONE            : Logunit      - NEUTRON MATRIX
TMAX.C        15.5556              : BHT          - MAXIMUM RECORDED TEMPERATURE
BHTD.M        350.215              : BHTDEP       - MAXIMUM RECORDED TEMPERATURE
RMT .C        18.3333              : MDTP         - TEMPERATURE OF MUD
MUDD.KG/M     9300                 : MWT          - MUD DENSITY
NEUT.         0                    : NEUTRON      - NEUTRON TYPE
RESI.         1                    : RESIST       - RESISTIVITY TYPE
RM  .OHMM     4.1                  : RM           - RESISTIVITY OF MUD
RMC .OHMM     4.2                  : RMC          - RESISTIVITY OF MUD CAKE
RMF .OHMM     4.5                  : RMF          - RESISTIVITY OF MUD FILTRATE
SUFT.C        -17.7778             : SUFT         - SURFACE TEMPERATURE
~A  DEPTH      CAL       GR     PHID     PHIN     RESD
# ...
  265.024  157.268   79.161    0.172    0.523    6.074
  265.274  157.572   76.740    0.180    0.499    5.954
  265.524  156.195   73.265    0.245    0.473    6.070
  265.774  154.298   72.392    0.206    0.431    6.382
  266.024  152.398   60.313    0.147    0.390    6.800
  266.274  149.137   45.573    0.022    0.279    7.193
  266.524  147.341   39.004    0.063    0.218    7.757
  266.774  147.643   55.463    0.182    0.386    9.046
  267.024  148.048   67.774    0.201    0.434   10.359
  267.274  148.561   71.172    0.218    0.450   10.638
  267.524  148.028   69.556    0.242    0.469   10.901
  267.774  147.700   60.571    0.261    0.482   11.164
  268.024  147.581   62.483    0.263    0.495   11.451
  268.274  148.094   56.905    0.264    0.502   11.658
  268.524  149.024   55.597    0.265    0.515   11.497
  268.774  149.118   55.651    0.269    0.526   11.703
  269.024  149.418   55.521    0.259    0.528   11.339
  269.274  149.617   55.637    0.236    0.537   11.424
  269.524  150.023   56.621    0.249    0.524   11.458
  269.774  150.012   59.275    0.270    0.542   11.176
  270.024  149.999   58.711    0.267    0.533   11.268
  270.274  149.568   57.590    0.263    0.509   11.116
  270.524  148.823   55.416    0.267    0.515   10.768
  270.774  148.496   58.318    0.273    0.489   10.307
  271.024  148.484   64.873    0.259    0.522    9.878
  271.274  148.367   74.337    0.237    0.532    9.009
  271.524  148.773   79.529    0.245    0.529    8.596
  271.774  149.809   81.627    0.262    0.500    8.452
  272.024  150.846   82.053    0.219    0.479    8.471
  272.274  153.138   80.931    0.213    0.462    8.531
  272.524  154.279   76.467    0.223    0.442    8.526
  272.774  155.422   75.840    0.246    0.470    8.528
  273.024  156.562   75.029    0.265    0.487    8.555
  273.274  157.702   73.165    0.275    0.512    8.582
  273.524  158.739   71.177    0.290    0.524    8.624
  273.774  159.458   73.398    0.271    0.504    8.733
  274.024  159.658   77.785    0.278    0.488    8.865
  274.274  159.750   78.209    0.271    0.472    8.974
  274.524  160.051   77.276    0.255    0.464    9.123
  274.774  159.933   72.873    0.237    0.462    9.264
  275.024  159.503   69.956    0.256    0.457    9.462
  275.274  158.129   66.978    0.272    0.448    9.464
  275.524  155.285   63.071    0.245    0.438    9.450
  275.774  152.652   60.712    0.245    0.422    9.404
  276.024  151.276   57.670    0.262    0.420    9.431
  276.274  151.055   57.106    0.268    0.452    9.523
  276.524  151.254   63.351    0.244    0.461    9.884
  276.774  151.658   64.706    0.249    0.422   10.277
  277.024  152.172   62.779    0.237    0.373   10.572
  277.274  152.263   59.552    0.130    0.354   10.884
  277.524  151.623   57.070    0.147    0.327   11.253
  277.774  151.086   54.834    0.185    0.380   10.051
  278.024  150.864   55.260    0.264    0.455    9.353
  278.274  151.062   58.163    0.245    0.460    9.177
  278.524  151.470   64.160    0.236    0.443    8.951
  278.774  151.455   65.638    0.225    0.499    8.824
  279.024  151.129   61.298    0.197    0.466    8.899
  279.274  151.009   65.314    0.169    0.429    9.113
  279.524  150.473   62.893    0.200    0.443    9.311
  279.774  150.463   59.542    0.191    0.433    9.379
  280.024  151.396   64.611    0.160    0.412    9.259
  280.274  153.375   62.375    0.214    0.426    9.074
  280.524  153.466   61.192    0.248    0.450    8.767
  280.774  153.035   64.095    0.240    0.471    8.420
  281.024  151.763   62.911    0.220    0.473    8.080
  281.274  151.333   64.760    0.204    0.479    7.733
  281.524  150.797   67.353    0.196    0.486    7.418
  281.774  150.364   70.442    0.220    0.481    7.103
  282.024  150.878   74.706    0.243    0.483    6.934
  282.274  151.806   76.245    0.241    0.487    7.059
  282.524  152.321   75.125    0.218    0.446    7.314
  282.774  152.937   65.522    0.201    0.467    8.171
  283.024  153.342   61.863    0.213    0.487    9.419
  283.274  154.272   58.759    0.100    0.223   10.618
  283.524  154.578   59.620    0.016    0.196   10.848
  283.774  155.298   57.383    0.041    0.252   10.135
  284.024  155.706   55.767    0.067    0.338    9.453
  284.274  155.065   61.517    0.231    0.434    8.462
  284.524  153.061   69.742    0.250    0.457    7.333
  284.774  151.373   65.650    0.250    0.478    6.424
  285.024  152.198   68.985    0.326    0.501    5.483
  285.274  156.903   69.968    0.362    0.537    4.989
  285.524  160.453   70.332    0.415    0.626    4.869
  285.774  161.910   77.816    0.482    0.673    5.059
  286.024  163.994   77.313    0.333    0.745    5.484
  286.274  161.152   79.720    0.267    0.689    6.187
  286.524  158.099   80.209    0.214    0.503    7.085
  286.774  157.668   78.095    0.224    0.514    7.486
  287.024  158.180   78.274    0.215    0.467    7.334
  287.274  159.215   80.743    0.208    0.437    6.979
  287.524  160.356   82.037    0.196    0.465    6.777
  287.774  161.078   83.825    0.207    0.504    6.552
  288.024  160.540   82.455    0.219    0.544    6.465
  288.274  160.320   77.248    0.194    0.503    6.418
  288.524  159.573   74.268    0.197    0.476    6.413
  288.774  159.036   75.809    0.211    0.468    6.488
  289.024  159.127   81.002    0.236    0.521    6.621
  289.274  159.116   80.066    0.268    0.496    6.811
  289.524  158.791   81.606    0.266    0.479    6.960
  289.774  159.302   83.950    0.232    0.440    7.060
  290.024  159.605   87.288    0.222    0.469    7.331
  290.274  159.488   87.033    0.196    0.484    7.692
  290.524  158.949   85.167    0.203    0.468    8.265
  290.774  158.624   83.243    0.210    0.440    8.641
  291.024  158.398   83.173    0.202    0.415    9.108
  291.274  158.180   82.361    0.206    0.417    9.436
  291.524  157.954   79.692    0.202    0.428   10.008
  291.774  157.737   74.485    0.186    0.396   10.776
  292.024  157.094   68.844    0.193    0.370   12.032
  292.274  157.816   62.398    0.205    0.360   12.979
  292.524  157.701   61.401    0.210    0.392   15.187
  292.774  155.275   62.322    0.180    0.346   15.548
  293.024  152.748   62.067    0.142    0.330   15.306
  293.274  150.743   58.223    0.147    0.325   14.568
  293.524  149.788   59.081    0.153    0.343   13.878
  293.774  149.568   66.626    0.162    0.343   13.034
  294.024  150.289   71.386    0.173    0.347   12.255
  294.274  152.056   75.465    0.177    0.378   11.224
  294.524  152.883   77.995    0.161    0.415   10.861
  294.774  153.710   77.617    0.209    0.427   10.708
  295.024  154.746   78.538    0.237    0.426   10.670
  295.274  155.886   77.045    0.241    0.427   10.770
  295.524  156.505   76.295    0.245    0.449   10.846
  295.774  157.224   72.511    0.254    0.467   10.832
  296.024  156.584   70.400    0.216    0.485   10.737
  296.274  155.942   71.816    0.193    0.475   10.617
  296.524  155.091   67.847    0.213    0.442   10.563
  296.774  156.126   66.477    0.194    0.445   10.581
  297.024  157.791   70.618    0.166    0.438   10.616
  297.274  159.351   77.667    0.185    0.435   10.765
  297.524  159.864   77.969    0.214    0.436   11.281
  297.774  159.222   72.453    0.212    0.420   12.260
  298.024  158.372   76.034    0.177    0.427   13.557
  298.274  158.255   75.906    0.130    0.326   14.935
  298.524  158.244   70.265    0.089    0.252   15.825
  298.774  158.649   65.367    0.058    0.219   15.599
  299.024  159.053   60.593    0.133    0.228   14.519
  299.274  159.046   66.157    0.160    0.242   13.235
  299.524  159.034   73.826    0.179    0.318   11.805
  299.774  158.600   74.995    0.185    0.424   10.644
  300.024  158.484   75.298    0.193    0.434   10.573
  300.274  158.261   77.952    0.194    0.452   10.722
  300.524  158.564   80.545    0.184    0.473   11.002
  300.774  159.076   79.980    0.168    0.464   11.273
  301.024  159.274   82.202    0.186    0.430   11.486
  301.274  158.946   78.976    0.202    0.423   11.627
