~VERSION INFORMATION
 VERS.                 2.0:   CWLS LOG ASCII STANDARD -VERSION 2.0
 WRAP.                  NO:   ONE LINE PER DEPTH STEP
~WELL INFORMATION BLOCK
#MNEM.UNIT           DATA                    DESCRIPTION OF MNEMONIC
#---------    -------------------            -------------------------------
# Generated from Intellog Unique Number	CW_79_81/WELL/2448
WELL.         SHELL FINA PASTECHO            : Well_name    - WELL
LOC .         00/05-25-081-03W5/0            : Location     - LOCATION
UWI .         00/05-25-081-03W5/0            : Uwi          - UNIQUE WELL ID
ENTR.         MAX                            : Entered      - ENTERED BY
SRVC.         SCHLUMBERGER                   : Scn          - SERVICE COMPANY
STRT.M        250                            : top_depth    - START DEPTH
STOP.M        479.75                         : bot_depth    - STOP DEPTH
STEP.M        0.25                           : increment    - STEP LENGTH
 NULL. -999.2500:NULL Value
~CURVE INFORMATION BLOCK
#MNEM UNIT       ERCB CURVE CODE    CURVE DESCRIPTION
#-----------   ------------------   ----------------------------------
DEPT.M        00 001 00 00         : DEPTH        - DEPTH
ILD .OHMM     00 120 00 00         : RESD         - DEEP RESISTIVITY (DIL)
NPHI.V/V      00 330 00 00         : PHIN         - NEUTRON POROSITY (SANDSTONE)
DPHI.V/V      00 890 00 00         : PHID         - DENSITY POROSITY (SANDSTONE)
GR  .API      00 310 00 00         : GR           - GAMMA RAY
CALI.MM       00 280 01 00         : CAL          - CALIPER
~PARAMETER INFORMATION
#MNEM.UNIT           DATA             DESCRIPTION OF MNEMONIC
#---------         -----------     ------------------------------
GL  .M        574.37               : gl           - GROUND LEVEL ELEVATION
EREF.M        578.37               : kb           - ELEVATION OF DEPTH REFERENCE
DATM.M        574.37               : datum        - DATUM ELEVATION
TDD .M        455.2                : tdd          - TOTAL DEPTH DRILLER
RUN .         ONE                  : Run          - RUN NUMBER
ENG .         BILL                 : Engineer     - RECORDING ENGINEER
WIT .         JIM                  : Witness      - WITNESSED BY
MUD .         GEL                  : Mud_type     - MUD TYPE
MATR.         SANDSTONE            : Logunit      - NEUTRON MATRIX
TMAX.C        16.7                 : BHT          - MAXIMUM RECORDED TEMPERATURE
BHTD.M        455.2                : BHTDEP       - MAXIMUM RECORDED TEMPERATURE
MATR.         1                    : LOGUNIT      - NEUTRON MATRIX
RMT .C        22.2                 : MDTP         - TEMPERATURE OF MUD
NEUT.         1                    : NEUTRON      - NEUTRON TYPE
RESI.         0                    : RESIST       - RESISTIVITY TYPE
RMC .OHMM     3.58                 : RMC          - RESISTIVITY OF MUD CAKE
RMF .OHMM     2.73                 : RMF          - RESISTIVITY OF MUD FILTRATE
SUFT.C        -20                  : SUFT         - SURFACE TEMPERATURE
~A  DEPTH     RESD     PHIN     PHID       GR      CAL
  250.000    2.349    0.582    0.270  100.220  221.289
  250.250    2.404    0.572    0.265   98.507  221.711
  250.500    2.444    0.557    0.273   98.523  220.035
  250.750    2.499    0.543    0.275   99.592  218.475
  251.000    2.567    0.539    0.272  100.837  219.175
  251.250    2.611    0.562    0.278  101.237  224.705
  251.500    2.633    0.577    0.279  103.210  226.764
  251.750    2.673    0.588    0.266  105.339  224.810
  252.000    2.759    0.585    0.258  105.169  225.804
  252.250    2.843    0.573    0.256  103.171  226.798
  252.500    2.908    0.554    0.250  100.996  226.514
  252.750    2.993    0.524    0.228  101.820  225.186
  253.000    3.088    0.552    0.254  103.547  224.376
  253.250    3.068    0.563    0.239  105.203  223.210
  253.500    3.032    0.562    0.234  104.562  224.105
  253.750    2.980    0.558    0.244  102.093  228.440
  254.000    2.907    0.561    0.261   99.624  233.364
  254.250    2.780    0.581    0.262  100.830  231.561
  254.500    2.660    0.581    0.263  103.293  230.344
  254.750    2.624    0.584    0.264  102.593  230.747
  255.000    2.631    0.594    0.268   98.709  231.151
  255.250    2.765    0.599    0.276   91.522  228.805
  255.500    3.156    0.587    0.293   81.094  223.412
  255.750    4.438    0.542    0.328   66.434  216.645
  256.000    6.570    0.516    0.350   60.300  214.201
  256.250    8.577    0.507    0.342   62.194  214.607
  256.500    9.598    0.501    0.347   63.026  215.894
  256.750    9.571    0.505    0.352   63.268  217.281
  257.000    9.052    0.515    0.353   63.099  217.980
  257.250    8.367    0.519    0.343   62.448  216.879
  257.500    8.064    0.511    0.329   62.701  215.254
  257.750    7.898    0.507    0.330   62.943  214.480
  258.000    7.734    0.507    0.341   63.008  213.410
  258.250    7.573    0.506    0.344   62.897  212.832
  258.500    7.317    0.501    0.339   63.081  213.432
  258.750    6.666    0.491    0.342   64.308  215.888
  259.000    6.008    0.488    0.341   63.333  216.306
  259.250    5.344    0.502    0.337   64.518  216.317
  259.500    5.091    0.502    0.332   67.118  216.623
  259.750    5.168    0.498    0.328   68.775  217.223
  260.000    5.510    0.500    0.325   68.488  217.923
  260.250    6.032    0.513    0.315   66.659  218.412
  260.500    6.319    0.504    0.324   66.912  218.831
  260.750    6.187    0.508    0.315   71.162  218.844
  261.000    5.893    0.506    0.307   75.413  216.498
  261.250    5.544    0.502    0.303   78.603  214.544
  261.500    5.168    0.499    0.303   81.616  214.850
  261.750    4.561    0.507    0.301   89.053  219.135
  262.000    3.820    0.552    0.285   97.903  222.833
  262.250    3.475    0.566    0.268   98.381  230.313
  262.500    3.217    0.578    0.255   97.268  234.843
  262.750    3.062    0.586    0.249   98.101  232.495
  263.000    2.994    0.589    0.250  100.230  225.137
  263.250    2.975    0.589    0.256   98.429  220.434
  263.500    2.978    0.575    0.269   96.471  220.446
  263.750    3.002    0.557    0.259   96.242  220.456
  264.000    3.060    0.553    0.260   96.367  220.469
  264.250    3.118    0.556    0.267   97.199  220.481
  264.500    3.194    0.558    0.277   96.910  220.494
  264.750    3.470    0.545    0.286   90.365  220.425
  265.000    4.113    0.529    0.280   84.723  220.024
  265.250    5.890    0.519    0.272   74.117  217.680
  265.500    8.346    0.502    0.252   62.983  216.512
  265.750   11.831    0.474    0.228   54.028  215.933
  266.000   16.733    0.440    0.232   47.492  215.550
  266.250   22.115    0.425    0.325   41.428  215.170
  266.500   24.075    0.448    0.363   42.908  215.183
  266.750   23.574    0.460    0.377   44.331  214.803
  267.000   22.076    0.465    0.381   43.806  214.715
  267.250   20.081    0.466    0.382   41.690  214.529
  267.500   17.814    0.463    0.383   38.632  214.245
  267.750   14.913    0.453    0.380   35.477  214.178
  268.000   13.049    0.446    0.370   34.993  213.782
  268.250   11.960    0.452    0.376   35.706  213.792
  268.500   11.406    0.452    0.376   36.420  213.801
  268.750   11.172    0.453    0.378   37.017  213.812
  269.000   10.933    0.454    0.384   37.319  213.823
  269.250   10.194    0.447    0.384   37.238  213.837
  269.500    9.900    0.444    0.377   37.981  213.848
  269.750    9.908    0.457    0.368   40.346  213.466
  270.000    9.754    0.469    0.361   43.419  213.381
  270.250    9.339    0.483    0.350   46.609  213.393
  270.500    8.741    0.499    0.315   49.621  213.403
  270.750    8.179    0.515    0.227   52.116  213.253
  271.000    8.376    0.526    0.237   50.403  212.446
  271.250    8.880    0.511    0.310   42.628  212.457
  271.500    9.366    0.483    0.351   39.275  212.467
  271.750    9.863    0.470    0.369   37.513  212.478
  272.000   10.335    0.475    0.373   36.105  212.489
  272.250   10.699    0.487    0.375   36.093  212.421
  272.500   10.954    0.498    0.378   39.539  212.024
  272.750   10.884    0.478    0.368   42.612  211.249
  273.000   10.579    0.464    0.364   44.093  210.769
  273.250    9.825    0.458    0.366   45.868  210.780
  273.500    8.697    0.461    0.366   48.939  211.380
  273.750    7.317    0.468    0.349   54.656  212.900
  274.000    6.743    0.485    0.330   60.804  214.549
  274.250    6.748    0.509    0.284   68.593  213.382
  274.500    7.199    0.529    0.236   71.429  211.624
  274.750    8.021    0.531    0.243   70.493  212.421
  275.000    9.115    0.514    0.296   67.847  215.382
  275.250   10.411    0.498    0.315   66.145  216.412
  275.500   11.688    0.496    0.302   64.679  215.605
  275.750   11.869    0.469    0.315   59.732  215.613
  276.000   11.470    0.453    0.323   56.733  215.920
  276.250   10.662    0.453    0.326   56.151  215.931
  276.500    9.695    0.466    0.323   57.867  215.352
  276.750    8.685    0.476    0.301   61.716  213.696
  277.000    8.246    0.468    0.273   64.425  211.253
  277.250    7.782    0.477    0.254   68.441  210.476
  277.500    7.266    0.487    0.261   73.694  212.060
  277.750    6.968    0.489    0.274   79.361  214.234
  278.000    6.935    0.488    0.280   83.141  215.719
  278.250    7.159    0.502    0.273   80.181  215.731
  278.500    7.499    0.508    0.279   74.784  215.743
  278.750    7.671    0.510    0.294   75.499  214.576
  279.000    7.679    0.520    0.313   78.335  214.291
  279.250    7.490    0.525    0.315   80.228  214.695
  279.500    7.080    0.526    0.304   79.291  215.592
  279.750    6.192    0.530    0.313   75.310  216.866
  280.000    5.148    0.523    0.325   77.773  217.286
  280.250    4.280    0.520    0.305   86.977  216.906
  280.500    3.543    0.529    0.282   93.880  216.818
  280.750    3.105    0.543    0.268   97.189  216.829
  281.000    2.961    0.559    0.268   96.842  216.841
  281.250    3.277    0.575    0.280   92.694  216.852
  281.500    3.977    0.587    0.297   86.069  216.864
  281.750    4.719    0.572    0.315   79.472  217.665
  282.000    5.780    0.540    0.324   72.170  218.167
  282.250    7.196    0.510    0.321   67.460  218.569
  282.500    8.890    0.494    0.307   65.758  218.972
  282.750   10.601    0.492    0.273   64.047  219.544
  283.000   10.854    0.478    0.215   61.351  220.376
  283.250   10.865    0.419    0.089   56.406  220.387
  283.500   11.112    0.354    0.063   56.059  220.396
  283.750   11.204    0.347    0.105   59.013  219.818
  284.000   11.031    0.406    0.195   63.441  218.651
  284.250   10.916    0.479    0.321   66.496  217.812
  284.500   11.523    0.487    0.326   64.048  219.460
  284.750   11.701    0.478    0.319   62.402  220.258
  285.000   11.754    0.472    0.317   59.166  220.466
  285.250   11.678    0.474    0.327   56.697  218.316
  285.500   11.540    0.479    0.342   56.173  214.889
  285.750   11.468    0.475    0.348   57.646  214.115
  286.000   11.479    0.470    0.349   57.898  214.128
  286.250   11.403    0.480    0.359   57.905  214.139
