~VERSION INFORMATION
 VERS.                 2.0:   CWLS LOG ASCII STANDARD -VERSION 2.0
 WRAP.                  NO:   ONE LINE PER DEPTH STEP
~WELL INFORMATION BLOCK
#MNEM.UNIT           DATA                    DESCRIPTION OF MNEMONIC
#---------    -------------------            -------------------------------
# Generated from Intellog Unique Number	CS_69_70/WELL/834
WELL.         ET AL TWEEDIE                  : Well_name    - WELL
LOC .         00/07-18-069-12W4/0            : Location     - LOCATION
UWI .         00/07-18-069-12W4/0            : Uwi          - UNIQUE WELL ID
ENTR.         SP                             : Entered      - ENTERED BY
SRVC.         SCHLUMBERGER                   : Scn          - SERVICE COMPANY
STRT.M        290                            : top_depth    - START DEPTH
STOP.M        495                            : bot_depth    - STOP DEPTH
STEP.M        0.25                           : increment    - STEP LENGTH
 NULL. -999.2500:NULL Value
~CURVE INFORMATION BLOCK
#MNEM UNIT       ERCB CURVE CODE    CURVE DESCRIPTION
#-----------   ------------------   ----------------------------------
DEPT.M        00 001 00 00         : DEPTH        - DEPTH
GR  .API      00 310 00 00         : GR           - GAMMA RAY
NPHI.V/V      00 330 00 00         : PHIN         - NEUTRON POROSITY (LIMESTONE)
DPHI.V/V      00 890 00 00         : PHID         - DENSITY POROSITY (LIMESTONE)
ILD .OHMM     00 120 00 00         : RESD         - DEEP RESISTIVITY (DIL)
~PARAMETER INFORMATION
#MNEM.UNIT           DATA             DESCRIPTION OF MNEMONIC
#---------         -----------     ------------------------------
GL  .M        595.57               : gl           - GROUND LEVEL ELEVATION
EREF.M        598.5                : kb           - ELEVATION OF DEPTH REFERENCE
DATM.M        597.57               : datum        - DATUM ELEVATION
TDD .M        495                  : tdd          - TOTAL DEPTH DRILLER
RUN .         ONE                  : Run          - RUN NUMBER
ENG .         BILL                 : Engineer     - RECORDING ENGINEER
WIT .         JIM                  : Witness      - WITNESSED BY
MUD .         GEL                  : Mud_type     - MUD TYPE
MATR.         LIMESTONE            : Logunit      - NEUTRON MATRIX
TMAX.C        26                   : BHT          - MAXIMUM RECORDED TEMPERATURE
BHTD.M        495                  : BHTDEP       - MAXIMUM RECORDED TEMPERATURE
MATR.         1                    : LOGUNIT      - NEUTRON MATRIX
RMT .C        25                   : MDTP         - TEMPERATURE OF MUD
NEUT.         1                    : NEUTRON      - NEUTRON TYPE
RESI.         0                    : RESIST       - RESISTIVITY TYPE
RMC .OHMM     0.25                 : RMC          - RESISTIVITY OF MUD CAKE
RMF .OHMM     0.25                 : RMF          - RESISTIVITY OF MUD FILTRATE
SUFT.C        15                   : SUFT         - SURFACE TEMPERATURE
~A  DEPTH       GR     PHIN     PHID     RESD
# ...
  377.000   81.068    0.460    0.261    3.246
  377.250   80.405    0.474    0.281    3.033
  377.500   79.741    0.466    0.298    2.788
  377.750   78.530    0.441    0.315    2.605
  378.000   77.135    0.425    0.325    2.444
  378.250   76.046    0.417    0.329    2.383
  378.500   74.531    0.431    0.331    2.447
  378.750   73.441    0.449    0.317    2.598
  379.000   72.411    0.464    0.304    2.982
  379.250   70.775    0.299    0.273    3.153
  379.500   68.041    0.262    0.204    3.564
  379.750   63.118    0.238    0.107    4.196
  380.000   59.168    0.227    0.085    5.099
  380.250   60.695    0.226    0.078    6.014
  380.500   62.344    0.228    0.070    6.989
  380.750   62.410    0.221    0.060    8.199
  381.000   59.373    0.207    0.065    9.354
  381.250   56.763    0.195    0.052   10.134
  381.500   55.733    0.181    0.061    8.961
  381.750   59.391    0.365    0.143    6.672
  382.000   62.013    0.442    0.226    4.191
  382.250   64.209    0.461    0.303    3.220
  382.500   66.405    0.455    0.320    2.572
  382.750   68.176    0.442    0.323    2.440
  383.000   70.615    0.434    0.322    2.423
  383.250   73.421    0.428    0.324    2.645
  383.500   74.460    0.429    0.306    3.069
  383.750   72.154    0.424    0.259    3.721
  384.000   68.812    0.397    0.163    4.504
  384.250   57.925    0.276    0.056    5.732
  384.500   50.993    0.173    0.011    6.551
  384.750   47.408    0.155   -0.000    8.137
  385.000   45.162    0.147   -0.005    9.831
  385.250   44.986    0.147   -0.007   10.972
  385.500   48.034    0.152   -0.005   11.225
  385.750   53.760    0.175    0.214    9.082
  386.000   60.521    0.224    0.250    4.579
  386.250   64.725    0.336    0.277    3.538
  386.500   68.807    0.395    0.298    3.071
  386.750   71.977    0.433    0.311    2.844
  387.000   73.565    0.444    0.320    2.644
  387.250   73.267    0.441    0.325    2.625
  387.500   73.211    0.432    0.329    2.627
  387.750   73.887    0.430    0.307    2.703
  388.000   74.319    0.443    0.296    2.760
  388.250   74.445    0.441    0.307    2.824
  388.500   73.599    0.448    0.309    2.889
  388.750   74.214    0.448    0.311    2.934
  389.000   76.957    0.433    0.293    3.002
  389.250   79.276    0.421    0.282    3.072
  389.500   80.255    0.421    0.269    3.231
  389.750   80.505    0.431    0.263    3.417
  390.000   79.841    0.431    0.253    3.628
  390.250   78.751    0.419    0.239    3.760
  390.500   78.208    0.412    0.225    3.912
  390.750   79.127    0.417    0.223    4.039
  391.000   80.350    0.419    0.229    4.155
  391.250   77.556    0.417    0.217    4.243
  391.500   73.121    0.420    0.208    4.278
  391.750   73.550    0.412    0.207    4.305
  392.000   77.878    0.424    0.208    4.324
  392.250   79.709    0.442    0.232    4.311
  392.500   81.235    0.431    0.220    4.314
  392.750   82.945    0.422    0.215    4.340
  393.000   84.350    0.419    0.226    4.352
  393.250   84.477    0.433    0.236    4.355
  393.500   84.909    0.446    0.226    4.358
  393.750   86.193    0.449    0.221    4.241
  394.000   87.233    0.447    0.220    4.136
  394.250   88.153    0.476    0.220    4.011
  394.500   88.584    0.481    0.226    3.926
  394.750   89.135    0.464    0.224    3.864
  395.000   90.360    0.460    0.224    3.803
  395.250   91.642    0.454    0.228    3.763
  395.500   93.108    0.445    0.219    3.738
  395.750   94.270    0.436    0.216    3.720
  396.000   94.701    0.438    0.221    3.729
  396.250   94.585    0.447    0.229    3.752
  396.500   94.957    0.462    0.237    3.748
  396.750   96.059    0.493    0.262    3.723
  397.000   96.489    0.521    0.278    3.584
  397.250   96.981    0.557    0.294    3.216
  397.500   97.171    0.612    0.307    2.740
  397.750   95.897    0.567    0.279    2.313
  398.000   91.886    0.544    0.256    1.858
  398.250   91.101    0.541    0.257    1.721
  398.500   92.020    0.534    0.268    1.719
  398.750   92.573    0.522    0.258    1.879
  399.000   92.702    0.507    0.266    2.180
  399.250   92.767    0.503    0.287    2.510
  399.500   92.834    0.490    0.294    2.962
  399.750   92.413    0.461    0.263    3.226
  400.000   90.777    0.450    0.243    3.508
  400.250   89.382    0.460    0.235    3.670
  400.500   89.022    0.466    0.225    3.713
  400.750   89.088    0.462    0.211    3.716
  401.000   88.182    0.457    0.232    3.739
  401.250   87.031    0.453    0.244    3.812
  401.500   85.210    0.452    0.250    3.836
  401.750   82.843    0.454    0.269    3.796
  402.000   81.388    0.469    0.274    3.708
  402.250   80.542    0.481    0.254    3.531
  402.500   79.026    0.502    0.271    3.436
  402.750   73.250    0.487    0.279    3.265
  403.000   67.658    0.464    0.289    3.086
  403.250   64.133    0.451    0.316    2.932
  403.500   61.949    0.445    0.337    2.780
  403.750   60.677    0.435    0.347    2.575
  404.000   60.560    0.423    0.330    2.442
  404.250   60.748    0.410    0.323    2.321
  404.500   59.719    0.400    0.316    2.259
  404.750   60.882    0.405    0.317    2.219
  405.000   63.383    0.429    0.332    2.216
  405.250   64.727    0.447    0.348    2.234
  405.500   65.889    0.465    0.360    2.207
  405.750   67.112    0.460    0.353    2.221
  406.000   66.508    0.455    0.340    2.239
  406.250   63.653    0.450    0.325    2.269
  406.500   64.694    0.447    0.314    2.326
  406.750   66.951    0.439    0.317    2.389
  407.000   62.697    0.377    0.266    2.555
  407.250   56.618    0.277    0.132    2.893
  407.500   55.892    0.244    0.074    3.241
  407.750   65.878    0.349    0.137    3.976
  408.000   74.586    0.399    0.173    4.074
  408.250   80.433    0.425    0.176    4.397
  408.500   76.970    0.394    0.129    4.642
  408.750   77.219    0.375    0.128    4.620
  409.000   80.693    0.390    0.160    4.231
  409.250   86.117    0.420    0.196    3.790
  409.500   88.616    0.442    0.229    3.509
  409.750   90.630    0.450    0.219    3.219
  410.000   88.870    0.442    0.219    3.048
  410.250   87.659    0.438    0.228    2.928
  410.500   84.988    0.435    0.236    2.866
  410.750   82.680    0.433    0.236    2.836
  411.000   81.530    0.429    0.239    2.838
  411.250   82.327    0.426    0.243    2.830
  411.500   83.854    0.438    0.245    2.827
  411.750   86.354    0.451    0.235    2.829
  412.000   88.551    0.464    0.226    2.830
  412.250   89.834    0.456    0.215    2.848
  412.500   91.179    0.441    0.207    2.887
  412.750   91.367    0.428    0.222    2.948
  413.000   87.965    0.438    0.235    3.050
  413.250   85.353    0.434    0.238    3.161
  413.500   85.785    0.431    0.228    3.395
  413.750   86.582    0.431    0.222    3.578
  414.000   85.553    0.441    0.232    3.626
  414.250   86.654    0.446    0.229    3.668
  414.500   87.939    0.456    0.232    3.698
  414.750   87.883    0.454    0.230    3.716
  415.000   85.819    0.449    0.221    3.711
  415.250   83.451    0.452    0.225    3.719
  415.500   83.335    0.449    0.222    4.067
  415.750   86.445    0.443    0.218    4.085
  416.000   90.346    0.460    0.214    4.058
  416.250   92.419    0.446    0.232    4.083
  416.500   94.311    0.430    0.243    4.094
  416.750   95.717    0.427    0.258    4.073
  417.000   96.027    0.451    0.317    4.061
  417.250   95.728    0.476    0.339    4.020
  417.500   92.812    0.505    0.364    3.963
  417.750   89.714    0.525    0.390    3.843
  418.000   86.312    0.540    0.403    3.659
  418.250   86.988    0.547    0.377    3.458
  418.500   87.845    0.527    0.345    3.255
  418.750   88.520    0.513    0.327    3.116
  419.000   90.473    0.521    0.316    2.972
  419.250   91.878    0.543    0.321    2.814
  419.500   92.614    0.548    0.339    2.688
  419.750   91.769    0.533    0.337    2.499
  420.000   91.104    0.520    0.322    2.450
  420.250   89.832    0.536    0.341    2.282
