~VERSION INFORMATION
 VERS.                 2.0:   CWLS LOG ASCII STANDARD -VERSION 2.0
 WRAP.                  NO:   ONE LINE PER DEPTH STEP
~WELL INFORMATION BLOCK
#MNEM.UNIT           DATA                    DESCRIPTION OF MNEMONIC
#---------    -------------------            -------------------------------
# Generated from Intellog Unique Number	CC_84_87/WELL/1049
NULL.         -999.25                        : NULL_VALUE
WELL.         NOVALTA GRANOR                 : Well_name    - WELL              
LOC .         03-02-084-17W4                 : Location     - LOCATION          
UWI .         00/03-02-084-17W400            : Uwi          - UNIQUE WELL ID    
ENTR.         JHS                            : Entered      - ENTERED BY        
SRVC.         DRESSER ATLAS                  : Scn          - SERVICE COMPANY   
DATE.         13 FEB 83                      : Date         - LOG DATE
STRT.M        85                             : top_depth    - START DEPTH       
STOP.M        280.001                        : bot_depth    - STOP DEPTH        
STEP.M        0.3                            : increment    - STEP LENGTH       
~CURVE INFORMATION BLOCK
#MNEM UNIT       ERCB CURVE CODE    CURVE DESCRIPTION
#-----------   ------------------   ----------------------------------
DEPT.M        00 001 00 00         : DEPTH        - DEPTH                       
DPHI.V/V      00 890 00 00         : PHID         - DENSITY POROSITY (LIMESTONE)
NPHI.V/V      00 330 00 00         : PHIN         - NEUTRON POROSITY (LIMESTONE)
GR  .API      00 310 00 00         : GR           - GAMMA RAY                   
ILD .OHMM     00 120 00 00         : RESD         - DEEP RESISTIVITY (DIL)      
~PARAMETER INFORMATION       
#MNEM.UNIT           DATA             DESCRIPTION OF MNEMONIC
#---------         -----------     ------------------------------
GL  .M        542.48               : gl           - GROUND LEVEL ELEVATION      
EREF.M        545.48               : kb           - ELEVATION OF DEPTH REFERENCE
DATM.M        545.48               : datum        - DATUM ELEVATION             
TDD .M        285                  : tdd          - TOTAL DEPTH DRILLER         
RUN .         ONE                  : Run          - RUN NUMBER                  
ENG .         BILL                 : Engineer     - RECORDING ENGINEER          
WIT .         JIM                  : Witness      - WITNESSED BY                
MUD .         GEL                  : Mud_type     - MUD TYPE                    
MATR.         LIMESTONE            : Logunit      - NEUTRON MATRIX              
TMAX.C        24                   : BHT          - MAXIMUM RECORDED TEMPERATURE
BHTD.M        285                  : BHTDEP       - MAXIMUM RECORDED TEMPERATURE
MATR.         1                    : LOGUNIT      - NEUTRON MATRIX              
RMT .C        25                   : MDTP         - TEMPERATURE OF MUD          
NEUT.         1                    : NEUTRON      - NEUTRON TYPE                
RESI.         0                    : RESIST       - RESISTIVITY TYPE            
RMC .OHMM     0.25                 : RMC          - RESISTIVITY OF MUD CAKE     
RMF .OHMM     0.25                 : RMF          - RESISTIVITY OF MUD FILTRATE 
SUFT.C        15                   : SUFT         - SURFACE TEMPERATURE         
~A  DEPTH     PHID     PHIN       GR     RESD
# ...
  241.602    0.239    0.410   99.943    7.502
  241.902    0.233    0.400   97.506    7.794
  242.202    0.222    0.394   93.849    7.946
  242.502    0.200    0.393   93.835    7.802
  242.802    0.181    0.392   90.178    7.660
  243.102    0.187    0.421   88.347    7.382
  243.402    0.194    0.421   90.764    6.980
  243.702    0.204    0.409   97.433    6.853
  244.002    0.206    0.398   97.421    6.856
  244.302    0.214    0.412   93.763    6.859
  244.602    0.224    0.415   94.358    7.126
  244.902    0.235    0.407   96.775    7.404
  245.202    0.226    0.399   95.549    7.987
  245.502    0.214    0.390   91.893    9.116
  245.802    0.191    0.382   88.236   10.405
  246.102    0.189    0.381   88.225   11.016
  246.402    0.197    0.387   90.644   10.815
  246.702    0.212    0.382   95.490    9.666
  247.002    0.224    0.377   96.083    9.139
  247.302    0.230    0.388   96.071    8.806
  247.602    0.235    0.392   94.238    8.977
  247.902    0.241    0.382   96.653    9.504
  248.202    0.251    0.362   97.858   10.061
  248.502    0.262    0.360   88.738   10.651
  248.802    0.274    0.375   83.866   11.489
  249.102    0.286    0.383   86.890   12.631
  249.402    0.284    0.370   85.664   13.371
  249.702    0.282    0.356   80.793   14.423
  250.002    0.294    0.338   74.710   14.706
  250.302    0.308    0.322   74.697   14.438
  250.602    0.313    0.325   77.721   13.398
  250.902    0.307    0.335   78.924   12.201
  251.202    0.296    0.337   74.662   11.755
  251.502    0.285    0.359   74.042   11.327
  251.802    0.258    0.391   71.602   11.334
  252.102    0.250    0.385   72.196   11.775
  252.402    0.242    0.385   74.007   12.231
  252.702    0.199    0.383   72.171   16.231
  253.002    0.126    0.331   69.125   19.601
  253.302    0.061    0.282   66.074   23.231
  253.602    0.034    0.250   63.635   24.594
  253.902    0.035    0.250   61.191   21.168
  254.202    0.146    0.311   61.182   18.216
  254.502    0.169    0.338   62.991   14.270
  254.802    0.193    0.376   66.623   12.514
  255.102    0.217    0.382   71.468   11.396
  255.402    0.237    0.399   75.706   10.982
  255.702    0.258    0.413   81.159   11.196
  256.002    0.263    0.405   82.362   11.413
  256.302    0.268    0.382   78.100   11.857
  256.602    0.257    0.357   78.693   12.553
  256.902    0.209    0.336   75.039   11.870
  257.202    0.202    0.355   75.028   10.025
  257.502    0.214    0.373   76.837    9.302
  257.802    0.231    0.382   75.610    9.133
  258.102    0.238    0.388   80.454    9.138
  258.402    0.238    0.386   81.051    9.318
  258.702    0.226    0.377   78.001    9.322
  259.002    0.215    0.365   76.775    9.152
  259.302    0.213    0.370   77.979    8.493
  259.602    0.223    0.385   79.181    7.590
  259.902    0.225    0.407   79.166    7.594
  260.202    0.214    0.396   78.547    7.742
  260.502    0.198    0.401   77.322    7.746
  260.802    0.207    0.409   74.880    7.325
  261.102    0.217    0.403   83.370    6.797
  261.402    0.223    0.401   90.038    6.074
  261.702    0.224    0.409   91.236    5.531
  262.001    0.225    0.440   90.015    5.037
  262.301    0.230    0.446   92.429    4.674
  262.601    0.229    0.432   98.492    4.419
  262.901    0.224    0.420   99.087    4.339
  263.201    0.228    0.415  103.323    4.681
  263.501    0.229    0.394  105.741    5.548
  263.801    0.228    0.381  104.515    6.575
  264.101    0.222    0.388   98.430    9.407
  264.401    0.210    0.371   94.772   12.961
  264.701    0.135    0.334   94.763   16.253
  265.001    0.141    0.318   91.715   18.551
  265.301    0.153    0.347   72.878   17.215
  265.601    0.186    0.365   77.724   14.540
  265.901    0.213    0.359   83.177   12.752
  266.201    0.223    0.337   86.201   13.001
  266.501    0.227    0.342   85.583   13.763
  266.801    0.237    0.353   87.998   15.417
  267.101    0.245    0.346   91.630   17.269
  267.401    0.265    0.316   72.187   20.084
  267.701    0.316    0.282   60.029   23.359
  268.001    0.344    0.250   51.517   29.295
  268.301    0.346    0.244   45.431   35.378
  268.601    0.337    0.285   42.384   40.382
  268.901    0.317    0.348   41.764   43.561
  269.201    0.310    0.393   39.322   43.586
  269.501    0.311    0.405   37.486   41.998
  269.801    0.307    0.409   38.692   41.232
  270.101    0.312    0.405   41.103   38.262
  270.401    0.312    0.385   42.914   34.191
  270.701    0.305    0.377   44.725   26.785
  271.001    0.289    0.390   46.538   20.590
  271.301    0.279    0.391   50.169   14.407
  271.601    0.277    0.389   54.407   14.146
  271.901    0.273    0.402   65.326   14.975
  272.201    0.262    0.397   78.064   12.887
  272.501    0.250    0.406   88.983    8.364
  272.801    0.229    0.399   98.686    6.932
  273.101    0.216    0.383  107.176    5.745
  273.401    0.224    0.378   99.878    4.945
  273.701    0.230    0.385   89.541    4.337
  274.001    0.231    0.419   87.100    4.024
  274.301    0.220    0.440   91.340    3.734
  274.601    0.208    0.428   97.400    3.465
  274.901    0.204    0.426   99.210    3.277
  275.201    0.198    0.430   99.195    3.340
  275.501    0.165    0.401   97.362    3.672
  275.801    0.148    0.394   92.494    4.271
  276.101    0.161    0.420   88.229    4.354
  276.401    0.186    0.431   91.253    4.196
  276.701    0.238    0.431   96.707    3.967
  277.001    0.241    0.459   96.694    3.479
  277.301    0.238    0.466   94.254    3.615
  277.601    0.229    0.442   94.849    4.049
  277.901    0.190    0.390   93.014    4.890
  278.201    0.164    0.345   90.574    6.018
  278.501    0.171    0.346   87.527    7.546
  278.801    0.208    0.339   89.336    9.644
  279.101    0.238    0.341   88.109   12.323
  279.401    0.266    0.351   90.527   15.454
  279.701    0.312    0.378   92.335   18.663
  280.001    0.323    0.383   89.895   24.302
