~VERSION INFORMATION
 VERS.                 2.0:   CWLS LOG ASCII STANDARD -VERSION 2.0
 WRAP.                  NO:   ONE LINE PER DEPTH STEP
~WELL INFORMATION BLOCK
#MNEM.UNIT           DATA                    DESCRIPTION OF MNEMONIC
#---------    -------------------            -------------------------------
# Generated from Intellog Unique Number	CW_70_72/WELL/3018
NULL.         -999.25                        : NULL_VALUE
WELL.         DOME SULPETRO BOUVIER 07-31    : Well_name    - WELL              
LOC .         07-31-070-24W4                 : Location     - LOCATION          
UWI .         00/07-31-070-24W4/0            : Uwi          - UNIQUE WELL ID    
ENTR.         J                              : Entered      - ENTERED BY        
SRVC.         WESTERN ATLAS                  : Scn          - SERVICE COMPANY   
DATE.         22 FEB 80                      : Date         - LOG DATE          
STRT.M        450                            : top_depth    - START DEPTH       
STOP.M        635                            : bot_depth    - STOP DEPTH        
STEP.M        0.25                           : increment    - STEP LENGTH       
~CURVE INFORMATION BLOCK
#MNEM UNIT       ERCB CURVE CODE    CURVE DESCRIPTION
#-----------   ------------------   ----------------------------------
DEPT.M        00 001 00 00         : DEPTH        - DEPTH                       
ILD .OHMM     00 120 00 00         : RESD         - DEEP RESISTIVITY (DIL)      
CALI.MM       00 280 01 00         : CAL          - CALIPER                     
GR  .API      00 310 00 00         : GR           - GAMMA RAY                   
NPHI.V/V      00 330 00 00         : PHIN         - NEUTRON POROSITY (SANDSTONE)
DPHI.V/V      00 890 00 00         : PHID         - DENSITY POROSITY (SANDSTONE)
~PARAMETER INFORMATION       
#MNEM.UNIT           DATA             DESCRIPTION OF MNEMONIC
#---------         -----------     ------------------------------
GL  .M        655.9                : gl           - GROUND LEVEL ELEVATION      
EREF.M        659.5                : kb           - ELEVATION OF DEPTH REFERENCE
DATM.M        655.9                : datum        - DATUM ELEVATION             
TDD .M        645                  : tdd          - TOTAL DEPTH DRILLER         
RUN .         ONE                  : Run          - RUN NUMBER                  
ENG .         WEIERS/PETERSON      : Engineer     - RECORDING ENGINEER          
WIT .         TRAHAM               : Witness      - WITNESSED BY                
MUD .         GEL CHEM             : Mud_type     - MUD TYPE                    
MATR.         SANDSTONE            : Logunit      - NEUTRON MATRIX              
TMAX.C        23                   : BHT          - MAXIMUM RECORDED TEMPERATURE
BHTD.M        646.6                : BHTDEP       - MAXIMUM RECORDED TEMPERATURE
RMT .C        15                   : MDTP         - TEMPERATURE OF MUD          
MUDD.KG/M     9.5                  : MWT          - MUD DENSITY                 
NEUT.         1                    : NEUTRON      - NEUTRON TYPE                
RESI.         0                    : RESIST       - RESISTIVITY TYPE            
RM  .OHMM     3.4                  : RM           - RESISTIVITY OF MUD          
RMC .OHMM     3.7                  : RMC          - RESISTIVITY OF MUD CAKE     
RMF .OHMM     3.1                  : RMF          - RESISTIVITY OF MUD FILTRATE 
SUFT.C        0                    : SUFT         - SURFACE TEMPERATURE         
~A  DEPTH     RESD      CAL       GR     PHIN     PHID
# ...
  486.500    3.808  162.697  106.318    0.446    0.257
  486.750    3.923  162.071  108.710    0.465    0.239
  487.000    4.139  161.242  113.440    0.474    0.213
  487.250    4.566  160.619  125.857    0.474    0.209
  487.500    5.227  160.097  135.692    0.468    0.213
  487.750    6.589  159.575  147.555    0.447    0.230
  488.000    7.799  161.206  142.815    0.425    0.258
  488.250    8.979  165.298  134.323    0.381    0.291
  488.500    9.941  172.258  122.754    0.349    0.300
  488.750   10.432  175.324  104.976    0.336    0.294
  489.000   10.146  172.751  100.788    0.327    0.288
  489.250    9.632  164.849   99.184    0.329    0.251
  489.500    8.780  160.946   96.657    0.336    0.219
  489.750    8.003  159.503   93.883    0.330    0.210
  490.000    7.003  159.185   91.911    0.327    0.193
  490.250    6.243  159.686   90.183    0.325    0.179
  490.500    5.443  160.292   88.148    0.321    0.168
  490.750    5.035  161.104   85.621    0.325    0.161
  491.000    4.497  161.094   87.768    0.333    0.194
  491.250    4.261  161.286   90.530    0.360    0.198
  491.500    4.076  161.282   95.627    0.381    0.219
  491.750    4.053  161.375   99.251    0.417    0.241
  492.000    4.076  161.777  101.953    0.434    0.231
  492.250    4.098  161.870  104.897    0.430    0.247
  492.500    4.167  161.858  105.754    0.424    0.243
  492.750    4.373  161.745  111.282    0.442    0.222
  493.000    4.546  161.224  116.443    0.457    0.205
  493.250    4.622  160.910  123.080    0.464    0.191
  493.500    4.770  158.543  127.808    0.470    0.180
  493.750    4.950  159.764  129.772    0.466    0.171
  494.000    5.024  161.087  133.456    0.448    0.192
  494.250    5.052  164.868  134.250    0.429    0.201
  494.500    5.023  167.117  132.707    0.418    0.213
  494.750    4.895  166.490  129.871    0.415    0.216
  495.000    4.831  163.610  127.098    0.416    0.189
  495.250    4.949  161.449  124.817    0.431    0.197
  495.500    5.136  161.031  123.028    0.441    0.219
  495.750    5.551  161.225  121.608    0.446    0.237
  496.000    5.934  161.833  119.760    0.437    0.267
  496.250    6.090  162.029  111.329    0.422    0.282
  496.500    6.090  161.814  108.554    0.413    0.259
  496.750    5.707  162.110  111.808    0.418    0.231
  497.000    5.368  162.408  115.800    0.429    0.197
  497.250    5.059  162.402  118.133    0.442    0.194
  497.500    4.680  162.187  116.281    0.449    0.221
  497.750    4.427  161.871  112.093    0.456    0.213
  498.000    4.290  161.245  111.966    0.465    0.192
  498.250    4.410  161.339  115.895    0.475    0.189
  498.500    4.619  162.048  119.150    0.486    0.176
  498.750    4.965  163.474  123.264    0.476    0.217
  499.000    5.387  165.821  124.859    0.449    0.228
  499.250    5.855  169.194  124.853    0.418    0.244
  499.500    6.144  171.441  115.068    0.396    0.269
  499.750    6.317  168.971  106.946    0.371    0.276
  500.000    6.270  165.990   95.809    0.364    0.300
  500.250    6.166  163.828   89.346    0.373    0.297
  500.500    6.053  163.715   85.159    0.385    0.309
  500.750    5.953  164.116   84.722    0.398    0.305
  501.000    5.779  163.184   85.208    0.409    0.290
  501.250    5.662  162.663   85.880    0.432    0.286
  501.500    5.486  161.934   86.059    0.443    0.291
  501.750    5.355  162.130   85.500    0.441    0.287
  502.000    5.276  162.021   84.572    0.444    0.277
  502.250    5.075  162.213   85.181    0.456    0.273
  502.500    4.936  161.999   88.680    0.472    0.260
  502.750    4.827  161.377   91.013    0.478    0.261
  503.000    4.694  160.447   89.224    0.432    0.272
  503.250    4.566  162.896   85.835    0.411    0.277
  503.500    4.375  167.603   83.677    0.403    0.288
  503.750    4.154  164.722   81.764    0.399    0.303
  504.000    4.010  162.869   81.145    0.398    0.323
  504.250    3.807  161.937   81.568    0.398    0.332
  504.500    3.709  162.030   81.749    0.397    0.310
  504.750    3.655  162.225   80.882    0.397    0.300
  505.000    3.601  162.626   78.477    0.395    0.277
  505.250    3.614  162.721   74.105    0.383    0.271
  505.500    3.750  162.711   69.856    0.371    0.283
  505.750    3.906  162.599   65.976    0.376    0.288
  506.000    4.039  162.590   63.265    0.384    0.299
  506.250    4.160  162.682   61.350    0.391    0.307
  506.500    4.191  162.467   61.594    0.392    0.314
  506.750    4.191  162.765   63.309    0.389    0.299
  507.000    4.068  163.063   66.317    0.387    0.277
  507.250    4.038  163.669   66.317    0.380    0.281
  507.500    3.935  163.967   73.807    0.377    0.292
  507.750    3.855  164.164   74.728    0.376    0.300
  508.000    3.855  163.642   74.783    0.378    0.304
  508.250    3.674  162.505   72.317    0.382    0.296
  508.500    3.586  162.495   69.667    0.371    0.301
  508.750    3.462  161.974   66.216    0.366    0.306
  509.000    3.281  161.248   64.735    0.372    0.298
  509.250    3.144  160.521   62.944    0.385    0.302
  509.500    2.957  160.713   62.573    0.403    0.312
  509.750    2.777  160.808   61.953    0.408    0.320
  510.000    2.517  161.312   61.455    0.408    0.328
  510.250    2.430  162.122   60.896    0.402    0.335
  510.500    2.337  162.627   59.045    0.394    0.324
  510.750    2.286  163.232   56.457    0.391    0.324
  511.000    2.234  163.428   57.189    0.387    0.327
  511.250    2.183  163.522   60.565    0.387    0.314
  511.500    2.132  163.718   62.898    0.387    0.320
  511.750    2.081  163.299   64.491    0.383    0.309
  512.000    2.030  163.290   64.854    0.376    0.301
  512.250    2.041  164.305   61.835    0.367    0.310
  512.500    2.000  165.424   59.615    0.364    0.323
  512.750    1.999  165.424   60.839    0.367    0.320
  513.000    2.056  165.093   62.187    0.373    0.319
  513.250    2.165  164.369   63.412    0.380    0.319
  513.500    2.234  163.234   63.590    0.387    0.327
  513.750    2.280  161.790   63.524    0.401    0.341
  514.000    2.297  159.114   62.841    0.412    0.339
  514.250    2.314  157.260   61.912    0.409    0.334
  514.500    2.314  155.508   61.662    0.400    0.326
  514.750    2.323  154.475   61.594    0.396    0.306
  515.000    2.362  154.261   61.835    0.395    0.299
  515.250    2.474  154.149   62.259    0.409    0.298
  515.500    2.591  155.470   62.624    0.420    0.294
  515.750    2.724  156.383   64.218    0.420    0.296
  516.000    2.938  156.684   67.841    0.419    0.288
  516.250    3.218  157.495   73.493    0.418    0.279
  516.500    3.497  159.022   86.585    0.422    0.252
  516.750    3.858  159.936   91.807    0.429    0.223
  517.000    4.178  160.848   96.046    0.438    0.202
  517.250    4.392  161.251  101.267    0.444    0.199
  517.500    4.458  161.958  103.291    0.447    0.211
  517.750    4.516  162.665  103.470    0.438    0.218
  518.000    4.591  163.067  104.078    0.435    0.202
  518.250    4.730  163.264  105.058    0.429    0.176
  518.500    5.037  162.639  107.205    0.424    0.173
  518.750    5.217  161.604  109.167    0.415    0.164
  519.000    5.179  162.415  111.376    0.410    0.170
  519.250    5.018  165.070  114.014    0.419    0.189
  519.500    4.826  166.904  116.284    0.446    0.194
  519.750    4.659  166.283  117.878    0.460    0.202
  520.000    4.374  162.686  119.471    0.476    0.211
  520.250    4.115  162.983  119.158    0.474    0.211
  520.500    3.907  163.998  117.492    0.448    0.224
  520.750    3.655  164.810  112.013    0.427    0.230
  521.000    3.313  165.212  105.735    0.407    0.235
  521.250    3.110  165.303   96.382    0.383    0.247
  521.500    3.014  165.089   83.892    0.372    0.258
  521.750    2.915  164.260   80.688    0.389    0.255
  522.000    2.904  163.533   82.651    0.399    0.265
  522.250    2.909  163.626   86.088    0.404    0.260
  522.500    2.893  163.616   88.051    0.402    0.266
  522.750    2.909  163.710   89.092    0.398    0.270
