~VERSION INFORMATION
 VERS.                 2.0:   CWLS LOG ASCII STANDARD -VERSION 2.0
 WRAP.                  NO:   ONE LINE PER DEPTH STEP
~WELL INFORMATION BLOCK
#MNEM.UNIT           DATA                    DESCRIPTION OF MNEMONIC
#---------    -------------------            -------------------------------
# Generated from Intellog Unique Number	CW_70_72/WELL/3010
NULL.         -999.25                        : NULL_VALUE
WELL.         GULF POC CALLS 6-25            : Well_name    - WELL              
LOC .         06-25-070-22W4                 : Location     - LOCATION          
UWI .         00/06-25-070-22W4/0            : Uwi          - UNIQUE WELL ID    
ENTR.         dgm                            : Entered      - ENTERED BY        
SRVC.         SCHLUMBERGER                   : Scn          - SERVICE COMPANY   
DATE.         18 DEC 1982                    : Date         - LOG DATE          
STRT.M        425                            : top_depth    - START DEPTH       
STOP.M        606                            : bot_depth    - STOP DEPTH        
STEP.M        0.25                           : increment    - STEP LENGTH       
~CURVE INFORMATION BLOCK
#MNEM UNIT       ERCB CURVE CODE    CURVE DESCRIPTION
#-----------   ------------------   ----------------------------------
DEPT.M        00 001 00 00         : DEPTH        - DEPTH                       
DPHI.V/V      00 890 00 00         : PHID         - DENSITY POROSITY (SANDSTONE)
NPHI.V/V      00 330 00 00         : PHIN         - NEUTRON POROSITY (SANDSTONE)
GR  .API      00 310 00 00         : GR           - GAMMA RAY                   
CALI.MM       00 280 01 00         : CAL          - CALIPER                     
ILD .OHMM     00 120 00 00         : RESD         - DEEP RESISTIVITY (DIL)      
~PARAMETER INFORMATION       
#MNEM.UNIT           DATA             DESCRIPTION OF MNEMONIC
#---------         -----------     ------------------------------
GL  .M        676.9                : gl           - GROUND LEVEL ELEVATION      
EREF.M        680.17               : kb           - ELEVATION OF DEPTH REFERENCE
DATM.M        680.17               : datum        - DATUM ELEVATION             
TDD .M        635                  : tdd          - TOTAL DEPTH DRILLER         
RUN .         ONE                  : Run          - RUN NUMBER                  
ENG .         WRIGHT               : Engineer     - RECORDING ENGINEER          
WIT .         KERESTES             : Witness      - WITNESSED BY                
BASE.         EDMONTON             : Branch       - HOME BASE OF LOGGING UNIT   
MUD .         GEL CHEM             : Mud_type     - MUD TYPE                    
MATR.         SANDSTONE            : Logunit      - NEUTRON MATRIX              
TMAX.C        23.3                 : BHT          - MAXIMUM RECORDED TEMPERATURE
BHTD.M        635.3                : BHTDEP       - MAXIMUM RECORDED TEMPERATURE
RMT .C        23.3                 : MDTP         - TEMPERATURE OF MUD          
MUDD.KG/M     1140                 : MWT          - MUD DENSITY                 
NEUT.         1                    : NEUTRON      - NEUTRON TYPE                
RESI.         0                    : RESIST       - RESISTIVITY TYPE            
RM  .OHMM     3.422                : RM           - RESISTIVITY OF MUD          
RMC .OHMM     2.675                : RMC          - RESISTIVITY OF MUD CAKE     
RMF .OHMM     3.173                : RMF          - RESISTIVITY OF MUD FILTRATE 
SUFT.C        5                    : SUFT         - SURFACE TEMPERATURE         
~A  DEPTH     PHID     PHIN       GR      CAL     RESD
# ...
  571.000    0.096    0.373  103.338  160.834    5.699
  571.250    0.142    0.380  106.015  165.073    5.734
  571.500    0.167    0.408  103.705  164.343    5.704
  571.750    0.154    0.367   95.535  158.645    5.591
  572.000    0.145    0.352   92.290  158.329    5.584
  572.250    0.145    0.341  100.266  159.152    5.842
  572.500    0.142    0.360  104.315  159.664    6.091
  572.750    0.128    0.366  104.686  160.176    6.208
  573.000    0.112    0.372   98.012  159.964    6.062
  573.250    0.122    0.388   98.320  160.062    5.628
  573.500    0.144    0.378  100.187  160.367    5.631
  573.750    0.153    0.380   99.249  160.569    5.655
  574.000    0.165    0.389   97.749  161.185    5.753
  574.250    0.174    0.388   99.367  161.179    5.909
  574.500    0.170    0.390  103.977  161.071    6.079
  574.750    0.155    0.410  107.091  161.065    6.337
  575.000    0.150    0.416  111.576  161.164    6.986
  575.250    0.158    0.376  109.515  161.159    7.760
  575.500    0.142    0.361  103.091  160.222    8.288
  575.750    0.101    0.335   93.736  157.421    8.656
  576.000    0.040    0.272   75.715  155.139    8.873
  576.250    0.045    0.284   78.517  153.684    9.371
  576.500    0.113    0.323   76.581  153.368   10.312
  576.750    0.136    0.308   62.925  153.570   12.740
  577.000    0.071    0.223   57.435  153.668   17.738
  577.250    0.006    0.181   56.185  154.181   21.590
  577.500   -0.006    0.166   58.487  154.278   22.632
  577.750    0.004    0.168   68.023  154.480   20.896
  578.000    0.043    0.181   88.157  154.371   13.232
  578.250    0.075    0.226  100.685  154.780   10.174
  578.500    0.132    0.392  101.741  155.086    8.669
  578.750    0.111    0.364   92.823  155.702    7.945
  579.000    0.100    0.335   87.208  157.352    7.628
  579.250    0.127    0.363   90.322  160.039    7.352
  579.500    0.137    0.367   92.501  159.516    7.153
  579.750    0.114    0.360   90.939  156.198    6.985
  580.000    0.125    0.397   95.175  154.329    6.859
  580.250    0.101    0.380   91.493  152.771    6.798
  580.500    0.111    0.370   93.609  151.420    6.801
  580.750    0.127    0.364   96.162  150.276    6.779
  581.000    0.135    0.381   98.528  149.650    6.834
  581.250    0.114    0.381   93.974  149.230    6.786
  581.500    0.105    0.367   92.474  149.122    6.789
  581.750    0.117    0.363   94.403  149.530    6.998
  582.000    0.128    0.366   93.901  150.250    7.446
  582.250    0.118    0.359   89.845  151.176    8.043
  582.500    0.045    0.326   82.049  151.895    8.415
  582.750    0.037    0.323   83.604  152.718    8.388
  583.000    0.061    0.326   94.137  154.369    7.920
  583.250    0.143    0.345   97.313  156.330    7.492
  583.500    0.136    0.367   96.063  157.672    7.207
  583.750    0.117    0.317   95.374  160.047    6.818
  584.000    0.143    0.328  104.722  162.733    6.720
  584.250    0.127    0.372  108.085  161.796    6.799
  584.500    0.104    0.364  103.656  155.373    7.316
  584.750    0.066    0.318   96.732  150.813    7.712
  585.000    0.018    0.293   87.564  154.948    8.010
  585.250    0.092    0.306   91.052  159.394    7.924
  585.500    0.127    0.321   96.971  158.250    7.695
  585.750    0.144    0.335   88.863  159.798    7.571
  586.000    0.140    0.341   88.112  158.654    7.532
  586.250    0.138    0.320   92.473  153.472    7.592
  586.500    0.134    0.315   90.287  155.538    7.511
  586.750    0.116    0.312   92.216  159.052    7.252
  587.000    0.112    0.318  101.565  160.909    6.560
  587.250    0.119    0.346  112.097  160.594    5.168
  587.500    0.144    0.423  122.505  159.760    4.064
  587.750    0.150    0.455  127.801  159.859    3.568
  588.000    0.142    0.472  122.748  159.233    3.803
  588.250    0.140    0.489  102.919  157.571    4.527
  588.500    0.144    0.400   87.642  155.495    5.773
  588.750   -0.009    0.349   76.915  155.387    7.052
  589.000   -0.015    0.313   71.301  161.696    7.966
  589.250    0.040    0.329   91.871  159.723    7.956
  589.500    0.098    0.357   94.237  158.373    7.710
  589.750    0.100    0.356   98.410  159.713    6.884
  590.000    0.112    0.352  104.642  161.261    6.192
  590.250    0.130    0.367  112.680  161.359    5.868
  590.500    0.138    0.397  115.358  160.008    5.752
  590.750    0.136    0.421  103.572  160.003    6.041
  591.000    0.117    0.398   94.528  158.134    6.697
  591.250    0.007    0.338   85.922  156.369    7.765
  591.500   -0.009    0.315   70.893  157.192    9.088
  591.750   -0.002    0.294   73.695  158.636   10.656
  592.000    0.025    0.276   72.071  158.527   11.423
  592.250    0.036    0.279   70.135  157.176   10.948
  592.500    0.073    0.296   73.810  157.998    9.505
  592.750    0.105    0.327   81.413  159.960    7.860
  593.000    0.135    0.366   87.270  160.369    6.913
  593.250    0.131    0.373   93.064  158.293    6.277
  593.500    0.120    0.382   98.859  157.977    5.960
  593.750    0.140    0.400  104.404  159.836    5.798
  594.000    0.137    0.393  105.897  160.658    5.620
  594.250    0.126    0.364  105.520  159.100    5.518
  594.500    0.123    0.384  109.132  158.473    5.250
  594.750    0.133    0.403  106.635  159.711    4.957
  595.000    0.133    0.423  109.250  160.637    4.654
  595.250    0.047    0.393   99.023  159.907    4.411
  595.500    0.037    0.359   85.303  160.006    4.633
  595.750    0.063    0.377   89.913  161.035    4.784
  596.000    0.102    0.405   98.576  160.720    4.868
  596.250    0.119    0.396  100.193  159.886    4.990
  596.500    0.116    0.385   99.130  160.709    5.250
  596.750    0.128    0.389  100.000  160.704    5.504
  597.000    0.139    0.392   93.201  156.972    5.791
  597.250    0.075    0.370   87.649  156.656    5.936
  597.500    0.062    0.350  100.052  159.859    5.753
  597.750    0.102    0.361  115.572  159.957    5.493
  598.000    0.157    0.428  117.315  160.470    5.265
  598.250    0.129    0.405  111.139  160.257    4.916
  598.500    0.141    0.434  115.126  159.839    4.919
  598.750    0.106    0.440  127.965  160.972    5.175
  599.000    0.075    0.370  114.994  159.725    5.507
  599.250    0.057    0.310   97.098  155.061    5.892
  599.500    0.044    0.319  107.818  153.709    6.317
  599.750   -0.001    0.378  114.548  154.222    6.835
  600.000    0.006    0.373  120.841  156.183    7.260
  600.250    0.026    0.366  141.037  158.041    7.358
  600.500    0.060    0.366  163.602  157.415    7.280
  600.750    0.087    0.378  206.304  156.686    7.298
  601.000    0.112    0.389  222.510  156.887    7.179
  601.250    0.111    0.388  186.909  156.571    7.182
  601.500    0.095    0.381  146.943  157.705    7.933
  601.750    0.117    0.352  132.850  157.803    9.164
  602.000    0.219    0.295  126.425  155.830   10.606
  602.250    0.264    0.270  162.831  155.101   11.847
  602.500    0.232    0.270  172.428  155.406   12.349
  602.750    0.193    0.323  148.049  154.055   13.091
  603.000    0.166    0.403  168.182  156.017   14.514
  603.250    0.186    0.456  178.528  159.842   16.923
  603.500    0.155    0.474  132.266  162.217   21.784
  603.750    0.105    0.369   57.949  158.589   29.273
  604.000    0.087    0.328   65.489  154.236   46.881
  604.250    0.095    0.338   58.254  152.988   91.345
  604.500    0.125    0.310   47.465  154.846   88.697
  604.750    0.122    0.276   35.803  156.083   76.570
  605.000    0.164    0.273   33.680  155.353   70.830
  605.250    0.117    0.289   33.988  154.106   70.467
  605.500    0.091    0.291   24.384  152.237   72.234
  605.750    0.069    0.291   17.773  151.507   74.320
  606.000    0.069    0.291   13.405  152.330   72.303
