~VERSION INFORMATION
 VERS.                 2.0:   CWLS LOG ASCII STANDARD -VERSION 2.0
 WRAP.                  NO:   ONE LINE PER DEPTH STEP
~WELL INFORMATION BLOCK
#MNEM.UNIT           DATA                    DESCRIPTION OF MNEMONIC
#---------    -------------------            -------------------------------
# Generated from Intellog Unique Number	CW_73_75/WELL/3524
WELL.         ULSTER MARTIN HILLS            : Well_name    - WELL
LOC .         00/09-09-074-02W5/0            : Location     - LOCATION
UWI .         00/09-09-074-02W5/0            : Uwi          - UNIQUE WELL ID
ENTR.         T                              : Entered      - ENTERED BY
SRVC.         SCHLUMBERGER                   : Scn          - SERVICE COMPANY
STRT.M        355                            : top_depth    - START DEPTH
STOP.M        615                            : bot_depth    - STOP DEPTH
STEP.M        0.25                           : increment    - STEP LENGTH
 NULL. -999.2500:NULL Value
~CURVE INFORMATION BLOCK
#MNEM UNIT       ERCB CURVE CODE    CURVE DESCRIPTION
#-----------   ------------------   ----------------------------------
DEPT.M        00 001 00 00         : DEPTH        - DEPTH
GR  .API      00 310 00 00         : GR           - GAMMA RAY
NPHI.V/V      00 330 00 00         : PHIN         - NEUTRON POROSITY (SANDSTONE)
DPHI.V/V      00 890 00 00         : PHID         - DENSITY POROSITY (SANDSTONE)
ILD .OHMM     00 120 00 00         : RESD         - DEEP RESISTIVITY (DIL)
~PARAMETER INFORMATION
#MNEM.UNIT           DATA             DESCRIPTION OF MNEMONIC
#---------         -----------     ------------------------------
GL  .M        636                  : gl           - GROUND LEVEL ELEVATION
EREF.M        639                  : kb           - ELEVATION OF DEPTH REFERENCE
DATM.M        639                  : datum        - DATUM ELEVATION
TDD .M        620                  : tdd          - TOTAL DEPTH DRILLER
RUN .         ONE                  : Run          - RUN NUMBER
ENG .         BILL                 : Engineer     - RECORDING ENGINEER
WIT .         JIM                  : Witness      - WITNESSED BY
MUD .         GEL                  : Mud_type     - MUD TYPE
MATR.         SANDSTONE            : Logunit      - NEUTRON MATRIX
TMAX.C        21                   : BHT          - MAXIMUM RECORDED TEMPERATURE
BHTD.M        620                  : BHTDEP       - MAXIMUM RECORDED TEMPERATURE
RMT .C        22                   : MDTP         - TEMPERATURE OF MUD
MUDD.KG/M     1130                 : MWT          - MUD DENSITY
NEUT.         1                    : NEUTRON      - NEUTRON TYPE
RESI.         0                    : RESIST       - RESISTIVITY TYPE
RM  .OHMM     3.2                  : RM           - RESISTIVITY OF MUD
RMC .OHMM     3.5                  : RMC          - RESISTIVITY OF MUD CAKE
RMF .OHMM     2.4                  : RMF          - RESISTIVITY OF MUD FILTRATE
SUFT.C        4                    : SUFT         - SURFACE TEMPERATURE
~A  DEPTH       GR     PHIN     PHID     RESD
# ...
  529.000   85.821    0.359    0.142    7.179
  529.250   78.339    0.357    0.128    7.318
  529.500   88.165    0.358    0.139    7.328
  529.750   97.996    0.359    0.162    7.331
  530.000   99.749    0.354    0.175    7.207
  530.250   95.147    0.352    0.183    6.956
  530.500   96.324    0.357    0.156    6.593
  530.750   99.804    0.367    0.148    5.912
  531.000  102.125    0.376    0.154    5.208
  531.250  103.297    0.374    0.166    5.213
  531.500   94.662    0.367    0.178    5.716
  531.750   98.146    0.366    0.179    6.155
  532.000   98.169    0.367    0.179    6.507
  532.250   95.298    0.373    0.186    7.006
  532.500   94.739    0.376    0.196    6.887
  532.750   98.800    0.375    0.209    6.528
  533.000  101.699    0.375    0.221    6.414
  533.250  106.341    0.376    0.230    6.302
  533.500  105.201    0.377    0.223    6.084
  533.750   91.950    0.380    0.199    6.087
  534.000   87.353    0.379    0.195    6.435
  534.250   81.602    0.373    0.189    7.319
  534.500   78.164    0.374    0.179    8.330
  534.750   76.451    0.377    0.161    8.645
  535.000   73.008    0.369    0.189    9.309
  535.250   68.406    0.343    0.216    9.663
  535.500   62.078    0.297    0.172    9.855
  535.750   56.327    0.259    0.113    9.679
  536.000   50.577    0.219    0.068    9.514
  536.250   56.368    0.221    0.166    9.353
  536.500   59.271    0.330    0.215    9.023
  536.750   56.982    0.352    0.234    8.552
  537.000   58.158    0.352    0.272    8.251
  537.250   61.638    0.352    0.270    7.541
  537.500   62.233    0.352    0.241    7.274
  537.750   59.939    0.352    0.222    6.894
  538.000   55.342    0.359    0.252    6.531
  538.250   54.211    0.366    0.254    6.192
  538.500   51.926    0.360    0.256    6.194
  538.750   50.209    0.347    0.257    5.979
  539.000   52.535    0.353    0.263    5.876
  539.250   53.707    0.356    0.273    5.774
  539.500   53.725    0.360    0.294    5.674
  539.750   53.753    0.363    0.293    5.580
  540.000   54.934    0.365    0.288    5.482
  540.250   56.097    0.364    0.281    5.487
  540.500   57.264    0.363    0.276    5.492
  540.750   59.014    0.357    0.271    5.702
  541.000   58.459    0.351    0.265    6.254
  541.250   57.328    0.343    0.252    6.731
  541.500   55.607    0.331    0.169    7.800
  541.750   52.740    0.289    0.095    8.398
  542.000   48.729    0.215    0.058    9.209
  542.250   48.748    0.166    0.052    9.558
  542.500   48.766    0.153    0.040    9.745
  542.750   49.938    0.144    0.029    9.575
  543.000   51.682    0.147    0.048    9.240
  543.250   55.743    0.165    0.101    8.444
  543.500   58.065    0.217    0.189    8.001
  543.750   63.284    0.316    0.251    7.444
  544.000   64.457    0.347    0.273    7.054
  544.250   63.898    0.365    0.269    6.564
  544.500   61.608    0.359    0.254    6.222
  544.750   62.780    0.350    0.242    6.001
  545.000   65.688    0.337    0.255    5.791
  545.250   66.860    0.343    0.262    5.693
  545.500   64.575    0.372    0.263    5.802
  545.750   63.430    0.375    0.262    6.024
  546.000   62.295    0.370    0.257    6.255
  546.250   62.313    0.369    0.252    6.492
  546.500   63.494    0.359    0.224    6.619
  546.750   64.662    0.353    0.208    6.625
  547.000   65.252    0.328    0.190    6.631
  547.250   65.275    0.319    0.184    6.399
  547.500   64.716    0.319    0.230    5.954
  547.750   68.778    0.347    0.238    5.640
  548.000   72.253    0.352    0.258    5.344
  548.250   75.732    0.367    0.265    5.157
  548.500   83.255    0.385    0.226    4.979
  548.750   91.350    0.382    0.184    4.892
  549.000  104.061    0.372    0.175    4.899
  549.250  104.656    0.366    0.178    4.902
  549.500   97.174    0.362    0.179    4.998
  549.750   95.462    0.360    0.179    5.093
  550.000   92.027    0.358    0.173    5.287
  550.250   89.738    0.359    0.170    5.694
  550.500   88.598    0.366    0.172    5.802
  550.750   84.578    0.368    0.183    6.026
  551.000   81.711    0.363    0.184    6.141
  551.250   79.999    0.355    0.174    6.260
  551.500   79.440    0.349    0.169    6.620
  551.750   76.574    0.349    0.167    6.999
  552.000   74.284    0.352    0.167    7.266
  552.250   70.846    0.360    0.167    7.406
  552.500   70.864    0.363    0.168    7.413
  552.750   70.887    0.359    0.173    7.418
  553.000   73.790    0.357    0.175    7.161
  553.250   77.265    0.353    0.180    7.037
  553.500   80.172    0.351    0.186    6.915
  553.750   80.763    0.352    0.190    6.923
  554.000   82.516    0.354    0.190    6.928
  554.250   72.727    0.353    0.166    7.062
  554.500   76.784    0.338    0.146    7.466
  554.750   82.571    0.319    0.138    7.751
  555.000   87.204    0.322    0.162    7.759
  555.250   90.684    0.336    0.138    7.770
  555.500   91.279    0.332    0.109    7.773
  555.750   84.379    0.321    0.085    7.782
  556.000   77.474    0.305    0.077    8.379
  556.250   68.839    0.284    0.047    9.357
  556.500   68.857    0.262    0.070   10.261
  556.750   74.644    0.287    0.098    9.899
  557.000   75.817    0.313    0.122    9.044
  557.250   74.109    0.323    0.143    8.417
  557.500   73.545    0.323    0.152    7.975
  557.750   77.602    0.329    0.159    7.559
  558.000   85.125    0.336    0.167    7.034
  558.250   90.340    0.344    0.172    6.912
  558.500   93.238    0.350    0.163    6.668
  558.750   96.718    0.351    0.157    6.555
  559.000   96.736    0.349    0.152    6.442
  559.250   95.609    0.344    0.148    6.330
  559.500   97.935    0.341    0.148    6.337
  559.750   99.684    0.340    0.149    6.458
  560.000   99.126    0.338    0.152    6.467
  560.250   97.990    0.338    0.152    6.592
  560.500   96.278    0.340    0.153    6.843
  560.750   98.603    0.342    0.154    6.849
  561.000  101.506    0.341    0.154    6.982
  561.250  105.563    0.344    0.154    7.117
  561.500  110.197    0.346    0.154    7.253
  561.750  109.061    0.343    0.153    7.671
  562.000  100.425    0.336    0.148    7.965
  562.250   92.944    0.335    0.133    7.969
  562.500   97.000    0.347    0.122    7.978
  562.750  104.523    0.360    0.118    7.983
  563.000  106.854    0.355    0.122    7.848
  563.250  105.146    0.347    0.129    7.853
  563.500  104.005    0.344    0.129    7.718
  563.750  104.596    0.347    0.121    7.726
  564.000  105.773    0.350    0.119    7.876
  564.250  106.363    0.351    0.125    8.327
  564.500  102.348    0.352    0.131    8.965
  564.750   92.554    0.352    0.133    9.481
  565.000   85.658    0.355    0.139    9.844
  565.250   87.407    0.356    0.149   10.032
  565.500   88.579    0.346    0.169   10.415
  565.750   90.328    0.336    0.165   10.616
  566.000   92.654    0.332    0.155   11.021
  566.250   93.826    0.333    0.146   11.241
  566.500   89.225    0.339    0.147   11.244
  566.750   82.901    0.340    0.157   11.254
  567.000   95.035    0.339    0.165   11.060
  567.250   99.091    0.333    0.159   11.070
  567.500   99.114    0.330    0.136   11.080
  567.750   94.513    0.330    0.142   11.090
  568.000   88.766    0.329    0.147   11.105
  568.250   88.207    0.326    0.135   11.117
  568.500   84.760    0.320    0.121   11.123
  568.750   79.595    0.312    0.085   11.343
  569.000   77.305    0.303    0.060   11.772
  569.250   75.011    0.296    0.059   11.997
  569.500   79.645    0.288    0.079   12.684
  569.750   91.206    0.286    0.085   12.929
  570.000   92.955    0.309    0.105   12.477
  570.250   93.550    0.308    0.136   11.822
  570.500   94.722    0.308    0.147   11.002
  570.750   98.202    0.310    0.142   10.052
  571.000  101.682    0.311    0.130    9.527
  571.250  107.474    0.314    0.124    9.027
  571.500  110.372    0.318    0.125    8.870
  571.750  115.010    0.326    0.126    8.559
  572.000  101.182    0.331    0.125    8.262
  572.250   95.431    0.326    0.126    8.262
