~VERSION INFORMATION
 VERS.                 2.0:   CWLS LOG ASCII STANDARD -VERSION 2.0
 WRAP.                  NO:   ONE LINE PER DEPTH STEP
~WELL INFORMATION BLOCK
#MNEM.UNIT           DATA                    DESCRIPTION OF MNEMONIC
#---------    -------------------            -------------------------------
# Generated from Intellog Unique Number	CS_67_68/WELL/2183
WELL.         GOLDEN EAGLE OIL & GAS         : Well_name    - WELL
LOC .         00/08-02-067-15W4/0            : Location     - LOCATION
UWI .         00/08-02-067-15W4/0            : Uwi          - UNIQUE WELL ID
ENTR.         SP                             : Entered      - ENTERED BY
SRVC.         SCHLUMBERGER                   : Scn          - SERVICE COMPANY
STRT.M        335                            : top_depth    - START DEPTH
STOP.M        513                            : bot_depth    - STOP DEPTH
STEP.M        0.25                           : increment    - STEP LENGTH
 NULL. -999.2500:NULL Value
~CURVE INFORMATION BLOCK
#MNEM UNIT       ERCB CURVE CODE    CURVE DESCRIPTION
#-----------   ------------------   ----------------------------------
DEPT.M        00 001 00 00         : DEPTH        - DEPTH
ILD .OHMM     00 120 00 00         : RESD         - DEEP RESISTIVITY (DIL)
DPHI.V/V      00 890 00 00         : PHID         - DENSITY POROSITY (LIMESTONE)
NPHI.V/V      00 330 00 00         : PHIN         - NEUTRON POROSITY (LIMESTONE)
GR  .API      00 310 00 00         : GR           - GAMMA RAY
CALI.MM       00 280 01 00         : CAL          - CALIPER
~PARAMETER INFORMATION
#MNEM.UNIT           DATA             DESCRIPTION OF MNEMONIC
#---------         -----------     ------------------------------
GL  .M        594.3                : gl           - GROUND LEVEL ELEVATION
EREF.M        597.3                : kb           - ELEVATION OF DEPTH REFERENCE
DATM.M        597.3                : datum        - DATUM ELEVATION
TDD .M        515                  : tdd          - TOTAL DEPTH DRILLER
RUN .         ONE                  : Run          - RUN NUMBER
ENG .         BILL                 : Engineer     - RECORDING ENGINEER
WIT .         JIM                  : Witness      - WITNESSED BY
MUD .         GEL                  : Mud_type     - MUD TYPE
MATR.         LIMESTONE            : Logunit      - NEUTRON MATRIX
TMAX.C        25                   : BHT          - MAXIMUM RECORDED TEMPERATURE
BHTD.M        516                  : BHTDEP       - MAXIMUM RECORDED TEMPERATURE
MATR.         1                    : LOGUNIT      - NEUTRON MATRIX
RMT .C        25                   : MDTP         - TEMPERATURE OF MUD
NEUT.         1                    : NEUTRON      - NEUTRON TYPE
RESI.         0                    : RESIST       - RESISTIVITY TYPE
RMC .OHMM     0.25                 : RMC          - RESISTIVITY OF MUD CAKE
RMF .OHMM     0.25                 : RMF          - RESISTIVITY OF MUD FILTRATE
SUFT.C        15                   : SUFT         - SURFACE TEMPERATURE
~A  DEPTH     RESD     PHID     PHIN       GR      CAL
# ...
  371.500    3.160    0.282    0.371   85.981  180.163
  371.750    3.427    0.308    0.380   85.376  180.172
  372.000    3.649    0.313    0.372   82.461  180.080
  372.250    3.808    0.296    0.365   81.127  179.987
  372.500    3.980    0.285    0.359   80.829  179.693
  372.750    4.122    0.273    0.357   76.757  179.701
  373.000    4.253    0.261    0.350   74.328  179.608
  373.250    3.954    0.249    0.346   75.185  179.111
  373.500    3.774    0.236    0.350   75.860  178.916
  373.750    3.738    0.242    0.354   73.979  178.925
  374.000    3.793    0.257    0.363   76.540  178.833
  374.250    3.792    0.245    0.364   75.450  178.842
  374.500    3.645    0.246    0.358   73.752  178.749
  374.750    3.453    0.236    0.354   75.888  178.961
  375.000    3.284    0.244    0.367   77.657  179.375
  375.250    3.105    0.262    0.390   80.706  179.791
  375.500    2.914    0.283    0.384   83.572  180.103
  375.750    2.755    0.293    0.373   85.341  180.416
  376.000    2.684    0.280    0.377   83.946  180.832
  376.250    2.800    0.288    0.376   79.388  181.550
  376.500    3.043    0.295    0.371   82.253  182.269
  376.750    3.420    0.293    0.375   84.449  182.683
  377.000    3.829    0.305    0.364   82.873  183.100
  377.250    4.326    0.317    0.354   82.756  183.411
  377.500    4.980    0.306    0.337   84.405  183.725
  377.750    5.851    0.232    0.316   82.037  183.937
  378.000    7.134    0.180    0.296   78.756  184.048
  378.250    8.492    0.169    0.270   74.806  184.157
  378.500   10.374    0.151    0.253   71.526  184.573
  378.750   12.958    0.135    0.237   69.583  184.986
  379.000   10.483    0.103    0.214   67.276  185.300
  379.250    5.733    0.037    0.188   66.186  185.511
  379.500    4.379    0.224    0.283   68.869  185.419
  379.750    3.576    0.262    0.340   71.310  185.023
  380.000    3.099    0.302    0.371   73.262  184.220
  380.250    2.834    0.334    0.389   75.153  183.417
  380.500    2.765    0.302    0.381   77.045  182.414
  380.750    2.684    0.269    0.375   77.233  181.409
  381.000    2.633    0.265    0.377   74.013  180.706
  381.250    2.628    0.291    0.386   78.096  179.600
  381.500    2.647    0.287    0.395   80.474  178.898
  381.750    2.626    0.289    0.402   83.340  178.502
  382.000    2.525    0.289    0.402   83.649  178.613
  382.250    2.428    0.299    0.395   80.856  178.724
  382.500    2.496    0.308    0.397   79.644  179.138
  382.750    2.662    0.293    0.398   81.901  179.755
  383.000    2.888    0.273    0.389   83.975  180.778
  383.250    3.013    0.265    0.383   86.232  181.396
  383.500    3.138    0.272    0.377   83.317  181.709
  383.750    3.243    0.261    0.382   78.454  181.818
  384.000    3.334    0.273    0.386   75.052  182.233
  384.250    3.395    0.281    0.390   74.935  182.648
  384.500    3.465    0.278    0.387   77.557  182.758
  384.750    3.614    0.272    0.378   79.144  182.869
  385.000    3.743    0.266    0.380   80.184  182.878
  385.250    3.848    0.260    0.384   83.901  182.683
  385.500    3.882    0.251    0.384   84.090  182.287
  385.750    3.810    0.243    0.383   83.426  181.587
  386.000    3.663    0.246    0.390   80.876  181.190
  386.250    3.601    0.259    0.382   80.028  181.198
  386.500    3.641    0.273    0.375   79.608  180.801
  386.750    3.687    0.277    0.369   77.362  179.796
  387.000    3.693    0.268    0.367   76.759  179.095
  387.250    3.685    0.262    0.362   79.138  178.699
  387.500    3.704    0.268    0.361   80.299  178.403
  387.750    3.703    0.272    0.370   78.965  177.906
  388.000    3.709    0.276    0.379   80.067  177.712
  388.250    3.722    0.266    0.370   81.350  177.314
  388.500    3.755    0.260    0.371   81.842  177.221
  388.750    3.832    0.269    0.372   78.926  177.434
  389.000    3.881    0.260    0.366   77.410  177.546
  389.250    3.945    0.255    0.378   78.025  177.656
  389.500    3.988    0.267    0.388   79.794  177.460
  389.750    3.950    0.271    0.373   80.408  177.165
  390.000    3.949    0.259    0.356   80.535  176.871
  390.250    3.962    0.254    0.344   81.697  176.677
  390.500    4.298    0.254    0.344   82.736  176.382
  390.750    4.628    0.273    0.335   80.917  176.085
  391.000    4.955    0.283    0.329   76.784  175.891
  391.250    5.336    0.280    0.305   73.746  175.900
  391.500    5.608    0.237    0.280   72.292  176.316
  391.750    4.563    0.184    0.303   72.601  178.049
  392.000    3.637    0.213    0.338   73.824  179.782
  392.250    2.975    0.247    0.352   74.803  181.109
  392.500    2.526    0.261    0.356   78.885  180.713
  392.750    2.243    0.268    0.352   80.838  179.301
  393.000    2.331    0.281    0.352   82.243  178.400
  393.250    2.552    0.290    0.364   84.501  177.900
  393.500    2.841    0.304    0.371   85.722  177.603
  393.750    3.054    0.317    0.379   85.971  177.511
  394.000    3.313    0.292    0.375   87.559  178.230
  394.250    3.534    0.272    0.364   88.537  180.369
  394.500    3.660    0.244    0.360   89.091  182.812
  394.750    3.727    0.220    0.358   93.174  184.647
  395.000    3.726    0.230    0.355   94.578  186.076
  395.250    3.684    0.226    0.364   95.618  186.997
  395.500    3.629    0.209    0.374   97.997  187.310
  395.750    3.515    0.194    0.380  100.011  187.218
  396.000    3.411    0.196    0.371  101.598  187.328
  396.250    3.429    0.206    0.383  100.934  186.931
  396.500    3.557    0.226    0.380   96.254  187.042
  396.750    3.691    0.242    0.395  102.222  186.848
  397.000    3.865    0.209    0.406  101.619  186.147
  397.250    3.988    0.195    0.392   95.052  185.345
  397.500    4.130    0.185    0.377   92.441  184.542
  397.750    4.253    0.170    0.370   94.881  183.942
  398.000    4.347    0.184    0.372   97.198  182.938
  398.250    4.395    0.194    0.378   97.264  182.338
  398.500    4.361    0.191    0.386   95.383  181.738
  398.750    4.232    0.182    0.380   98.249  180.531
  399.000    3.965    0.183    0.378   97.889  179.121
  399.250    3.045    0.192    0.365   93.148  178.114
  399.500    2.505    0.202    0.361   90.232  177.210
  399.750    2.330    0.238    0.372   87.682  175.394
  400.000    2.223    0.277    0.383   88.174  173.375
  400.250    2.198    0.293    0.390   84.042  172.774
  400.500    2.161    0.306    0.382   81.005  173.087
  400.750    2.140    0.291    0.394   79.731  174.719
  401.000    2.148    0.280    0.380   80.772  176.148
  401.250    2.147    0.285    0.380   81.995  177.070
  401.500    2.175    0.288    0.384   81.877  177.281
  401.750    2.269    0.280    0.382   81.457  176.682
  402.000    2.502    0.278    0.385   82.132  175.981
  402.250    2.750    0.284    0.373   84.206  176.194
  402.500    2.945    0.268    0.364   87.985  176.810
  402.750    3.159    0.242    0.367   92.980  178.036
  403.000    3.401    0.210    0.370   98.158  179.262
  403.250    3.575    0.203    0.363  103.093  180.083
  403.500    3.779    0.197    0.362  105.897  180.801
  403.750    3.972    0.206    0.359  105.841  182.839
  404.000    4.136    0.210    0.354  108.890  185.485
  404.250    4.252    0.197    0.354  111.390  186.609
  404.500    4.370    0.190    0.367  113.647  186.009
  404.750    4.451    0.190    0.364  115.843  184.294
  405.000    4.499    0.187    0.367  117.796  182.376
  405.250    4.532    0.185    0.368  119.262  180.764
  405.500    4.547    0.188    0.369  118.962  180.166
  405.750    4.495    0.199    0.360  116.291  179.768
  406.000    4.362    0.193    0.348  112.279  179.674
  406.250    4.233    0.206    0.352  105.956  179.784
  406.500    4.185    0.222    0.356  102.432  179.894
  406.750    4.247    0.209    0.348  103.289  180.005
  407.000    4.389    0.193    0.339  107.494  180.724
  407.250    4.479    0.192    0.342  109.689  181.545
  407.500    4.570    0.192    0.327  103.975  182.263
  407.750    4.620    0.183    0.319  102.459  182.982
