~V
VERS. 2.00: Ver 2.00
WRAP. NO:
VEND. PRIZM:GeoGraphix
~W
STRT.M 43.8912:START DEPTH
STOP.M 295.6560:STOP DEPTH
STEP.M 0.3048:STEP
NULL. -999.2500:NULL VALUE
WELL. NUMAC SURMONT :WELL
COMP. :COMPANY
UWI. 00_06-35-082-06W4_0:UNIQUE WELL ID
FLD. :FIELD
CNTY. :COUNTY
STAT. :STATE
CTRY. :COUNTRY
PDAT. :PERMANENT DATUM
LMF. :LOG MEASURED FROM
DMF. :DRILLING MEASURED FROM
LOC1. 06-35-082-06W4:LOCATION LINE 1
LOC2. :LOCATION LINE 2
LOC3. :LOCATION LINE 3
SEC. :SECTION
TWP. :TOWNSHIP
RAN. :RANGE
SRVC. SCHLUMBERGER:Logging Company
BASE. :Logging Unit Location
ENG. BILL:Logging Engineer
WITN. JIM:Witnessed By
DATE. 21 - MAR - 1973:Date
RUN. ONE:Run No.
MUD_TYPE. GEL:Type Fluid in Hole
MUDS. :Source of Mud Sample
RMFS. :Source of Mud Filtrate
RMCS. :Source of Mud Cake
LOC. :LOCATION
~C
DEPT.M :DEPTH
PHID. :Density Pososity
NPHI. :PHIN         - NEUTRON POROSITY (LIMESTONE)
GR.API :GR           - GAMMA RAY
RHOB.KG/M3 :DENS         - BULK DENSITY
ILD.OHMM :RESD         - DEEP RESISTIVITY (DIL)
~P
EKB. 495.6000:ELEVATION OF KELLY BUSHING
EDF. -999.2500:ELEVATION OF DRILLING FLOOR
EGL. 493.7760:ELEVATION OF GROUND LEVEL
EPD. -999.2500:ELEVATION OF PERMANENT DATUM
APD. -999.2500:LMF DISTANCE ABOVE PERMANENT DATUM
LAT. 56.1488:LATITUDE OF WELL LOCATION
LONG. 110.8308:LONGITUDE OF WELL LOCATION
TDD. 296.8750:Total Depth Driller
TDL. -999.2500:Total Depth Logger
LCSG1. -999.2500:Depth of Casing from Logger
CSIZE. -999.2500:Casing Size
CWT. -999.2500:Casing Weight
BS. -999.2500:Bit Size
TLI. 43.8912:Top Logged Interval
BLI. 295.6560:Bottom Logged Interval
MRT. 17.2222:Maximum Recorded Temperature
WMUD. -999.2500:Drilling Mud Density
DFV. -999.2500:Drilling Mud Viscosity
PH. -999.2500:Drilling Mud pH
DFL. -999.2500:Drilling Mud Fluid Loss
RM. -999.2500:Resistivity of Drilling Fluid
RMT. -999.2500:Measured Temp. of Drilling Fluid
RMF. 0.2500:Resistivity of Drilling Fluid Filtrate
RMFT. -999.2500:Measured Temp. of Drilling Fluid Filtrate
RMC. 0.2500:Resistivity of Mud Cake
RMCT. -999.2500:Measured Temp. of Mud Cake
PHImax.V/V 0.3900:Maximum allowable Porosity
RwBnd.OHMM 0.1500:Bound Water Resistivity
RhoHy.KG/MT 1000.0000:Hydrocarbon Bulk density
SwCutoff.V/V 0.7000:Water Saturation Cutoff
PHINsh.V/V 0.4800:New Description
Rw.OHMM 1.0000:Formation Water Resistivity
Rshl.OHMM 5.0000:Resistivity shale
Trw.DEGC 25.0000:Rw measured at Lab conditions
ShaleCutoff.V/V 0.4000:New Description
GRcln.API 45.0000:Gamma Ray clean
RhoM.KG/MT 2650.0000:Bulk Density Matrix
GRshl.API 90.0000:Gamma Ray shale
m. 2.0000:Archie "m"
n. 2.0000:Archie "n"
GasTol.V/V 0.0500:Gas Tollerance
BHTemp.DEGC 25.0000:Bottom Hole Temperature
BHTDepth.M 1000.0000:Bottom Hole Depth
PHIDsh.US/MT 0.1800:New Description
a. 1.0000:Archie "a"
Gas Tol.V/V 0.0500:Gas Tollerance
RhoF.KG/MT 1000.0000:Bulk Density Fluid
RhoShl.KG/MT 2300.0000:Bulk Density Shale
TarCutoff.V/V 0.0300:New Description
SurfTemp.DEGC 10.0000:New Description
HIshl.V/V 0.4000:Neutron Hydrogen Index shale
MATR. 1.0000:
NEUT. 0.0000:
BHTD.M 296.8750:
DATM.M 495.6050:
NULL. -999.2500:
RESI. 0.0000:
SUFT.C 15.0000:
~A
# ...
  117.0432     0.3229     0.3160    61.0040  2117.2000    15.6470 
  117.3480     0.3241     0.3110    61.0240  2115.2200    15.6550 
  117.6528     0.3315     0.3080    60.4260  2103.0901    14.2700 
  117.9576     0.3400     0.3110    58.6300  2088.9299    14.0110 
  118.2624     0.3388     0.3190    58.6420  2091.0300    14.2860 
  118.5672     0.3301     0.3160    58.0560  2105.3101    15.1170 
  118.8720     0.3301     0.3140    58.0730  2105.3899    15.1260 
  119.1768     0.3374     0.3180    58.0920  2093.2500    14.8540 
  119.4816     0.3411     0.3160    57.5020  2087.2100    14.5890 
  119.7864     0.3373     0.3070    55.6950  2093.3799    14.3260 
  120.0912     0.3324     0.3000    52.0590  2101.5701    14.8820 
  120.3960     0.3360     0.2990    50.2430  2095.5300    15.1670 
  120.7008     0.3274     0.3000    50.2680  2109.8301    16.0490 
  121.0056     0.3286     0.3030    51.5080  2107.8701    16.3620 
  121.3104     0.3359     0.3070    52.7520  2095.7300    16.0700 
  121.6152     0.3346     0.3120    53.9900  2097.8401    15.7790 
  121.9200     0.3272     0.3160    54.6190  2110.0901    15.2120 
  122.2248     0.3272     0.3160    54.0260  2110.1599    14.9380 
  122.5296     0.3284     0.3080    55.2700  2108.1799    14.9470 
  122.8344     0.3271     0.3030    58.3360  2110.3000    14.6790 
  123.1392     0.3234     0.3050    60.8000  2116.4399    14.4170 
  123.4440     0.3135     0.3080    61.4250  2132.7800    14.1560 
  123.7488     0.3048     0.3060    55.9570  2147.0701    14.4320 
  124.0536     0.2974     0.3030    55.3750  2159.3301    14.9900 
  124.3584     0.2924     0.3100    55.3910  2167.5300    14.9980 
  124.6632     0.3207     0.3140    55.4100  2120.8401    14.4560 
  124.9680     0.3367     0.3140    56.0470  2094.4800    14.4640 
  125.2728     0.3342     0.3090    55.4490  2098.6299    14.7460 
  125.5776     0.3354     0.3070    54.2500  2096.6399    15.3140 
  125.8824     0.3267     0.3120    52.4410  2110.9399    15.3220 
  126.1872     0.3082     0.3060    55.5140  2141.5000    13.9650 
  126.4920     0.2995     0.2980    55.5360  2155.7800    16.8430 
  126.7968     0.2736     0.2960    53.7230  2198.5300    19.2040 
  127.1016     0.2711     0.2960    51.3030  2202.6699    19.2150 
  127.4064     0.3019     0.2960    51.9350  2151.9099    15.3680 
  127.7112     0.3437     0.3000    53.1780  2082.8799    15.3760 
  128.0160     0.3240     0.3020    51.9750  2115.4500    15.1010 
  128.3208     0.3153     0.3050    52.0020  2129.7700    13.2580 
  128.6256     0.3153     0.3070    52.0140  2129.8201     8.6350 
  128.9304     0.3152     0.3060    53.8710  2129.8701    10.2200 
  129.2352     0.3152     0.3050    55.1140  2129.9399    15.4200 
  129.5400     0.3176     0.3060    55.1270  2125.9399    14.0540 
  129.8448     0.3200     0.3070    55.1530  2121.9600    13.2980 
  130.1496     0.3163     0.3080    55.1700  2128.1001    14.6040 
  130.4544     0.3064     0.3020    53.9690  2144.4299    15.7450 
  130.7592     0.3027     0.2980    49.1120  2150.5901    15.7570 
  131.0640     0.3100     0.3010    49.7410  2138.4700    15.4730 
  131.3688     0.3223     0.3140    51.5890  2118.1899    13.0860 
  131.6736     0.3284     0.3200    54.6700  2108.1101    11.9280 
  131.9784     0.3272     0.3220    55.9020  2110.2000    11.2850 
  132.2832     0.3308     0.3220    57.7590  2104.1699    12.6310 
  132.5880     0.3382     0.3220    57.7680  2092.0200    12.8740 
  132.8928     0.3295     0.3180    56.5710  2106.3301    12.6430 
  133.1976     0.3147     0.3120    56.5920  2130.7900    13.6330 
  133.5024     0.3109     0.3090    57.8350  2136.9700    13.8970 
  133.8072     0.3060     0.3080    60.2930  2145.1499    10.3140 
  134.1120     0.2850     0.3240    62.7490  2179.7700     7.2390 
  134.4168     0.2739     0.3570    68.8700  2198.1201     4.4580 
  134.7216     0.2578     0.4230    79.8630  2224.6201     3.1880 
  135.0264     0.2615     0.4300    95.7440  2218.6001     3.1310 
  135.3312     0.2590     0.4230   101.8610  2222.7200     3.3140 
  135.6360     0.2491     0.4120   102.4900  2239.0400     3.4410 
  135.9408     0.2404     0.4000    98.2420  2253.3301     3.5080 
  136.2456     0.2441     0.4040    98.8760  2247.3000     3.6430 
  136.5504     0.2477     0.3930   100.1140  2241.2600     3.7840 
  136.8552     0.2501     0.4110   100.7480  2237.2700     4.0040 
  137.1600     0.2513     0.4010   100.7680  2235.3101     4.3160 
  137.4648     0.2525     0.4070    99.5650  2233.3301     4.5680 
  137.7696     0.2352     0.3960    97.1430  2261.8601     4.1640 
  138.0744     0.2278     0.4080    93.5090  2274.1299     3.7940 
  138.3792     0.2216     0.4040    92.3170  2284.3601     3.4590 
  138.6840     0.2228     0.4040    92.9390  2282.3899     3.4600 
  138.9888     0.2301     0.4120    93.5750  2270.2600     3.6620 
  139.2936     0.2424     0.4130    92.9800  2249.9800     3.9480 
  139.5984     0.2633     0.4030    90.5590  2215.4800     4.0240 
  139.9032     0.2633     0.3900    84.4810  2215.5601     3.8790 
  140.2080     0.2620     0.3750    80.8410  2217.6499     4.5910 
  140.5128     0.2645     0.3650    85.1320  2213.6399     7.4640 
  140.8176     0.2755     0.3520    83.9360  2195.4099    13.0740 
  141.1224     0.3013     0.3280    82.1260  2152.7900    14.0960 
  141.4272     0.3136     0.3180    76.6560  2132.5300    14.6390 
  141.7320     0.3111     0.3180    64.4800  2136.6599    16.6940 
  142.0368     0.2815     0.3150    65.7180  2185.5200    19.7570 
  142.3416     0.2679     0.3060    65.7470  2207.9399    23.3850 
  142.6464     0.2408     0.2910    63.9360  2252.7300    13.6180 
  142.9512     0.2666     0.3060    64.5620  2210.1001    12.6450 
  143.2560     0.3023     0.3310    72.5100  2151.2100    13.6340 
  143.5608     0.2924     0.3290    70.0890  2167.5500    14.6980 
  143.8656     0.2788     0.3320    62.7930  2189.9700    14.4350 
  144.1704     0.2689     0.3310    60.9820  2206.3101    13.6580 
  144.4752     0.2997     0.3250    65.2810  2155.5500    13.9220 
  144.7800     0.3009     0.3250    65.3000  2153.5701    14.7350 
  145.0848     0.2885     0.3300    63.4860  2173.9700    14.7450 
  145.3896     0.2835     0.3300    61.0640  2182.1699    14.4780 
  145.6944     0.2798     0.3230    59.8680  2188.3301    14.2190 
  145.9992     0.2785     0.3090    59.8960  2190.4199    14.2290 
  146.3040     0.2896     0.3030    59.9090  2172.2000    14.2340 
  146.6088     0.2957     0.2970    61.1510  2162.0901    13.9830 
  146.9136     0.2981     0.2830    62.3890  2158.0901    13.7290 
  147.2184     0.2907     0.2660    63.0250  2170.3501    13.4810 
  147.5232     0.2734     0.2270    62.4360  2198.8799    12.7550 
  147.8280     0.2475     0.1990    64.2790  2241.6299    23.1910 
  148.1328     0.1760     0.1300    63.0770  2359.6001    39.8700 
  148.4376     0.0626     0.0790    55.1740  2546.6799   347.7360 
  148.7424    -0.0323     0.0090    50.3170  2703.2800   496.0620 
  149.0472    -0.0138     0.0050    47.2850  2672.8401   469.3920 
  149.3520     0.0342     0.0100    46.0860  2593.6299   435.8170 
  149.6568     0.0736     0.0290    51.6020  2528.6399   323.4620 
  149.9616     0.1203     0.0580    54.6670  2451.4700    82.8470 
  150.2664     0.1585     0.0860    57.1220  2388.5100    12.3500 
  150.5712     0.3260     0.1160    59.5900  2112.1101    11.4690 
  150.8760     0.3346     0.3650    60.2210  2097.9500    11.6910 
  151.1808     0.3271     0.3520    59.0150  2110.2200    12.1460 
  151.4856     0.3271     0.3310    57.8160  2110.2800    12.3800 
  151.7904     0.3320     0.3270    58.4440  2102.2100    12.8600 
  152.0952     0.3295     0.3290    59.6870  2106.3401    13.1070 
  152.4000     0.3233     0.3300    59.7110  2116.5701    12.8730 
  152.7048     0.3220     0.3350    59.7310  2118.6699    12.8810 
  153.0096     0.3220     0.3430    60.3600  2118.7400    12.6480 
  153.3144     0.3244     0.3550    60.3780  2114.7300    12.4210 
