~VERSION INFORMATION
 VERS.                 2.0:   CWLS LOG ASCII STANDARD -VERSION 2.0
 WRAP.                  NO:   ONE LINE PER DEPTH STEP
~WELL INFORMATION BLOCK
#MNEM.UNIT           DATA                    DESCRIPTION OF MNEMONIC
#---------    -------------------            -------------------------------
# Generated from Intellog Unique Number	CS_69_70/WELL/776
WELL.         MAYNARD EXPLORATION            : Well_name    - WELL
LOC .         00/06-25-070-16W4/0            : Location     - LOCATION
UWI .         00/06-25-070-16W4/0            : Uwi          - UNIQUE WELL ID
ENTR.         SP                             : Entered      - ENTERED BY
SRVC.         SCHLUMBERGER                   : Scn          - SERVICE COMPANY
STRT.M        280                            : top_depth    - START DEPTH
STOP.M        490                            : bot_depth    - STOP DEPTH
STEP.M        0.25                           : increment    - STEP LENGTH
 NULL. -999.2500:NULL Value
~CURVE INFORMATION BLOCK
#MNEM UNIT       ERCB CURVE CODE    CURVE DESCRIPTION
#-----------   ------------------   ----------------------------------
DEPT.M        00 001 00 00         : DEPTH        - DEPTH
ILD .OHMM     00 120 00 00         : RESD         - DEEP RESISTIVITY (DIL)
DPHI.V/V      00 890 00 00         : PHID         - DENSITY POROSITY (LIMESTONE)
NPHI.V/V      00 330 00 00         : PHIN         - NEUTRON POROSITY (LIMESTONE)
GR  .API      00 310 00 00         : GR           - GAMMA RAY
~PARAMETER INFORMATION
#MNEM.UNIT           DATA             DESCRIPTION OF MNEMONIC
#---------         -----------     ------------------------------
GL  .M        580.53               : gl           - GROUND LEVEL ELEVATION
EREF.M        583.73               : kb           - ELEVATION OF DEPTH REFERENCE
DATM.M        580.53               : datum        - DATUM ELEVATION
TDD .M        499                  : tdd          - TOTAL DEPTH DRILLER
RUN .         ONE                  : Run          - RUN NUMBER
ENG .         BILL                 : Engineer     - RECORDING ENGINEER
WIT .         JIM                  : Witness      - WITNESSED BY
MUD .         GEL                  : Mud_type     - MUD TYPE
MATR.         LIMESTONE            : Logunit      - NEUTRON MATRIX
TMAX.C        23                   : BHT          - MAXIMUM RECORDED TEMPERATURE
BHTD.M        499                  : BHTDEP       - MAXIMUM RECORDED TEMPERATURE
MATR.         1                    : LOGUNIT      - NEUTRON MATRIX
RMT .C        25                   : MDTP         - TEMPERATURE OF MUD
NEUT.         1                    : NEUTRON      - NEUTRON TYPE
RESI.         0                    : RESIST       - RESISTIVITY TYPE
RMC .OHMM     0.25                 : RMC          - RESISTIVITY OF MUD CAKE
RMF .OHMM     0.25                 : RMF          - RESISTIVITY OF MUD FILTRATE
SUFT.C        15                   : SUFT         - SURFACE TEMPERATURE
~A  DEPTH     RESD     PHID     PHIN       GR
# ...
  454.000    5.137    0.089    0.334   84.331
  454.250    6.063    0.073    0.308   82.072
  454.500    8.071    0.105    0.295   80.911
  454.750   10.210    0.148    0.292   78.957
  455.000   12.178    0.199    0.292   75.665
  455.250   13.841    0.228    0.286   73.223
  455.500   15.120    0.254    0.283   71.940
  455.750   17.087    0.274    0.283   70.411
  456.000   19.079    0.280    0.286   69.370
  456.250   20.284    0.279    0.288   68.815
  456.500   20.710    0.274    0.287   69.660
  456.750   20.932    0.271    0.288   70.687
  457.000   20.965    0.268    0.300   70.312
  457.250   20.850    0.263    0.313   69.272
  457.500   20.694    0.226    0.327   68.414
  457.750   20.489    0.208    0.320   68.894
  458.000   20.178    0.196    0.315   70.042
  458.250   19.842    0.192    0.326   71.129
  458.500   19.407    0.190    0.320   71.731
  458.750   18.834    0.190    0.328   74.216
  459.000   17.711    0.187    0.324   77.250
  459.250   16.366    0.190    0.323   81.197
  459.500   13.670    0.187    0.323   85.266
  459.750   11.973    0.196    0.321   90.490
  460.000    9.563    0.207    0.320   97.356
  460.250    7.973    0.208    0.324  107.872
  460.500    7.039    0.193    0.342  119.360
  460.750    6.522    0.182    0.355  118.501
  461.000    6.014    0.185    0.357  111.680
  461.250    5.760    0.197    0.353  105.894
  461.500    6.219    0.214    0.342  101.509
  461.750    7.022    0.229    0.325   95.906
  462.000    8.236    0.240    0.313   89.268
  462.250    9.891    0.247    0.307   83.483
  462.500   11.588    0.248    0.303   77.088
  462.750   12.621    0.246    0.300   72.945
  463.000   13.137    0.239    0.312   70.564
  463.250   13.424    0.229    0.318   72.930
  463.500   13.039    0.211    0.321   78.519
  463.750    9.932    0.198    0.323   85.932
  464.000    8.506    0.183    0.313   91.886
  464.250    7.842    0.176    0.306   97.717
  464.500    7.432    0.171    0.305  100.934
  464.750    7.105    0.164    0.310  103.604
  465.000    6.924    0.157    0.316  105.908
  465.250    6.867    0.148    0.322  105.170
  465.500    6.949    0.137    0.326  102.000
  465.750    7.113    0.140    0.326   94.694
  466.000    7.318    0.154    0.320   87.752
  466.250    7.637    0.170    0.309   84.278
  466.500    8.047    0.182    0.299   82.263
  466.750    8.326    0.193    0.291   83.594
  467.000    8.572    0.201    0.283   85.655
  467.250    8.924    0.199    0.277   84.796
  467.500    9.170    0.181    0.275   86.856
  467.750    9.326    0.169    0.279   88.553
  468.000    9.334    0.164    0.291   90.187
  468.250    8.908    0.169    0.299   86.652
  468.500    8.662    0.174    0.295   82.996
  468.750    8.449    0.178    0.293   84.447
  469.000    8.359    0.166    0.292   85.899
  469.250    8.957    0.157    0.290   86.562
  469.500   10.007    0.168    0.287   78.039
  469.750   11.744    0.193    0.284   72.862
  470.000   13.638    0.219    0.281   67.623
  470.250   19.031    0.239    0.282   63.540
  470.500   19.843    0.257    0.289   60.492
  470.750   20.498    0.276    0.302   62.796
  471.000   20.400    0.248    0.316   66.498
  471.250   17.105    0.230    0.328   62.172
  471.500    8.523    0.257    0.320   57.785
  471.750    6.851    0.280    0.315   54.555
  472.000    5.351    0.299    0.306   50.594
  472.250    4.605    0.305    0.299   52.959
  472.500    4.007    0.281    0.293   61.040
  472.750    3.540    0.256    0.301   69.185
  473.000    3.097    0.232    0.320   82.195
  473.250    3.097    0.190    0.344   97.760
  473.500    3.261    0.109    0.378  109.857
  473.750    3.679    0.126    0.380   99.995
  474.000    4.048    0.148    0.350   94.453
  474.250    4.736    0.153    0.310   96.088
  474.500    5.425    0.157    0.323  105.143
  474.750    6.081    0.165    0.336  111.766
  475.000    6.491    0.160    0.345  115.895
  475.250    6.819    0.165    0.344  116.557
  475.500    6.991    0.156    0.340  114.177
  475.750    7.048    0.146    0.335  111.920
  476.000    7.048    0.140    0.329  109.358
  476.250    7.040    0.144    0.325  107.404
  476.500    6.983    0.145    0.324  105.936
  476.750    6.868    0.143    0.323  105.443
  477.000    6.794    0.138    0.324  105.740
  477.250    6.737    0.136    0.325  106.583
  477.500    6.712    0.145    0.334  107.488
  477.750    6.688    0.154    0.338  108.150
  478.000    6.696    0.163    0.333  108.387
  478.250    6.761    0.173    0.327  105.643
  478.500    7.056    0.190    0.317  103.445
  478.750    7.261    0.201    0.309  108.000
  479.000    7.499    0.180    0.300  112.251
  479.250    7.770    0.178    0.293  101.416
  479.500    7.991    0.216    0.287   90.825
  479.750    8.278    0.232    0.282   75.915
  480.000    8.565    0.249    0.285   67.027
  480.250    8.901    0.256    0.295   64.283
  480.500    9.286    0.261    0.303   68.229
  480.750    9.663    0.264    0.321   70.351
  481.000    9.901    0.264    0.318   69.735
  481.250   10.130    0.264    0.313   69.605
  481.500   10.270    0.257    0.315   70.693
  481.750    9.975    0.246    0.314   71.963
  482.000    9.491    0.239    0.312   72.564
  482.250    9.098    0.239    0.325   71.706
  482.500    8.426    0.246    0.338   72.671
  482.750    7.598    0.243    0.330   73.698
  483.000    6.876    0.234    0.322   74.055
  483.250    6.139    0.231    0.322   73.987
  483.500    5.713    0.236    0.325   73.373
  483.750    5.377    0.241    0.321   72.026
  484.000    5.180    0.239    0.317   71.351
  484.250    4.942    0.240    0.314   71.039
  484.500    4.713    0.240    0.311   70.545
  484.750    4.573    0.236    0.315   69.626
  485.000    4.483    0.244    0.308   69.436
  485.250    4.393    0.254    0.301   71.497
  485.500    4.319    0.259    0.306   74.105
  485.750    4.278    0.258    0.311   76.044
  486.000    4.213    0.252    0.314   75.549
  486.250    4.205    0.240    0.322   74.205
  486.500    4.213    0.230    0.317   73.771
  486.750    4.254    0.223    0.313   74.250
  487.000    4.270    0.236    0.310   74.973
  487.250    4.303    0.234    0.317   76.728
  487.500    4.303    0.223    0.314   78.181
  487.750    4.319    0.227    0.308   79.937
  488.000    4.385    0.238    0.302   81.513
  488.250    4.459    0.243    0.294   82.966
  488.500    4.533    0.232    0.299   82.594
  488.750    4.598    0.221    0.307   79.667
  489.000    4.688    0.205    0.301   75.645
  489.250    4.746    0.186    0.292   72.534
  489.500    4.795    0.156    0.284   73.623
  489.750    4.852    0.139    0.278   82.070
  490.000    4.885    0.161    0.279   87.477
