~VERSION INFORMATION
 VERS.                 2.0:   CWLS LOG ASCII STANDARD -VERSION 2.0
 WRAP.                  NO:   ONE LINE PER DEPTH STEP
~WELL INFORMATION BLOCK
#MNEM.UNIT           DATA                    DESCRIPTION OF MNEMONIC
#---------    -------------------            -------------------------------
# Generated from Intellog Unique Number	CC_84_87/WELL/2551
WELL.         GULF AOSTRA RESDELN            : Well_name    - WELL
LOC .         00/06-05-084-06W4/0            : Location     - LOCATION
UWI .         00/06-05-084-06W400            : Uwi          - UNIQUE WELL ID
ENTR.         JHS                            : Entered      - ENTERED BY
SRVC.         SCHLUMBERGER                   : Scn          - SERVICE COMPANY
STRT.M        150                            : top_depth    - START DEPTH
STOP.M        409.75                         : bot_depth    - STOP DEPTH
STEP.M        0.25                           : increment    - STEP LENGTH
 NULL. -999.2500:NULL Value
~CURVE INFORMATION BLOCK
#MNEM UNIT       ERCB CURVE CODE    CURVE DESCRIPTION
#-----------   ------------------   ----------------------------------
DEPT.M        00 001 00 00         : DEPTH        - DEPTH
GR  .API      00 310 00 00         : GR           - GAMMA RAY
DPHI.V/V      00 890 00 00         : PHID         - DENSITY POROSITY (SANDSTONE)
NPHI.V/V      00 330 00 00         : PHIN         - NEUTRON POROSITY (SANDSTONE)
ILD .OHMM     00 120 00 00         : RESD         - DEEP RESISTIVITY (DIL)
~PARAMETER INFORMATION
#MNEM.UNIT           DATA             DESCRIPTION OF MNEMONIC
#---------         -----------     ------------------------------
GL  .M        571                  : gl           - GROUND LEVEL ELEVATION
EREF.M        574.68               : kb           - ELEVATION OF DEPTH REFERENCE
DATM.M        574.68               : datum        - DATUM ELEVATION
TDD .M        420                  : tdd          - TOTAL DEPTH DRILLER
RUN .         ONE                  : Run          - RUN NUMBER
ENG .         BILL                 : Engineer     - RECORDING ENGINEER
WIT .         JIM                  : Witness      - WITNESSED BY
MUD .         GEL                  : Mud_type     - MUD TYPE
MATR.         SANDSTONE            : Logunit      - NEUTRON MATRIX
TMAX.C        21                   : BHT          - MAXIMUM RECORDED TEMPERATURE
BHTD.M        420                  : BHTDEP       - MAXIMUM RECORDED TEMPERATURE
MATR.         1                    : LOGUNIT      - NEUTRON MATRIX
RMT .C        25                   : MDTP         - TEMPERATURE OF MUD
NEUT.         1                    : NEUTRON      - NEUTRON TYPE
RESI.         0                    : RESIST       - RESISTIVITY TYPE
RMC .OHMM     0.25                 : RMC          - RESISTIVITY OF MUD CAKE
RMF .OHMM     0.25                 : RMF          - RESISTIVITY OF MUD FILTRATE
SUFT.C        15                   : SUFT         - SURFACE TEMPERATURE
~A  DEPTH       GR     PHID     PHIN     RESD
# ...
  237.000   52.596    0.333    0.485   18.448
  237.250   51.047    0.322    0.477   18.118
  237.500   50.449    0.315    0.466   18.351
  237.750   51.851    0.327    0.453   18.319
  238.000   52.564    0.337    0.453   18.054
  238.250   52.118    0.328    0.463   18.111
  238.500   52.679    0.320    0.467   18.101
  238.750   51.086    0.337    0.475   18.099
  239.000   51.374    0.334    0.471   18.100
  239.250   53.197    0.336    0.453   18.098
  239.500   54.105    0.330    0.450   18.097
  239.750   53.929    0.315    0.464   18.098
  240.000   53.985    0.339    0.469   18.096
  240.250   54.447    0.340    0.472   18.086
  240.500   55.267    0.326    0.459   18.139
  240.750   54.436    0.330    0.462   17.894
  241.000   53.092    0.341    0.468   17.824
  241.250   53.729    0.337    0.451   18.124
  241.500   55.288    0.329    0.446   18.091
  241.750   55.324    0.323    0.473   18.087
  242.000   55.679    0.316    0.470   18.084
  242.250   56.195    0.319    0.454   18.112
  242.500   57.013    0.317    0.453   18.011
  242.750   58.822    0.313    0.458   17.682
  243.000   60.858    0.328    0.465   17.423
  243.250   61.615    0.333    0.483   17.433
  243.500   60.099    0.330    0.487   17.230
  243.750   57.658    0.330    0.476   16.932
  244.000   57.915    0.335    0.464   16.681
  244.250   58.869    0.333    0.464   16.419
  244.500   55.476    0.319    0.475   16.166
  244.750   54.360    0.309    0.476   15.921
  245.000   58.770    0.305    0.470   15.642
  245.250   60.560    0.312    0.465   15.555
  245.500   58.172    0.319    0.465   15.553
  245.750   56.608    0.322    0.464   15.608
  246.000   57.373    0.331    0.466   15.861
  246.250   60.011    0.336    0.481   15.849
  246.500   61.295    0.330    0.481   16.052
  246.750   62.610    0.332    0.468   16.220
  247.000   62.206    0.338    0.473   16.058
  247.250   58.491    0.336    0.490   15.836
  247.500   55.640    0.339    0.487   15.857
  247.750   56.044    0.342    0.474   15.859
  248.000   56.951    0.323    0.476   15.854
  248.250   58.960    0.317    0.476   15.853
  248.500   62.879    0.326    0.463   15.859
  248.750   64.651    0.330    0.444   15.843
  249.000   61.224    0.329    0.439   15.852
  249.250   60.187    0.314    0.453   16.109
  249.500   63.735    0.313    0.455   16.174
  249.750   64.765    0.315    0.461   16.132
  250.000   63.340    0.306    0.464   16.173
  250.250   63.009    0.299    0.457   16.106
  250.500   61.916    0.307    0.462   15.848
  250.750   60.739    0.313    0.473   15.860
  251.000   61.268    0.319    0.471   15.649
  251.250   60.527    0.324    0.480   15.523
  251.500   59.290    0.328    0.491   15.555
  251.750   59.614    0.330    0.476   15.559
  252.000   60.160    0.329    0.454   15.551
  252.250   61.657    0.332    0.454   15.298
  252.500   63.289    0.333    0.461   15.258
  252.750   64.503    0.326    0.469   15.172
  253.000   63.913    0.310    0.469   14.809
  253.250   61.639    0.281    0.449   14.339
  253.500   61.461    0.236    0.426   13.900
  253.750   65.638    0.212    0.423   13.323
  254.000   67.421    0.245    0.447   12.213
  254.250   68.368    0.252    0.443   11.214
  254.500   70.105    0.245    0.437   10.285
  254.750   71.594    0.281    0.457    9.196
  255.000   73.137    0.310    0.455    8.243
  255.250   75.024    0.296    0.460    6.970
  255.500   78.502    0.281    0.480    5.854
  255.750   81.293    0.269    0.501    5.335
  256.000   83.047    0.267    0.515    4.998
  256.250   83.326    0.268    0.519    4.546
  256.500   81.163    0.253    0.510    4.286
  256.750   81.817    0.272    0.498    4.020
  257.000   85.398    0.274    0.504    3.872
  257.250   87.549    0.267    0.526    3.752
  257.500   88.298    0.272    0.539    3.679
  257.750   88.284    0.276    0.533    3.689
  258.000   86.131    0.266    0.523    3.689
  258.250   85.601    0.259    0.518    3.798
  258.500   84.778    0.264    0.532    3.965
  258.750   83.961    0.251    0.540    4.191
  259.000   85.143    0.244    0.531    4.278
  259.250   86.958    0.260    0.529    4.067
  259.500   87.423    0.262    0.550    3.622
  259.750   90.120    0.267    0.559    2.989
  260.000   90.336    0.274    0.561    2.725
  260.250   89.670    0.283    0.576    2.589
  260.500   90.248    0.290    0.594    2.459
  260.750   90.415    0.283    0.588    2.445
  261.000   88.749    0.265    0.563    2.445
  261.250   87.103    0.275    0.558    2.478
  261.500   86.828    0.284    0.561    2.573
  261.750   87.024    0.276    0.556    2.757
  262.000   86.832    0.265    0.550    3.116
  262.250   86.215    0.261    0.549    3.564
  262.500   85.170    0.257    0.544    3.970
  262.750   83.342    0.268    0.529    4.571
  263.000   79.601    0.272    0.521    5.145
  263.250   75.862    0.283    0.521    5.662
  263.500   76.483    0.284    0.494    6.211
  263.750   79.349    0.262    0.462    6.623
  264.000   77.941    0.262    0.476    6.697
  264.250   76.248    0.298    0.486    6.707
  264.500   76.583    0.325    0.490    6.610
  264.750   78.873    0.349    0.499    6.565
  265.000   79.636    0.337    0.504    6.563
  265.250   79.530    0.305    0.502    6.596
  265.500   82.279    0.324    0.510    6.821
  265.750   82.449    0.307    0.513    7.052
  266.000   82.276    0.289    0.505    7.148
  266.250   84.856    0.268    0.485    7.407
  266.500   86.919    0.260    0.465    7.743
  266.750   85.674    0.269    0.450    8.205
  267.000   83.604    0.258    0.436    9.021
  267.250   81.382    0.250    0.423    9.460
  267.500   81.834    0.238    0.421    9.888
  267.750   85.371    0.242    0.447    9.569
  268.000   86.114    0.268    0.476    8.694
  268.250   82.363    0.288    0.487    7.898
  268.500   81.238    0.289    0.495    7.080
  268.750   84.682    0.300    0.499    6.636
  269.000   87.981    0.271    0.496    6.304
  269.250   88.737    0.263    0.501    6.166
  269.500   88.681    0.266    0.504    6.267
  269.750   87.436    0.249    0.490    6.501
  270.000   83.777    0.255    0.468    6.815
  270.250   83.246    0.260    0.453    7.125
  270.500   81.994    0.257    0.447    7.601
  270.750   81.036    0.251    0.459    7.872
  271.000   81.879    0.241    0.466    7.573
  271.250   83.590    0.234    0.461    6.963
  271.500   85.073    0.242    0.474    6.443
  271.750   85.247    0.253    0.479    5.769
  272.000   84.139    0.249    0.486    5.349
  272.250   84.336    0.242    0.506    5.095
  272.500   87.081    0.244    0.523    4.892
  272.750   89.667    0.255    0.514    4.748
  273.000   88.820    0.268    0.495    4.603
  273.250   86.585    0.257    0.500    4.525
  273.500   86.869    0.254    0.512    4.507
  273.750   86.117    0.264    0.509    4.565
  274.000   82.098    0.273    0.497    4.834
  274.250   76.917    0.281    0.478    5.365
  274.500   73.051    0.296    0.448    6.089
  274.750   71.822    0.289    0.450    7.099
  275.000   72.723    0.274    0.463    8.266
  275.250   75.859    0.276    0.464    8.421
  275.500   80.518    0.278    0.454    7.431
  275.750   83.846    0.271    0.453    5.646
  276.000   83.503    0.281    0.484    3.477
  276.250   81.485    0.293    0.528    2.706
  276.500   79.809    0.285    0.522    2.670
  276.750   78.431    0.280    0.502    2.679
  277.000   76.697    0.279    0.508    3.244
  277.250   74.623    0.273    0.509    4.528
  277.500   73.224    0.271    0.478    5.647
  277.750   73.672    0.264    0.459    6.427
  278.000   74.558    0.273    0.449    7.019
  278.250   76.193    0.285    0.456    7.379
  278.500   76.815    0.290    0.466    7.495
  278.750   74.461    0.284    0.472    7.453
  279.000   70.872    0.265    0.491    7.332
  279.250   68.367    0.260    0.509    7.222
  279.500   65.323    0.265    0.512    7.087
  279.750   63.181    0.273    0.499    7.100
  280.000   63.284    0.273    0.481    7.271
  280.250   64.429    0.274    0.478    7.533
