~VERSION INFORMATION
 VERS.                 2.0:   CWLS LOG ASCII STANDARD -VERSION 2.0
 WRAP.                  NO:   ONE LINE PER DEPTH STEP
~WELL INFORMATION BLOCK
#MNEM.UNIT           DATA                    DESCRIPTION OF MNEMONIC
#---------    -------------------            -------------------------------
# Generated from Intellog Unique Number	CC_80_83/WELL/1171
NULL.         -999.25                        : NULL_VALUE
WELL.         PARA ET AL CHARD               : Well_name
LOC .         07-01-080-06W4                 : Location     - LOCATION          
UWI .         00/07-01-080-06W400            : Uwi          - UNIQUE WELL ID    
ENTR.         DW                             : Entered      - ENTERED BY        
SRVC.         SCHLUMBERGER                   : Scn          - SERVICE COMPANY   
DATE.         11 JAN 82                      : Date         - LOG DATE
STRT.M        104                            : top_depth    - START DEPTH       
STOP.M        280.101                        : bot_depth    - STOP DEPTH        
STEP.M        0.3                            : increment    - STEP LENGTH       
~CURVE INFORMATION BLOCK
#MNEM UNIT       ERCB CURVE CODE    CURVE DESCRIPTION
#-----------   ------------------   ----------------------------------
DEPT.M        00 001 00 00         : DEPTH        - DEPTH                       
DPHI.V/V      00 890 00 00         : PHID         - DENSITY POROSITY (LIMESTONE)
NPHI.V/V      00 330 00 00         : PHIN         - NEUTRON POROSITY (LIMESTONE)
GR  .API      00 310 00 00         : GR           - GAMMA RAY                   
ILD .OHMM     00 120 00 00         : RESD         - DEEP RESISTIVITY (DIL)      
~PARAMETER INFORMATION       
#MNEM.UNIT           DATA             DESCRIPTION OF MNEMONIC
#---------         -----------     ------------------------------
GL  .M        463.74               : gl           - GROUND LEVEL ELEVATION      
EREF.M        466.74               : kb           - ELEVATION OF DEPTH REFERENCE
DATM.M        466.74               : datum        - DATUM ELEVATION             
TDD .M        292                  : tdd          - TOTAL DEPTH DRILLER         
RUN .         ONE                  : Run          - RUN NUMBER                  
ENG .         BILL                 : Engineer     - RECORDING ENGINEER          
WIT .         JIM                  : Witness      - WITNESSED BY                
MUD .         GEL                  : Mud_type     - MUD TYPE                    
MATR.         LIMESTONE            : Logunit      - NEUTRON MATRIX              
TMAX.C        21                   : BHT          - MAXIMUM RECORDED TEMPERATURE
BHTD.M        292                  : BHTDEP       - MAXIMUM RECORDED TEMPERATURE
MATR.         1                    : LOGUNIT      - NEUTRON MATRIX              
RMT .C        25                   : MDTP         - TEMPERATURE OF MUD          
NEUT.         1                    : NEUTRON      - NEUTRON TYPE                
RESI.         0                    : RESIST       - RESISTIVITY TYPE            
RMC .OHMM     0.25                 : RMC          - RESISTIVITY OF MUD CAKE     
RMF .OHMM     0.25                 : RMF          - RESISTIVITY OF MUD FILTRATE 
SUFT.C        15                   : SUFT         - SURFACE TEMPERATURE         
~A  DEPTH     PHID     PHIN       GR     RESD
# ...
  156.201    0.237    0.404   96.074    7.914
  156.501    0.245    0.392   96.074    7.328
  156.801    0.251    0.457  103.512    7.052
  157.101    0.247    0.467  105.992    7.044
  157.401    0.231    0.420  100.413    6.903
  157.701    0.222    0.382  104.752    6.899
  158.001    0.219    0.376  107.231    6.391
  158.301    0.215    0.412  101.033    6.033
  158.601    0.221    0.456   96.694    5.083
  158.901    0.258    0.497   96.074    4.364
  159.201    0.283    0.467  100.413    3.818
  159.501    0.289    0.522  111.570    3.470
  159.801    0.279    0.455  115.909    3.214
  160.101    0.277    0.466  112.810    2.865
  160.401    0.279    0.576  104.752    2.810
  160.701    0.279    0.565  107.851    2.808
  161.001    0.257    0.464  109.091    2.804
  161.301    0.235    0.477  109.091    2.857
  161.601    0.242    0.456  107.851    3.137
  161.901    0.262    0.428  106.612    3.382
  162.201    0.262    0.436  101.033    3.859
  162.501    0.243    0.459   92.975    4.487
  162.801    0.245    0.470   97.314    5.216
  163.101    0.252    0.408   97.934    5.730
  163.401    0.245    0.384   94.835    6.175
  163.701    0.134    0.387   83.058    6.656
  164.001    0.133    0.384   77.479    7.312
  164.301    0.178    0.381   71.901    8.502
  164.601    0.164    0.384   65.703    9.338
  164.901    0.216    0.414   73.760    9.691
  165.201    0.273    0.471   82.438    9.501
  165.501    0.300    0.412   88.636    9.140
  165.801    0.284    0.404   96.694    8.791
  166.101    0.267    0.509  100.413    8.454
  166.401    0.264    0.503   97.314    8.291
  166.701    0.246    0.493   89.876    8.440
  167.001    0.232    0.487   83.058    8.597
  167.301    0.249    0.485   78.719    8.920
  167.601    0.274    0.498   78.719    9.083
  167.901    0.279    0.493   79.339    9.076
  168.201    0.290    0.481   78.719    9.069
  168.501    0.283    0.463   85.537    8.888
  168.801    0.283    0.447   89.256    8.884
  169.101    0.284    0.437   89.876    8.873
  169.401    0.274    0.402   98.554    9.038
  169.701    0.259    0.388   96.694    9.377
  170.001    0.222    0.418   93.595    9.550
  170.301    0.188    0.439   92.975    9.540
  170.601    0.231    0.445   92.355    9.181
  170.901    0.262    0.415   91.736    8.665
  171.201    0.238    0.414   92.355    8.024
  171.501    0.233    0.386   97.314    7.720
  171.801    0.237    0.367  112.190    7.284
  172.101    0.237    0.415  117.769    7.143
  172.401    0.231    0.442  105.992    7.139
  172.701    0.242    0.430   97.314    7.407
  173.001    0.251    0.423   92.975    7.833
  173.301    0.265    0.426   88.016    7.976
  173.601    0.272    0.430   83.058    7.820
  173.901    0.275    0.475   81.818    7.664
  174.201    0.259    0.407   91.116    7.516
  174.501    0.251    0.373   99.793    7.095
  174.801    0.247    0.434  104.132    5.977
  175.101    0.239    0.512  102.273    5.036
  175.401    0.239    0.478  101.653    4.843
  175.701    0.243    0.484  101.653    4.840
  176.001    0.252    0.460  102.893    5.314
  176.301    0.263    0.439  101.033    5.517
  176.601    0.265    0.421   97.314    5.725
  176.901    0.264    0.435  100.413    5.613
  177.201    0.263    0.420  105.372    5.297
  177.501    0.263    0.423  105.992    5.195
  177.801    0.283    0.479  105.372    5.091
  178.101    0.300    0.501   75.620    5.088
  178.401    0.304    0.447   75.620    6.264
  178.701    0.277    0.366   84.297    6.880
  179.001    0.274    0.378   90.496    6.372
  179.301    0.294    0.450  102.273    4.527
  179.601    0.291    0.508  102.273    4.113
  179.901    0.267    0.418   92.355    4.188
  180.201    0.254    0.402   90.496    5.155
  180.501    0.253    0.402   99.174    6.344
  180.801    0.248    0.392  101.653    6.840
  181.101    0.222    0.424  101.033    7.657
  181.401    0.095    0.466   83.058    7.796
  181.701    0.103    0.289   61.983    8.564
  182.001    0.168    0.320   59.504    9.770
  182.301    0.256    0.392   80.579    9.761
  182.601    0.277    0.473   83.058    9.389
  182.901    0.285    0.487   77.479    9.034
  183.201    0.270    0.373   78.719    8.527
  183.501    0.241    0.372   88.016    7.750
  183.801    0.228    0.382   94.835    6.911
  184.101    0.252    0.378   97.934    5.822
  184.401    0.259    0.388  103.512    4.905
  184.701    0.236    0.415  104.132    4.291
  185.001    0.249    0.592   92.975    4.128
  185.301    0.265    0.455   89.256    4.364
  185.601    0.256    0.436   91.736    4.530
  185.901    0.251    0.457   99.793    5.070
  186.201    0.259    0.429  104.132    5.363
  186.501    0.249    0.411  104.132    5.672
  186.801    0.232    0.380  102.893    5.778
  187.101    0.232    0.401  105.992    6.227
  187.401    0.242    0.460  106.612    6.971
  187.701    0.249    0.478  102.273    7.514
  188.001    0.262    0.436   94.835    7.648
  188.301    0.265    0.418  102.273    7.501
  188.601    0.244    0.439  104.752    6.814
  188.901    0.227    0.399  102.893    6.194
  189.201    0.238    0.378   96.074    5.420
  189.501    0.269    0.404   91.736    4.834
  189.801    0.288    0.435   85.537    3.704
  190.101    0.281    0.482   84.297    3.004
  190.401    0.280    0.497   89.256    2.783
  190.701    0.284    0.517   90.496    2.626
  191.001    0.293    0.541   83.058    2.624
  191.301    0.295    0.526   83.678    2.621
  191.601    0.295    0.536   92.355    2.669
  191.901    0.283    0.534   88.636    2.719
  192.201    0.273    0.503   86.777    2.930
  192.501    0.253    0.499   89.876    3.159
  192.801    0.225    0.515   89.876    3.887
  193.101    0.222    0.521   89.256    4.435
  193.401    0.232    0.473   88.636    4.872
  193.701    0.249    0.410   88.016    5.559
  194.001    0.238    0.378   84.917    6.223
  194.301    0.173    0.394   79.959    6.967
  194.601    0.207    0.406   82.438    6.830
  194.901    0.252    0.425  102.893    6.207
  195.201    0.255    0.489   93.595    5.229
  195.501    0.247    0.479   96.074    4.574
  195.801    0.233    0.441   93.595    4.402
  196.101    0.227    0.422  102.273    3.999
  196.401    0.242    0.425  101.653    3.922
  196.701    0.242    0.466   93.595    3.843
  197.001    0.237    0.524   96.074    3.841
  197.301    0.242    0.512  100.413    3.836
  197.601    0.253    0.477  102.893    3.761
  197.901    0.242    0.419   99.793    3.758
  198.201    0.231    0.417   98.554    3.828
  198.501    0.234    0.456   99.793    3.972
  198.801    0.242    0.495   99.174    4.200
  199.101    0.259    0.528   94.835    4.360
  199.401    0.280    0.515   84.297    4.700
  199.701    0.299    0.435   78.099    5.464
  200.001    0.259    0.356   83.678    6.599
  200.301    0.252    0.364   92.975    6.718
  200.601    0.247    0.429   95.454    6.222
  200.901    0.242    0.473   99.793    5.984
  201.201    0.232    0.481  101.033    5.981
  201.501    0.208    0.446   88.636    6.326
  201.801    0.139    0.357   78.099    7.082
  202.101    0.135    0.320   79.339    8.233
  202.401    0.231    0.385   83.058    8.709
  202.701    0.264    0.379   79.959    9.211
  203.001    0.302    0.347   71.901   10.912
  203.301    0.311    0.306   69.421   11.762
  203.601    0.292    0.296   71.901   12.209
  203.901    0.276    0.330   76.859    9.903
  204.201    0.281    0.395   82.438    6.644
  204.501    0.328    0.508   92.975    4.631
  204.801    0.351    0.528   81.818    4.371
  205.101    0.385    0.349   79.339    4.802
  205.401    0.351    0.160   34.711   17.084
  205.701    0.342    0.151   40.909   61.937
  206.001    0.344    0.140   41.529  103.221
  206.301    0.344    0.134   39.669  107.088
  206.601    0.339    0.129   45.248  105.029
  206.901    0.336    0.129   48.347   95.436
  207.201    0.328    0.165   50.826   86.744
  207.501    0.327    0.174   53.306   67.733
  207.801    0.333    0.187   58.264   59.272
  208.101    0.333    0.197   63.223   51.862
