~VERSION INFORMATION
 VERS.                 2.0:   CWLS LOG ASCII STANDARD -VERSION 2.0
 WRAP.                  NO:   ONE LINE PER DEPTH STEP
~WELL INFORMATION BLOCK
#MNEM.UNIT           DATA                    DESCRIPTION OF MNEMONIC
#---------    -------------------            -------------------------------
# Generated from Intellog Unique Number	CS_73_76/WELL/956
WELL.         CANADIAN WORLDWIDE ENERGY      : Well_name    - WELL
LOC .         00/02-26-076-04W4/0            : Location     - LOCATION
UWI .         00/02-26-076-04W4/0            : Uwi          - UNIQUE WELL ID
ENTR.         SP                             : Entered      - ENTERED BY
SRVC.         SCHLUMBERGER                   : Scn          - SERVICE COMPANY
STRT.M        200                            : top_depth    - START DEPTH
STOP.M        450                            : bot_depth    - STOP DEPTH
STEP.M        0.25                           : increment    - STEP LENGTH
 NULL. -999.2500:NULL Value
~CURVE INFORMATION BLOCK
#MNEM UNIT       ERCB CURVE CODE    CURVE DESCRIPTION
#-----------   ------------------   ----------------------------------
DEPT.M        00 001 00 00         : DEPTH        - DEPTH
ILD .OHMM     00 120 00 00         : RESD         - DEEP RESISTIVITY (DIL)
GR  .API      00 310 00 00         : GR           - GAMMA RAY
NPHI.V/V      00 330 00 00         : PHIN         - NEUTRON POROSITY (LIMESTONE)
DPHI.V/V      00 890 00 00         : PHID         - DENSITY POROSITY (LIMESTONE)
~PARAMETER INFORMATION
#MNEM.UNIT           DATA             DESCRIPTION OF MNEMONIC
#---------         -----------     ------------------------------
GL  .M        587.6                : gl           - GROUND LEVEL ELEVATION
EREF.M        591.1                : kb           - ELEVATION OF DEPTH REFERENCE
DATM.M        587.6                : datum        - DATUM ELEVATION
TDD .M        460                  : tdd          - TOTAL DEPTH DRILLER
RUN .         ONE                  : Run          - RUN NUMBER
ENG .         BILL                 : Engineer     - RECORDING ENGINEER
WIT .         JIM                  : Witness      - WITNESSED BY
MUD .         GEL                  : Mud_type     - MUD TYPE
MATR.         LIMESTONE            : Logunit      - NEUTRON MATRIX
TMAX.C        23                   : BHT          - MAXIMUM RECORDED TEMPERATURE
BHTD.M        460                  : BHTDEP       - MAXIMUM RECORDED TEMPERATURE
MATR.         1                    : LOGUNIT      - NEUTRON MATRIX
RMT .C        25                   : MDTP         - TEMPERATURE OF MUD
NEUT.         1                    : NEUTRON      - NEUTRON TYPE
RESI.         0                    : RESIST       - RESISTIVITY TYPE
RMC .OHMM     0.25                 : RMC          - RESISTIVITY OF MUD CAKE
RMF .OHMM     0.25                 : RMF          - RESISTIVITY OF MUD FILTRATE
SUFT.C        15                   : SUFT         - SURFACE TEMPERATURE
~A  DEPTH     RESD       GR     PHIN     PHID
# ...
  243.500   17.137   90.336    0.414    0.292
  243.750   17.149   94.680    0.436    0.307
  244.000   17.165   97.784    0.423    0.313
  244.250   17.177   92.215    0.401    0.302
  244.500   16.555   90.979    0.392    0.291
  244.750   15.953   91.605    0.390    0.279
  245.000   15.668   91.611    0.384    0.266
  245.250   14.822   89.758    0.373    0.248
  245.500   14.020   91.004    0.379    0.242
  245.750   13.766   87.914    0.378    0.233
  246.000   13.021   86.677    0.368    0.245
  246.250   12.550   89.163    0.378    0.250
  246.500   12.098   95.987    0.388    0.242
  246.750   12.103  101.572    0.395    0.231
  247.000   11.668  103.439    0.404    0.228
  247.250   11.456  109.644    0.397    0.227
  247.500   11.252  112.128    0.393    0.228
  247.750   11.053  106.557    0.401    0.239
  248.000   11.268  101.603    0.406    0.222
  248.250   11.708   89.832    0.401    0.219
  248.500   12.633   84.879    0.385    0.243
  248.750   13.631   77.448    0.385    0.287
  249.000   15.273   63.197    0.383    0.324
  249.250   17.110   42.748    0.375    0.341
  249.500   19.538   29.738    0.373    0.347
  249.750   21.079   26.026    0.365    0.336
  250.000   22.743   25.412    0.349    0.333
  250.250   24.541   30.377    0.342    0.341
  250.500   25.503   35.341    0.343    0.344
  250.750   25.047   42.167    0.354    0.337
  251.000   24.138   42.175    0.365    0.327
  251.250   22.833   35.361    0.376    0.325
  251.500   22.003   36.607    0.377    0.332
  251.750   21.207   39.092    0.374    0.327
  252.000   20.437   35.999    0.368    0.320
  252.250   20.071   32.285    0.361    0.325
  252.500   20.094   36.012    0.347    0.328
  252.750   19.730   39.116    0.339    0.318
  253.000   19.741   44.081    0.347    0.305
  253.250   19.032   51.526    0.365    0.296
  253.500   18.688   48.434    0.382    0.314
  253.750   17.682   41.001    0.391    0.329
  254.000   17.360   44.727    0.391    0.336
  254.250   16.421   57.129    0.391    0.329
  254.500   15.530   83.788    0.394    0.289
  254.750   14.412  111.688    0.397    0.253
  255.000   13.128  115.414    0.394    0.232
  255.250   11.516  117.280    0.401    0.226
  255.500   10.689  121.624    0.409    0.231
  255.750   10.301  124.730    0.426    0.234
  256.000    9.928  120.399    0.437    0.238
  256.250    9.216  118.543    0.453    0.251
  256.500    9.223  114.211    0.454    0.249
  256.750    9.230  111.118    0.463    0.237
  257.000    9.592  110.504    0.483    0.229
  257.250    9.597  106.791    0.485    0.238
  257.500    9.789   95.021    0.468    0.248
  257.750    9.981   93.166    0.448    0.275
  258.000   10.371   90.694    0.416    0.287
  258.250   10.981   93.180    0.383    0.292
  258.500   12.306   96.284    0.399    0.296
  258.750   13.531   96.290    0.416    0.292
  259.000   14.060   91.337    0.427    0.296
  259.250   14.343   90.106    0.417    0.298
  259.500   14.349   93.210    0.428    0.281
  259.750   14.633  103.133    0.435    0.268
  260.000   14.924   83.304    0.432    0.250
  260.250   15.215   67.815    0.436    0.275
  260.500   16.113   54.184    0.447    0.306
  260.750   17.387   41.794    0.459    0.335
  261.000   18.407   39.940    0.449    0.335
  261.250   19.495   43.047    0.429    0.344
  261.500   20.255   48.630    0.425    0.341
  261.750   20.654   61.654    0.416    0.325
  262.000   21.064   78.395    0.405    0.269
  262.250   18.827   77.163    0.396    0.255
  262.500   16.832   74.069    0.399    0.259
  262.750   16.534   73.455    0.386    0.253
  263.000   16.542   79.659    0.381    0.245
  263.250   16.867   84.625    0.400    0.266
  263.500   17.865   81.532    0.421    0.300
  263.750   18.560   79.679    0.440    0.326
  264.000   20.027   79.067    0.462    0.346
  264.250   21.208   78.454    0.481    0.358
  264.500   22.038   77.217    0.473    0.347
  264.750   22.472   71.645    0.460    0.325
  265.000   22.922   71.651    0.429    0.309
  265.250   22.934   72.897    0.408    0.322
  265.500   22.956   74.763    0.410    0.335
  265.750   22.974   74.149    0.414    0.340
  266.000   22.989   72.296    0.416    0.346
  266.250   22.579   77.882    0.414    0.331
  266.500   22.169   86.565    0.406    0.312
  266.750   21.772   91.530    0.397    0.289
  267.000   20.986   90.917    0.404    0.278
  267.250   19.848   94.022    0.407    0.267
  267.500   18.770   95.887    0.411    0.254
  267.750   17.756   93.414    0.414    0.242
  268.000   17.116   84.742    0.420    0.238
  268.250   17.449   69.253    0.403    0.234
  268.500   18.132   66.779    0.392    0.250
  268.750   19.563   64.926    0.395    0.271
  269.000   21.516   61.213    0.397    0.272
  269.250   23.212   56.261    0.387    0.271
  269.500   25.046   51.928    0.392    0.290
  269.750   26.026   49.455    0.401    0.316
  270.000   27.043   49.461    0.393    0.333
  270.250   27.579   49.467    0.385    0.340
  270.500   28.126   46.993    0.394    0.334
  270.750   28.146   44.520    0.410    0.320
  271.000   27.129   43.907    0.399    0.316
  271.250   26.637   43.916    0.392    0.311
  271.500   26.170   43.919    0.396    0.316
  271.750   25.694   45.165    0.399    0.333
  272.000   25.240   47.650    0.403    0.343
  272.250   24.780   49.517    0.400    0.346
  272.500   24.342   46.423    0.391    0.346
  272.750   24.355   42.713    0.395    0.345
  273.000   23.923   42.717    0.408    0.346
  273.250   23.496   48.302    0.411    0.349
  273.500   22.649   50.169    0.401    0.349
  273.750   22.236   49.553    0.399    0.346
  274.000   21.430   48.320    0.401    0.339
  274.250   20.653   47.707    0.411    0.335
  274.500   18.812   47.713    0.428    0.331
  274.750   16.815   50.198    0.448    0.330
  275.000   14.476   60.742    0.436    0.317
  275.250   12.700   81.823    0.403    0.306
  275.500   11.789   89.267    0.404    0.279
  275.750   10.740   91.752    0.430    0.250
  276.000   10.349   92.999    0.441    0.250
  276.250    9.608   91.766    0.445    0.252
  276.500    9.260   88.672    0.441    0.255
  276.750    8.924   83.719    0.433    0.256
  277.000    8.763   86.824    0.431    0.254
  277.250    8.605   89.312    0.436    0.253
  277.500    8.612   87.457    0.431    0.248
  277.750    8.461   86.223    0.426    0.245
  278.000    8.467   85.610    0.421    0.244
  278.250    8.471   86.236    0.422    0.249
  278.500    8.323   88.722    0.421    0.254
  278.750    8.486   91.207    0.421    0.253
  279.000    8.490   88.115    0.421    0.251
  279.250    8.496   87.501    0.429    0.248
  279.500    8.506   88.747    0.437    0.245
  279.750    8.510   89.993    0.437    0.249
  280.000    8.515   89.999    0.438    0.255
  280.250    8.686   88.764    0.438    0.255
  280.500    8.692   84.432    0.427    0.260
  280.750    8.697   79.479    0.419    0.265
  281.000    8.702   73.907    0.429    0.265
  281.250    8.713   72.673    0.436    0.263
  281.500    8.884   75.159    0.433    0.261
  281.750    8.889   76.404    0.428    0.260
  282.000    9.067   75.792    0.417    0.261
  282.250    9.072   76.417    0.406    0.262
  282.500    9.252   75.803    0.403    0.268
  282.750    9.256   76.430    0.403    0.269
  283.000    9.440   79.535    0.420    0.273
  283.250    9.626   77.681    0.407    0.277
  283.500   10.583   68.390    0.398    0.277
  283.750   12.788   56.620    0.404    0.266
  284.000   14.324   45.468    0.426    0.247
  284.250   18.308   33.698    0.433    0.239
  284.500   22.538   28.745    0.393    0.266
  284.750   25.253   28.753    0.372    0.285
  285.000   28.833   30.616    0.381    0.280
  285.250   30.525   34.342    0.394    0.274
  285.500   31.725   33.109    0.402    0.275
  285.750   31.151   30.636    0.399    0.258
  286.000   30.025   28.162    0.370    0.241
  286.250   28.398   31.268    0.366    0.232
  286.500   26.861   36.233    0.373    0.234
  286.750   23.570   36.858    0.378    0.261
