~VERSION INFORMATION
 VERS.                 2.0:   CWLS LOG ASCII STANDARD -VERSION 2.0
 WRAP.                  NO:   ONE LINE PER DEPTH STEP
~WELL INFORMATION BLOCK
#MNEM.UNIT           DATA                    DESCRIPTION OF MNEMONIC
#---------    -------------------            -------------------------------
# Generated from Intellog Unique Number	CX_WELLS/WELL/3997
WELL.         BRALORNE                       : Well_name    - WELL
LOC .         00/06-23-077-15W4/0            : Location     - LOCATION
UWI .         00/06-23-077-15W4/0            : Uwi          - UNIQUE WELL ID
ENTR.         T                              : Entered      - ENTERED BY
SRVC.         SCHLUMBERGER                   : Scn          - SERVICE COMPANY
DATE.         03/04/92                       : Date         - LOG DATE
STRT.M        275                            : top_depth    - START DEPTH
STOP.M        515                            : bot_depth    - STOP DEPTH
STEP.M        0.25                           : increment    - STEP LENGTH
 NULL. -999.2500:NULL Value
~CURVE INFORMATION BLOCK
#MNEM UNIT       ERCB CURVE CODE    CURVE DESCRIPTION
#-----------   ------------------   ----------------------------------
DEPT.M        00 001 00 00         : DEPTH        - DEPTH
GR  .API      00 310 00 00         : GR           - GAMMA RAY
NPHI.V/V      00 330 00 00         : PHIN         - NEUTRON POROSITY (SANDSTONE)
DPHI.V/V      00 890 00 00         : PHID         - DENSITY POROSITY (SANDSTONE)
ILD .OHMM     00 120 00 00         : RESD         - DEEP RESISTIVITY (DIL)
~PARAMETER INFORMATION
#MNEM.UNIT           DATA             DESCRIPTION OF MNEMONIC
#---------         -----------     ------------------------------
GL  .M        673                  : gl           - GROUND LEVEL ELEVATION
EREF.M        676.9                : kb           - ELEVATION OF DEPTH REFERENCE
DATM.M        676.9                : datum        - DATUM ELEVATION
TDD .M        520                  : tdd          - TOTAL DEPTH DRILLER
RUN .         ONE                  : Run          - RUN NUMBER
ENG .         JO                   : Engineer     - RECORDING ENGINEER
WIT .         TIM                  : Witness      - WITNESSED BY
MUD .         GEL                  : Mud_type     - MUD TYPE
MATR.         SANDSTONE            : Logunit      - NEUTRON MATRIX
TMAX.C        21                   : BHT          - MAXIMUM RECORDED TEMPERATURE
BHTD.M        520                  : BHTDEP       - MAXIMUM RECORDED TEMPERATURE
RMT .C        18                   : MDTP         - TEMPERATURE OF MUD
MUDD.KG/M     1                    : MWT          - MUD DENSITY
NEUT.         1                    : NEUTRON      - NEUTRON TYPE
RESI.         0                    : RESIST       - RESISTIVITY TYPE
RM  .OHMM     4                    : RM           - RESISTIVITY OF MUD
RMC .OHMM     3.8                  : RMC          - RESISTIVITY OF MUD CAKE
RMF .OHMM     4.1                  : RMF          - RESISTIVITY OF MUD FILTRATE
SUFT.C        4                    : SUFT         - SURFACE TEMPERATURE
~A  DEPTH       GR     PHIN     PHID     RESD
# ...
  492.500   15.146    0.325    0.307  433.001
  492.750   12.701    0.325    0.293  434.504
  493.000   13.979    0.326    0.298  427.094
  493.250   16.517    0.327    0.302  420.434
  493.500   16.567    0.326    0.294  413.468
  493.750   15.994    0.325    0.284  378.455
  494.000   16.035    0.325    0.284  365.475
  494.250   18.572    0.330    0.279  334.692
  494.500   22.348    0.337    0.275  317.387
  494.750   25.509    0.339    0.274  312.129
  495.000   21.181    0.339    0.279  301.722
  495.250   16.853    0.339    0.300  296.870
  495.500   13.169    0.339    0.308  291.952
  495.750   11.318    0.338    0.282  287.257
  496.000   11.982    0.335    0.277  293.255
  496.250   13.906    0.331    0.283  293.836
  496.500   15.829    0.340    0.292  259.088
  496.750   17.118    0.357    0.308  201.234
  497.000   19.031    0.359    0.322  147.924
  497.250   22.192    0.354    0.344   66.537
  497.500   25.343    0.346    0.341   43.875
  497.750   32.884    0.338    0.188   30.539
  498.000   40.414    0.339    0.214   23.719
  498.250   46.071    0.326    0.229   20.177
  498.500   51.729    0.319    0.211   18.798
  498.750   58.645    0.314    0.209   18.496
  499.000   62.441    0.316    0.211   18.533
  499.250   64.968    0.318    0.213   18.235
  499.500   66.267    0.320    0.218   18.280
  499.750   64.425    0.320    0.229   18.652
  500.000   62.594    0.321    0.236   19.747
  500.250   60.138    0.324    0.234   20.499
  500.500   58.307    0.325    0.223   22.101
  500.750   57.099    0.324    0.209   24.699
  501.000   60.271    0.322    0.218   29.150
  501.250   62.194    0.321    0.235   35.035
  501.500   57.856    0.321    0.248   34.489
  501.750   45.414    0.321    0.260   31.553
  502.000   39.838    0.321    0.249   28.852
  502.250   37.383    0.317    0.218   23.240
  502.500   42.416    0.316    0.212   18.382
  502.750   51.195    0.317    0.215   14.799
  503.000   66.224    0.309    0.228    9.763
  503.250   75.636    0.304    0.250    8.453
  503.500   60.689    0.316    0.275    7.594
  503.750   56.361    0.325    0.299    6.826
  504.000   49.536    0.320    0.324    6.473
  504.250   37.085    0.314    0.333    6.144
  504.500   27.150    0.312    0.262    6.049
  504.750   32.174    0.315    0.266    6.058
  505.000   31.590    0.310    0.257    6.073
  505.250   29.135    0.306    0.262    6.079
  505.500   24.807    0.310    0.281    6.094
  505.750   21.737    0.312    0.297    6.103
  506.000   22.412    0.316    0.292    6.118
  506.250   23.077    0.315    0.281    6.130
  506.500   23.732    0.313    0.275    6.142
  506.750   24.407    0.314    0.280    6.151
  507.000   26.310    0.320    0.292    6.166
  507.250   32.592    0.321    0.294    6.179
  507.500   37.656    0.322    0.289    6.194
  507.750   37.676    0.321    0.294    6.094
  508.000   37.103    0.321    0.300    5.996
  508.250   35.886    0.318    0.277    5.900
  508.500   32.816    0.306    0.270    5.909
  508.750   31.608    0.295    0.257    6.146
  509.000   33.532    0.297    0.215    6.620
  509.250   38.545    0.297    0.196    7.809
  509.500   57.943    0.297    0.184   11.470
  509.750   67.969    0.297    0.183   12.366
  510.000   74.886    0.296    0.187   12.624
  510.250   77.433    0.299    0.203   12.643
  510.500   74.977    0.307    0.216   12.446
  510.750   72.522    0.311    0.214   11.814
  511.000   71.304    0.317    0.218   11.618
  511.250   70.721    0.321    0.215   11.220
  511.500   71.386    0.322    0.210   11.040
  511.750   72.675    0.325    0.199   10.862
  512.000   74.588    0.326    0.166   10.687
  512.250   79.642    0.324    0.160   10.709
  512.500   84.041    0.319    0.155   10.536
  512.750   93.443    0.318    0.151   10.557
  513.000  100.984    0.317    0.146   10.583
  513.250  101.024    0.320    0.145   10.799
  513.500  102.313    0.323    0.142   11.014
  513.750  104.226    0.326    0.139   11.660
  514.000  106.140    0.327    0.136   11.904
  514.250  106.190    0.327    0.116   12.146
  514.500  105.607    0.327    0.095   12.170
  514.750  104.400    0.327    0.071   12.194
  515.000  104.430    0.327    0.044   12.678
