~VERSION INFORMATION
 VERS.                 2.0:   CWLS LOG ASCII STANDARD -VERSION 2.0
 WRAP.                  NO:   ONE LINE PER DEPTH STEP
~WELL INFORMATION BLOCK
#MNEM.UNIT           DATA                    DESCRIPTION OF MNEMONIC
#---------    -------------------            -------------------------------
# Generated from Intellog Unique Number	CW_70_72/WELL/903
NULL.         -999.25                        : NULL_VALUE
WELL.         CHIEFTAIN ET AL SMITH 07-19    : Well_name    - WELL              
LOC .         07-19-071-26W4                 : Location     - LOCATION          
UWI .         00/07-19-071-26W4/0            : Uwi          - UNIQUE WELL ID    
ENTR.         JAYE                           : Entered      - ENTERED BY        
SRVC.         SCHLUMBERGER                   : Scn          - SERVICE COMPANY   
DATE.         13 JUNE 76                     : Date         - LOG DATE          
STRT.M        445.008                        : top_depth    - START DEPTH       
STOP.M        702.258                        : bot_depth    - STOP DEPTH        
STEP.M        0.25                           : increment    - STEP LENGTH       
~CURVE INFORMATION BLOCK
#MNEM UNIT       ERCB CURVE CODE    CURVE DESCRIPTION
#-----------   ------------------   ----------------------------------
DEPT.M        00 001 00 00         : DEPTH        - DEPTH                       
DPHI.V/V      00 890 00 00         : PHID         - DENSITY POROSITY (SANDSTONE)
NPHI.V/V      00 330 00 00         : PHIN         - NEUTRON POROSITY (SANDSTONE)
GR  .API      00 310 00 00         : GR           - GAMMA RAY                   
CALI.MM       00 280 01 00         : CAL          - CALIPER                     
ILD .OHMM     00 120 00 00         : RESD         - DEEP RESISTIVITY (DIL)      
~PARAMETER INFORMATION       
#MNEM.UNIT           DATA             DESCRIPTION OF MNEMONIC
#---------         -----------     ------------------------------
GL  .M        633.374              : gl           - GROUND LEVEL ELEVATION      
EREF.M        636.422              : kb           - ELEVATION OF DEPTH REFERENCE
DATM.M        633.374              : datum        - DATUM ELEVATION             
TDD .M        627.888              : tdd          - TOTAL DEPTH DRILLER         
RUN .         ONE                  : Run          - RUN NUMBER                  
BASE.         EDM                  : Branch       - HOME BASE OF LOGGING UNIT   
MUD .         GEL CHEM             : Mud_type     - MUD TYPE                    
MATR.         SANDSTONE            : Logunit      - NEUTRON MATRIX              
TMAX.C        27.2222              : BHT          - MAXIMUM RECORDED TEMPERATURE
BHTD.M        627.888              : BHTDEP       - MAXIMUM RECORDED TEMPERATURE
RMT .C        16.6667              : MDTP         - TEMPERATURE OF MUD          
MUDD.KG/M     0                    : MWT          - MUD DENSITY                 
NEUT.         1                    : NEUTRON      - NEUTRON TYPE                
RESI.         0                    : RESIST       - RESISTIVITY TYPE            
RM  .OHMM     4.87                 : RM           - RESISTIVITY OF MUD          
RMC .OHMM     0                    : RMC          - RESISTIVITY OF MUD CAKE     
RMF .OHMM     3.87                 : RMF          - RESISTIVITY OF MUD FILTRATE 
SUFT.C        -17.7778             : SUFT         - SURFACE TEMPERATURE         
~A  DEPTH     PHID     PHIN       GR      CAL     RESD
# ...
  591.008    0.175    0.383   79.204  158.544    4.834
  591.258    0.172    0.386   79.847  158.367    4.787
  591.508    0.165    0.383   81.675  157.983    4.714
  591.758    0.162    0.377   83.877  158.014    4.574
  592.008    0.163    0.386   85.142  157.838    4.405
  592.258    0.166    0.396   86.097  157.558    4.235
  592.508    0.168    0.402   86.990  157.486    4.117
  592.758    0.172    0.416   88.381  157.208    4.017
  593.008    0.177    0.418   89.836  156.716    3.876
  593.258    0.179    0.413   91.038  156.121    3.789
  593.508    0.179    0.409   92.741  155.420    3.677
  593.758    0.175    0.417   94.694  154.304    3.541
  594.008    0.161    0.427   96.893  153.288    3.481
  594.258    0.171    0.435   99.469  154.471    3.434
  594.508    0.182    0.439  100.675  157.017    3.432
  594.758    0.186    0.429  100.818  160.191    3.482
  595.008    0.179    0.424  100.464  161.582    3.624
  595.258    0.168    0.433  100.234  161.827    3.787
  595.508    0.163    0.420   91.530  161.651    3.835
  595.758    0.165    0.402   88.184  161.477    3.825
  596.008    0.171    0.399   89.139  161.196    3.781
  596.258    0.177    0.398   86.791  160.910    3.758
  596.508    0.185    0.398   84.755  160.423    3.722
  596.758    0.190    0.397   83.031  159.410    3.713
  597.008    0.171    0.401   81.117  158.498    3.787
  597.258    0.159    0.405   80.577  157.173    4.084
  597.508    0.148    0.422   81.595  156.262    4.664
  597.758    0.135    0.426   83.483  155.249    5.426
  598.008    0.135    0.417   85.060  154.552    6.490
  598.258    0.138    0.404   84.582  154.164    7.564
  598.508    0.130    0.379   80.364  155.665    8.479
  598.758    0.122    0.361   73.778  157.479    9.348
  599.008    0.116    0.335   67.690  158.868    9.483
  599.258    0.127    0.328   61.727  160.367    8.342
  599.508    0.149    0.345   59.130  159.980    7.337
  599.758    0.158    0.326   58.526  158.549    7.054
  600.008    0.139    0.308   58.048  157.324    7.076
  600.258    0.121    0.330   63.242  156.310    7.476
  600.508    0.196    0.387   65.940  155.825    7.885
  600.758    0.209    0.352   59.292  155.651    8.597
  601.008    0.173    0.333   58.441  155.684    9.168
  601.258    0.138    0.314   58.399  155.816    9.248
  601.508    0.135    0.334   58.293  155.958    8.001
  601.758    0.170    0.363   58.187  155.987    6.595
  602.008    0.161    0.352   59.080  155.602    5.877
  602.258    0.133    0.321   61.033  155.320    5.355
  602.508    0.128    0.383   63.671  154.727    5.072
  602.758    0.175    0.398   65.871  154.444    4.903
  603.008    0.214    0.396   68.258  154.583    4.802
  603.258    0.230    0.401   72.329  154.720    4.694
  603.508    0.240    0.413   70.791  155.171    4.614
  603.758    0.250    0.426   70.190  155.520    4.535
  604.008    0.261    0.440   70.895  155.655    4.384
  604.258    0.249    0.412   71.974  155.585    4.246
  604.508    0.230    0.396   73.675  155.303    4.197
  604.758    0.212    0.396   71.514  155.338    4.241
  605.008    0.228    0.397   69.728  155.265    4.318
  605.258    0.220    0.393   71.617  155.300    4.413
  605.508    0.201    0.388   73.880  155.126    4.577
  605.758    0.181    0.377   72.591  155.155    4.801
  606.008    0.172    0.370   69.308  155.194    5.063
  606.258    0.163    0.365   70.450  155.014    5.320
  606.508    0.154    0.352   68.789  155.259    5.569
  606.758    0.144    0.339   68.246  155.286    5.712
  607.008    0.150    0.348   68.893  155.215    5.892
  607.258    0.163    0.354   68.225  155.982    6.032
  607.508    0.156    0.340   66.875  161.568    5.973
  607.758    0.135    0.324   66.706  163.686    5.742
  608.008    0.112    0.314   68.720  163.301    5.470
  608.258    0.103    0.313   72.356  162.289    5.133
  608.508    0.110    0.335   75.804  159.914    4.862
  608.758    0.142    0.349   78.503  156.389    4.683
  609.008    0.158    0.358   80.391  154.434    4.561
  609.258    0.171    0.351   83.028  155.306    4.483
  609.508    0.178    0.344   87.287  157.534    4.414
  609.758    0.172    0.339   88.097  161.125    4.532
  610.008    0.162    0.342   92.524  156.635    4.468
  610.258    0.156    0.350   93.737  156.679    4.347
  610.508    0.144    0.360   91.789  156.694    4.168
  610.758    0.129    0.371   91.082  156.731    4.086
  611.008    0.118    0.389   88.576  156.745    4.180
  611.258    0.147    0.409   83.844  156.782    4.596
  611.508    0.162    0.410   76.509  156.798    5.503
  611.758    0.175    0.405   69.794  156.841    6.939
  612.008    0.152    0.395   62.213  156.857   10.848
  612.258    0.110    0.370   55.561  156.986   13.556
  612.508    0.067    0.303   46.184  156.899   14.551
  612.758    0.036    0.259   40.337  156.938   13.847
  613.008    0.056    0.249   47.493  156.952   11.814
  613.258    0.048    0.244   54.892  157.101    9.137
  613.508    0.041    0.243   61.983  157.220    7.695
  613.758    0.042    0.245   71.612  157.340    6.529
  614.008    0.053    0.268   79.879  157.367    5.759
  614.258    0.073    0.314   84.557  157.503    5.252
  614.508    0.106    0.356   85.707  157.736    4.953
  614.758    0.138    0.385   86.671  157.977    4.946
  615.008    0.139    0.380   87.567  158.207    5.154
  615.258    0.128    0.375   88.406  158.659    5.292
  615.508    0.128    0.381   87.018  158.996    5.354
  615.758    0.128    0.392   84.265  159.118    5.376
  616.008    0.121    0.389   81.078  159.458    5.379
  616.258    0.125    0.372   78.637  159.806    5.352
  616.508    0.120    0.360   82.694  159.928    5.295
  616.758    0.119    0.351   81.304  160.267    5.211
  617.008    0.134    0.361   80.780  160.728    5.155
  617.258    0.141    0.373   81.991  160.951    5.119
  617.508    0.121    0.375   83.142  161.401    5.150
  617.758    0.122    0.371   83.854  161.736    5.210
  618.008    0.127    0.367   85.250  162.188    5.390
  618.258    0.132    0.371   87.635  162.514    5.606
  618.508    0.142    0.375   86.433  162.855    5.735
  618.758    0.124    0.366   84.607  163.409    5.867
  619.008    0.117    0.353   84.022  163.755    5.913
  619.258    0.109    0.345   83.067  163.989    5.982
  619.508    0.099    0.358   81.677  164.008    6.165
  619.758    0.114    0.352   74.899  163.927    6.377
  620.008    0.107    0.329   76.233  163.744    6.744
  620.258    0.101    0.317   79.861  163.260    6.886
  620.508    0.125    0.358   77.292  162.959    6.915
  620.758    0.054    0.301   66.800  162.257    6.618
  621.008    0.010    0.251   72.593  161.452    6.148
  621.258    0.029    0.240   79.747  161.153    5.797
  621.508    0.083    0.291   82.999  160.453    5.486
  621.758    0.108    0.319   85.693  159.960    5.399
  622.008    0.121    0.343   89.443  159.667    5.431
  622.258    0.134    0.349   87.867  159.279    5.464
  622.508    0.126    0.331   87.405  159.091    5.467
  622.758    0.099    0.337   86.014  159.024    5.439
  623.008    0.070    0.328   84.500  158.829    5.432
  623.258    0.076    0.320   88.436  158.648    5.345
  623.508    0.092    0.324   93.607  158.671    5.201
  623.758    0.103    0.330   98.841  158.607    5.042
  624.008    0.120    0.340  104.570  158.622    4.998
  624.258    0.140    0.361  103.120  158.765    5.315
  624.508    0.151    0.379   89.470  158.781    5.998
  624.758    0.146    0.363   80.652  158.799    6.607
  625.008    0.120    0.339   75.176  158.824    6.975
  625.258    0.078    0.311   73.539  158.856    6.119
  625.508    0.064    0.292   77.656  158.879    5.115
  625.758    0.105    0.300   88.092  159.024    3.613
  626.008    0.150    0.421   95.863  159.040    2.831
  626.258    0.190    0.536   99.864  159.178    2.264
  626.508    0.220    0.522   99.709  159.095    1.942
  626.758    0.232    0.488   97.516  159.219    1.907
  627.008    0.186    0.471  100.459  159.244    1.988
  627.258    0.181    0.487  103.524  159.384    2.064
