~VERSION INFORMATION
 VERS.                 2.0:   CWLS LOG ASCII STANDARD -VERSION 2.0
 WRAP.                  NO:   ONE LINE PER DEPTH STEP
~WELL INFORMATION BLOCK
#MNEM.UNIT           DATA                    DESCRIPTION OF MNEMONIC
#---------    -------------------            -------------------------------
# Generated from Intellog Unique Number	CS_77_79/WELL/899
WELL.         BRALORNE RESOURCES LIMITED     : Well_name    - WELL
LOC .         00/07-16-077-14W4/0            : Location     - LOCATION
UWI .         00/07-16-077-14W4/0            : Uwi          - UNIQUE WELL ID
ENTR.         SP                             : Entered      - ENTERED BY
SRVC.         SCHLUMBERGER                   : Scn          - SERVICE COMPANY
STRT.M        280                            : top_depth    - START DEPTH
STOP.M        530                            : bot_depth    - STOP DEPTH
STEP.M        0.25                           : increment    - STEP LENGTH
 NULL. -999.2500:NULL Value
~CURVE INFORMATION BLOCK
#MNEM UNIT       ERCB CURVE CODE    CURVE DESCRIPTION
#-----------   ------------------   ----------------------------------
DEPT.M        00 001 00 00         : DEPTH        - DEPTH
ILD .OHMM     00 120 00 00         : RESD         - DEEP RESISTIVITY (DIL)
DPHI.V/V      00 890 00 00         : PHID         - DENSITY POROSITY (LIMESTONE)
NPHI.V/V      00 330 00 00         : PHIN         - NEUTRON POROSITY (LIMESTONE)
GR  .API      00 310 00 00         : GR           - GAMMA RAY
~PARAMETER INFORMATION
#MNEM.UNIT           DATA             DESCRIPTION OF MNEMONIC
#---------         -----------     ------------------------------
GL  .M        683.2                : gl           - GROUND LEVEL ELEVATION
EREF.M        686.9                : kb           - ELEVATION OF DEPTH REFERENCE
DATM.M        683.2                : datum        - DATUM ELEVATION
TDD .M        530                  : tdd          - TOTAL DEPTH DRILLER
RUN .         ONE                  : Run          - RUN NUMBER
ENG .         BILL                 : Engineer     - RECORDING ENGINEER
WIT .         JIM                  : Witness      - WITNESSED BY
MUD .         GEL                  : Mud_type     - MUD TYPE
MATR.         LIMESTONE            : Logunit      - NEUTRON MATRIX
TMAX.C        30                   : BHT          - MAXIMUM RECORDED TEMPERATURE
BHTD.M        530                  : BHTDEP       - MAXIMUM RECORDED TEMPERATURE
MATR.         1                    : LOGUNIT      - NEUTRON MATRIX
RMT .C        25                   : MDTP         - TEMPERATURE OF MUD
NEUT.         1                    : NEUTRON      - NEUTRON TYPE
RESI.         0                    : RESIST       - RESISTIVITY TYPE
RMC .OHMM     0.25                 : RMC          - RESISTIVITY OF MUD CAKE
RMF .OHMM     0.25                 : RMF          - RESISTIVITY OF MUD FILTRATE
SUFT.C        15                   : SUFT         - SURFACE TEMPERATURE
~A  DEPTH     RESD     PHID     PHIN       GR
# ...
  323.500   13.613    0.267    0.359  113.979
  323.750   13.879    0.270    0.363  112.765
  324.000   13.881    0.274    0.360  112.164
  324.250   13.122    0.277    0.363  109.727
  324.500   12.638    0.274    0.371  102.389
  324.750   12.172    0.270    0.381   98.729
  325.000   11.504    0.274    0.388  103.639
  325.250   11.291    0.274    0.380  110.384
  325.500   11.083    0.270    0.350  117.130
  325.750   11.300    0.270    0.334  120.201
  326.000   11.518    0.278    0.342  123.277
  326.250   12.197    0.281    0.360  125.124
  326.500   12.433    0.287    0.369  121.460
  326.750   12.915    0.296    0.353  114.125
  327.000   14.204    0.276    0.348   93.316
  327.250   14.755    0.243    0.356   79.247
  327.500   15.622    0.226    0.355   71.298
  327.750   15.627    0.224    0.354   62.126
  328.000   15.052    0.245    0.353   63.360
  328.250   13.698    0.269    0.355   68.272
  328.500   13.193    0.279    0.359   76.241
  328.750   12.950    0.284    0.362   84.823
  329.000   13.200    0.286    0.364   83.613
  329.250   13.457    0.288    0.370   84.236
  329.500   13.209    0.283    0.384   85.472
  329.750   11.796    0.275    0.384   86.708
  330.000   10.336    0.261    0.379   86.717
  330.250    9.584    0.246    0.377   91.626
  330.500    8.559    0.230    0.368   98.986
  330.750    8.243    0.206    0.357  108.791
  331.000    7.645    0.194    0.360  122.275
  331.250    7.363    0.198    0.374  126.569
  331.500    6.959    0.210    0.395  130.252
  331.750    6.831    0.223    0.416  136.999
  332.000    6.833    0.233    0.428  135.173
  332.250    7.235    0.245    0.441  129.063
  332.500    7.375    0.254    0.448  117.441
  332.750    7.518    0.260    0.448  111.330
  333.000    7.961    0.244    0.422  111.341
  333.250    8.270    0.220    0.421  112.577
  333.500    8.755    0.213    0.425  113.200
  333.750    9.629    0.214    0.402  111.986
  334.000   10.193    0.223    0.377  112.611
  334.250   10.793    0.241    0.370  112.620
  334.500   10.796    0.262    0.372  111.409
  334.750   10.799    0.271    0.384  108.357
  335.000   10.017    0.274    0.400   97.960
  335.250    9.467    0.269    0.421   93.687
  335.500    8.946    0.264    0.427   92.471
  335.750    8.455    0.285    0.433   97.385
  336.000    8.299    0.300    0.438  100.454
  336.250    9.126    0.311    0.410  102.299
  336.500   11.243    0.324    0.397   93.739
  336.750   12.361    0.334    0.391   80.282
  337.000   14.944    0.325    0.365   54.577
  337.250   16.122    0.314    0.346   43.569
  337.500   17.727    0.320    0.344   44.193
  337.750   19.864    0.335    0.357   49.103
  338.000   21.033    0.341    0.363   50.949
  338.250   21.446    0.340    0.364   52.185
  338.500   21.858    0.336    0.363   54.033
  338.750   21.867    0.327    0.353   60.167
  339.000   21.871    0.323    0.347   64.464
  339.250   21.067    0.322    0.348   63.251
  339.500   21.075    0.331    0.344   66.322
  339.750   21.081    0.334    0.337   67.558
  340.000   21.087    0.344    0.338   65.731
  340.250   21.094    0.354    0.359   61.458
  340.500   21.506    0.355    0.361   59.022
  340.750   21.923    0.347    0.342   57.805
  341.000   22.348    0.331    0.335   54.757
  341.250   22.783    0.326    0.333   53.544
  341.500   23.669    0.327    0.335   52.333
  341.750   24.592    0.332    0.335   51.117
  342.000   24.599    0.333    0.333   49.294
  342.250   24.604    0.327    0.328   48.688
  342.500   24.612    0.322    0.326   47.477
  342.750   24.162    0.321    0.323   47.495
  343.000   23.714    0.323    0.323   46.893
  343.250   23.726    0.323    0.324   47.515
  343.500   23.731    0.322    0.324   47.526
  343.750   24.190    0.321    0.322   46.922
  344.000   24.201    0.317    0.320   46.930
  344.250   24.671    0.314    0.323   45.720
  344.500   24.678    0.312    0.324   45.115
  344.750   24.222    0.317    0.325   44.519
  345.000   23.779    0.319    0.330   43.916
  345.250   23.785    0.313    0.333   45.152
  345.500   23.346    0.308    0.324   46.997
  345.750   23.352    0.311    0.318   48.231
  346.000   22.924    0.317    0.326   47.630
  346.250   23.369    0.338    0.340   47.030
  346.500   23.820    0.331    0.337   42.758
  346.750   25.222    0.312    0.319   40.933
  347.000   26.705    0.297    0.310   40.327
  347.250   27.741    0.284    0.291   40.343
  347.500   29.933    0.262    0.264   40.962
  347.750   32.920    0.266    0.260   40.361
  348.000   34.198    0.275    0.275   40.375
  348.250   34.206    0.284    0.283   42.836
  348.500   34.220    0.283    0.299   44.068
  348.750   32.961    0.277    0.294   41.632
  349.000   32.353    0.273    0.281   39.191
  349.250   32.359    0.299    0.291   40.431
  349.500   30.586    0.331    0.319   42.894
  349.750   28.367    0.348    0.332   44.125
  350.000   27.321    0.351    0.327   46.583
  350.250   26.312    0.348    0.333   49.044
  350.500   24.405    0.350    0.349   49.668
  350.750   23.952    0.357    0.359   52.741
  351.000   22.639    0.362    0.367   57.654
  351.250   21.397    0.366    0.367   59.496
  351.500   20.609    0.369    0.365   61.346
  351.750   19.848    0.372    0.365   60.134
  352.000   19.116    0.370    0.368   58.309
  352.250   18.768    0.366    0.370   57.094
  352.500   18.774    0.354    0.362   55.266
  352.750   18.427    0.338    0.352   55.893
  353.000   18.433    0.326    0.352   56.516
  353.250   18.438    0.337    0.364   52.851
  353.500   18.442    0.360    0.374   51.637
  353.750   18.105    0.369    0.388   52.266
  354.000   18.108    0.372    0.388   52.276
  354.250   17.778    0.367    0.374   52.897
  354.500   17.782    0.362    0.366   52.294
  354.750   17.454    0.352    0.356   51.080
  355.000   17.132    0.353    0.360   49.255
  355.250   17.137    0.360    0.365   48.046
  355.500   16.821    0.365    0.367   46.833
  355.750   16.827    0.366    0.369   46.228
  356.000   16.833    0.365    0.370   43.788
  356.250   16.523    0.364    0.375   41.969
  356.500   16.845    0.364    0.381   42.587
  356.750   16.849    0.364    0.380   45.662
  357.000   16.854    0.366    0.372   46.286
  357.250   16.860    0.371    0.372   46.907
  357.500   16.866    0.374    0.378   49.368
  357.750   16.871    0.374    0.384   50.604
  358.000   16.877    0.372    0.391   48.165
  358.250   16.884    0.369    0.397   44.505
  358.500   16.890    0.363    0.403   43.288
  358.750   16.894    0.361    0.402   42.075
  359.000   16.899    0.359    0.383   41.478
  359.250   16.903    0.358    0.382   41.487
  359.500   16.911    0.361    0.393   42.110
  359.750   16.598    0.364    0.395   43.346
  360.000   16.603    0.364    0.390   41.517
  360.250   16.609    0.364    0.367   39.079
  360.500   16.615    0.365    0.346   42.767
  360.750   16.619    0.366    0.340   43.388
  361.000   16.624    0.368    0.356   41.564
  361.250   16.948    0.370    0.368   45.252
  361.500   16.635    0.368    0.361   46.482
  361.750   16.638    0.368    0.360   48.332
  362.000   17.618    0.368    0.367   49.567
  362.250   17.294    0.367    0.377   48.967
  362.500   17.301    0.366    0.380   45.304
  362.750   17.308    0.365    0.374   44.092
  363.000   17.313    0.361    0.366   44.100
  363.250   17.649    0.357    0.363   44.724
  363.500   17.653    0.351    0.372   44.736
  363.750   17.657    0.346    0.385   43.522
  364.000   17.662    0.345    0.393   42.919
  364.250   17.011    0.351    0.393   42.932
  364.500   16.699    0.358    0.388   42.943
  364.750   16.390    0.360    0.383   42.960
  365.000   16.395    0.358    0.379   42.356
  365.250   16.713    0.356    0.378   41.756
  365.500   16.722    0.351    0.375   41.151
  365.750   17.046    0.341    0.360   40.552
  366.000   17.376    0.334    0.352   40.566
  366.250   17.714    0.320    0.342   40.575
  366.500   18.057    0.310    0.351   39.974
  366.750   18.411    0.314    0.365   39.986
