~VERSION INFORMATION
 VERS.                 2.0:   CWLS LOG ASCII STANDARD -VERSION 2.0
 WRAP.                  NO:   ONE LINE PER DEPTH STEP
~WELL INFORMATION BLOCK
#MNEM.UNIT           DATA                    DESCRIPTION OF MNEMONIC
#---------    -------------------            -------------------------------
# Generated from Intellog Unique Number	CS_69_70/WELL/800
WELL.         AEC FISHER CRK                 : Well_name    - WELL
LOC .         00/06-19-069-04W4/0            : Location     - LOCATION
UWI .         00/06-19-069-04W4/0            : Uwi          - UNIQUE WELL ID
ENTR.         SP                             : Entered      - ENTERED BY
SRVC.         SCHLUMBERGER                   : Scn          - SERVICE COMPANY
STRT.M        300                            : top_depth    - START DEPTH
STOP.M        550                            : bot_depth    - STOP DEPTH
STEP.M        0.25                           : increment    - STEP LENGTH
 NULL. -999.2500:NULL Value
~CURVE INFORMATION BLOCK
#MNEM UNIT       ERCB CURVE CODE    CURVE DESCRIPTION
#-----------   ------------------   ----------------------------------
DEPT.M        00 001 00 00         : DEPTH        - DEPTH
ILD .OHMM     00 120 00 00         : RESD         - DEEP RESISTIVITY (DIL)
DPHI.V/V      00 890 00 00         : PHID         - DENSITY POROSITY (LIMESTONE)
NPHI.V/V      00 330 00 00         : PHIN         - NEUTRON POROSITY (LIMESTONE)
GR  .API      00 310 00 00         : GR           - GAMMA RAY
~PARAMETER INFORMATION
#MNEM.UNIT           DATA             DESCRIPTION OF MNEMONIC
#---------         -----------     ------------------------------
GL  .M        687.9                : gl           - GROUND LEVEL ELEVATION
EREF.M        691.6                : kb           - ELEVATION OF DEPTH REFERENCE
DATM.M        687.9                : datum        - DATUM ELEVATION
TDD .M        557                  : tdd          - TOTAL DEPTH DRILLER
RUN .         ONE                  : Run          - RUN NUMBER
ENG .         BILL                 : Engineer     - RECORDING ENGINEER
WIT .         JIM                  : Witness      - WITNESSED BY
MUD .         GEL                  : Mud_type     - MUD TYPE
MATR.         LIMESTONE            : Logunit      - NEUTRON MATRIX
TMAX.C        21                   : BHT          - MAXIMUM RECORDED TEMPERATURE
BHTD.M        5572                 : BHTDEP       - MAXIMUM RECORDED TEMPERATURE
MATR.         1                    : LOGUNIT      - NEUTRON MATRIX
RMT .C        25                   : MDTP         - TEMPERATURE OF MUD
NEUT.         1                    : NEUTRON      - NEUTRON TYPE
RESI.         0                    : RESIST       - RESISTIVITY TYPE
RMC .OHMM     0.25                 : RMC          - RESISTIVITY OF MUD CAKE
RMF .OHMM     0.25                 : RMF          - RESISTIVITY OF MUD FILTRATE
SUFT.C        15                   : SUFT         - SURFACE TEMPERATURE
~A  DEPTH     RESD     PHID     PHIN       GR
  300.000    2.544    0.247    0.483  100.446
  300.250    2.582    0.250    0.488  100.383
  300.500    2.597    0.252    0.502  100.809
  300.750    2.621    0.254    0.526  102.207
  301.000    2.636    0.251    0.546  103.666
  301.250    2.645    0.249    0.499  104.091
  301.500    2.675    0.256    0.512  101.046
  301.750    2.695    0.265    0.522  104.819
  302.000    2.695    0.265    0.515  104.331
  302.250    2.685    0.258    0.520  102.259
  302.500    2.685    0.254    0.527  100.858
  302.750    2.705    0.257    0.524  101.465
  303.000    2.715    0.263    0.509  100.977
  303.250    2.710    0.268    0.514   98.479
  303.500    2.715    0.274    0.516   95.251
  303.750    2.719    0.282    0.516   93.545
  304.000    2.719    0.290    0.518   93.361
  304.250    2.724    0.276    0.535   95.247
  304.500    2.729    0.262    0.552   95.124
  304.750    2.745    0.253    0.568   95.488
  305.000    2.765    0.265    0.531   96.886
  305.250    2.775    0.284    0.507   98.468
  305.500    2.775    0.274    0.498   99.319
  305.750    2.770    0.267    0.495   98.343
  306.000    2.759    0.264    0.506   96.880
  306.250    2.759    0.263    0.518   96.270
  306.500    2.759    0.259    0.528  101.504
  306.750    2.738    0.257    0.533  102.903
  307.000    2.717    0.257    0.537   95.292
  307.250    2.702    0.262    0.546   92.551
  307.500    2.682    0.258    0.557   95.046
  307.750    2.681    0.260    0.565   94.314
  308.000    2.702    0.268    0.531   93.034
  308.250    2.701    0.271    0.518   92.363
  308.500    2.701    0.259    0.514   92.117
  308.750    2.686    0.252    0.533   92.359
  309.000    2.691    0.255    0.545   93.880
  309.250    2.691    0.277    0.521   96.009
  309.500    2.691    0.275    0.525   95.764
  309.750    2.680    0.273    0.544   93.389
  310.000    2.645    0.275    0.556   92.961
  310.250    2.630    0.283    0.527   92.168
  310.500    2.615    0.282    0.517   88.210
  310.750    2.615    0.275    0.531   86.138
  311.000    2.605    0.269    0.541   87.355
  311.250    2.581    0.293    0.534   89.180
  311.500    2.542    0.302    0.541   90.152
  311.750    2.537    0.283    0.553   89.968
  312.000    2.527    0.276    0.559   90.514
  312.250    2.504    0.274    0.540   89.235
  312.500    2.503    0.275    0.532   90.390
  312.750    2.499    0.273    0.541   93.858
  313.000    2.503    0.276    0.549   95.379
  313.250    2.489    0.286    0.565   94.281
  313.500    2.484    0.275    0.559   95.985
  313.750    2.470    0.287    0.546   97.262
  314.000    2.447    0.300    0.533   90.320
  314.250    2.442    0.297    0.518   88.432
  314.500    2.446    0.285    0.511   92.022
  314.750    2.456    0.279    0.515   94.029
  315.000    2.483    0.270    0.554   93.115
  315.250    2.516    0.259    0.578   95.366
  315.500    2.530    0.254    0.560   93.477
  315.750    2.530    0.255    0.552   88.788
  316.000    2.501    0.264    0.547   93.109
  316.250    2.497    0.272    0.537   99.195
  316.500    2.501    0.272    0.538   95.115
  316.750    2.501    0.268    0.548   90.791
  317.000    2.501    0.258    0.520   91.094
  317.250    2.501    0.247    0.518   89.023
  317.500    2.500    0.236    0.532   83.908
  317.750    2.519    0.228    0.540   81.593
  318.000    2.524    0.240    0.539   83.783
  318.250    2.538    0.247    0.541   84.208
  318.500    2.557    0.252    0.545   86.459
  318.750    2.586    0.271    0.546   89.745
  319.000    2.605    0.271    0.538   89.683
  319.250    2.639    0.269    0.545   85.359
  319.500    2.659    0.269    0.516   89.193
  319.750    2.669    0.260    0.503   89.678
  320.000    2.674    0.252    0.508   87.485
  320.250    2.694    0.249    0.520   93.876
  320.500    2.719    0.239    0.513   98.257
  320.750    2.755    0.243    0.524  100.569
  321.000    2.797    0.251    0.517   99.228
  321.250    2.882    0.254    0.496   97.705
  321.500    2.942    0.235    0.499   95.877
  321.750    3.020    0.211    0.512   95.511
  322.000    3.071    0.198    0.476   96.726
  322.250    3.159    0.185    0.491   97.517
  322.500    3.255    0.190    0.518   98.550
  322.750    3.298    0.190    0.509   98.914
  323.000    3.310    0.235    0.512   98.852
  323.250    3.323    0.256    0.519   96.841
  323.500    3.329    0.265    0.504   93.796
  323.750    3.341    0.265    0.494   98.360
  324.000    3.360    0.250    0.501   99.881
  324.250    3.378    0.248    0.506   98.722
  324.500    3.378    0.257    0.510   99.208
  324.750    3.359    0.244    0.522  100.972
  325.000    3.321    0.238    0.535  102.006
  325.250    3.302    0.243    0.510   98.473
  325.500    3.403    0.250    0.483   94.210
  325.750    3.546    0.237    0.467   90.313
  326.000    3.627    0.222    0.462   89.398
  326.250    3.634    0.217    0.498   95.302
  326.500    3.633    0.247    0.529  100.049
  326.750    3.606    0.257    0.501   95.177
  327.000    3.572    0.254    0.492   94.506
  327.250    3.538    0.249    0.485   99.923
  327.500    3.512    0.239    0.507   98.399
  327.750    3.512    0.242    0.528   94.928
  328.000    3.551    0.235    0.511   95.901
  328.250    3.687    0.226    0.447   88.959
  328.500    4.499    0.220    0.404   75.930
  328.750    7.415    0.231    0.374   69.780
  329.000   15.055    0.305    0.224   64.665
  329.250   28.300    0.337    0.185   59.367
  329.500   38.946    0.361    0.175   58.331
  329.750   42.940    0.362    0.184   60.825
  330.000   44.833    0.364    0.196   63.990
  330.250   44.579    0.359    0.204   65.815
  330.500   35.379    0.338    0.213   63.561
  330.750   29.153    0.308    0.224   63.498
  331.000   24.525    0.295    0.241   67.941
  331.250   20.670    0.306    0.257   70.922
  331.500   17.552    0.324    0.276   73.782
  331.750   17.322    0.340    0.285   74.085
  332.000   16.776    0.361    0.269   68.300
  332.250   15.946    0.370    0.271   66.838
  332.500   14.299    0.377    0.292   73.107
  332.750   12.233    0.349    0.341   78.279
  333.000   10.929    0.298    0.364   82.052
  333.250    9.708    0.292    0.367   85.521
  333.500    8.838    0.300    0.353   89.355
  333.750    8.228    0.288    0.367   92.032
  334.000    8.274    0.280    0.392   91.909
  334.250    8.819    0.282    0.416   83.080
  334.500    9.208    0.289    0.418   79.183
  334.750    9.471    0.296    0.411   80.094
  335.000    9.596    0.304    0.427   90.259
  335.250    9.541    0.309    0.438   99.998
  335.500    9.541    0.282    0.417  103.040
  335.750    9.487    0.263    0.358   94.273
  336.000    9.380    0.271    0.339   87.331
  336.250    6.866    0.287    0.364   92.992
  336.500    6.840    0.257    0.385   91.529
  336.750    6.879    0.236    0.397   85.866
  337.000    6.904    0.231    0.396   83.856
  337.250    6.943    0.229    0.399   84.585
  337.500    6.981    0.226    0.400   86.105
  337.750    7.021    0.224    0.408   89.817
  338.000    7.126    0.228    0.416   93.590
  338.250    7.180    0.241    0.402   97.119
  338.500    7.206    0.263    0.398  100.831
  338.750    7.152    0.271    0.408  104.422
  339.000    7.018    0.279    0.421  107.951
  339.250    6.785    0.284    0.423  111.420
  339.500    6.485    0.239    0.421  111.296
  339.750    6.015    0.221    0.434  112.147
  340.000    5.384    0.201    0.459  116.833
  340.250    4.810    0.186    0.458  119.754
  340.500    4.563    0.197    0.462  119.753
  340.750    4.329    0.208    0.470  120.421
  341.000    4.053    0.214    0.485  123.707
  341.250    3.853    0.214    0.508  117.008
  341.500    3.573    0.216    0.531  114.633
  341.750    3.435    0.227    0.548  115.849
  342.000    3.448    0.240    0.562   93.932
  342.250    3.553    0.256    0.519   77.920
  342.500    3.844    0.273    0.432   63.917
  342.750    4.493    0.303    0.416   51.984
  343.000    5.350    0.324    0.402   44.738
  343.250    6.206    0.339    0.394   44.189
