~VERSION INFORMATION
 VERS.                 2.0:   CWLS LOG ASCII STANDARD -VERSION 2.0
 WRAP.                  NO:   ONE LINE PER DEPTH STEP
~WELL INFORMATION BLOCK
#MNEM.UNIT           DATA                    DESCRIPTION OF MNEMONIC
#---------    -------------------            -------------------------------
# Generated from Intellog Unique Number	CC_80_83/WELL/2304
NULL.         -999.25                        : NULL_VALUE
WELL.         CAN SUP PONY                   : Well_name    - WELL
LOC .         07-26-082-07W4                 : Location     - LOCATION          
UWI .         00/07-26-082-07W4/0            : Uwi          - UNIQUE WELL ID    
ENTR.         DW                             : Entered      - ENTERED BY        
SRVC.         SCHLUMBERGER                   : Scn          - SERVICE COMPANY   
DATE.         22 FEB 77                      : Date         - LOG DATE
STRT.M        198.12                         : top_depth    - START DEPTH       
STOP.M        451.109                        : bot_depth    - STOP DEPTH        
STEP.M        0.305                          : increment    - STEP LENGTH       
~CURVE INFORMATION BLOCK
#MNEM UNIT       ERCB CURVE CODE    CURVE DESCRIPTION
#-----------   ------------------   ----------------------------------
DEPT.M        00 001 00 00         : DEPTH        - DEPTH                       
DPHI.V/V      00 890 00 00         : PHID         - DENSITY POROSITY (LIMESTONE)
NPHI.V/V      00 330 00 00         : PHIN         - NEUTRON POROSITY (LIMESTONE)
GR  .API      00 310 00 00         : GR           - GAMMA RAY                   
ILD .OHMM     00 120 00 00         : RESD         - DEEP RESISTIVITY (DIL)      
~PARAMETER INFORMATION       
#MNEM.UNIT           DATA             DESCRIPTION OF MNEMONIC
#---------         -----------     ------------------------------
GL  .M        651.967              : gl           - GROUND LEVEL ELEVATION      
EREF.M        655.625              : kb           - ELEVATION OF DEPTH REFERENCE
DATM.M        655.625              : datum        - DATUM ELEVATION             
TDD .M        457.81               : tdd          - TOTAL DEPTH DRILLER         
RUN .         ONE                  : Run          - RUN NUMBER                  
ENG .         BILL                 : Engineer     - RECORDING ENGINEER          
WIT .         JIM                  : Witness      - WITNESSED BY                
MUD .         GEL                  : Mud_type     - MUD TYPE                    
MATR.         LIMESTONE            : Logunit      - NEUTRON MATRIX              
TMAX.C        31.1111              : BHT          - MAXIMUM RECORDED TEMPERATURE
BHTD.M        457.81               : BHTDEP       - MAXIMUM RECORDED TEMPERATURE
MATR.         1                    : LOGUNIT      - NEUTRON MATRIX              
RMT .C        25                   : MDTP         - TEMPERATURE OF MUD          
NEUT.         1                    : NEUTRON      - NEUTRON TYPE                
RESI.         0                    : RESIST       - RESISTIVITY TYPE            
RMC .OHMM     0.25                 : RMC          - RESISTIVITY OF MUD CAKE     
RMF .OHMM     0.25                 : RMF          - RESISTIVITY OF MUD FILTRATE 
SUFT.C        4                    : SUFT         - SURFACE TEMPERATURE         
~A  DEPTH     PHID     PHIN       GR     RESD
  198.120    0.313    0.593   93.446    2.998
  198.425    0.302    0.587   90.343    2.940
  198.730    0.306    0.596   98.305    2.828
  199.034    0.284    0.576  101.964    2.825
  199.339    0.290    0.541  102.553    2.823
  199.644    0.281    0.549  100.685    2.768
  199.949    0.288    0.592   99.426    2.819
  200.254    0.284    0.598   98.161    2.817
  200.558    0.291    0.596   97.522    2.761
  200.863    0.308    0.564   98.108    2.656
  201.168    0.296    0.543  100.545    2.554
  201.473    0.281    0.559  106.050    2.552
  201.778    0.283    0.572  101.717    2.599
  202.082    0.266    0.575   98.000    2.697
  202.387    0.284    0.553   99.198    2.748
  202.692    0.267    0.540  100.406    2.853
  202.997    0.254    0.537   99.141    2.960
  203.301    0.276    0.532   97.891    3.016
  203.606    0.259    0.505   94.787    3.190
  203.911    0.236    0.528   96.603    3.376
  204.216    0.262    0.544  103.331    3.572
  204.521    0.249    0.525  103.310    3.708
  204.825    0.241    0.524  100.824    3.849
  205.130    0.251    0.525  104.489    3.920
  205.435    0.240    0.522  105.069    3.843
  205.740    0.268    0.483  102.586    3.626
  206.045    0.262    0.507  103.775    3.421
  206.349    0.242    0.529  103.142    3.419
  206.654    0.240    0.519  102.502    3.482
  206.959    0.222    0.497   98.166    3.901
  207.264    0.225    0.508   96.301    3.973
  207.569    0.231    0.527  101.189    3.821
  207.873    0.252    0.538   99.319    3.967
  208.178    0.253    0.541   86.991    4.530
  208.483    0.263    0.462   74.048    5.374
  208.788    0.211    0.428   73.410    6.497
  209.093    0.236    0.420   72.771    7.007
  209.397    0.254    0.399   69.053    7.273
  209.702    0.268    0.402   72.707    6.734
  210.007    0.274    0.460   80.059    5.351
  210.312    0.279    0.485   92.948    4.680
  210.617    0.242    0.504  102.139    4.092
  210.921    0.224    0.514  101.492    3.717
  211.226    0.217    0.487   96.547    4.164
  211.531    0.224    0.502   87.913    5.538
  211.836    0.183    0.454   76.817    8.102
  212.141    0.152    0.417   69.417   10.178
  212.445    0.207    0.429   59.549   12.787
  212.750    0.268    0.423   50.918   14.882
  213.055    0.307    0.413   52.731   16.356
  213.360    0.315    0.424   64.384   16.034
  213.665    0.316    0.432   77.263   14.290
  213.969    0.309    0.429   85.232   10.931
  214.274    0.300    0.439   90.118    9.202
  214.579    0.294    0.455   90.711    7.745
  214.884    0.267    0.477   94.369    7.170
  215.188    0.266    0.481   96.804    8.033
  215.493    0.297    0.477   85.088   11.311
  215.798    0.338    0.432   80.141   13.421
  216.103    0.341    0.411   81.345   15.621
  216.408    0.318    0.400   82.550   17.835
  216.712    0.310    0.409   78.221   18.166
  217.017    0.307    0.405   79.423   16.497
  217.322    0.298    0.413   75.699   15.868
  217.627    0.276    0.403   67.686   16.162
  217.932    0.242    0.404   59.049   16.150
  218.236    0.296    0.407   55.333   16.445
  218.541    0.311    0.412   57.764   16.121
  218.846    0.278    0.420   65.111   15.803
  219.151    0.296    0.412   68.769   15.202
  219.456    0.286    0.422   65.671   14.621
  219.760    0.283    0.396   60.724   14.894
  220.065    0.256    0.402   58.853   15.757
  220.370    0.234    0.397   55.136   16.670
  220.675    0.221    0.401   55.110   17.305
  220.980    0.305    0.415   62.451   17.623
  221.284    0.310    0.428   65.487   16.951
  221.589    0.305    0.438   66.085   16.305
  221.894    0.301    0.420   67.909   15.383
  222.199    0.286    0.421   72.182   14.796
  222.504    0.283    0.420   74.609   13.961
  222.808    0.264    0.425   75.807   12.923
  223.113    0.263    0.421   78.243   12.674
  223.418    0.277    0.422   81.910   12.188
  223.723    0.270    0.410   79.418   12.180
  224.028    0.269    0.403   78.776   12.642
  224.332    0.258    0.392   80.597   12.877
  224.637    0.253    0.393   87.322   12.867
  224.942    0.262    0.410   87.296   12.857
  225.247    0.273    0.423   86.042   12.846
  225.551    0.262    0.426   85.399   12.594
  225.856    0.279    0.418   82.300   12.583
  226.161    0.267    0.404   84.727   12.571
  226.466    0.272    0.412   82.237   12.802
  226.771    0.283    0.429   77.297   13.288
  227.075    0.313    0.434   71.737   13.799
  227.380    0.316    0.435   74.169   14.600
  227.685    0.288    0.422   82.742   14.041
  227.990    0.258    0.407   87.023   13.505
  228.295    0.272    0.505   88.222   12.990
  228.599    0.405    0.557   79.581   12.492
  228.904    0.422    0.448   78.331   13.217
  229.209    0.350    0.423   86.907   15.093
  229.514    0.320    0.427   84.423   17.234
  229.819    0.327    0.416   82.547   18.944
  230.123    0.340    0.419   76.991   19.665
  230.428    0.342    0.404   75.728   19.651
  230.733    0.330    0.398   80.011   19.263
  231.038    0.321    0.422   81.828   18.884
  231.343    0.300    0.431   72.571   18.514
  231.647    0.290    0.429   62.086   18.149
  231.952    0.305    0.435   57.150   17.452
  232.257    0.348    0.437   52.200   17.438
  232.562    0.354    0.438   55.867   17.763
  232.867    0.326    0.440   61.986   18.440
  233.171    0.324    0.457   63.796   18.776
  233.476    0.317    0.461   68.072   19.121
  233.781    0.291    0.447   71.737   19.476
  234.086    0.272    0.459   77.241   19.461
  234.391    0.288    0.451   82.743   19.078
  234.695    0.316    0.442   84.567   18.351
  235.000    0.297    0.410   82.694   17.317
  235.305    0.279    0.408   90.035   16.032
  235.610    0.238    0.433   94.933   15.130
  235.914    0.218    0.457  100.437   13.225
  236.219    0.240    0.463  104.098   12.013
  236.524    0.232    0.476  106.530   11.339
  236.829    0.231    0.459  107.732   10.497
  237.134    0.271    0.445  107.704   10.490
  237.438    0.290    0.460  103.989   11.098
  237.743    0.284    0.471   97.189   12.197
  238.048    0.291    0.460   90.401   13.154
  238.353    0.303    0.445   83.616   13.919
  238.658    0.350    0.443   78.670   15.010
  238.962    0.455    0.597   68.187   15.881
  239.267    0.548    0.652   52.178   15.867
  239.572    0.609    0.693   50.914   14.972
  239.877    0.487    0.642   66.872   13.093
  240.182    0.418    0.585   77.913    9.828
  240.486    0.347    0.529   88.335    7.377
  240.791    0.292    0.513   93.845    5.752
  241.096    0.257    0.507   91.356    5.428
  241.401    0.263    0.490   90.712    5.321
  241.706    0.258    0.501   90.069    5.848
  242.010    0.245    0.475   83.889    6.938
  242.315    0.255    0.449   80.792    8.076
  242.620    0.262    0.451   85.069   10.144
  242.925    0.232    0.425  102.255   12.742
  243.230    0.199    0.405  112.681   15.118
  243.534    0.285    0.412  121.255   16.303
  243.839    0.318    0.426  120.002   15.678
  244.144    0.310    0.432  117.511   15.367
  244.449    0.310    0.420  124.248   15.356
  244.754    0.307    0.417  115.611   15.641
  245.058    0.326    0.414  100.217   16.236
  245.363    0.317    0.409   79.899   16.535
  245.668    0.304    0.443   79.258   16.521
  245.973    0.298    0.443   84.759   16.512
  246.277    0.313    0.443   90.882   15.580
  246.582    0.300    0.420   95.773   14.703
  246.887    0.279    0.411   95.127   13.873
  247.192    0.265    0.430   98.785   13.091
  247.497    0.264    0.444  102.441   12.352
  247.801    0.269    0.440  103.654   11.656
  248.106    0.275    0.432  101.777   10.996
  248.411    0.271    0.420   93.141   10.992
  248.716    0.276    0.414   82.046   11.628
  249.021    0.270    0.414   72.801   12.540
  249.325    0.280    0.424   48.180   13.784
  249.630    0.297    0.416   48.144   14.866
  249.935    0.308    0.406   53.039   16.971
  250.240    0.316    0.394   61.618   18.302
  250.545    0.303    0.391   71.432   19.002
  250.849    0.297    0.404   81.234   18.273
