~VERSION INFORMATION
 VERS.                 2.0:   CWLS LOG ASCII STANDARD -VERSION 2.0
 WRAP.                  NO:   ONE LINE PER DEPTH STEP
~WELL INFORMATION BLOCK
#MNEM.UNIT           DATA                    DESCRIPTION OF MNEMONIC
#---------    -------------------            -------------------------------
# Generated from Intellog Unique Number	CW_76_78/WELL/2573
WELL.         SCURRY ET AL MCMULLEN          : Well_name    - WELL
LOC .         00/07-11-078-02W5/0            : Location     - LOCATION
UWI .         00/07-11-078-02W5/0            : Uwi          - UNIQUE WELL ID
ENTR.         MAX                            : Entered      - ENTERED BY
SRVC.         SCHLUMBERGER                   : Scn          - SERVICE COMPANY
STRT.M        332.232                        : top_depth    - START DEPTH
STOP.M        582.232                        : bot_depth    - STOP DEPTH
STEP.M        0.25                           : increment    - STEP LENGTH
 NULL. -999.2500:NULL Value
~CURVE INFORMATION BLOCK
#MNEM UNIT       ERCB CURVE CODE    CURVE DESCRIPTION
#-----------   ------------------   ----------------------------------
DEPT.M        00 001 00 00         : DEPTH        - DEPTH
ILD .OHMM     00 120 00 00         : RESD         - DEEP RESISTIVITY (DIL)
NPHI.V/V      00 330 00 00         : PHIN         - NEUTRON POROSITY (SANDSTONE)
DPHI.V/V      00 890 00 00         : PHID         - DENSITY POROSITY (SANDSTONE)
CALI.MM       00 280 01 00         : CAL          - CALIPER
GR  .API      00 310 00 00         : GR           - GAMMA RAY
~PARAMETER INFORMATION
#MNEM.UNIT           DATA             DESCRIPTION OF MNEMONIC
#---------         -----------     ------------------------------
GL  .M        630.601              : gl           - GROUND LEVEL ELEVATION
EREF.M        634.289              : kb           - ELEVATION OF DEPTH REFERENCE
DATM.M        630.601              : datum        - DATUM ELEVATION
TDD .M        556.26               : tdd          - TOTAL DEPTH DRILLER
RUN .         ONE                  : Run          - RUN NUMBER
ENG .         BILL                 : Engineer     - RECORDING ENGINEER
WIT .         JIM                  : Witness      - WITNESSED BY
MUD .         GEL                  : Mud_type     - MUD TYPE
MATR.         SANDSTONE            : Logunit      - NEUTRON MATRIX
TMAX.C        31.1111              : BHT          - MAXIMUM RECORDED TEMPERATURE
BHTD.M        556.26               : BHTDEP       - MAXIMUM RECORDED TEMPERATURE
RMT .C        15.5556              : MDTP         - TEMPERATURE OF MUD
MUDD.KG/M     9700                 : MWT          - MUD DENSITY
NEUT.         1                    : NEUTRON      - NEUTRON TYPE
RESI.         0                    : RESIST       - RESISTIVITY TYPE
RM  .OHMM     3.75                 : RM           - RESISTIVITY OF MUD
RMC .OHMM     5.24                 : RMC          - RESISTIVITY OF MUD CAKE
RMF .OHMM     5.21                 : RMF          - RESISTIVITY OF MUD FILTRATE
SUFT.C        -12.2222             : SUFT         - SURFACE TEMPERATURE
~A  DEPTH     RESD     PHIN     PHID      CAL       GR
# ...
  368.732   14.024    0.489    0.329  221.558   50.602
  368.982   14.104    0.483    0.326  221.585   50.322
  369.232   13.710    0.520    0.318  221.114   48.878
  369.482   13.434    0.511    0.322  220.642   48.600
  369.732   14.185    0.490    0.316  220.174   49.199
  369.982   15.094    0.458    0.306  219.697   47.171
  370.232   17.542    0.419    0.285  219.719   46.310
  370.482   18.174    0.400    0.269  219.744   47.488
  370.732   17.109    0.457    0.282  219.768   50.124
  370.982   15.688    0.504    0.320  219.790   51.301
  371.232   15.373    0.527    0.328  219.319   50.440
  371.482   15.334    0.502    0.313  219.319   48.417
  371.732   15.335    0.497    0.311  219.365   47.847
  371.982   15.335    0.514    0.313  218.894   47.568
  372.232   15.217    0.522    0.331  218.894   47.291
  372.482   14.744    0.515    0.335  218.943   47.888
  372.732   12.771    0.532    0.342  218.962   48.776
  372.982   10.560    0.519    0.352  218.984   48.495
  373.232    9.139    0.486    0.343  219.006   46.762
  373.482    7.126    0.465    0.350  219.028   47.943
  373.732    6.416    0.469    0.354  219.050   48.535
  373.982    5.943    0.469    0.351  219.075   49.715
  374.232    5.667    0.463    0.352  219.590   49.729
  374.482    5.510    0.470    0.359  219.617   48.577
  374.732    5.432    0.483    0.354  219.642   48.297
  374.982    5.432    0.489    0.351  219.642   48.603
  375.232    5.512    0.486    0.351  219.680   48.616
  375.482    5.591    0.473    0.347  219.702   48.630
  375.732    5.631    0.462    0.350  219.233   48.354
  375.982    5.632    0.441    0.348  218.762   48.367
  376.232    5.593    0.440    0.349  218.784   49.834
  376.482    5.436    0.483    0.348  218.811   51.307
  376.732    5.357    0.510    0.344  218.830   50.737
  376.982    5.240    0.501    0.337  219.346   50.459
  377.232    5.161    0.483    0.330  219.367   51.637
  377.482    5.043    0.503    0.340  219.888   51.943
  377.732    4.926    0.530    0.336  220.403   51.371
  377.982    4.926    0.546    0.332  220.425   49.638
  378.232    4.966    0.525    0.336  220.447   49.362
  378.482    5.085    0.485    0.338  219.981   50.540
  378.732    5.244    0.457    0.334  220.491   52.009
  378.982    5.323    0.434    0.317  220.515   54.060
  379.232    5.284    0.433    0.312  221.526   57.277
  379.482    5.246    0.505    0.306  221.548   64.280
  379.732    5.128    0.513    0.302  221.570   64.588
  379.982    5.049    0.510    0.327  221.102   61.395
  380.232    5.050    0.504    0.333  221.614   55.874
  380.482    5.090    0.489    0.329  222.129   53.267
  380.732    5.090    0.477    0.314  222.151   51.242
  380.982    5.210    0.498    0.310  222.178   50.091
  381.232    5.329    0.500    0.326  222.200   49.813
  381.482    5.369    0.475    0.330  222.718   49.243
  381.732    5.409    0.441    0.328  222.737   48.094
  381.982    5.449    0.433    0.313  223.252   47.232
  382.232    5.449    0.455    0.310  223.767   46.370
  382.482    5.450    0.482    0.319  223.797   45.800
  382.732    5.451    0.479    0.317  223.814   45.523
  382.982    5.451    0.443    0.320  223.838   46.701
  383.232    5.412    0.418    0.307  223.858   47.297
  383.482    5.334    0.402    0.289  223.389   47.604
  383.732    5.334    0.394    0.282  223.416   47.615
  383.982    5.296    0.512    0.302  222.945   48.502
  384.232    5.138    0.539    0.310  222.967   48.809
  384.482    5.021    0.541    0.315  222.496   48.531
  384.732    4.942    0.567    0.320  222.520   48.546
  384.982    4.864    0.586    0.318  222.542   48.557
  385.232    4.825    0.547    0.337  223.548   48.279
  385.482    4.826    0.496    0.338  223.570   48.000
  385.732    4.826    0.479    0.332  223.101   48.013
  385.982    4.906    0.496    0.331  221.643   48.609
  386.232    4.906    0.521    0.324  219.695   48.625
  386.482    4.867    0.579    0.326  217.254   47.764
  386.732    4.867    0.565    0.335  215.793   47.194
  386.982    4.869    0.526    0.334  214.832   47.790
  387.232    4.830    0.526    0.334  214.358   48.094
  387.482    4.751    0.535    0.336  214.875   48.690
  387.732    4.594    0.543    0.335  215.390   50.453
  387.982    4.437    0.567    0.335  216.895   51.924
  388.232    4.240    0.585    0.333  218.399   51.644
  388.482    4.122    0.587    0.329  220.388   50.492
  388.732    4.123    0.561    0.344  220.418   48.468
  388.982    4.123    0.541    0.348  220.435   49.646
  389.232    4.163    0.544    0.356  220.473   50.531
  389.482    4.282    0.541    0.350  219.993   50.544
  389.732    4.401    0.511    0.343  220.015   49.395
  389.982    4.442    0.489    0.345  220.034   49.115
  390.232    4.403    0.482    0.348  220.034   48.838
  390.482    4.403    0.478    0.349  220.089   49.144
  390.732    4.364    0.473    0.344  220.100   50.032
  390.982    4.286    0.466    0.341  220.618   51.207
  391.232    4.286    0.466    0.340  223.109   53.262
  391.482    4.208    0.475    0.343  222.147   54.149
  391.732    4.051    0.485    0.338  221.180   54.163
  391.982    3.933    0.499    0.334  221.201   54.186
  392.232    3.894    0.519    0.340  221.719   53.606
  392.482    3.894    0.529    0.338  221.738   53.035
  392.732    3.856    0.510    0.348  221.267   53.631
  392.982    3.856    0.503    0.349  221.292   53.938
  393.232    3.778    0.557    0.348  220.820   53.951
  393.482    3.739    0.582    0.345  220.842   53.966
  393.732    3.740    0.594    0.343  220.376   53.975
  393.982    3.740    0.569    0.344  219.908   53.990
  394.232    3.780    0.538    0.350  219.930   53.712
  394.482    3.781    0.522    0.354  219.952   54.016
  394.732    3.821    0.511    0.348  219.974   54.904
  394.982    3.822    0.517    0.345  219.998   56.084
  395.232    3.783    0.533    0.343  220.015   56.677
  395.482    3.744    0.531    0.347  220.039   57.275
  395.732    3.745    0.507    0.345  220.039   56.996
  395.982    3.745    0.518    0.341  220.094   56.430
  396.232    3.746    0.518    0.338  220.105   55.567
  396.482    3.746    0.524    0.340  220.105   54.706
  396.732    3.747    0.518    0.348  220.165   54.430
  396.982    3.747    0.513    0.356  220.173   54.734
  397.232    3.788    0.510    0.355  220.201   55.331
  397.482    3.828    0.510    0.350  220.225   55.635
  397.732    3.868    0.517    0.340  220.242   55.648
  397.982    3.947    0.554    0.342  220.760   55.661
  398.232    4.145    0.540    0.342  220.781   55.384
  398.482    4.501    0.506    0.309  220.781   55.687
  398.732    5.015    0.498    0.286  221.324   57.158
  398.982    5.331    0.446    0.259  222.332   58.627
  399.232    5.372    0.356    0.167  222.850   60.680
  399.482    5.017    0.290    0.073  222.850   64.478
  399.732    4.504    0.321    0.062  222.891   70.026
  399.982    3.991    0.376    0.106  222.891   74.991
  400.232    3.558    0.529    0.194  222.951   76.751
  400.482    3.243    0.542    0.232  222.959   76.769
  400.732    3.046    0.509    0.244  222.984   76.487
  400.982    3.007    0.483    0.238  223.009   76.796
  401.232    3.007    0.479    0.227  223.025   78.266
  401.482    3.047    0.482    0.244  223.050   80.609
  401.732    3.047    0.479    0.261  223.568   82.950
  401.982    3.049    0.486    0.253  224.080   85.293
  402.232    2.931    0.477    0.248  224.595   87.636
  402.482    2.931    0.471    0.249  225.121   87.066
  402.732    2.892    0.488    0.239  225.628   85.332
  402.982    2.893    0.474    0.238  226.143   82.435
  403.232    2.894    0.481    0.236  226.661   82.155
  403.482    2.894    0.484    0.233  227.176   82.460
  403.732    2.895    0.491    0.230  227.198   82.183
  403.982    2.935    0.502    0.229  227.220   81.617
  404.232    2.935    0.513    0.229  227.738   81.626
  404.482    2.897    0.517    0.232  228.253   81.058
  404.732    2.818    0.503    0.230  229.762   83.110
  404.982    2.779    0.493    0.217  229.781   88.367
