~VERSION INFORMATION
 VERS.                 2.0:   CWLS LOG ASCII STANDARD -VERSION 2.0
 WRAP.                  NO:   ONE LINE PER DEPTH STEP
~WELL INFORMATION BLOCK
#MNEM.UNIT           DATA                    DESCRIPTION OF MNEMONIC
#---------    -------------------            -------------------------------
# Generated from Intellog Unique Number	CW_79_81/WELL/2458
WELL.         AMOCO BRINTNELL                : Well_name    - WELL
LOC .         00/07-15-081-23W4/0            : Location     - LOCATION
UWI .         00/07-15-081-23W4/0            : Uwi          - UNIQUE WELL ID
ENTR.         MAX                            : Entered      - ENTERED BY
SRVC.         COMPUTALOG                     : Scn          - SERVICE COMPANY
STRT.M        230                            : top_depth    - START DEPTH
STOP.M        455                            : bot_depth    - STOP DEPTH
STEP.M        0.25                           : increment    - STEP LENGTH
 NULL. -999.2500:NULL Value
~CURVE INFORMATION BLOCK
#MNEM UNIT       ERCB CURVE CODE    CURVE DESCRIPTION
#-----------   ------------------   ----------------------------------
DEPT.M        00 001 00 00         : DEPTH        - DEPTH
ILD .OHMM     00 120 00 00         : RESD         - DEEP RESISTIVITY (DIL)
NPHI.V/V      00 330 00 00         : PHIN         - NEUTRON POROSITY (SANDSTONE)
DPHI.V/V      00 890 00 00         : PHID         - DENSITY POROSITY (SANDSTONE)
GR  .API      00 310 00 00         : GR           - GAMMA RAY
CALI.MM       00 280 01 00         : CAL          - CALIPER
~PARAMETER INFORMATION
#MNEM.UNIT           DATA             DESCRIPTION OF MNEMONIC
#---------         -----------     ------------------------------
GL  .M        605                  : gl           - GROUND LEVEL ELEVATION
EREF.M        608.6                : kb           - ELEVATION OF DEPTH REFERENCE
DATM.M        605                  : datum        - DATUM ELEVATION
TDD .M        453.3                : tdd          - TOTAL DEPTH DRILLER
RUN .         ONE                  : Run          - RUN NUMBER
ENG .         BILL                 : Engineer     - RECORDING ENGINEER
WIT .         JIM                  : Witness      - WITNESSED BY
MUD .         GEL                  : Mud_type     - MUD TYPE
MATR.         SANDSTONE            : Logunit      - NEUTRON MATRIX
TMAX.C        32                   : BHT          - MAXIMUM RECORDED TEMPERATURE
BHTD.M        453.3                : BHTDEP       - MAXIMUM RECORDED TEMPERATURE
MATR.         1                    : LOGUNIT      - NEUTRON MATRIX
RMT .C        26.7                 : MDTP         - TEMPERATURE OF MUD
NEUT.         1                    : NEUTRON      - NEUTRON TYPE
RESI.         0                    : RESIST       - RESISTIVITY TYPE
RMC .OHMM     4                    : RMC          - RESISTIVITY OF MUD CAKE
RMF .OHMM     7.5                  : RMF          - RESISTIVITY OF MUD FILTRATE
SUFT.C        5                    : SUFT         - SURFACE TEMPERATURE
~A  DEPTH     RESD     PHIN     PHID       GR      CAL
# ...
  412.500   15.200    0.390    0.175   63.512  221.259
  412.750   14.698    0.383    0.194   64.201  221.428
  413.000   14.466    0.376    0.180   63.941  222.285
  413.250   14.244    0.381    0.169   63.693  222.282
  413.500   13.867    0.392    0.180   65.486  221.660
  413.750   13.296    0.405    0.197   69.074  221.039
  414.000   12.637    0.415    0.208   72.291  220.726
  414.250   11.983    0.421    0.207   71.205  220.723
  414.500   11.521    0.418    0.192   71.978  220.720
  414.750   11.344    0.420    0.179   73.461  220.718
  415.000   11.043    0.422    0.181   74.574  220.715
  415.250   10.835    0.421    0.190   75.687  220.712
  415.500   10.771    0.419    0.197   77.047  220.709
  415.750   10.765    0.417    0.191   78.365  220.878
  416.000   10.761    0.418    0.176   76.300  221.734
  416.250   10.757    0.413    0.160   73.823  222.557
  416.500   10.752    0.411    0.141   73.573  222.761
  416.750   10.747    0.411    0.131   74.686  222.346
  417.000   10.723    0.413    0.135   76.356  221.827
  417.250   10.638    0.418    0.153   78.097  222.408
  417.500   10.633    0.422    0.159   79.385  223.265
  417.750   10.550    0.425    0.164   78.393  224.912
  418.000   10.467    0.426    0.156   77.401  225.323
  418.250   10.384    0.425    0.155   76.161  225.114
  418.500   10.283    0.423    0.163   74.860  224.595
  418.750   10.125    0.418    0.168   74.373  223.852
  419.000   10.121    0.415    0.161   75.661  224.279
  419.250   10.041    0.418    0.150   79.620  225.514
  419.500   10.019    0.416    0.157   83.580  226.750
  419.750   10.015    0.413    0.170   84.445  227.366
  420.000    9.992    0.411    0.177   82.958  227.260
  420.250    9.912    0.414    0.177   84.215  226.758
  420.500    9.908    0.417    0.187   86.792  226.325
  420.750    9.905    0.426    0.198   89.018  225.085
  421.000   10.012    0.429    0.197   90.688  224.154
  421.250   10.310    0.426    0.190   91.058  223.532
  421.500   10.801    0.418    0.182   91.242  223.426
  421.750   11.571    0.410    0.180   94.830  224.248
  422.000   12.614    0.407    0.181   97.923  224.246
  422.250   13.682    0.402    0.181   94.456  223.829
  422.500   15.088    0.388    0.173   85.417  223.723
  422.750   16.754    0.374    0.150   75.016  223.515
  423.000   18.584    0.363    0.119   67.402  223.100
  423.250   20.566    0.353    0.105   67.327  222.856
  423.500   20.882    0.359    0.151   70.678  223.712
  423.750   20.101    0.368    0.172   74.390  224.535
  424.000   18.798    0.376    0.188   78.474  225.048
  424.250   18.118    0.382    0.192   80.701  225.252
  424.500   18.661    0.386    0.187   79.957  224.940
  424.750   21.971    0.390    0.190   73.662  223.355
  425.000   26.584    0.388    0.208   60.765  221.633
  425.250   29.907    0.365    0.244   45.910  221.630
  425.500   33.147    0.355    0.272   36.437  221.317
  425.750   37.038    0.350    0.288   31.483  221.108
  426.000   42.104    0.346    0.294   29.872  221.209
  426.250   49.312    0.342    0.295   30.118  221.618
  426.500   57.764    0.339    0.295   30.116  221.615
  426.750   59.056    0.342    0.298   28.876  221.612
  427.000   58.371    0.342    0.300   28.751  221.610
  427.250   55.512    0.339    0.301   29.120  222.020
  427.500   51.701    0.337    0.300   29.800  222.636
  427.750   47.577    0.342    0.298   31.397  222.632
  428.000   42.677    0.351    0.297   33.200  222.630
  428.250   40.465    0.359    0.301   34.189  222.627
  428.500   37.928    0.361    0.303   35.178  222.624
  428.750   35.855    0.364    0.300   37.033  222.415
  429.000   33.997    0.370    0.295   39.817  221.999
  429.250   31.037    0.381    0.289   43.250  221.498
  429.500   28.707    0.390    0.291   45.569  221.065
  429.750   27.846    0.388    0.289   48.044  221.063
  430.000   26.855    0.381    0.276   50.889  220.751
  430.250   25.554    0.371    0.253   53.611  220.541
  430.500   23.366    0.355    0.215   56.023  220.539
  430.750   18.960    0.322    0.136   58.714  220.535
  431.000   15.418    0.307    0.106   61.033  220.532
  431.250   13.749    0.305    0.074   63.507  220.530
  431.500   12.564    0.322    0.089   65.610  220.218
  431.750   11.748    0.345    0.130   67.961  220.008
  432.000   11.077    0.361    0.172   69.259  220.108
  432.250   10.163    0.358    0.184   65.770  220.604
  432.500    9.620    0.354    0.192   63.189  221.031
  432.750    9.545    0.373    0.197   68.882  221.441
  433.000    9.901    0.401    0.198   79.588  221.542
  433.250   10.767    0.414    0.194   81.196  221.126
  433.500   12.167    0.406    0.193   71.478  219.989
  433.750   14.416    0.386    0.211   58.848  217.664
  434.000   18.164    0.376    0.226   52.657  216.372
  434.250   20.584    0.368    0.236   52.408  218.432
  434.500   20.929    0.363    0.227   52.901  221.421
  434.750   18.146    0.361    0.196   58.718  223.688
  435.000   14.774    0.363    0.154   69.300  224.511
  435.250   12.701    0.375    0.133   80.192  224.181
  435.500   11.658    0.388    0.150   86.380  224.607
  435.750   11.221    0.390    0.163   80.684  224.605
  436.000   11.114    0.392    0.172   71.088  224.292
  436.250   11.564    0.396    0.191   64.030  224.083
  436.500   12.791    0.399    0.221   59.078  224.081
  436.750   15.594    0.393    0.257   48.770  224.077
  437.000   18.414    0.381    0.268   47.994  224.075
  437.250   20.567    0.368    0.267   50.468  224.485
  437.500   22.141    0.362    0.263   52.014  224.585
  437.750   23.163    0.362    0.263   51.765  224.583
  438.000   23.860    0.367    0.265   50.525  224.580
  438.250   24.463    0.376    0.257   51.338  224.404
  438.500   23.888    0.371    0.245   54.173  223.542
  438.750   22.820    0.369    0.232   55.657  222.301
  439.000   22.182    0.361    0.225   56.398  221.370
  439.250   22.009    0.352    0.221   56.892  221.161
  439.500   22.207    0.347    0.218   57.261  221.777
  439.750   22.604    0.351    0.211   57.054  223.184
  440.000   22.951    0.349    0.201   56.020  224.040
  440.250   23.113    0.345    0.162   53.543  224.863
  440.500   23.147    0.344    0.126   53.108  225.686
  440.750   22.702    0.346    0.108   54.963  226.096
  441.000   21.687    0.354    0.126   58.489  225.784
  441.250   19.740    0.377    0.214   62.717  224.542
  441.500   17.440    0.383    0.257   65.294  224.540
  441.750   11.694    0.377    0.249   68.016  224.949
  442.000    9.264    0.385    0.236   73.337  225.049
  442.250    7.748    0.400    0.220   77.793  225.253
  442.500    6.677    0.414    0.204   79.648  225.560
  442.750    5.954    0.419    0.197   78.593  225.557
  443.000    5.859    0.423    0.199   77.044  225.554
  443.250    5.946    0.429    0.207   77.537  225.964
  443.500    6.270    0.436    0.207   78.031  226.374
  443.750    6.682    0.440    0.199   77.163  226.783
  444.000    7.056    0.437    0.181   75.924  227.296
  444.250    7.391    0.426    0.158   78.789  228.807
  444.500    7.744    0.414    0.181   84.462  232.242
  444.750    8.096    0.408    0.187   82.975  230.589
  445.000    8.418    0.416    0.195   78.888  228.936
  445.250    8.608    0.435    0.219   73.439  227.901
  445.500    8.554    0.461    0.263   69.166  227.795
  445.750    8.097    0.492    0.330   70.165  228.617
  446.000    7.725    0.522    0.387   71.453  228.615
  446.250    7.436    0.545    0.404   72.937  228.612
  446.500    7.118    0.551    0.405   73.678  228.609
  446.750    6.881    0.549    0.379   74.543  228.812
  447.000    6.738    0.542    0.334   75.841  229.119
  447.250    6.614    0.528    0.294   77.170  229.288
  447.500    6.508    0.519    0.280   76.394  230.145
  447.750    6.506    0.509    0.273   74.660  229.317
  448.000    6.503    0.507    0.251   74.968  228.798
  448.250    6.500    0.502    0.228   75.461  228.383
  448.500    6.522    0.492    0.203   75.707  228.071
  448.750    6.659    0.481    0.156   76.799  227.895
