~VERSION INFORMATION
 VERS.                 2.0:   CWLS LOG ASCII STANDARD -VERSION 2.0
 WRAP.                  NO:   ONE LINE PER DEPTH STEP
~WELL INFORMATION BLOCK
#MNEM.UNIT           DATA                    DESCRIPTION OF MNEMONIC
#---------    -------------------            -------------------------------
# Generated from Intellog Unique Number	CS_73_76/WELL/2912
WELL.         BRALORNE OIL TOWER             : Well_name    - WELL
LOC .         00/07-32-076-15W4/0            : Location     - LOCATION
UWI .         00/07-32-076-15W4/0            : Uwi          - UNIQUE WELL ID
ENTR.         SP                             : Entered      - ENTERED BY
SRVC.         SCHLUMBERGER                   : Scn          - SERVICE COMPANY
STRT.M        305                            : top_depth    - START DEPTH
STOP.M        545                            : bot_depth    - STOP DEPTH
STEP.M        0.25                           : increment    - STEP LENGTH
 NULL. -999.2500:NULL Value
~CURVE INFORMATION BLOCK
#MNEM UNIT       ERCB CURVE CODE    CURVE DESCRIPTION
#-----------   ------------------   ----------------------------------
DEPT.M        00 001 00 00         : DEPTH        - DEPTH
DPHI.V/V      00 890 00 00         : PHID         - DENSITY POROSITY (LIMESTONE)
NPHI.V/V      00 330 00 00         : PHIN         - NEUTRON POROSITY (LIMESTONE)
GR  .API      00 310 00 00         : GR           - GAMMA RAY
ILD .OHMM     00 120 00 00         : RESD         - DEEP RESISTIVITY (DIL)
~PARAMETER INFORMATION
#MNEM.UNIT           DATA             DESCRIPTION OF MNEMONIC
#---------         -----------     ------------------------------
GL  .M        679.7                : gl           - GROUND LEVEL ELEVATION
EREF.M        684                  : kb           - ELEVATION OF DEPTH REFERENCE
DATM.M        679.7                : datum        - DATUM ELEVATION
TDD .M        557                  : tdd          - TOTAL DEPTH DRILLER
RUN .         ONE                  : Run          - RUN NUMBER
ENG .         BILL                 : Engineer     - RECORDING ENGINEER
WIT .         JIM                  : Witness      - WITNESSED BY
MUD .         GEL                  : Mud_type     - MUD TYPE
MATR.         LIMESTONE            : Logunit      - NEUTRON MATRIX
TMAX.C        21                   : BHT          - MAXIMUM RECORDED TEMPERATURE
BHTD.M        557                  : BHTDEP       - MAXIMUM RECORDED TEMPERATURE
MATR.         1                    : LOGUNIT      - NEUTRON MATRIX
RMT .C        25                   : MDTP         - TEMPERATURE OF MUD
NEUT.         1                    : NEUTRON      - NEUTRON TYPE
RESI.         0                    : RESIST       - RESISTIVITY TYPE
RMC .OHMM     0.25                 : RMC          - RESISTIVITY OF MUD CAKE
RMF .OHMM     0.25                 : RMF          - RESISTIVITY OF MUD FILTRATE
SUFT.C        15                   : SUFT         - SURFACE TEMPERATURE
~A  DEPTH     PHID     PHIN       GR     RESD
# ...
  435.500    0.294    0.359   85.140   10.001
  435.750    0.290    0.409   85.743   11.838
  436.000    0.301    0.429   84.509   11.405
  436.250    0.315    0.444   80.227   10.005
  436.500    0.327    0.462   75.947    8.778
  436.750    0.318    0.456   70.446    7.995
  437.000    0.309    0.450   72.871    7.146
  437.250    0.295    0.463   74.689    6.509
  437.500    0.270    0.476   76.502    6.154
  437.750    0.296    0.462   76.491    5.929
  438.000    0.288    0.474   75.257    5.820
  438.250    0.285    0.466   75.243    5.821
  438.500    0.303    0.457   75.840    5.713
  438.750    0.309    0.441   69.728    5.714
  439.000    0.315    0.440   67.278    5.715
  439.250    0.320    0.435   66.655    5.716
  439.500    0.331    0.443   66.643    5.611
  439.750    0.328    0.426   66.630    5.612
  440.000    0.322    0.415   67.218    5.719
  440.250    0.313    0.427   67.207    5.719
  440.500    0.323    0.433   66.588    5.614
  440.750    0.329    0.438   65.354    5.615
  441.000    0.333    0.444   64.730    5.615
  441.250    0.329    0.434   64.110    5.616
  441.500    0.318    0.417   64.703    5.617
  441.750    0.308    0.400   64.692    5.618
  442.000    0.296    0.419   64.070    5.725
  442.250    0.277    0.411   61.614    5.726
  442.500    0.246    0.391   59.776    5.945
  442.750    0.186    0.314   57.935    6.058
  443.000    0.187    0.403   59.751    6.779
  443.250    0.298    0.424   63.998    6.909
  443.500    0.320    0.425   65.207    6.292
  443.750    0.333    0.419   66.417    5.624
  444.000    0.327    0.424   67.624    5.219
  444.250    0.327    0.430   66.999    5.319
  444.500    0.339    0.432   65.765    5.221
  444.750    0.342    0.439   65.755    5.222
  445.000    0.343    0.438   65.132    5.223
  445.250    0.344    0.426   64.507    5.126
  445.500    0.346    0.434   65.103    5.127
  445.750    0.347    0.439   65.701    5.128
  446.000    0.346    0.437   65.078    5.225
  446.250    0.342    0.430   65.064    5.226
  446.500    0.352    0.450   66.270    5.227
  446.750    0.356    0.474   66.865    5.227
  447.000    0.351    0.468   67.463    5.228
  447.250    0.348    0.444   66.841    5.132
  447.500    0.342    0.429   65.605    5.037
  447.750    0.344    0.445   64.979    5.230
  448.000    0.336    0.463   64.360    5.330
  448.250    0.341    0.477   63.740    5.432
  448.500    0.339    0.487   62.506    5.640
  448.750    0.354    0.498   61.884    5.640
  449.000    0.345    0.489   64.305    5.537
  449.250    0.335    0.450   66.125    5.435
  449.500    0.335    0.478   69.162    5.538
  449.750    0.348    0.482   66.709    5.436
  450.000    0.346    0.460   65.472    5.336
  450.250    0.344    0.449   65.463    5.337
  450.500    0.344    0.430   65.447    5.142
  450.750    0.344    0.435   66.651    5.142
  451.000    0.331    0.441   66.644    5.143
  451.250    0.325    0.449   67.849    5.049
  451.500    0.325    0.458   68.443    5.049
  451.750    0.341    0.467   68.432    4.956
  452.000    0.343    0.465   67.197    4.957
  452.250    0.341    0.460   66.574    4.866
  452.500    0.337    0.451   66.558    4.959
  452.750    0.328    0.442   66.551    4.959
  453.000    0.317    0.428   66.536    4.960
  453.250    0.318    0.441   66.523    4.961
  453.500    0.327    0.447   64.679    4.961
  453.750    0.324    0.442   62.834    4.962
  454.000    0.323    0.443   62.826    4.963
  454.250    0.327    0.449   63.416    4.871
  454.500    0.327    0.440   64.016    4.872
  454.750    0.327    0.427   65.225    4.873
  455.000    0.333    0.430   66.431    4.874
  455.250    0.319    0.436   67.635    4.874
  455.500    0.310    0.445   67.620    4.967
  455.750    0.304    0.435   66.390    4.968
  456.000    0.310    0.428   65.159    4.969
  456.250    0.321    0.419   65.751    4.969
  456.500    0.319    0.421   66.349    4.970
  456.750    0.319    0.425   66.338    5.064
  457.000    0.320    0.422   66.322    5.065
  457.250    0.327    0.416   65.702    5.162
  457.500    0.329    0.414   65.079    5.260
  457.750    0.331    0.422   66.891    5.360
  458.000    0.318    0.427   68.097    5.361
  458.250    0.313    0.436   68.088    5.463
  458.500    0.306    0.444   66.246    5.567
  458.750    0.321    0.449   65.012    5.673
  459.000    0.328    0.430   67.436    5.674
  459.250    0.330    0.407   68.644    5.782
  459.500    0.245    0.377   68.021    6.003
  459.750    0.215    0.367   66.177    6.233
  460.000    0.260    0.440   66.165    6.594
  460.250    0.320    0.441   67.368    7.519
  460.500    0.313    0.435   67.969    7.662
  460.750    0.310    0.432   66.737    7.381
  461.000    0.318    0.448   66.723    7.111
  461.250    0.309    0.447   69.148    6.476
  461.500    0.304    0.441   72.790    6.010
  461.750    0.304    0.427   76.433    5.790
  462.000    0.295    0.436   78.254    5.683
  462.250    0.284    0.445   80.678    5.475
  462.500    0.262    0.441   83.105    5.275
  462.750    0.285    0.431   87.354    5.276
  463.000    0.291    0.434   90.389    5.277
  463.250    0.308    0.457   91.601    5.277
  463.500    0.303    0.466   92.806    5.278
  463.750    0.262    0.457   95.228    5.181
  464.000    0.220    0.441   97.045    5.182
  464.250    0.218    0.438   97.645    5.182
  464.500    0.235    0.434   97.021    5.087
  464.750    0.243    0.430   91.522    5.184
  465.000    0.244    0.417   84.798    5.693
  465.250    0.233    0.409   81.737    6.023
  465.500    0.223    0.432   80.504    6.138
  465.750    0.212    0.441   79.877    6.139
  466.000    0.218    0.441   79.260    6.140
  466.250    0.245    0.422   77.418    6.140
  466.500    0.249    0.405   74.350    6.257
  466.750    0.246    0.397   73.733    6.377
  467.000    0.232    0.377   71.890    7.136
  467.250    0.214    0.354   70.050    7.837
  467.500    0.183    0.327   67.597    8.291
  467.750    0.126    0.302   67.582    8.771
  468.000    0.109    0.355   76.716   10.982
  468.250    0.193    0.445   86.456   11.191
  468.500    0.209    0.454   91.323    9.282
  468.750    0.208    0.466   88.870    7.844
  469.000    0.213    0.456   92.514    7.416
  469.250    0.206    0.441   92.502    6.755
  469.500    0.183    0.431   90.660    6.630
  469.750    0.209    0.421   90.037    6.508
  470.000    0.217    0.432   89.413    6.758
  470.250    0.207    0.437   86.962    7.016
  470.500    0.196    0.426   83.289    7.285
  470.750    0.190    0.419   83.275    7.424
  471.000    0.219    0.411   85.701    7.854
  471.250    0.205    0.401   89.957    7.709
  471.500    0.196    0.412   96.648    7.710
  471.750    0.191    0.434   98.466    7.568
  472.000    0.192    0.451   96.621    7.570
  472.250    0.223    0.426   96.611    8.159
  472.500    0.204    0.404   97.204    8.472
  472.750    0.170    0.386   99.633    8.316
  473.000    0.180    0.410  103.883    7.717
  473.250    0.193    0.430  107.529    7.435
  473.500    0.204    0.423  109.956    7.298
  473.750    0.203    0.412  108.114    6.900
  474.000    0.193    0.407  103.223    6.773
  474.250    0.200    0.408  100.163    6.774
  474.500    0.200    0.403   97.710    6.649
  474.750    0.173    0.396   95.257    6.650
  475.000    0.189    0.392   94.026    6.528
  475.250    0.211    0.405   97.670    6.529
  475.500    0.191    0.445   99.484    6.290
  475.750    0.186    0.439  100.084    6.060
  476.000    0.216    0.423  102.508    5.838
  476.250    0.205    0.434  104.326    5.417
  476.500    0.206    0.450  104.309    5.317
  476.750    0.272    0.539  101.248    4.843
  477.000    0.276    0.544   98.793    3.869
  477.250    0.269    0.532   98.175    3.459
  477.500    0.252    0.529   97.549    2.923
  477.750    0.240    0.534   96.929    2.470
  478.000    0.247    0.527   93.867    2.208
  478.250    0.235    0.540   91.416    2.087
  478.500    0.234    0.549   95.060    2.088
  478.750    0.236    0.548  101.142    2.168
