~VERSION INFORMATION
 VERS.                 2.0:   CWLS LOG ASCII STANDARD -VERSION 2.0
 WRAP.                  NO:   ONE LINE PER DEPTH STEP
~WELL INFORMATION BLOCK
#MNEM.UNIT           DATA                    DESCRIPTION OF MNEMONIC
#---------    -------------------            -------------------------------
# Generated from Intellog Unique Number	CC_84_87/WELL/1074
NULL.         -999.25                        : NULL_VALUE
WELL.         PARA ET AL GRANOR              : Well_name    - WELL
LOC .         07-02-084-18W4                 : Location     - LOCATION          
UWI .         00/07-02-084-18W400            : Uwi          - UNIQUE WELL ID    
ENTR.         JHS                            : Entered      - ENTERED BY        
SRVC.         COMPUTALOG                     : Scn          - SERVICE COMPANY   
DATE.         25 FEB 82                      : Date         - LOG DATE
STRT.M        100                            : top_depth    - START DEPTH       
STOP.M        289.9                          : bot_depth    - STOP DEPTH        
STEP.M        0.3                            : increment    - STEP LENGTH       
~CURVE INFORMATION BLOCK
#MNEM UNIT       ERCB CURVE CODE    CURVE DESCRIPTION
#-----------   ------------------   ----------------------------------
DEPT.M        00 001 00 00         : DEPTH        - DEPTH                       
DPHI.V/V      00 890 00 00         : PHID         - DENSITY POROSITY (LIMESTONE)
NPHI.V/V      00 330 00 00         : PHIN         - NEUTRON POROSITY (LIMESTONE)
GR  .API      00 310 00 00         : GR           - GAMMA RAY                   
ILD .OHMM     00 120 00 00         : RESD         - DEEP RESISTIVITY (DIL)      
~PARAMETER INFORMATION       
#MNEM.UNIT           DATA             DESCRIPTION OF MNEMONIC
#---------         -----------     ------------------------------
GL  .M        547.8                : gl           - GROUND LEVEL ELEVATION      
EREF.M        550.3                : kb           - ELEVATION OF DEPTH REFERENCE
DATM.M        550.3                : datum        - DATUM ELEVATION             
TDD .M        293                  : tdd          - TOTAL DEPTH DRILLER         
RUN .         ONE                  : Run          - RUN NUMBER                  
ENG .         BILL                 : Engineer     - RECORDING ENGINEER          
WIT .         JIM                  : Witness      - WITNESSED BY                
MUD .         GEL                  : Mud_type     - MUD TYPE                    
MATR.         LIMESTONE            : Logunit      - NEUTRON MATRIX              
TMAX.C        21                   : BHT          - MAXIMUM RECORDED TEMPERATURE
BHTD.M        293                  : BHTDEP       - MAXIMUM RECORDED TEMPERATURE
MATR.         1                    : LOGUNIT      - NEUTRON MATRIX              
RMT .C        25                   : MDTP         - TEMPERATURE OF MUD          
NEUT.         1                    : NEUTRON      - NEUTRON TYPE                
RESI.         0                    : RESIST       - RESISTIVITY TYPE            
RMC .OHMM     0.25                 : RMC          - RESISTIVITY OF MUD CAKE     
RMF .OHMM     0.25                 : RMF          - RESISTIVITY OF MUD FILTRATE 
SUFT.C        15                   : SUFT         - SURFACE TEMPERATURE         
~A  DEPTH     PHID     PHIN       GR     RESD
# ...
  204.401    0.196    0.449  108.328    7.607
  204.701    0.188    0.433  103.400    7.613
  205.001    0.210    0.372   99.705    7.474
  205.301    0.223    0.316  108.975    7.337
  205.601    0.285    0.429  112.072    7.069
  205.901    0.297    0.474  105.908    6.809
  206.201    0.255    0.385   99.745    6.559
  206.501    0.209    0.348  100.371    6.319
  206.801    0.225    0.373  102.850    6.324
  207.101    0.221    0.396  105.330    6.574
  207.401    0.234    0.383  112.748    6.577
  207.701    0.246    0.402  114.608    6.099
  208.001    0.240    0.455  112.149    5.242
  208.301    0.225    0.505  105.368    4.255
  208.601    0.243    0.468   94.884    3.945
  208.901    0.276    0.406   91.189    3.874
  209.201    0.280    0.394   93.051    4.514
  209.501    0.262    0.429   91.209    5.896
  209.801    0.256    0.464   83.193    6.870
  210.101    0.244    0.485   85.673    7.707
  210.401    0.244    0.458   88.151    8.011
  210.701    0.240    0.410   96.187    7.867
  211.001    0.225    0.444   96.813    7.872
  211.301    0.244    0.383   95.590    7.877
  211.601    0.231    0.339  100.536    7.444
  211.901    0.212    0.353  106.720    6.646
  212.201    0.211    0.347  103.643    6.402
  212.501    0.211    0.363  105.504    6.051
  212.801    0.216    0.398  108.600    5.830
  213.101    0.225    0.428  108.610    5.723
  213.401    0.225    0.461  108.004    5.837
  213.701    0.209    0.494  112.951    6.184
  214.001    0.200    0.494  122.837    6.429
  214.301    0.216    0.494  125.316    6.433
  214.601    0.231    0.426  112.980    6.198
  214.901    0.236    0.383  112.991    6.085
  215.201    0.215    0.379  112.999    6.089
  215.501    0.204    0.388  111.775    5.978
  215.801    0.195    0.389  108.081    6.098
  216.101    0.200    0.378  101.917    6.338
  216.401    0.237    0.374  107.483    6.588
  216.701    0.226    0.447  119.221    7.115
  217.001    0.230    0.482  105.650    7.395
  217.301    0.242    0.472  101.339    7.836
  217.601    0.241    0.389  106.904    8.145
  217.901    0.228    0.358  108.148    8.468
  218.201    0.225    0.427  105.689    8.473
  218.501    0.206    0.451  102.612    8.163
  218.801    0.192    0.465   98.301    8.014
  219.101    0.154    0.385   91.520    8.331
  219.401    0.073    0.201   73.010    9.169
  219.701    0.061    0.297   77.959   10.482
  220.001    0.156    0.391   99.574   11.319
  220.301    0.203    0.416  108.844   11.326
  220.601    0.206    0.391  115.644   10.504
  220.901    0.200    0.387  114.419    9.377
  221.201    0.190    0.396  110.107    8.695
  221.501    0.199    0.455  110.734    8.377
  221.801    0.212    0.485  111.979    8.382
  222.101    0.217    0.435  108.902    8.549
  222.401    0.216    0.450  106.442    8.719
  222.701    0.197    0.355  105.218    9.063
  223.001    0.123    0.183   81.152    9.787
  223.301    0.020    0.123   65.112   10.979
  223.601    0.041    0.160   78.085   13.039
  223.901    0.148    0.284   99.701   14.350
  224.201    0.230    0.355  103.415   14.638
  224.501    0.204    0.354  107.745   13.833
  224.801    0.206    0.354  105.904   11.228
  225.101    0.215    0.384  108.382    9.291
  225.401    0.230    0.359  109.010    9.121
  225.701    0.237    0.342  105.316    9.127
  226.001    0.219    0.407  105.942    9.308
  226.301    0.204    0.418  104.099    9.493
  226.601    0.195    0.395  104.726    9.500
  226.901    0.204    0.405  107.206    9.152
  227.201    0.208    0.423  102.895    8.817
  227.501    0.197    0.412  106.608    8.656
  227.801    0.199    0.381  113.408    8.663
  228.101    0.194    0.368  112.801    8.505
  228.401    0.189    0.367  107.255    8.511
  228.701    0.197    0.397  113.437    8.356
  229.001    0.190    0.390  109.126    8.362
  229.301    0.209    0.394  106.667    8.211
  229.601    0.218    0.419  112.849    8.217
  229.901    0.198    0.422  113.476    8.220
  230.201    0.189    0.414  114.721    8.226
  230.501    0.195    0.418  114.731    8.232
  230.801    0.193    0.404  112.888    8.083
  231.101    0.190    0.377  114.132    7.937
  231.401    0.220    0.393  115.995    7.792
  231.701    0.221    0.424  111.066    7.651
  232.001    0.218    0.404   95.643    7.655
  232.301    0.215    0.413   94.418    7.808
  232.601    0.210    0.403   94.427    8.116
  232.901    0.214    0.419   93.203    8.598
  233.201    0.225    0.398   88.273    9.832
  233.501    0.053    0.205   74.702   11.240
  233.801    0.018    0.176   69.157   12.850
  234.101    0.174    0.322   74.104   14.414
  234.401    0.229    0.377   92.634   14.983
  234.701    0.242    0.374   91.410   14.712
  235.001    0.256    0.357   90.186   13.386
  235.301    0.248    0.367   92.046   11.504
  235.601    0.224    0.392   98.845   10.667
  235.901    0.232    0.405   98.238   10.474
  236.201    0.257    0.393   93.927   10.284
  236.501    0.255    0.379   90.234   10.290
  236.801    0.252    0.377   89.007   10.495
  237.101    0.257    0.398   88.400   10.502
  237.401    0.245    0.438   93.965   10.312
  237.701    0.222    0.400   90.271   10.719
  238.001    0.157    0.167   72.379   11.797
  238.301    0.018    0.093   60.659   16.007
  238.601    0.000    0.089   66.843   19.748
  238.901    0.000    0.114   66.853   22.152
  239.201    0.129    0.181   73.035   21.750
  239.501    0.213    0.379   94.033   16.674
  239.801    0.236    0.430  100.834   11.846
  240.101    0.251    0.434  103.930   10.180
  240.401    0.264    0.444   93.446    9.263
  240.701    0.254    0.407   96.543    9.094
  241.001    0.208    0.401  104.577    9.276
  241.301    0.221    0.373  110.143    8.768
  241.601    0.211    0.369  117.560    8.285
  241.901    0.211    0.436  128.063    7.257
  242.201    0.214    0.458  123.135    6.479
  242.501    0.198    0.416  105.242    6.608
  242.801    0.206    0.391   95.992    7.413
  243.101    0.214    0.401   98.472    8.314
  243.401    0.223    0.407  100.334    9.506
  243.701    0.202    0.385   92.318    9.882
  244.001    0.172    0.367  102.822    9.520
  244.301    0.196    0.387  115.795    8.828
  244.601    0.189    0.380  124.448    8.033
  244.901    0.191    0.400  123.839    7.592
  245.201    0.186    0.423  129.405    7.314
  245.501    0.172    0.377  126.945    7.180
  245.801    0.153    0.375  117.695    7.186
  246.101    0.136    0.355  114.618    7.190
  246.401    0.154    0.351  115.248    7.333
  246.701    0.188    0.344  116.490    7.338
  247.001    0.204    0.369  118.969    7.205
  247.301    0.182    0.427  120.830    7.210
  247.602    0.152    0.473  121.458    7.079
  247.902    0.138    0.461  120.851    6.951
  248.202    0.158    0.438  122.096    6.954
  248.502    0.177    0.408  127.043    7.093
  248.802    0.184    0.390  134.460    7.234
  249.102    0.184    0.401  133.237    6.838
  249.402    0.182    0.446  136.332    6.463
  249.702    0.175    0.485  132.020    6.108
  250.002    0.160    0.451  121.536    6.472
  250.302    0.131    0.426  112.903    7.122
  250.602    0.132    0.358  116.618    8.621
  250.902    0.188    0.343  118.479   10.239
  251.202    0.193    0.353  114.785   11.057
  251.502    0.183    0.363  116.647   11.278
  251.802    0.191    0.363  120.976   10.659
  252.102    0.198    0.377  127.777    9.699
  252.402    0.191    0.383  124.701    9.166
  252.702    0.196    0.393  114.834    9.001
  253.002    0.211    0.393  111.756    9.179
  253.302    0.215    0.320  107.445    9.724
  253.602    0.123    0.271  100.047   10.909
  253.902    0.113    0.244  101.291   11.779
  254.202    0.156    0.280  104.387   12.720
  254.502    0.204    0.305  101.310   12.973
  254.802    0.277    0.320  101.938   13.232
  255.102    0.273    0.326  100.713   12.747
  255.402    0.272    0.395  103.191   12.047
  255.702    0.250    0.423  105.670   11.828
  256.002    0.139    0.349   98.273   12.533
  256.302    0.058    0.210   79.145   14.603
