~VERSION INFORMATION
 VERS.                 2.0:   CWLS LOG ASCII STANDARD -VERSION 2.0
 WRAP.                  NO:   ONE LINE PER DEPTH STEP
~WELL INFORMATION BLOCK
#MNEM.UNIT           DATA                    DESCRIPTION OF MNEMONIC
#---------    -------------------            -------------------------------
# Generated from Intellog Unique Number	CW_73_75/WELL/3523
WELL.         08-16-075-05W5                 : Well_name    - WELL
LOC .         00/08-16-075-05W5/0            : Location     - LOCATION
UWI .         00/08-16-075-05W5/0            : Uwi          - UNIQUE WELL ID
ENTR.         JOETTE                         : Entered      - ENTERED BY
SRVC.         SCHLUMBERGER                   : Scn          - SERVICE COMPANY
DATE.         05/25/92                       : Date         - LOG DATE
STRT.M        675                            : top_depth    - START DEPTH
STOP.M        925                            : bot_depth    - STOP DEPTH
STEP.M        0.25                           : increment    - STEP LENGTH
 NULL. -999.2500:NULL Value
~CURVE INFORMATION BLOCK
#MNEM UNIT       ERCB CURVE CODE    CURVE DESCRIPTION
#-----------   ------------------   ----------------------------------
DEPT.M        00 001 00 00         : DEPTH        - DEPTH
NPHI.V/V      00 330 00 00         : PHIN         - NEUTRON POROSITY (SANDSTONE)
GR  .API      00 310 00 00         : GR           - GAMMA RAY
DPHI.V/V      00 890 00 00         : PHID         - DENSITY POROSITY (SANDSTONE)
ILD .OHMM     00 120 00 00         : RESD         - DEEP RESISTIVITY (DIL)
~PARAMETER INFORMATION
#MNEM.UNIT           DATA             DESCRIPTION OF MNEMONIC
#---------         -----------     ------------------------------
GL  .M        964.66               : gl           - GROUND LEVEL ELEVATION
EREF.M        968.35               : kb           - ELEVATION OF DEPTH REFERENCE
DATM.M        968.35               : datum        - DATUM ELEVATION
TDD .M        1221.6               : tdd          - TOTAL DEPTH DRILLER
RUN .         ONE                  : Run          - RUN NUMBER
ENG .         BILL                 : Engineer     - RECORDING ENGINEER
WIT .         JIM                  : Witness      - WITNESSED BY
MUD .         GEL                  : Mud_type     - MUD TYPE
MATR.         SANDSTONE            : Logunit      - NEUTRON MATRIX
TMAX.C        49                   : BHT          - MAXIMUM RECORDED TEMPERATURE
BHTD.M        1221.8               : BHTDEP       - MAXIMUM RECORDED TEMPERATURE
RMT .C        19                   : MDTP         - TEMPERATURE OF MUD
MUDD.KG/M     1080                 : MWT          - MUD DENSITY
NEUT.         1                    : NEUTRON      - NEUTRON TYPE
RESI.         0                    : RESIST       - RESISTIVITY TYPE
RM  .OHMM     1.9                  : RM           - RESISTIVITY OF MUD
RMC .OHMM     2.1                  : RMC          - RESISTIVITY OF MUD CAKE
RMF .OHMM     4.3                  : RMF          - RESISTIVITY OF MUD FILTRATE
SUFT.C        4                    : SUFT         - SURFACE TEMPERATURE
~A  DEPTH     PHIN       GR     PHID     RESD
# ...
  718.500    0.535   74.414    0.298    2.943
  718.750    0.578   77.345    0.306    2.528
  719.000    0.611   82.633    0.325    2.342
  719.250    0.598   87.912    0.320    2.336
  719.500    0.559   83.747    0.301    2.561
  719.750    0.526   73.653    0.305    2.859
  720.000    0.497   65.932    0.301    3.192
  720.250    0.483   57.029    0.312    3.629
  720.500    0.463   47.534    0.304    3.976
  720.750    0.447   33.892    0.321    4.279
  721.000    0.428   30.302    0.331    4.686
  721.250    0.432   28.494    0.335    4.764
  721.500    0.435   26.695    0.346    4.846
  721.750    0.440   25.478    0.357    4.835
  722.000    0.445   27.809    0.361    4.825
  722.250    0.428   28.958    0.361    4.633
  722.500    0.429   32.471    0.358    4.539
  722.750    0.436   31.837    0.355    4.448
  723.000    0.440   30.621    0.355    4.351
  723.250    0.440   29.995    0.355    4.264
  723.500    0.432   29.970    0.356    4.252
  723.750    0.425   31.118    0.355    4.247
  724.000    0.427   31.675    0.355    4.231
  724.250    0.435   32.233    0.356    4.227
  724.500    0.441   35.138    0.360    4.213
  724.750    0.443   35.112    0.363    4.208
  725.000    0.441   32.122    0.362    4.279
  725.250    0.434   31.496    0.357    4.430
  725.500    0.436   30.871    0.360    4.589
  725.750    0.439   30.837    0.356    4.751
  726.000    0.436   31.394    0.350    4.835
  726.250    0.431   31.951    0.341    4.820
  726.500    0.421   31.917    0.343    4.903
  726.750    0.416   31.292    0.345    4.895
  727.000    0.416   30.658    0.336    4.884
  727.250    0.419   31.215    0.337    4.874
  727.500    0.421   31.190    0.341    4.770
  727.750    0.417   31.738    0.337    4.760
  728.000    0.413   32.887    0.335    4.664
  728.250    0.411   35.218    0.338    4.649
  728.500    0.413   36.375    0.348    4.644
  728.750    0.423   35.158    0.352    4.548
  729.000    0.435   34.533    0.354    4.454
  729.250    0.433   34.499    0.354    4.362
  729.500    0.428   33.873    0.346    4.267
  729.750    0.429   33.231    0.346    4.181
  730.000    0.441   33.197    0.351    4.014
  730.250    0.446   33.763    0.358    3.933
  730.500    0.440   35.502    0.357    3.783
  730.750    0.437   40.198    0.346    3.636
  731.000    0.444   38.391    0.326    3.557
  731.250    0.454   34.218    0.315    3.620
  731.500    0.452   31.810    0.331    3.679
  731.750    0.443   33.558    0.344    3.885
  732.000    0.413   32.924    0.347    4.098
  732.250    0.397   39.403    0.321    4.245
  732.500    0.390   53.559    0.297    4.563
  732.750    0.416   61.212    0.308    4.558
  733.000    0.435   67.099    0.319    4.634
  733.250    0.441   65.882    0.328    4.711
  733.500    0.439   66.422    0.331    4.696
  733.750    0.434   68.762    0.327    4.601
  734.000    0.433   71.684    0.315    4.509
  734.250    0.435   72.841    0.304    4.251
  734.500    0.439   71.016    0.297    4.163
  734.750    0.439   69.217    0.298    4.001
  735.000    0.441   65.627    0.304    3.844
  735.250    0.445   63.227    0.309    3.766
  735.500    0.444   61.419    0.310    3.551
  735.750    0.437   62.577    0.307    3.288
  736.000    0.409   63.134    0.307    3.044
  736.250    0.409   52.457    0.378    2.873
  736.500    0.511   41.771    0.405    2.812
  736.750    0.476   33.459    0.379    3.024
  737.000    0.458   31.651    0.366    3.194
  737.250    0.459   32.800    0.365    3.566
  737.500    0.487   38.087    0.448    3.834
  737.750    0.477   39.227    0.416    3.972
  738.000    0.452   38.602    0.378    4.115
  738.250    0.442   37.976    0.353    3.951
  738.500    0.444   35.577    0.344    3.944
  738.750    0.452   34.360    0.356    3.865
  739.000    0.459   34.318    0.364    3.925
  739.250    0.466   33.692    0.380    3.993
  739.500    0.476   31.293    0.396    4.057
  739.750    0.481   31.268    0.385    4.127
  740.000    0.472   34.190    0.373    4.196
  740.250    0.463   38.886    0.370    4.184
  740.500    0.454   38.261    0.372    4.175
  740.750    0.449   33.496    0.373    4.091
  741.000    0.450   28.732    0.369    4.078
  741.250    0.457   26.924    0.364    4.071
  741.500    0.461   29.846    0.360    4.063
  741.750    0.464   35.717    0.359    3.834
  742.000    0.463   38.648    0.363    3.898
  742.250    0.460   39.787    0.360    3.961
  742.500    0.461   38.571    0.357    3.955
  742.750    0.463   38.537    0.357    4.019
  743.000    0.465   38.503    0.364    4.010
  743.250    0.473   37.286    0.366    4.003
  743.500    0.479   34.304    0.364    3.995
  743.750    0.481   27.175    0.367    3.908
  744.000    0.479   27.123    0.375    3.902
  744.250    0.475   27.681    0.375    3.893
  744.500    0.476   28.229    0.377    3.883
  744.750    0.473   28.212    0.384    3.802
  745.000    0.467   29.361    0.387    3.724
  745.250    0.459   33.466    0.385    3.579
  745.500    0.454   34.023    0.384    3.507
  745.750    0.453   30.441    0.386    3.433
  746.000    0.457   30.407    0.389    3.362
  746.250    0.462   32.147    0.392    3.354
  746.500    0.464   33.295    0.393    3.345
  746.750    0.465   33.261    0.393    3.340
  747.000    0.465   32.636    0.393    3.397
  747.250    0.466   32.002    0.393    3.450
  747.500    0.466   31.377    0.393    3.445
  747.750    0.467   31.342    0.393    3.502
  748.000    0.469   30.717    0.393    3.563
  748.250    0.467   31.274    0.393    3.618
  748.500    0.463   32.414    0.391    3.679
  748.750    0.459   32.988    0.388    3.744
  749.000    0.453   33.546    0.380    3.874
  749.250    0.448   32.329    0.370    4.087
  749.500    0.444   31.104    0.375    4.160
  749.750    0.445   29.887    0.383    4.388
  750.000    0.441   31.036    0.389    4.550
  750.250    0.437   34.541    0.386    4.803
  750.500    0.444   35.698    0.375    5.069
  750.750    0.456   36.846    0.371    5.350
  751.000    0.456   36.212    0.365    5.751
  751.250    0.450   36.770    0.365    5.960
  751.500    0.444   37.909    0.372    6.171
  751.750    0.438   38.484    0.373    6.274
  752.000    0.436   39.624    0.367    6.264
  752.250    0.443   40.181    0.361    6.124
  752.500    0.450   39.564    0.362    6.118
  752.750    0.447   37.756    0.365    5.991
  753.000    0.444   33.575    0.365    5.864
  753.250    0.440   32.358    0.364    5.636
  753.500    0.441   34.689    0.365    5.624
  753.750    0.446   36.420    0.366    5.406
  754.000    0.452   36.403    0.365    5.394
  754.250    0.457   35.778    0.360    5.283
  754.500    0.459   40.465    0.359    5.173
  754.750    0.460   42.214    0.360    5.064
  755.000    0.462   39.806    0.368    4.959
  755.250    0.464   37.981    0.376    4.954
  755.500    0.468   40.320    0.388    5.034
  755.750    0.476   43.243    0.414    5.217
  756.000    0.473   43.800    0.410    5.710
  756.250    0.470   39.635    0.396    6.030
  756.500    0.465   34.863    0.378    6.485
  756.750    0.462   32.472    0.372    6.970
  757.000    0.462   31.255    0.373    7.224
  757.250    0.461   32.995    0.373    7.621
  757.500    0.459   35.318    0.365    7.752
  757.750    0.458   36.466    0.358    7.886
  758.000    0.455   37.023    0.354    8.013
  758.250    0.449   35.224    0.352    8.000
  758.500    0.448   31.625    0.356    7.831
  758.750    0.450   31.591    0.359    7.673
  759.000    0.450   32.165    0.358    7.371
  759.250    0.450   34.488    0.356    7.081
  759.500    0.451   36.827    0.356    6.810
  759.750    0.451   38.558    0.355    6.301
  760.000    0.451   39.707    0.355    5.834
  760.250    0.452   41.455    0.356    5.503
  760.500    0.452   44.369    0.360    5.095
  760.750    0.454   44.926    0.366    4.804
  761.000    0.465   44.901    0.371    4.617
  761.250    0.477   41.893    0.382    4.438
  761.500    0.478   40.094    0.382    4.346
  761.750    0.481   39.468    0.384    4.257
