~VERSION INFORMATION
 VERS.                 2.0:   CWLS LOG ASCII STANDARD -VERSION 2.0
 WRAP.                  NO:   ONE LINE PER DEPTH STEP
~WELL INFORMATION BLOCK
#MNEM.UNIT           DATA                    DESCRIPTION OF MNEMONIC
#---------    -------------------            -------------------------------
# Generated from Intellog Unique Number	CS_77_79/WELL/844
WELL.         HOME OIL COMPANY LIMITED       : Well_name    - WELL
LOC .         00/03-12-077-08W4/0            : Location     - LOCATION
UWI .         00/03-12-077-08W4/0            : Uwi          - UNIQUE WELL ID
ENTR.         SP                             : Entered      - ENTERED BY
SRVC.         SCHLUMBERGER                   : Scn          - SERVICE COMPANY
STRT.M        140.25                         : top_depth    - START DEPTH
STOP.M        370.00                         : bot_depth    - STOP DEPTH
STEP.M        0.25                           : increment    - STEP LENGTH
 NULL. -999.2500:NULL Value
~CURVE INFORMATION BLOCK
#MNEM UNIT       ERCB CURVE CODE    CURVE DESCRIPTION
#-----------   ------------------   ----------------------------------
DEPT.M        00 001 00 00         : DEPTH        - DEPTH
ILD .OHMM     00 120 00 00         : RESD         - DEEP RESISTIVITY (DIL)
DPHI.V/V      00 890 00 00         : PHID         - DENSITY POROSITY (LIMESTONE)
NPHI.V/V      00 330 00 00         : PHIN         - NEUTRON POROSITY (LIMESTONE)
GR  .API      00 310 00 00         : GR           - GAMMA RAY
~PARAMETER INFORMATION
#MNEM.UNIT           DATA             DESCRIPTION OF MNEMONIC
#---------         -----------     ------------------------------
GL  .M        564                  : gl           - GROUND LEVEL ELEVATION
EREF.M        567.5                : kb           - ELEVATION OF DEPTH REFERENCE
DATM.M        564                  : datum        - DATUM ELEVATION
TDD .M        375.1                : tdd          - TOTAL DEPTH DRILLER
RUN .         ONE                  : Run          - RUN NUMBER
ENG .         BILL                 : Engineer     - RECORDING ENGINEER
WIT .         JIM                  : Witness      - WITNESSED BY
MUD .         GEL                  : Mud_type     - MUD TYPE
MATR.         LIMESTONE            : Logunit      - NEUTRON MATRIX
TMAX.C        16.5                 : BHT          - MAXIMUM RECORDED TEMPERATURE
BHTD.M        375.1                : BHTDEP       - MAXIMUM RECORDED TEMPERATURE
MATR.         1                    : LOGUNIT      - NEUTRON MATRIX
RMT .C        25                   : MDTP         - TEMPERATURE OF MUD
NEUT.         1                    : NEUTRON      - NEUTRON TYPE
RESI.         0                    : RESIST       - RESISTIVITY TYPE
RMC .OHMM     0.25                 : RMC          - RESISTIVITY OF MUD CAKE
RMF .OHMM     0.25                 : RMF          - RESISTIVITY OF MUD FILTRATE
SUFT.C        15                   : SUFT         - SURFACE TEMPERATURE
~A  DEPTH     RESD     PHID     PHIN       GR
# ...
  183.750   19.459    0.295    0.424   62.425
  184.000   20.567    0.303    0.420   61.222
  184.250   22.141    0.296    0.426   61.224
  184.500   22.971    0.303    0.436   64.240
  184.750   22.964    0.312    0.433   67.253
  185.000   20.543    0.317    0.432   69.665
  185.250   18.039    0.299    0.434   76.295
  185.500   17.062    0.293    0.428   79.912
  185.750   15.547    0.270    0.419   83.528
  186.000   14.703    0.255    0.414   87.746
  186.250   14.165    0.237    0.406   91.362
  186.500   12.672    0.224    0.394   96.184
  186.750   11.127    0.223    0.386  101.006
  187.000   10.141    0.213    0.401  105.224
  187.250    9.414    0.211    0.424  111.853
  187.500    8.579    0.208    0.466  119.085
  187.750    7.964    0.204    0.479  119.087
  188.000    7.672    0.206    0.473  116.679
  188.250    7.814    0.194    0.471  114.271
  188.500    8.258    0.180    0.469  113.671
  188.750    8.890    0.182    0.467  110.661
  189.000    9.395    0.207    0.461  106.447
  189.250   10.114    0.218    0.450  102.834
  189.500   10.302    0.224    0.443  100.426
  189.750   10.685    0.218    0.436  105.851
  190.000   10.486    0.235    0.432  109.467
  190.250   10.292    0.217    0.443  117.301
  190.500    9.915    0.212    0.455  119.712
  190.750    8.707    0.201    0.463  114.293
  191.000    8.388    0.211    0.462  109.477
  191.250    8.703    0.222    0.472  107.671
  191.500    9.723    0.226    0.481  106.468
  191.750   10.662    0.238    0.468  105.266
  192.000   11.269    0.249    0.463  104.063
  192.250   11.907    0.234    0.470  102.259
  192.500   11.904    0.232    0.474  101.658
  192.750   11.684    0.243    0.475  101.659
  193.000   11.466    0.253    0.474  102.866
  193.250   11.676    0.266    0.472  100.459
  193.500   12.113    0.276    0.457   98.052
  193.750   12.335    0.274    0.449   97.452
  194.000   12.332    0.265    0.432   98.659
  194.250   12.330    0.272    0.425   99.263
  194.500   12.325    0.273    0.419  100.470
  194.750   12.097    0.259    0.417  102.279
  195.000   11.870    0.241    0.427  106.498
  195.250   11.650    0.248    0.446  108.910
  195.500   11.224    0.249    0.458  107.707
  195.750   10.613    0.236    0.467   97.469
  196.000   10.415    0.226    0.473   92.049
  196.250   10.608    0.243    0.475   87.231
  196.500   11.633    0.261    0.479   81.812
  196.750   13.240    0.265    0.473   76.392
  197.000   13.482    0.274    0.479   76.997
  197.250   13.480    0.276    0.478   81.819
  197.500   12.513    0.276    0.472   86.037
  197.750   10.395    0.270    0.468   93.269
  198.000    8.476    0.250    0.485   96.283
  198.250    7.173    0.237    0.504   97.490
  198.500    6.184    0.243    0.521   93.878
  198.750    5.532    0.241    0.530   88.458
  199.000    5.739    0.247    0.539   81.833
  199.250    6.654    0.265    0.553   69.185
  199.500    9.113    0.313    0.516   61.958
  199.750   12.252    0.340    0.476   58.948
  200.000   16.781    0.340    0.449   59.553
  200.250   20.190    0.294    0.425   60.157
  200.500   22.978    0.292    0.415   61.364
  200.750   26.150    0.300    0.419   63.174
  201.000   28.676    0.310    0.411   63.778
  201.250   29.753    0.314    0.414   63.178
  201.500   31.442    0.306    0.423   62.578
  201.750   33.224    0.309    0.428   61.977
  202.000   33.837    0.309    0.432   61.979
  202.250   35.105    0.310    0.440   63.789
  202.500   35.754    0.310    0.446   64.996
  202.750   37.087    0.308    0.449   65.600
  203.000   37.770    0.307    0.444   65.604
  203.250   37.763    0.318    0.437   64.400
  203.500   39.171    0.307    0.431   62.595
  203.750   39.165    0.304    0.429   61.393
  204.000   40.626    0.319    0.438   60.792
  204.250   41.380    0.332    0.450   60.193
  204.500   42.139    0.339    0.456   59.592
  204.750   42.913    0.337    0.449   59.594
  205.000   42.904    0.331    0.447   59.596
  205.250   43.686    0.315    0.447   60.201
  205.500   44.493    0.313    0.446   61.408
  205.750   44.483    0.313    0.437   62.615
  206.000   43.652    0.319    0.435   63.821
  206.250   43.643    0.336    0.434   65.630
  206.500   43.627    0.333    0.427   65.633
  206.750   42.816    0.330    0.420   65.033
  207.000   42.808    0.330    0.414   65.034
  207.250   42.791    0.334    0.410   65.640
  207.500   41.998    0.338    0.417   65.642
  207.750   41.981    0.336    0.434   65.643
  208.000   41.202    0.327    0.459   65.646
  208.250   40.432    0.338    0.455   65.647
  208.500   39.682    0.328    0.436   65.650
  208.750   38.940    0.328    0.428   66.254
  209.000   38.931    0.328    0.427   65.655
  209.250   38.203    0.314    0.434   65.054
  209.500   37.494    0.316    0.451   63.250
  209.750   37.479    0.313    0.458   62.649
  210.000   37.472    0.311    0.462   60.843
  210.250   38.876    0.304    0.453   60.845
  210.500   43.431    0.287    0.436   59.041
  210.750   47.630    0.178    0.414   56.633
  211.000   48.511    0.145    0.368   52.418
  211.250   48.496    0.185    0.379   50.613
  211.500   46.719    0.190    0.387   53.627
  211.750   42.574    0.251    0.392   62.666
  212.000   38.087    0.302    0.416   68.692
  212.250   34.710    0.332    0.446   76.526
  212.500   32.221    0.328    0.450   78.937
  212.750   31.038    0.319    0.468   81.951
  213.000   31.030    0.308    0.488   78.941
  213.250   31.024    0.313    0.503   72.920
  213.500   31.591    0.314    0.488   69.307
  213.750   31.585    0.317    0.468   66.298
  214.000   32.163    0.325    0.466   63.891
  214.250   32.756    0.329    0.451   63.892
  214.500   32.750    0.329    0.442   63.894
  214.750   33.347    0.328    0.453   63.898
  215.000   33.963    0.333    0.458   64.502
  215.250   33.956    0.327    0.457   65.106
  215.500   33.942    0.329    0.448   65.711
  215.750   33.936    0.328    0.462   65.712
  216.000   33.921    0.321    0.470   65.111
  216.250   33.914    0.327    0.484   64.512
  216.500   33.906    0.337    0.469   63.309
  216.750   33.895    0.316    0.462   63.311
  217.000   33.886    0.314    0.472   62.109
  217.250   33.256    0.327    0.480   61.508
  217.500   33.245    0.333    0.476   60.907
  217.750   33.236    0.328    0.469   60.308
  218.000   33.228    0.317    0.477   59.707
  218.250   33.213    0.325    0.472   58.505
  218.500   33.207    0.321    0.465   58.507
  218.750   33.199    0.309    0.466   57.906
  219.000   33.184    0.327    0.464   59.114
  219.250   33.177    0.332    0.459   59.718
  219.500   33.169    0.330    0.465   59.720
  219.750   33.157    0.332    0.471   59.120
  220.000   33.150    0.327    0.481   57.918
  220.250   33.143    0.336    0.470   57.919
  220.500   32.517    0.329    0.454   58.524
  220.750   32.509    0.334    0.451   59.128
  221.000   32.501    0.334    0.456   61.541
  221.250   32.492    0.315    0.456   62.748
  221.500   32.484    0.318    0.457   63.955
  221.750   31.880    0.312    0.483   64.559
  222.000   32.468    0.318    0.486   64.561
  222.250   32.458    0.336    0.471   63.961
  222.500   32.446    0.339    0.465   62.758
  222.750   32.438    0.314    0.463   62.760
  223.000   32.431    0.311    0.452   64.570
  223.250   32.419    0.324    0.437   64.572
  223.500   32.412    0.328    0.442   64.574
  223.750   31.806    0.339    0.452   64.576
  224.000   31.801    0.340    0.458   63.373
  224.250   31.205    0.303    0.445   63.978
  224.500   30.063    0.300    0.434   64.583
  224.750   27.398    0.303    0.431   65.789
  225.000   21.135    0.312    0.448   69.406
  225.250   17.556    0.309    0.458   74.228
  225.500   15.418    0.293    0.467   80.857
  225.750   12.808    0.294    0.481   84.473
  226.000   10.639    0.267    0.483   88.089
  226.250    9.695    0.237    0.493   96.525
  226.500    9.168    0.246    0.484   96.527
  226.750    8.998    0.249    0.475   98.338
  227.000    8.831    0.245    0.465  100.146
