~VERSION INFORMATION
 VERS.                 2.0:   CWLS LOG ASCII STANDARD -VERSION 2.0
 WRAP.                  NO:   ONE LINE PER DEPTH STEP
~WELL INFORMATION BLOCK
#MNEM.UNIT           DATA                    DESCRIPTION OF MNEMONIC
#---------    -------------------            -------------------------------
# Generated from Intellog Unique Number	CC_80_83/WELL/2492
WELL.         GULF PONY                      : Well_name    - WELL
LOC .         00/06-25-081-09W4/0            : Location     - LOCATION
UWI .         00/06-25-081-09W4/0            : Uwi          - UNIQUE WELL ID
ENTR.         JHS                            : Entered      - ENTERED BY
SRVC.         SCHLUMBERGER                   : Scn          - SERVICE COMPANY
STRT.M        274.32                         : top_depth    - START DEPTH
STOP.M        477.07                         : bot_depth    - STOP DEPTH
STEP.M        0.25                           : increment    - STEP LENGTH
 NULL. -999.2500:NULL Value
~CURVE INFORMATION BLOCK
#MNEM UNIT       ERCB CURVE CODE    CURVE DESCRIPTION
#-----------   ------------------   ----------------------------------
DEPT.M        00 001 00 00         : DEPTH        - DEPTH
GR  .API      00 310 00 00         : GR           - GAMMA RAY
DPHI.V/V      00 890 00 00         : PHID         - DENSITY POROSITY (SANDSTONE)
NPHI.V/V      00 330 00 00         : PHIN         - NEUTRON POROSITY (SANDSTONE)
ILD .OHMM     00 120 00 00         : RESD         - DEEP RESISTIVITY (DIL)
~PARAMETER INFORMATION
#MNEM.UNIT           DATA             DESCRIPTION OF MNEMONIC
#---------         -----------     ------------------------------
GL  .M        706.344              : gl           - GROUND LEVEL ELEVATION
EREF.M        709.879              : kb           - ELEVATION OF DEPTH REFERENCE
DATM.M        709.879              : datum        - DATUM ELEVATION
TDD .M        484.632              : tdd          - TOTAL DEPTH DRILLER
RUN .         ONE                  : Run          - RUN NUMBER
ENG .         BILL                 : Engineer     - RECORDING ENGINEER
WIT .         JIM                  : Witness      - WITNESSED BY
MUD .         GEL                  : Mud_type     - MUD TYPE
MATR.         SANDSTONE            : Logunit      - NEUTRON MATRIX
TMAX.C        60                   : BHT          - MAXIMUM RECORDED TEMPERATURE
BHTD.M        484.632              : BHTDEP       - MAXIMUM RECORDED TEMPERATURE
MATR.         1                    : LOGUNIT      - NEUTRON MATRIX
RMT .C        25                   : MDTP         - TEMPERATURE OF MUD
NEUT.         1                    : NEUTRON      - NEUTRON TYPE
RESI.         0                    : RESIST       - RESISTIVITY TYPE
RMC .OHMM     0.25                 : RMC          - RESISTIVITY OF MUD CAKE
RMF .OHMM     0.25                 : RMF          - RESISTIVITY OF MUD FILTRATE
SUFT.C        15                   : SUFT         - SURFACE TEMPERATURE
~A  DEPTH       GR     PHID     PHIN     RESD
# ...
  448.320   69.453    0.228    0.426   11.661
  448.570   78.572    0.240    0.430   10.873
  448.820   83.544    0.224    0.437   10.453
  449.070   87.433    0.204    0.440   10.655
  449.320   91.787    0.199    0.439   11.390
  449.570   91.005    0.203    0.430   12.681
  449.820   91.409    0.189    0.424   16.068
  450.070   94.938    0.186    0.406   18.158
  450.320   96.422    0.200    0.387   17.856
  450.570   94.736    0.200    0.382   14.842
  450.820   93.365    0.185    0.387   10.293
  451.070   91.130    0.195    0.397    8.554
  451.320   85.249    0.219    0.387    7.654
  451.570   73.988    0.235    0.365    7.188
  451.820   63.050    0.248    0.346    7.094
  452.070   60.672    0.255    0.343    6.980
  452.320   65.532    0.250    0.358    6.879
  452.570   64.675    0.272    0.371    6.857
  452.820   57.840    0.283    0.386    7.014
  453.070   51.594    0.293    0.397    7.309
  453.320   48.116    0.299    0.396    7.951
  453.570   44.586    0.287    0.386    8.810
  453.820   39.297    0.290    0.373    9.080
  454.070   32.979    0.302    0.357    9.094
  454.320   33.074    0.301    0.342    9.092
  454.570   38.895    0.292    0.330    9.089
  454.820   48.114    0.281    0.328    9.110
  455.070   61.091    0.261    0.339    9.437
  455.320   70.672    0.247    0.352   10.462
  455.570   73.536    0.256    0.364   11.894
  455.820   72.257    0.277    0.377   14.856
  456.070   72.742    0.276    0.392   19.881
  456.320   76.640    0.256    0.403   24.056
  456.570   79.092    0.258    0.401   23.921
  456.820   79.426    0.268    0.401   23.202
  457.070   78.695    0.275    0.426   22.016
  457.320   77.407    0.300    0.441   17.653
  457.570   72.957    0.328    0.422   12.695
  457.820   66.180    0.323    0.398   11.820
  458.070   66.376    0.307    0.381   11.473
  458.320   69.354    0.270    0.371   11.270
  458.570   76.762    0.204    0.379   11.877
  458.820   87.316    0.167    0.398   12.783
  459.070   92.659    0.167    0.399   12.950
  459.320   89.302    0.137    0.371   12.534
  459.570   88.196    0.134    0.370   12.799
  459.820   89.343    0.174    0.387   13.638
  460.070   89.564    0.193    0.401   15.807
  460.320   88.010    0.190    0.406   18.287
  460.570   84.820    0.213    0.400   18.808
  460.820   80.256    0.214    0.388   17.382
  461.070   78.615    0.205    0.399   13.402
  461.320   77.977    0.225    0.407   10.395
  461.570   72.690    0.255    0.393    9.420
  461.820   67.070    0.253    0.378    8.928
  462.070   69.607    0.226    0.375    8.536
  462.320   68.976    0.215    0.367    8.400
  462.570   68.367    0.202    0.363    8.256
  462.820   68.458    0.235    0.375    8.268
  463.070   63.052    0.291    0.395    8.395
  463.320   54.002    0.296    0.408    8.377
  463.570   54.477    0.279    0.411    8.486
  463.820   58.175    0.236    0.392    8.994
  464.070   63.333    0.197    0.377    9.435
  464.320   72.803    0.176    0.389    9.576
  464.570   85.485    0.166    0.413    9.528
  464.820   94.873    0.164    0.423    9.381
  465.070   97.087    0.170    0.435    9.236
  465.320   94.874    0.163    0.437    9.168
  465.570   89.317    0.150    0.429    9.348
  465.820   83.456    0.149    0.410    9.645
  466.070   80.687    0.173    0.389    9.742
  466.320   80.615    0.205    0.379    9.597
  466.570   83.985    0.206    0.375    9.264
  466.820   82.981    0.212    0.375    8.479
  467.070   80.192    0.216    0.384    7.639
  467.320   80.656    0.205    0.395    7.189
  467.570   81.027    0.201    0.395    7.000
  467.820   78.248    0.206    0.389    6.978
  468.070   75.570    0.216    0.388    7.175
  468.320   77.717    0.219    0.398    7.356
  468.570   81.353    0.224    0.409    7.742
  468.820   79.325    0.247    0.420    8.326
  469.070   71.788    0.270    0.431    8.434
  469.320   66.441    0.274    0.419    8.528
  469.570   69.098    0.254    0.400    8.795
  469.820   72.826    0.238    0.391    8.968
  470.070   71.890    0.245    0.395    8.893
  470.320   69.359    0.261    0.402    8.765
  470.570   67.683    0.257    0.390    8.764
  470.820   69.194    0.276    0.389    8.777
  471.070   73.355    0.278    0.388    8.765
  471.320   77.355    0.257    0.392    8.801
  471.570   80.972    0.253    0.404    8.982
  471.820   85.490    0.264    0.404    9.267
  472.070   86.535    0.266    0.389    9.418
  472.320   89.227    0.254    0.391    9.587
  472.570   92.237    0.243    0.400    9.609
  472.820   91.887    0.238    0.402    9.397
  473.070   89.919    0.235    0.404    9.107
  473.320   90.347    0.247    0.397    8.716
  473.570   91.672    0.263    0.397    8.141
  473.820   88.629    0.275    0.402    7.425
  474.070   85.095    0.271    0.399    6.887
  474.320   85.541    0.264    0.387    6.637
  474.570   90.841    0.269    0.383    6.442
  474.820  103.351    0.247    0.391    6.342
  475.070   86.485    0.254    0.389    6.248
  475.320   71.832    0.253    0.378    6.178
  475.570   75.720    0.229    0.375    6.022
  475.820   77.463    0.206    0.376    5.754
  476.070   80.484    0.169    0.350    5.672
  476.320   72.187    0.154    0.278    5.599
  476.570   57.754    0.079    0.192    5.502
  476.820   44.814    0.005    0.129    5.456
  477.070   35.047    0.001    0.104    5.471
