~VERSION INFORMATION
 VERS.                 2.0:   CWLS LOG ASCII STANDARD -VERSION 2.0
 WRAP.                  NO:   ONE LINE PER DEPTH STEP
~WELL INFORMATION BLOCK
#MNEM.UNIT           DATA                    DESCRIPTION OF MNEMONIC
#---------    -------------------            -------------------------------
# Generated from Intellog Unique Number	CS_73_76/WELL/637
WELL.         AMOCO AEC IPIATIK              : Well_name    - WELL
LOC .         00/06-13-073-06W4/0            : Location     - LOCATION
UWI .         00/06-13-073-06W4/0            : Uwi          - UNIQUE WELL ID
ENTR.         SP                             : Entered      - ENTERED BY
SRVC.         SCHLUMBERGER                   : Scn          - SERVICE COMPANY
STRT.M        305                            : top_depth    - START DEPTH
STOP.M        550                            : bot_depth    - STOP DEPTH
STEP.M        0.25                           : increment    - STEP LENGTH
 NULL. -999.2500:NULL Value
~CURVE INFORMATION BLOCK
#MNEM UNIT       ERCB CURVE CODE    CURVE DESCRIPTION
#-----------   ------------------   ----------------------------------
DEPT.M        00 001 00 00         : DEPTH        - DEPTH
ILD .OHMM     00 120 00 00         : RESD         - DEEP RESISTIVITY (DIL)
DPHI.V/V      00 890 00 00         : PHID         - DENSITY POROSITY (LIMESTONE)
NPHI.V/V      00 330 00 00         : PHIN         - NEUTRON POROSITY (LIMESTONE)
GR  .API      00 310 00 00         : GR           - GAMMA RAY
~PARAMETER INFORMATION
#MNEM.UNIT           DATA             DESCRIPTION OF MNEMONIC
#---------         -----------     ------------------------------
GL  .M        693.7                : gl           - GROUND LEVEL ELEVATION
EREF.M        697.9                : kb           - ELEVATION OF DEPTH REFERENCE
DATM.M        693.7                : datum        - DATUM ELEVATION
TDD .M        570                  : tdd          - TOTAL DEPTH DRILLER
RUN .         ONE                  : Run          - RUN NUMBER
ENG .         BILL                 : Engineer     - RECORDING ENGINEER
WIT .         JIM                  : Witness      - WITNESSED BY
MUD .         GEL                  : Mud_type     - MUD TYPE
MATR.         LIMESTONE            : Logunit      - NEUTRON MATRIX
TMAX.C        20                   : BHT          - MAXIMUM RECORDED TEMPERATURE
BHTD.M        570                  : BHTDEP       - MAXIMUM RECORDED TEMPERATURE
MATR.         1                    : LOGUNIT      - NEUTRON MATRIX
RMT .C        25                   : MDTP         - TEMPERATURE OF MUD
NEUT.         1                    : NEUTRON      - NEUTRON TYPE
RESI.         0                    : RESIST       - RESISTIVITY TYPE
RMC .OHMM     0.25                 : RMC          - RESISTIVITY OF MUD CAKE
RMF .OHMM     0.25                 : RMF          - RESISTIVITY OF MUD FILTRATE
SUFT.C        15                   : SUFT         - SURFACE TEMPERATURE
~A  DEPTH     RESD     PHID     PHIN       GR
  305.000    3.639    0.278    0.521   98.591
  305.250    3.571    0.270    0.528   99.809
  305.500    3.504    0.280    0.504   99.813
  305.750    3.438    0.276    0.506   99.217
  306.000    3.438    0.288    0.520   99.222
  306.250    3.437    0.278    0.532   99.226
  306.500    3.436    0.278    0.537   98.023
  306.750    3.501    0.273    0.545   95.611
  307.000    3.567    0.267    0.552   95.012
  307.250    3.566    0.261    0.537   94.412
  307.500    3.565    0.256    0.526   95.026
  307.750    3.498    0.251    0.541   96.239
  308.000    3.498    0.260    0.555   97.457
  308.250    3.369    0.257    0.568   96.858
  308.500    3.306    0.252    0.583   96.257
  308.750    3.244    0.251    0.560   94.453
  309.000    3.244    0.266    0.545   93.852
  309.250    3.304    0.273    0.540   94.466
  309.500    3.304    0.267    0.533   95.075
  309.750    3.494    0.255    0.538   98.105
  310.000    3.559    0.260    0.521   99.926
  310.250    3.626    0.242    0.516  100.535
  310.500    3.764    0.229    0.519  100.541
  310.750    3.834    0.214    0.506   99.340
  311.000    3.980    0.216    0.499   96.927
  311.250    4.054    0.197    0.506   95.720
  311.500    4.130    0.177    0.500   94.518
  311.750    4.130    0.155    0.494   93.314
  312.000    4.207    0.168    0.482   92.115
  312.250    4.286    0.196    0.484   92.121
  312.500    4.366    0.175    0.478   92.125
  312.750    4.447    0.162    0.467   93.338
  313.000    4.447    0.195    0.492   96.976
  313.250    4.364    0.239    0.518  100.005
  313.500    4.202    0.241    0.520  101.827
  313.750    4.124    0.234    0.535  101.832
  314.000    3.972    0.228    0.514  100.024
  314.250    3.898    0.234    0.514  101.238
  314.500    3.824    0.241    0.491  100.640
  314.750    3.896    0.225    0.477   99.437
  315.000    3.969    0.231    0.492   98.234
  315.250    3.969    0.241    0.516   94.610
  315.500    3.894    0.225    0.539   91.593
  315.750    3.967    0.206    0.540   89.786
  316.000    3.966    0.176    0.507   89.790
  316.250    3.966    0.219    0.489   91.006
  316.500    4.116    0.231    0.486   93.433
  316.750    4.436    0.221    0.489   92.230
  317.000    5.056    0.249    0.468   89.817
  317.250    5.656    0.273    0.424   86.194
  317.500    6.693    0.257    0.380   83.780
  317.750    8.221    0.243    0.394   84.390
  318.000    9.548    0.231    0.401   88.027
  318.250   10.483    0.241    0.413   94.685
  318.500   10.882    0.262    0.430  101.950
  318.750   11.295    0.266    0.439  104.979
  319.000   11.292    0.254    0.422  104.988
  319.250   11.291    0.271    0.414  101.970
  319.500   11.289    0.290    0.424   97.741
  319.750   11.499    0.281    0.425   91.093
  320.000   11.497    0.268    0.434   85.050
  320.250   11.496    0.280    0.422   76.589
  320.500   11.495    0.305    0.407   70.546
  320.750   11.280    0.327    0.403   64.505
  321.000   11.278    0.303    0.400   59.673
  321.250   10.861    0.282    0.402   57.863
  321.500   10.859    0.303    0.390   56.660
  321.750   10.858    0.298    0.389   58.481
  322.000   10.856    0.287    0.396   62.116
  322.250   10.854    0.272    0.385   66.357
  322.500   10.852    0.244    0.354   70.596
  322.750   10.649    0.231    0.370   75.441
  323.000   10.648    0.219    0.385   79.682
  323.250   10.646    0.245    0.401   84.529
  323.500   10.643    0.258    0.414   86.348
  323.750   10.642    0.253    0.419   89.985
  324.000   10.640    0.262    0.415   93.016
  324.250   10.638    0.276    0.412   94.229
  324.500   10.637    0.286    0.413   94.235
  324.750   10.836    0.280    0.419   93.032
  325.000   10.834    0.267    0.433   93.643
  325.250   11.037    0.262    0.441   93.650
  325.500   11.036    0.251    0.427   93.051
  325.750   11.454    0.265    0.431   91.849
  326.000   11.453    0.278    0.427   91.251
  326.250   11.666    0.275    0.424   88.232
  326.500   11.665    0.290    0.426   87.632
  326.750   11.663    0.278    0.439   85.826
  327.000   11.881    0.314    0.430   85.225
  327.250   11.879    0.318    0.411   84.626
  327.500   11.878    0.289    0.396   87.657
  327.750   11.018    0.248    0.393   92.502
  328.000   10.032    0.220    0.390  103.396
  328.250    9.483    0.196    0.385  109.450
  328.500    8.797    0.184    0.413  108.850
  328.750    8.796    0.172    0.436  100.390
  329.000    9.302    0.160    0.414   94.952
  329.250   10.024    0.152    0.397   86.491
  329.500   11.213    0.146    0.382   78.028
  329.750   11.859    0.204    0.374   74.405
  330.000   12.542    0.244    0.369   70.782
  330.250   13.264    0.263    0.386   67.765
  330.500   13.768    0.276    0.377   64.748
  330.750   14.027    0.289    0.391   63.542
  331.000   12.770    0.291    0.405   61.734
  331.250   12.532    0.274    0.383   60.530
  331.500   12.767    0.279    0.386   60.537
  331.750   12.763    0.277    0.377   63.567
  332.000   12.762    0.274    0.384   69.622
  332.250   12.291    0.240    0.398   81.121
  332.500   10.191    0.210    0.422   90.804
  332.750    9.279    0.180    0.438   99.279
  333.000    8.138    0.151    0.448  106.543
  333.250    7.692    0.162    0.457  109.572
  333.500    7.004    0.162    0.459  116.233
  333.750    6.497    0.156    0.461  122.288
  334.000    5.916    0.194    0.466  124.712
  334.250    5.188    0.224    0.473  127.744
  334.500    4.904    0.202    0.477  125.936
  334.750    4.636    0.190    0.480  123.521
  335.000    4.382    0.191    0.484  120.505
  335.250    4.142    0.211    0.511  121.720
  335.500    3.915    0.195    0.536  122.934
  335.750    3.770    0.202    0.560  122.942
  336.000    3.564    0.218    0.577  121.738
  336.250    3.563    0.237    0.555  121.139
  336.500    3.986    0.250    0.534  116.309
  336.750    4.459    0.258    0.517  112.685
  337.000    5.179    0.234    0.486  110.270
  337.250    6.015    0.218    0.468  105.440
  337.500    6.855    0.230    0.433  103.026
  337.750    7.116    0.241    0.416  100.611
  338.000    7.386    0.223    0.417  104.246
  338.250    6.600    0.209    0.447  109.092
  338.500    5.789    0.206    0.474  110.912
  338.750    5.270    0.229    0.496  109.104
  339.000    5.076    0.240    0.496  104.273
  339.250    5.075    0.219    0.480  106.697
  339.500    5.074    0.196    0.469  104.892
  339.750    5.169    0.181    0.472  103.081
  340.000    5.783    0.176    0.464  100.667
  340.250    5.675    0.217    0.452  102.488
  340.500    5.364    0.232    0.452  106.124
  340.750    5.263    0.220    0.472  107.945
  341.000    5.262    0.227    0.480  106.137
  341.250    5.261    0.234    0.487  104.327
  341.500    5.360    0.231    0.497  101.310
  341.750    5.460    0.225    0.492   99.502
  342.000    5.562    0.230    0.484   98.298
  342.250    5.562    0.220    0.478   96.491
  342.500    5.666    0.230    0.478   94.682
  342.750    5.772    0.242    0.461   94.688
  343.000    5.880    0.227    0.450   98.928
  343.250    5.990    0.215    0.441  102.562
  343.500    6.103    0.204    0.451   97.733
  343.750    6.334    0.197    0.441   96.526
  344.000    6.333    0.200    0.442   97.137
  344.250    6.215    0.215    0.442  100.774
  344.500    6.099    0.224    0.441  101.988
  344.750    6.097    0.209    0.448   99.578
  345.000    6.097    0.200    0.453   97.767
  345.250    6.210    0.181    0.451   97.169
  345.500    6.327    0.178    0.440  100.804
  345.750    6.326    0.203    0.432   98.391
  346.000    6.207    0.215    0.434  100.211
  346.250    6.206    0.205    0.457  103.242
  346.500    6.090    0.225    0.474  104.458
  346.750    5.976    0.232    0.441   99.624
  347.000    5.864    0.245    0.412   99.633
  347.250    5.864    0.227    0.437  102.057
  347.500    5.863    0.217    0.452   97.225
  347.750    5.862    0.225    0.462   94.207
  348.000    5.971    0.221    0.449   92.397
  348.250    5.970    0.219    0.440   96.033
