~VERSION INFORMATION
 VERS.                 2.0:   CWLS LOG ASCII STANDARD -VERSION 2.0
 WRAP.                  NO:   ONE LINE PER DEPTH STEP
~WELL INFORMATION BLOCK
#MNEM.UNIT           DATA                    DESCRIPTION OF MNEMONIC
#---------    -------------------            -------------------------------
# Generated from Intellog Unique Number	CW_76_78/WELL/2563
WELL.         SCURRY ET AL DOUCETTE          : Well_name    - WELL
LOC .         00/02-08-078-02W5/0            : Location     - LOCATION
UWI .         00/02-08-078-02W5/0            : Uwi          - UNIQUE WELL ID
ENTR.         MAX                            : Entered      - ENTERED BY
SRVC.         WESTERN ATLAS                  : Scn          - SERVICE COMPANY
STRT.M        355                            : top_depth    - START DEPTH
STOP.M        605                            : bot_depth    - STOP DEPTH
STEP.M        0.25                           : increment    - STEP LENGTH
 NULL. -999.2500:NULL Value
~CURVE INFORMATION BLOCK
#MNEM UNIT       ERCB CURVE CODE    CURVE DESCRIPTION
#-----------   ------------------   ----------------------------------
DEPT.M        00 001 00 00         : DEPTH        - DEPTH
ILD .OHMM     00 120 00 00         : RESD         - DEEP RESISTIVITY (DIL)
NPHI.V/V      00 330 00 00         : PHIN         - NEUTRON POROSITY (SANDSTONE)
DPHI.V/V      00 890 00 00         : PHID         - DENSITY POROSITY (SANDSTONE)
CALI.MM       00 280 01 00         : CAL          - CALIPER
GR  .API      00 310 00 00         : GR           - GAMMA RAY
~PARAMETER INFORMATION
#MNEM.UNIT           DATA             DESCRIPTION OF MNEMONIC
#---------         -----------     ------------------------------
GL  .M        647.79               : gl           - GROUND LEVEL ELEVATION
EREF.M        652.05               : kb           - ELEVATION OF DEPTH REFERENCE
DATM.M        647.79               : datum        - DATUM ELEVATION
TDD .M        628                  : tdd          - TOTAL DEPTH DRILLER
RUN .         ONE                  : Run          - RUN NUMBER
ENG .         BILL                 : Engineer     - RECORDING ENGINEER
WIT .         JIM                  : Witness      - WITNESSED BY
MUD .         GEL                  : Mud_type     - MUD TYPE
MATR.         SANDSTONE            : Logunit      - NEUTRON MATRIX
TMAX.C        30                   : BHT          - MAXIMUM RECORDED TEMPERATURE
BHTD.M        627.3                : BHTDEP       - MAXIMUM RECORDED TEMPERATURE
RMT .C        13                   : MDTP         - TEMPERATURE OF MUD
MUDD.KG/M     1190                 : MWT          - MUD DENSITY
NEUT.         1                    : NEUTRON      - NEUTRON TYPE
RESI.         0                    : RESIST       - RESISTIVITY TYPE
RM  .OHMM     3.5                  : RM           - RESISTIVITY OF MUD
RMC .OHMM     2.2                  : RMC          - RESISTIVITY OF MUD CAKE
RMF .OHMM     3.9                  : RMF          - RESISTIVITY OF MUD FILTRATE
SUFT.C        -10                  : SUFT         - SURFACE TEMPERATURE
~A  DEPTH     RESD     PHIN     PHID      CAL       GR
# ...
  391.500    4.643    0.424    0.346  200.674   71.671
  391.750    5.934    0.422    0.360  200.678   64.063
  392.000    7.162    0.418    0.372  200.681   58.797
  392.250    8.033    0.411    0.375  200.684   54.994
  392.500    7.905    0.402    0.361  200.686   53.532
  392.750    7.408    0.386    0.346  200.690   56.168
  393.000    6.091    0.380    0.335  200.692   60.853
  393.250    5.898    0.381    0.335  201.183   58.514
  393.500    5.900    0.383    0.342  201.674   56.467
  393.750    6.098    0.385    0.344  202.164   56.761
  394.000    6.354    0.387    0.348  202.656   58.812
  394.250    6.408    0.389    0.350  202.659   62.325
  394.500    6.104    0.391    0.347  202.661   73.448
  394.750    4.819    0.396    0.318  202.176   85.157
  395.000    3.535    0.403    0.293  202.180   94.524
  395.250    2.883    0.425    0.268  202.670  102.427
  395.500    2.430    0.461    0.254  205.112  108.575
  395.750    2.277    0.469    0.254  205.603  107.699
  396.000    2.186    0.467    0.251  206.582  103.603
  396.250    2.205    0.450    0.246  206.585  100.971
  396.500    2.261    0.441    0.241  207.076   98.632
  396.750    2.261    0.440    0.239  207.078   97.756
  397.000    2.281    0.440    0.243  207.081   99.806
  397.250    2.357    0.437    0.245  207.573  102.442
  397.500    2.378    0.444    0.238  207.575  104.492
  397.750    2.398    0.461    0.233  207.578  105.079
  398.000    2.398    0.458    0.228  208.069  100.399
  398.250    2.380    0.447    0.230  208.071   98.059
  398.500    2.381    0.437    0.242  208.075   96.305
  398.750    2.362    0.433    0.245  208.078   97.770
  399.000    2.363    0.441    0.237  208.080  100.406
  399.250    2.363    0.446    0.235  208.083  100.700
  399.500    2.345    0.445    0.231  208.574  105.384
  399.750    2.308    0.445    0.229  208.578  107.727
  400.000    2.308    0.445    0.232  208.580  108.022
  400.250    2.291    0.447    0.234  208.583  107.438
  400.500    2.254    0.448    0.239  208.588  106.855
  400.750    2.219    0.452    0.233  208.589  110.369
  401.000    2.201    0.469    0.228  208.592  112.712
  401.250    2.166    0.474    0.243  207.619  108.324
  401.500    2.115    0.465    0.241  207.135   98.375
  401.750    2.098    0.457    0.239  206.650   92.231
  402.000    2.082    0.460    0.240  206.166   91.940
  402.250    2.117    0.460    0.235  205.192   91.941
  402.500    2.170    0.453    0.237  204.220   93.406
  402.750    2.189    0.440    0.240  203.248   95.749
  403.000    2.244    0.435    0.241  202.762   95.751
  403.250    2.319    0.431    0.242  202.278   91.656
  403.500    2.643    0.421    0.250  201.793   86.097
  403.750    2.800    0.406    0.284  200.332   74.685
  404.000    3.727    0.386    0.298  199.360   57.712
  404.250    5.211    0.368    0.305  198.388   57.421
  404.500    6.340    0.374    0.325  197.903   56.837
  404.750    9.010    0.377    0.350  197.417   55.083
  405.000   10.875    0.359    0.344  196.933   51.866
  405.250   11.805    0.346    0.323  196.935   47.185
  405.500   13.131    0.303    0.290  198.890   48.065
  405.750   14.022    0.270    0.197  202.307   50.993
  406.000   14.852    0.244    0.150  201.823   52.458
  406.250   15.103    0.253    0.124  200.850   51.874
  406.500   15.103    0.278    0.126  198.414   51.584
  406.750   14.991    0.300    0.248  196.954   52.171
  407.000   14.513    0.377    0.314  195.981   54.806
  407.250   13.600    0.387    0.325  195.496   56.564
  407.500   12.538    0.385    0.334  195.499   53.639
  407.750   11.845    0.384    0.343  196.965   51.300
  408.000   11.562    0.384    0.343  197.944   51.302
  408.250   11.661    0.382    0.340  198.922   52.181
  408.500   12.151    0.370    0.344  199.413   52.476
  408.750   12.976    0.349    0.321  200.392   51.307
  409.000   14.200    0.323    0.275  200.882   49.260
  409.250   15.796    0.266    0.202  201.374   46.920
  409.500   16.060    0.251    0.185  201.864   43.410
  409.750   16.330    0.242    0.150  203.818   40.193
  410.000   16.072    0.248    0.133  205.772   42.243
  410.250   15.308    0.270    0.142  203.336   46.343
  410.500   14.113    0.356    0.249  200.412   47.515
  410.750   12.696    0.368    0.323  197.489   46.346
  411.000   11.610    0.368    0.341  197.004   46.348
  411.250   11.149    0.364    0.339  197.007   47.813
  411.500   11.244    0.342    0.316  197.985   48.400
  411.750   11.909    0.322    0.268  198.964   48.401
  412.000   12.012    0.312    0.248  199.943   46.940
  412.250   11.629    0.338    0.253  200.433   46.650
  412.500   11.259    0.370    0.317  200.924   46.066
  412.750   10.990    0.378    0.334  200.927   44.897
  413.000   11.085    0.384    0.344  200.442   43.435
  413.250   11.179    0.390    0.351  199.958   41.974
  413.500   11.275    0.391    0.358  199.960   41.390
  413.750   11.370    0.391    0.358  200.451   41.392
  414.000   11.374    0.393    0.358  200.454   42.272
  414.250   11.374    0.394    0.362  200.457   44.029
  414.500   11.291    0.390    0.364  200.460   48.129
  414.750   11.294    0.392    0.362  200.463   52.520
  415.000   11.484    0.392    0.358  199.978   56.620
  415.250   11.967    0.390    0.359  199.982   58.670
  415.500   12.167    0.393    0.360  199.984   58.379
  415.750   12.271    0.395    0.361  199.987   58.381
  416.000   12.379    0.394    0.361  199.990   58.090
  416.250   12.482    0.390    0.357  199.993   56.921
  416.500   12.486    0.380    0.355  199.996   58.093
  416.750   12.287    0.375    0.354  199.511   56.632
  417.000   11.994    0.380    0.354  199.027   56.634
  417.250   11.613    0.383    0.353  198.541   58.392
  417.500   11.335    0.383    0.348  198.544   61.613
  417.750   10.975    0.383    0.343  198.547   62.200
  418.000   10.626    0.382    0.338  198.550   61.909
  418.250   10.373    0.383    0.338  198.554   59.862
  418.500   10.208    0.381    0.343  199.045   60.449
  418.750   10.129    0.377    0.350  199.047   63.085
  419.000   10.132    0.373    0.354  198.562   64.550
  419.250   10.218    0.372    0.354  198.077   65.137
  419.500   10.222    0.370    0.351  198.081   65.139
  419.750   10.394    0.370    0.350  199.059   65.433
  420.000   10.397    0.365    0.351  200.038   66.898
  420.250   10.401    0.366    0.351  201.992   68.949
  420.500   10.235    0.371    0.350  202.483   72.170
  420.750    9.514    0.375    0.336  202.974   76.562
  421.000    8.216    0.371    0.301  203.464   78.905
  421.250    7.212    0.357    0.269  204.442   76.858
  421.500    6.983    0.346    0.233  204.445   72.470
  421.750    7.519    0.335    0.199  204.449   71.008
  422.000    8.432    0.318    0.152  203.964   72.766
  422.250    9.152    0.303    0.142  203.479   78.329
  422.500    9.306    0.320    0.142  202.506   81.550
  422.750    8.864    0.346    0.169  201.533   83.015
  423.000    7.593    0.371    0.222  201.536   82.724
  423.250    7.115    0.394    0.250  201.539   85.652
  423.500    6.613    0.398    0.264  201.055   89.459
  423.750    6.097    0.394    0.263  201.057   93.558
  424.000    5.903    0.388    0.259  201.548   92.389
  424.250    5.857    0.388    0.255  201.553   90.049
  424.500    5.859    0.391    0.253  201.555   85.369
  424.750    5.861    0.396    0.254  201.555   85.371
  425.000    5.861    0.398    0.260  201.073   85.957
  425.250    5.818    0.395    0.259  201.075   86.837
  425.500    5.772    0.390    0.256  201.566   88.888
  425.750    5.634    0.388    0.252  201.569   89.768
  426.000    5.500    0.388    0.252  202.060   90.940
  426.250    5.282    0.391    0.245  202.551   91.527
  426.500    5.114    0.392    0.242  202.553   92.114
  426.750    4.951    0.395    0.246  202.557   93.579
  427.000    4.833    0.397    0.240  202.072   94.166
  427.250    4.756    0.399    0.230  202.075   91.827
  427.500    4.757    0.399    0.230  202.077   92.121
  427.750    4.721    0.399    0.233  202.081   94.757
