~VERSION INFORMATION
 VERS.                 2.0:   CWLS LOG ASCII STANDARD -VERSION 2.0
 WRAP.                  NO:   ONE LINE PER DEPTH STEP
~WELL INFORMATION BLOCK
#MNEM.UNIT           DATA                    DESCRIPTION OF MNEMONIC
#---------    -------------------            -------------------------------
# Generated from Intellog Unique Number	CS_71_72/WELL/784
WELL.         AMOCO AEC APIATIK              : Well_name    - WELL
LOC .         00/06-30-072-04W4/0            : Location     - LOCATION
UWI .         00/06-30-072-04W4/0            : Uwi          - UNIQUE WELL ID
ENTR.         SP                             : Entered      - ENTERED BY
SRVC.         SCHLUMBERGER                   : Scn          - SERVICE COMPANY
STRT.M        315                            : top_depth    - START DEPTH
STOP.M        530                            : bot_depth    - STOP DEPTH
STEP.M        0.25                           : increment    - STEP LENGTH
 NULL. -999.2500:NULL Value
~CURVE INFORMATION BLOCK
#MNEM UNIT       ERCB CURVE CODE    CURVE DESCRIPTION
#-----------   ------------------   ----------------------------------
DEPT.M        00 001 00 00         : DEPTH        - DEPTH
ILD .OHMM     00 120 00 00         : RESD         - DEEP RESISTIVITY (DIL)
DPHI.V/V      00 890 00 00         : PHID         - DENSITY POROSITY (LIMESTONE)
NPHI.V/V      00 330 00 00         : PHIN         - NEUTRON POROSITY (LIMESTONE)
GR  .API      00 310 00 00         : GR           - GAMMA RAY
~PARAMETER INFORMATION
#MNEM.UNIT           DATA             DESCRIPTION OF MNEMONIC
#---------         -----------     ------------------------------
GL  .M        698.8                : gl           - GROUND LEVEL ELEVATION
EREF.M        705                  : kb           - ELEVATION OF DEPTH REFERENCE
DATM.M        698.8                : datum        - DATUM ELEVATION
TDD .M        545                  : tdd          - TOTAL DEPTH DRILLER
RUN .         ONE                  : Run          - RUN NUMBER
ENG .         BILL                 : Engineer     - RECORDING ENGINEER
WIT .         JIM                  : Witness      - WITNESSED BY
MUD .         GEL                  : Mud_type     - MUD TYPE
MATR.         LIMESTONE            : Logunit      - NEUTRON MATRIX
TMAX.C        11                   : BHT          - MAXIMUM RECORDED TEMPERATURE
BHTD.M        545                  : BHTDEP       - MAXIMUM RECORDED TEMPERATURE
MATR.         1                    : LOGUNIT      - NEUTRON MATRIX
RMT .C        25                   : MDTP         - TEMPERATURE OF MUD
NEUT.         1                    : NEUTRON      - NEUTRON TYPE
RESI.         0                    : RESIST       - RESISTIVITY TYPE
RMC .OHMM     0.25                 : RMC          - RESISTIVITY OF MUD CAKE
RMF .OHMM     0.25                 : RMF          - RESISTIVITY OF MUD FILTRATE
SUFT.C        15                   : SUFT         - SURFACE TEMPERATURE
~A  DEPTH     RESD     PHID     PHIN       GR
# ...
  358.500    4.139    0.303    0.447   90.400
  358.750    3.990    0.283    0.458   91.029
  359.000    3.848    0.253    0.465   94.712
  359.250    3.996    0.238    0.447   97.163
  359.500    4.556    0.222    0.440  102.674
  359.750    4.911    0.205    0.464  105.743
  360.000    5.100    0.211    0.478  110.030
  360.250    5.297    0.206    0.487  111.260
  360.500    5.401    0.217    0.490  104.570
  360.750    5.507    0.227    0.499   93.009
  361.000    5.827    0.242    0.498   86.317
  361.250    5.943    0.235    0.481   80.242
  361.500    6.057    0.231    0.478   80.863
  361.750    6.062    0.231    0.497   87.593
  362.000    5.848    0.246    0.509   91.272
  362.250    5.744    0.238    0.509   91.894
  362.500    5.643    0.242    0.491   93.136
  362.750    5.542    0.236    0.484   98.031
  363.000    5.247    0.233    0.478  103.545
  363.250    5.250    0.221    0.471  105.388
  363.500    5.254    0.200    0.494  107.233
  363.750    5.161    0.215    0.506  107.858
  364.000    5.166    0.221    0.489  106.657
  364.250    5.074    0.215    0.477   99.972
  364.500    4.804    0.258    0.467   94.506
  364.750    4.719    0.273    0.451   94.521
  365.000    4.551    0.280    0.442   99.420
  365.250    4.640    0.264    0.466  101.877
  365.500    4.730    0.256    0.474  100.063
  365.750    5.006    0.246    0.482   98.859
  366.000    5.200    0.241    0.479   98.282
  366.250    5.401    0.247    0.476  100.126
  366.500    5.405    0.233    0.483  101.970
  366.750    5.409    0.253    0.500  103.816
  367.000    5.313    0.240    0.514  105.049
  367.250    5.124    0.232    0.503  103.241
  367.500    4.849    0.229    0.510   99.598
  367.750    4.507    0.229    0.488   94.130
  368.000    4.265    0.225    0.481   88.659
  368.250    4.113    0.245    0.472   82.583
  368.500    4.117    0.266    0.483   80.163
  368.750    4.120    0.276    0.500   83.234
  369.000    4.280    0.286    0.517   83.858
  369.250    4.283    0.279    0.500   82.656
  369.500    4.286    0.270    0.488   79.627
  369.750    4.133    0.270    0.473   76.602
  370.000    3.985    0.277    0.483   75.393
  370.250    3.915    0.277    0.474   73.581
  370.500    3.918    0.274    0.442   74.822
  370.750    4.384    0.273    0.343   76.667
  371.000    5.796    0.254    0.236   77.300
  371.250    8.892    0.216    0.201   73.658
  371.500   14.966    0.157    0.194   69.405
  371.750   21.315    0.104    0.191   61.503
  372.000   22.979    0.055    0.192   57.863
  372.250   22.158    0.025    0.216   56.055
  372.500   14.466    0.050    0.238   61.556
  372.750    7.420    0.108    0.278   69.501
  373.000    4.498    0.187    0.345   78.061
  373.250    3.471    0.223    0.399   81.729
  373.500    2.679    0.268    0.480   88.456
  373.750    2.269    0.290    0.510   88.475
  374.000    2.108    0.292    0.492   86.665
  374.250    1.922    0.305    0.475   85.461
  374.500    1.754    0.311    0.467   78.780
  374.750    1.660    0.328    0.468   75.137
  375.000    1.630    0.327    0.460   73.323
  375.250    1.602    0.300    0.456   74.561
  375.500    1.633    0.282    0.452   73.969
  375.750    1.760    0.280    0.436   75.825
  376.000    1.863    0.282    0.440   77.058
  376.250    1.865    0.268    0.458   77.685
  376.500    1.866    0.272    0.464   77.703
  376.750    1.833    0.284    0.469   76.504
  377.000    1.768    0.308    0.457   76.517
  377.250    1.704    0.305    0.453   76.548
  377.500    1.643    0.309    0.458   76.558
  377.750    1.614    0.326    0.458   77.804
  378.000    1.586    0.305    0.456   78.427
  378.250    1.617    0.289    0.468   79.052
  378.500    1.648    0.291    0.477   80.906
  378.750    1.681    0.297    0.471   82.138
  379.000    1.746    0.304    0.457   82.152
  379.250    1.847    0.295    0.453   78.514
  379.500    1.955    0.306    0.463   85.860
  379.750    2.068    0.285    0.473   87.706
  380.000    2.148    0.272    0.478   89.549
  380.250    2.150    0.261    0.466   90.782
  380.500    2.073    0.256    0.466   84.705
  380.750    1.962    0.258    0.457   77.408
  381.000    1.858    0.276    0.467   72.544
  381.250    1.726    0.292    0.480   67.081
  381.500    1.634    0.287    0.465   65.264
  381.750    1.576    0.274    0.447   68.331
  382.000    1.548    0.281    0.438   73.240
  382.250    1.549    0.270    0.440   74.475
  382.500    1.550    0.286    0.459   75.093
  382.750    1.551    0.300    0.453   75.114
  383.000    1.469    0.299    0.452   74.523
  383.250    1.390    0.306    0.458   72.716
  383.500    1.316    0.311    0.469   72.119
  383.750    1.269    0.317    0.474   70.927
  384.000    1.224    0.319    0.472   69.717
  384.250    1.202    0.312    0.471   69.127
  384.500    1.226    0.304    0.470   67.926
  384.750    1.250    0.294    0.470   71.003
  385.000    1.250    0.307    0.490   71.012
  385.250    1.275    0.317    0.495   72.256
  385.500    1.276    0.300    0.489   72.266
  385.750    1.301    0.308    0.479   72.285
  386.000    1.302    0.311    0.476   72.914
  386.250    1.303    0.306    0.474   74.768
  386.500    1.304    0.306    0.488   75.392
  386.750    1.305    0.319    0.498   76.017
  387.000    1.306    0.310    0.510   72.988
  387.250    1.307    0.313    0.512   73.006
  387.500    1.284    0.318    0.499   75.467
  387.750    1.285    0.328    0.480   73.042
  388.000    1.286    0.315    0.468   70.621
  388.250    1.287    0.323    0.454   68.810
  388.500    1.265    0.332    0.454   70.663
  388.750    1.266    0.321    0.467   71.295
  389.000    1.266    0.311    0.474   69.477
  389.250    1.315    0.309    0.491   69.499
  389.500    1.392    0.323    0.509   71.959
  389.750    1.473    0.316    0.522   73.799
  390.000    1.559    0.293    0.530   75.647
  390.250    1.680    0.292    0.516   72.619
  390.500    1.812    0.288    0.479   72.024
  390.750    1.846    0.278    0.462   74.484
  391.000    1.991    0.274    0.452   77.555
  391.250    2.106    0.284    0.449   80.015
  391.500    2.188    0.284    0.458   80.636
  391.750    2.273    0.270    0.458   80.652
  392.000    2.316    0.264    0.452   80.671
  392.250    2.319    0.257    0.446   82.529
  392.500    2.236    0.252    0.457   82.542
  392.750    2.116    0.264    0.465   83.165
  393.000    1.930    0.277    0.482   79.530
  393.250    1.827    0.283    0.483   74.668
  393.500    1.698    0.290    0.474   69.816
  393.750    1.607    0.294    0.473   68.609
  394.000    1.522    0.300    0.476   66.807
  394.250    1.467    0.310    0.477   66.814
  394.500    1.441    0.302    0.475   72.934
  394.750    1.525    0.278    0.478   77.220
  395.000    1.584    0.277    0.485   77.844
  395.250    1.676    0.280    0.493   80.912
  395.500    1.773    0.260    0.502   84.601
  395.750    1.984    0.239    0.509   85.223
  396.000    2.099    0.231    0.493   84.628
  396.250    2.181    0.223    0.475   80.384
  396.500    2.182    0.235    0.463   79.175
  396.750    1.954    0.233    0.450   74.931
  397.000    1.884    0.238    0.445   73.116
  397.250    1.751    0.269    0.463   71.915
  397.500    1.720    0.293    0.470   71.930
  397.750    1.820    0.285    0.479   78.050
  398.000    1.890    0.282    0.489   80.507
  398.250    1.963    0.289    0.475   81.742
  398.500    2.039    0.278    0.481   82.371
  398.750    2.118    0.274    0.495   80.559
  399.000    2.119    0.268    0.494   77.534
  399.250    2.162    0.264    0.487   78.164
  399.500    2.163    0.273    0.498   80.010
  399.750    2.164    0.278    0.489   82.465
  400.000    2.207    0.283    0.471   83.703
  400.250    2.249    0.272    0.464   85.551
  400.500    2.336    0.269    0.476   89.225
  400.750    2.428    0.264    0.481   94.734
  401.000    2.521    0.256    0.488   96.580
  401.250    2.619    0.243    0.489   99.648
  401.500    2.720    0.231    0.474  102.717
  401.750    2.878    0.218    0.467  106.396
