~VERSION INFORMATION
 VERS.                 2.0:   CWLS LOG ASCII STANDARD -VERSION 2.0
 WRAP.                  NO:   ONE LINE PER DEPTH STEP
~WELL INFORMATION BLOCK
#MNEM.UNIT           DATA                    DESCRIPTION OF MNEMONIC
#---------    -------------------            -------------------------------
# Generated from Intellog Unique Number	CW_73_75/WELL/2735
WELL.         BRENDA ET AL MARTEN HILLS 09-1 : Well_name    - WELL
LOC .         00/09-10-073-25W4/0            : Location     - LOCATION
UWI .         00/09-10-073-25W4/0            : Uwi          - UNIQUE WELL ID
ENTR.         JAYE                           : Entered      - ENTERED BY
SRVC.         SCHLUMBERGER                   : Scn          - SERVICE COMPANY
DATE.         16 FEB 82                      : Date         - LOG DATE
STRT.M        390                            : top_depth    - START DEPTH
STOP.M        620                            : bot_depth    - STOP DEPTH
STEP.M        0.25                           : increment    - STEP LENGTH
 NULL. -999.2500:NULL Value
~CURVE INFORMATION BLOCK
#MNEM UNIT       ERCB CURVE CODE    CURVE DESCRIPTION
#-----------   ------------------   ----------------------------------
DEPT.M        00 001 00 00         : DEPTH        - DEPTH
DPHI.V/V      00 890 00 00         : PHID         - DENSITY POROSITY (SANDSTONE)
NPHI.V/V      00 330 00 00         : PHIN         - NEUTRON POROSITY (SANDSTONE)
GR  .API      00 310 00 00         : GR           - GAMMA RAY
CALI.MM       00 280 01 00         : CAL          - CALIPER
ILD .OHMM     00 120 00 00         : RESD         - DEEP RESISTIVITY (DIL)
~PARAMETER INFORMATION
#MNEM.UNIT           DATA             DESCRIPTION OF MNEMONIC
#---------         -----------     ------------------------------
GL  .M        633.6                : gl           - GROUND LEVEL ELEVATION
EREF.M        637.3                : kb           - ELEVATION OF DEPTH REFERENCE
DATM.M        633.6                : datum        - DATUM ELEVATION
TDD .M        628                  : tdd          - TOTAL DEPTH DRILLER
RUN .         ONE                  : Run          - RUN NUMBER
ENG .         SMYTHE               : Engineer     - RECORDING ENGINEER
WIT .         SAY                  : Witness      - WITNESSED BY
BASE.         EDM                  : Branch       - HOME BASE OF LOGGING UNIT
MUD .         GEL MUDM             : Mud_type     - MUD TYPE
MATR.         SANDSTONE            : Logunit      - NEUTRON MATRIX
TMAX.C        28                   : BHT          - MAXIMUM RECORDED TEMPERATURE
BHTD.M        627.5                : BHTDEP       - MAXIMUM RECORDED TEMPERATURE
RMT .C        12.7                 : MDTP         - TEMPERATURE OF MUD
MUDD.KG/M     1110                 : MWT          - MUD DENSITY
NEUT.         1                    : NEUTRON      - NEUTRON TYPE
RESI.         0                    : RESIST       - RESISTIVITY TYPE
RM  .OHMM     4.32                 : RM           - RESISTIVITY OF MUD
RMC .OHMM     0                    : RMC          - RESISTIVITY OF MUD CAKE
RMF .OHMM     4.55                 : RMF          - RESISTIVITY OF MUD FILTRATE
SUFT.C        0                    : SUFT         - SURFACE TEMPERATURE
~A  DEPTH     PHID     PHIN       GR      CAL     RESD
# ...
  536.000    0.200    0.402   75.529  157.066    7.276
  536.250    0.204    0.394   77.325  157.124    7.329
  536.500    0.206    0.397   78.623  157.509    7.410
  536.750    0.211    0.409   79.349  157.992    7.406
  537.000    0.204    0.407   80.206  158.576    7.348
  537.250    0.192    0.392   81.873  159.157    7.261
  537.500    0.199    0.381   83.731  158.490    7.162
  537.750    0.197    0.394   85.276  156.470    7.132
  538.000    0.190    0.409   86.322  155.386    7.115
  538.250    0.188    0.406   84.921  154.817    7.139
  538.500    0.190    0.399   85.018  154.262    7.149
  538.750    0.189    0.390   87.127  154.114    7.160
  539.000    0.186    0.387   90.052  154.073    7.076
  539.250    0.178    0.378   83.878  154.348    6.939
  539.500    0.172    0.366   82.034  154.513    6.897
  539.750    0.178    0.366   82.639  154.589    6.894
  540.000    0.181    0.366   84.311  154.650    6.931
  540.250    0.185    0.367   84.223  154.725    7.074
  540.500    0.196    0.380   82.252  154.881    7.415
  540.750    0.177    0.384   79.843  154.836    7.802
  541.000    0.131    0.358   77.247  154.899    8.478
  541.250    0.097    0.331   73.583  154.864    9.355
  541.500    0.050    0.317   67.221  154.931   10.204
  541.750    0.026    0.303   61.110  154.992   10.963
  542.000   -0.003    0.285   63.972  154.848   11.427
  542.250    0.058    0.277   81.834  154.911   10.289
  542.500    0.112    0.294   88.026  152.680    8.818
  542.750    0.124    0.325   91.388  153.472    7.400
  543.000    0.132    0.378   95.006  154.067    7.203
  543.250    0.146    0.373   99.686  154.439    7.132
  543.500    0.164    0.373  104.186  154.612    7.169
  543.750    0.177    0.368  105.163  154.574    7.152
  544.000    0.157    0.366   99.620  154.637    7.122
  544.250    0.115    0.379   95.450  154.703    7.105
  544.500    0.054    0.378   96.306  154.864    7.076
  544.750    0.108    0.389  104.626  154.942    7.033
  545.000    0.136    0.394  106.237  155.521    7.056
  545.250    0.143    0.379  102.069  156.008    7.161
  545.500    0.130    0.372  101.482  156.494    7.213
  545.750    0.130    0.376  104.094  156.863    7.223
  546.000    0.135    0.378  108.837  156.927    7.248
  546.250    0.125    0.376  113.398  156.682    7.245
  546.500    0.138    0.368  117.891  157.375    7.380
  546.750    0.153    0.365  118.183  157.543    7.634
  547.000    0.155    0.380  116.651  157.814    8.002
  547.250    0.159    0.373  114.178  157.878    8.483
  547.500    0.168    0.366  109.133  158.164    8.926
  547.750    0.160    0.359  103.023  158.215    9.464
  548.000    0.138    0.356   96.282  158.079   10.167
  548.250    0.115    0.362   93.372  157.930   11.091
  548.500    0.137    0.350   89.708  158.204   11.893
  548.750    0.089    0.306   80.837  158.484   12.682
  549.000    0.060    0.268   73.469  158.545   13.318
  549.250    0.133    0.289   83.109  158.398   13.439
  549.500    0.171    0.352   92.814  157.520   13.206
  549.750    0.176    0.350   95.050  156.959   12.492
  550.000    0.162    0.343   90.335  154.731   11.486
  550.250    0.148    0.337   88.781  155.235   12.280
  550.500    0.124    0.328   95.339  155.428   13.145
  550.750    0.089    0.313   97.504  155.416   16.269
  551.000    0.039    0.284   94.336  154.915   21.443
  551.250    0.021    0.294   86.962  154.782   25.108
  551.500    0.015    0.279   66.401  154.590   26.119
  551.750    0.030    0.229   59.466  154.293   24.044
  552.000    0.036    0.185   55.563  153.939   18.463
  552.250    0.061    0.164   61.374  153.311   12.546
  552.500    0.094    0.217   71.953  152.789    9.273
  552.750    0.129    0.337   83.154  151.768    7.804
  553.000    0.117    0.370   89.220  151.048    8.041
  553.250    0.094    0.385   92.740  150.803    8.174
  553.500    0.078    0.388   95.211  150.705    8.185
  553.750    0.097    0.383   94.220  150.571    8.102
  554.000    0.114    0.368   94.718  150.562    8.020
  554.250    0.128    0.368   96.506  150.767    7.907
  554.500    0.116    0.375   97.239  151.278    7.857
  554.750    0.100    0.370   97.788  151.682    7.897
  555.000    0.107    0.369   99.331  151.989    7.953
  555.250    0.121    0.370  102.360  152.186    8.085
  555.500    0.131    0.372  104.519  152.278    8.204
  555.750    0.130    0.369  100.800  152.365    8.405
  556.000    0.119    0.359   97.021  152.680    8.709
  556.250    0.117    0.337   95.402  152.753    9.042
  556.500    0.120    0.348   93.669  152.948    9.317
  556.750    0.094    0.367   92.426  153.468    9.293
  557.000    0.066    0.348   90.187  154.491    8.990
  557.250    0.055    0.324   90.248  156.139    8.781
  557.500    0.083    0.317   93.833  157.368    8.593
  557.750    0.115    0.331   98.221  158.495    8.538
  558.000    0.132    0.350  104.540  158.885    8.516
  558.250    0.138    0.361  106.817  159.204    8.462
  558.500    0.143    0.359  105.883  159.699    8.376
  558.750    0.130    0.349  102.721  159.697    7.710
  559.000    0.108    0.330  100.918  159.372    6.318
  559.250    0.102    0.327   98.190  158.854    3.507
  559.500    0.117    0.340   98.317  158.433    1.572
  559.750    0.127    0.355  103.321  158.323    1.003
  560.000    0.107    0.327  107.090  158.307    0.761
  560.250    0.060    0.316   94.578  158.708    0.731
  560.500    0.048    0.315   88.323  158.901    0.804
  560.750    0.075    0.304   87.696  159.316    1.474
  561.000    0.099    0.295   93.084  159.405    2.199
  561.250    0.110    0.297   94.191  159.197    2.711
  561.500    0.093    0.302   94.990  159.488    3.236
  561.750    0.093    0.313   98.077  160.103    3.013
  562.000    0.134    0.361  101.232  165.876    2.994
  562.250    0.168    0.516  105.621  165.040    3.021
  562.500    0.194    0.499  107.226  159.037    3.001
  562.750    0.183    0.487  105.423  158.306    2.904
  563.000    0.183    0.502  108.018  159.439    2.918
  563.250    0.190    0.487  113.156  160.780    3.906
  563.500    0.182    0.472  116.924  160.044    4.975
  563.750    0.166    0.484  112.958  156.419    5.825
  564.000    0.110    0.418   99.951  154.138    6.071
  564.250    0.103    0.331   92.144  156.096    5.986
  564.500    0.112    0.324   98.082  157.425    5.574
  564.750    0.117    0.338  108.973  156.802    5.161
  565.000    0.107    0.369  118.692  156.381    5.287
  565.250    0.097    0.392  117.322  156.163    5.638
  565.500    0.104    0.392  111.745  155.943    5.944
  565.750    0.118    0.407  105.301  156.047    6.194
  566.000    0.107    0.396   97.743  156.141    6.345
  566.250    0.088    0.352   94.887  156.019    6.601
  566.500    0.081    0.331  100.332  155.507    6.801
  566.750    0.106    0.344   99.402  154.980    6.836
  567.000    0.102    0.356   96.297  154.455    6.767
  567.250    0.096    0.359   96.240  154.559    6.534
  567.500    0.100    0.368   95.050  154.650    5.992
  567.750    0.091    0.383   88.296  154.632    5.391
  568.000    0.067    0.378   80.185  152.246    4.434
  568.250    0.153    0.329   64.882  147.908    3.774
  568.500    0.199    0.313   52.804  144.493    3.390
  568.750    0.244    0.329   43.761  143.151    3.138
  569.000    0.283    0.355   38.616  143.031    2.996
  569.250    0.287    0.366   35.329  143.226    2.954
  569.500    0.284    0.363   34.891  143.745    2.885
  569.750    0.285    0.349   33.401  144.139    2.867
  570.000    0.282    0.342   30.237  144.573    2.876
  570.250    0.271    0.337   32.216  144.848    2.992
  570.500    0.265    0.337   33.880  145.282    3.190
  570.750    0.283    0.343   31.522  145.685    3.331
  571.000    0.285    0.338   31.888  145.864    3.425
  571.250    0.280    0.331   34.484  145.944    3.510
  571.500    0.272    0.331   34.795  145.954    3.714
  571.750    0.262    0.332   36.022  145.741    3.819
  572.000    0.250    0.329   37.316  145.525    3.883
  572.250    0.238    0.321   37.373  145.523    3.910
