~VERSION INFORMATION
 VERS.                 2.0:   CWLS LOG ASCII STANDARD -VERSION 2.0
 WRAP.                  NO:   ONE LINE PER DEPTH STEP
~WELL INFORMATION BLOCK
#MNEM.UNIT           DATA                    DESCRIPTION OF MNEMONIC
#---------    -------------------            -------------------------------
# Generated from Intellog Unique Number	CW_76_78/WELL/195
WELL.         SCURRY APL AMOCO 06-17         : Well_name    - WELL
LOC .         00/06-17-078-01W5/0            : Location     - LOCATION
UWI .         00/06-17-078-01W5/0            : Uwi          - UNIQUE WELL ID
ENTR.         JJ                             : Entered      - ENTERED BY
SRVC.         WESTERN ATLAS                  : Scn          - SERVICE COMPANY
DATE.         16 FEB 75                      : Date         - LOG DATE
STRT.M        399.288                        : top_depth    - START DEPTH
STOP.M        527.288                        : bot_depth    - STOP DEPTH
STEP.M        0.25                           : increment    - STEP LENGTH
 NULL. -999.2500:NULL Value
~CURVE INFORMATION BLOCK
#MNEM UNIT       ERCB CURVE CODE    CURVE DESCRIPTION
#-----------   ------------------   ----------------------------------
DEPT.M        00 001 00 00         : DEPTH        - DEPTH
CALI.MM       00 280 01 00         : CAL          - CALIPER
DELT.US/F     00 520 00 00         : DELT         - SONIC TRAVEL TIME
GR  .API      00 310 00 00         : GR           - GAMMA RAY
ILD .OHMM     00 120 00 00         : RESD         - DEEP RESISTIVITY (DIL)
~PARAMETER INFORMATION
#MNEM.UNIT           DATA             DESCRIPTION OF MNEMONIC
#---------         -----------     ------------------------------
GL  .M        606.552              : gl           - GROUND LEVEL ELEVATION
EREF.M        610.514              : kb           - ELEVATION OF DEPTH REFERENCE
DATM.M        606.552              : datum        - DATUM ELEVATION
TDD .M        525.17               : tdd          - TOTAL DEPTH DRILLER
RUN .         ONE                  : Run          - RUN NUMBER
ENG .         THOMPSON             : Engineer     - RECORDING ENGINEER
WIT .         KIRKPATRICK          : Witness      - WITNESSED BY
BASE.         BROOKS               : Branch       - HOME BASE OF LOGGING UNIT
MUD .         MUD/GEL              : Mud_type     - MUD TYPE
MATR.         SANDSTONE            : Logunit      - NEUTRON MATRIX
TMAX.C        25.5556              : BHT          - MAXIMUM RECORDED TEMPERATURE
BHTD.M        526.085              : BHTDEP       - MAXIMUM RECORDED TEMPERATURE
RMT .C        15.5556              : MDTP         - TEMPERATURE OF MUD
MUDD.KG/M     1116                 : MWT          - MUD DENSITY
NEUT.         1                    : NEUTRON      - NEUTRON TYPE
RESI.         0                    : RESIST       - RESISTIVITY TYPE
RM  .OHMM     6                    : RM           - RESISTIVITY OF MUD
RMC .OHMM     2.4                  : RMC          - RESISTIVITY OF MUD CAKE
RMF .OHMM     2.8                  : RMF          - RESISTIVITY OF MUD FILTRATE
SUFT.C        5                    : SUFT         - SURFACE TEMPERATURE
~A  DEPTH      CAL     DELT       GR     RESD
# ...
  486.288  168.239  322.871   97.593   11.335
  486.538  168.329  313.164  100.156   10.997
  486.788  166.489  353.097  111.802   10.304
  487.038  167.415  358.104  111.889    9.990
  487.288  168.076  340.422  105.374   10.336
  487.538  168.577  330.280  101.634   10.935
  487.788  166.356  323.099   97.191   11.807
  488.038  163.265  316.214   89.279   12.583
  488.288  162.099  317.637   86.391   13.475
  488.538  162.609  368.572   82.618   14.683
  488.788  163.563  303.888   80.885   17.105
  489.038  164.348  229.843   75.887   20.347
  489.288  164.267  238.371   73.302   23.397
  489.538  163.600  261.059   77.493   23.300
  489.788  164.841  309.289   84.524   20.948
  490.038  166.549  320.788   89.947   18.244
  490.288  164.793  313.679   94.453   16.061
  490.538  163.507  313.631   98.004   13.840
  490.788  163.375  313.290   99.584   12.310
  491.038  164.978  310.694   96.295   12.057
  491.288  166.637  310.211   97.362   12.425
  491.538  167.283  310.775   98.569   13.032
  491.788  167.287  307.076   98.999   13.305
  492.038  166.956  302.580   97.741   13.838
  492.288  167.820  305.208   96.870   13.979
  492.538  168.825  313.762  101.701   13.684
  492.788  169.010  327.618  104.527   12.584
  493.038  169.232  341.807  111.757   11.328
  493.288  169.763  348.480  117.539   10.506
  493.538  169.825  328.974  113.775   10.171
  493.788  168.025  313.115   95.348   10.397
  494.038  165.166  328.749   89.195   10.821
  494.288  162.993  338.127   94.975   11.554
  494.538  163.893  333.408   95.233   12.172
  494.788  163.769  333.486   91.429   11.742
  495.038  164.116  336.736   93.785   11.630
  495.288  164.237  341.742   93.925   11.949
  495.538  164.079  348.481   92.394   12.343
  495.788  165.112  330.721   93.842   12.468
  496.038  166.291  332.177  100.120   12.285
  496.288  167.188  349.343  104.323   12.111
  496.538  167.761  349.018   97.941   12.480
  496.788  167.689  348.712   83.539   14.241
  497.038  166.758  362.394   67.716   18.519
  497.288  164.458  374.925   45.562   24.734
  497.538  162.532  384.993   36.063   28.883
  497.788  163.168  393.056   32.178   38.456
  498.038  163.538  397.839   31.786   46.852
  498.288  163.377  401.775   33.017   49.628
  498.538  163.778  403.553   33.076   50.465
  498.788  163.897  400.238   31.712   50.781
  499.038  165.154  393.799   35.546   51.118
  499.288  165.304  390.516   36.444   55.377
  499.538  162.107  391.507   33.695   58.361
  499.788  161.856  393.307   34.258   60.146
  500.038  162.857  389.062   35.235   60.298
  500.288  163.575  390.910   33.766   60.481
  500.538  164.142  387.974   31.710   58.479
  500.788  163.999  363.597   30.711   55.069
  501.038  162.925  351.598   33.399   52.470
  501.288  162.937  351.874   35.898   49.059
  501.538  164.082  347.780   37.735   35.169
  501.788  164.852  347.263   38.577   39.419
  502.038  163.266  347.512   36.456   42.394
  502.288  163.960  345.222   34.944   43.800
  502.538  164.677  343.410   34.787   44.518
  502.788  164.433  353.479   33.812   44.987
  503.038  163.391  353.305   33.208   45.184
  503.288  163.588  345.020   35.405   45.218
  503.538  164.142  339.798   37.547   45.160
  503.788  164.336  340.659   39.875   45.050
  504.038  164.365  344.351   40.514   44.797
  504.288  165.333  343.011   39.801   44.053
  504.538  164.427  340.722   36.772   43.039
  504.788  163.681  340.003   35.670   41.707
  505.038  164.246  340.817   36.453   40.672
  505.288  164.010  343.934   34.597   39.955
  505.538  164.523  345.150   36.457   39.182
  505.788  164.808  347.057   38.944   38.039
  506.038  164.752  350.451   35.813   36.457
  506.288  164.484  347.754   35.796   35.211
  506.538  163.973  351.114   39.417   34.452
  506.788  163.216  346.096   37.121   34.217
  507.038  163.164  338.592   37.725   33.901
  507.288  163.967  342.483   40.599   32.183
  507.538  163.855  350.402   38.890   28.990
  507.788  164.797  347.525   37.674   25.922
  508.038  165.481  339.713   38.816   22.733
  508.288  165.126  348.566   43.812   19.840
  508.538  164.283  353.992   43.750   17.474
  508.788  164.538  349.926   42.506   15.873
  509.038  165.086  348.944   42.608   15.034
  509.288  165.131  345.121   41.242   14.699
  509.538  165.061  346.418   43.387   14.664
  509.788  165.125  353.477   45.593   15.090
  510.038  165.287  349.684   44.018   16.091
  510.288  165.514  348.560   38.919   16.537
  510.538  164.384  355.038   33.007   16.082
  510.788  164.811  351.605   31.987   15.587
  511.038  165.257  345.495   36.354   15.188
  511.288  164.372  341.433   38.972   14.799
  511.538  164.192  336.680   40.747   14.292
  511.788  164.146  338.485   41.196   13.618
  512.038  164.251  344.459   42.614   12.594
  512.288  164.295  337.633   45.747   11.149
  512.538  164.346  329.857   51.046    9.741
  512.788  164.497  338.077   44.433    8.183
  513.038  164.809  344.336   43.669    7.205
  513.288  165.251  336.249   48.140    6.742
  513.538  165.540  324.076   51.243    7.086
  513.788  164.318  308.085   54.783    8.269
  514.038  165.985  281.341   58.682   10.215
  514.288  168.199  272.658   60.188   12.385
  514.538  169.903  279.397   63.685   14.013
  514.788  172.393  291.095   65.092   13.513
  515.038  171.044  327.765   62.631   11.659
  515.288  166.648  347.998   63.742   10.061
  515.538  164.122  343.969   67.371    8.620
  515.788  163.812  337.627   68.966    7.732
  516.038  164.205  331.810   68.962    8.207
  516.288  164.812  303.555   68.285    9.133
  516.538  165.602  257.069   65.900   10.250
  516.788  167.471  255.489   61.493   11.185
  517.038  169.703  317.437   68.071   10.905
  517.288  170.245  370.460   80.424    9.615
  517.538  168.138  396.957  106.326    8.166
  517.788  167.488  401.283  119.904    6.561
  518.038  168.303  397.643  119.756    5.553
  518.288  168.951  395.973  117.078    5.177
  518.538  169.289  390.457  113.894    5.402
  518.788  170.104  384.008  115.290    5.857
  519.038  171.140  354.080  109.685    6.319
  519.288  171.039  280.152   98.563    6.926
  519.538  170.307  288.924   91.512    7.675
  519.788  170.175  360.342   85.332    8.377
  520.038  170.681  372.867   85.853    8.493
  520.288  171.317  378.021   91.443    7.783
  520.538  171.502  379.355   92.027    7.072
  520.788  171.209  375.399   87.779    6.536
  521.038  170.769  316.457   88.916    6.429
  521.288  169.522  242.490   90.835    7.472
  521.538  168.511  246.829   89.553    8.670
  521.788  167.928  306.120   84.195    9.566
  522.038  167.948  313.766   84.793    9.960
  522.288  168.289  370.096   90.256    9.516
  522.538  168.949  353.743   91.781    8.645
  522.788  169.952  338.981   88.896    8.243
  523.038  171.009  350.772   90.707    8.339
  523.288  170.872  371.842   92.777    8.565
  523.538  169.453  383.125   87.404    8.858
  523.788  167.418  385.668   84.858    9.266
  524.038  166.765  386.215   87.963    9.664
  524.288  167.043  386.260   91.857    9.996
  524.538  167.853  386.260   90.943   10.254
  524.788  169.576  382.659   88.358   10.851
  525.038  172.710  360.101   85.335   11.015
  525.288  173.272  266.185   86.765   11.010
  525.538  172.267  261.154   85.260   10.970
  525.788  171.659  260.060   86.569   10.975
  526.038  171.271  247.717   88.422   10.998
  526.288  171.147  234.044   91.409   10.968
  526.538  171.335  228.223   91.871   10.975
  526.788  171.571  226.219   89.833   10.925
  527.038  171.856  224.877   90.691   10.867
  527.288  171.856  224.877   90.691   10.867
