~VERSION INFORMATION
 VERS.                 2.0:   CWLS LOG ASCII STANDARD -VERSION 2.0
 WRAP.                  NO:   ONE LINE PER DEPTH STEP
~WELL INFORMATION BLOCK
#MNEM.UNIT           DATA                    DESCRIPTION OF MNEMONIC
#---------    -------------------            -------------------------------
# Generated from Intellog Unique Number	CW_76_78/WELL/2568
WELL.         06-25-078-25W4                 : Well_name    - WELL
LOC .         00/06-25-078-25W4/0            : Location     - LOCATION
UWI .         00/06-25-078-25W4/0            : Uwi          - UNIQUE WELL ID
ENTR.         MAX                            : Entered      - ENTERED BY
SRVC.         SCHLUMBERGER                   : Scn          - SERVICE COMPANY
STRT.M        274.32                         : top_depth    - START DEPTH
STOP.M        533.32                         : bot_depth    - STOP DEPTH
STEP.M        0.25                           : increment    - STEP LENGTH
 NULL. -999.2500:NULL Value
~CURVE INFORMATION BLOCK
#MNEM UNIT       ERCB CURVE CODE    CURVE DESCRIPTION
#-----------   ------------------   ----------------------------------
DEPT.M        00 001 00 00         : DEPTH        - DEPTH
ILD .OHMM     00 120 00 00         : RESD         - DEEP RESISTIVITY (DIL)
NPHI.V/V      00 330 00 00         : PHIN         - NEUTRON POROSITY (SANDSTONE)
DPHI.V/V      00 890 00 00         : PHID         - DENSITY POROSITY (SANDSTONE)
CALI.MM       00 280 01 00         : CAL          - CALIPER
GR  .API      00 310 00 00         : GR           - GAMMA RAY
~PARAMETER INFORMATION
#MNEM.UNIT           DATA             DESCRIPTION OF MNEMONIC
#---------         -----------     ------------------------------
GL  .M        589.483              : gl           - GROUND LEVEL ELEVATION
EREF.M        593.019              : kb           - ELEVATION OF DEPTH REFERENCE
DATM.M        589.483              : datum        - DATUM ELEVATION
TDD .M        535.534              : tdd          - TOTAL DEPTH DRILLER
RUN .         ONE                  : Run          - RUN NUMBER
ENG .         BILL                 : Engineer     - RECORDING ENGINEER
WIT .         JIM                  : Witness      - WITNESSED BY
MUD .         GEL                  : Mud_type     - MUD TYPE
MATR.         SANDSTONE            : Logunit      - NEUTRON MATRIX
TMAX.C        22.2222              : BHT          - MAXIMUM RECORDED TEMPERATURE
BHTD.M        535.534              : BHTDEP       - MAXIMUM RECORDED TEMPERATURE
RMT .C        10                   : MDTP         - TEMPERATURE OF MUD
MUDD.KG/M     9000                 : MWT          - MUD DENSITY
NEUT.         1                    : NEUTRON      - NEUTRON TYPE
RESI.         0                    : RESIST       - RESISTIVITY TYPE
RM  .OHMM     5.62                 : RM           - RESISTIVITY OF MUD
RMC .OHMM     0.25                 : RMC          - RESISTIVITY OF MUD CAKE
RMF .OHMM     5.41                 : RMF          - RESISTIVITY OF MUD FILTRATE
SUFT.C        -6.66667             : SUFT         - SURFACE TEMPERATURE
~A  DEPTH     RESD     PHIN     PHID      CAL       GR
# ...
  347.320   13.599    0.483    0.306  209.541   34.022
  347.570   13.781    0.467    0.301  209.062   32.858
  347.820   14.057    0.444    0.300  209.087   33.165
  348.070   14.237    0.436    0.298  210.106   33.767
  348.320   14.513    0.424    0.295  211.123   32.604
  348.570   14.789    0.411    0.292  211.150   32.619
  348.820   15.066    0.421    0.288  210.677   33.515
  349.070   15.443    0.420    0.280  210.201   35.295
  349.320   15.817    0.421    0.272  210.201   37.075
  349.570   15.802    0.419    0.264  210.245   37.382
  349.820   15.789    0.441    0.267  209.766   36.218
  350.070   15.577    0.455    0.292  209.793   34.464
  350.320   15.168    0.444    0.297  209.813   35.071
  350.570   14.961    0.447    0.294  209.838   36.260
  350.820   14.749    0.449    0.294  210.857   37.747
  351.070   14.734    0.447    0.288  210.879   38.056
  351.320   14.717    0.448    0.272  210.901   36.005
  351.570   14.603    0.452    0.270  211.428   34.252
  351.820   14.586    0.458    0.272  212.444   33.092
  352.070   14.476    0.450    0.275  211.968   33.102
  352.320   14.462    0.453    0.275  210.996   33.116
  352.570   14.444    0.450    0.272  210.536   34.013
  352.820   14.524    0.441    0.268  210.043   35.207
  353.070   14.704    0.431    0.264  209.572   34.629
  353.320   14.884    0.444    0.261  209.592   33.172
  353.570   15.065    0.456    0.258  210.616   31.124
  353.820   15.149    0.440    0.249  210.636   30.841
  354.070   15.329    0.430    0.241  210.661   32.330
  354.320   15.507    0.424    0.241  211.683   33.813
  354.570   15.783    0.403    0.228  212.702   34.711
  354.820   16.157    0.395    0.228  213.223   33.841
  355.070   16.436    0.421    0.228  213.245   33.265
  355.320   16.714    0.426    0.237  211.774   33.576
  355.570   16.991    0.423    0.240  210.799   33.589
  355.820   16.879    0.416    0.231  209.827   33.897
  356.070   15.982    0.416    0.222  208.855   34.793
  356.320   15.189    0.425    0.244  207.880   36.574
  356.570   14.194    0.425    0.262  206.407   38.354
  356.820   13.303    0.429    0.287  204.432   40.428
  357.070   12.213    0.436    0.314  202.958   41.913
  357.320   11.026    0.445    0.313  201.491   43.400
  357.570   10.129    0.457    0.297  200.518   46.065
  357.820    9.728    0.469    0.272  200.037   48.431
  358.070    9.612    0.473    0.247  200.037   53.451
  358.320    9.794    0.465    0.227  199.585   58.765
  358.570   10.460    0.451    0.203  199.109   63.196
  358.820   11.227    0.436    0.177  201.131   62.915
  359.070   12.185    0.415    0.157  203.144   59.982
  359.320   13.050    0.393    0.149  206.160   53.224
  359.570   13.425    0.406    0.163  205.684   55.005
  359.820   13.016    0.441    0.170  205.709   56.199
  360.070   12.416    0.420    0.173  207.728   57.979
  360.320   11.426    0.397    0.178  210.240   61.523
  360.570   10.435    0.383    0.188  210.767   67.426
  360.820    9.441    0.419    0.208  208.795   67.150
  361.070    9.038    0.442    0.231  204.333   66.569
  361.320    8.629    0.452    0.251  202.358   65.114
  361.570    8.420    0.447    0.260  202.358   64.538
  361.820    8.402    0.446    0.260  201.906   64.847
  362.070    8.488    0.452    0.257  201.427   65.154
  362.320    8.569    0.448    0.256  201.449   65.168
  362.570    8.552    0.452    0.257  201.480   65.473
  362.820    8.441    0.462    0.262  202.001   66.077
  363.070    8.325    0.443    0.254  202.516   66.681
  363.320    8.214    0.438    0.242  203.543   68.167
  363.570    8.199    0.468    0.233  204.557   69.065
  363.820    8.278    0.483    0.227  205.081   68.782
  364.070    8.361    0.467    0.230  205.604   67.323
  364.320    8.347    0.454    0.237  205.626   65.866
  364.570    8.329    0.452    0.239  206.147   65.879
  364.820    8.314    0.467    0.240  207.166   67.072
  365.070    8.104    0.476    0.235  208.188   68.851
  365.320    7.892    0.474    0.227  209.208   68.568
  365.570    7.877    0.481    0.231  210.230   68.288
  365.820    7.863    0.483    0.229  210.750   68.598
  366.070    7.944    0.480    0.223  211.274   68.905
  366.320    7.832    0.479    0.229  211.795   70.096
  366.570    7.618    0.488    0.229  213.315   71.876
  366.820    7.406    0.491    0.221  215.334   73.950
  367.070    7.199    0.484    0.218  217.345   75.436
  367.320    7.087    0.478    0.231  219.860   75.746
  367.570    7.070    0.480    0.240  224.876   78.112
  367.820    7.153    0.494    0.239  226.388   78.420
  368.070    7.428    0.492    0.241  224.419   77.553
  368.320    7.513    0.477    0.244  214.972   74.620
  368.570    7.496    0.466    0.245  211.003   68.745
  368.820    7.578    0.459    0.230  211.526   64.052
  369.070    7.558    0.453    0.214  216.534   68.184
  369.320    7.644    0.456    0.220  218.556   71.439
  369.570    7.725    0.472    0.234  217.575   67.918
  369.820    8.295    0.459    0.240  212.116   64.398
  370.070   10.233    0.441    0.239  207.652   61.172
  370.320   13.045    0.429    0.244  205.682   56.474
  370.570   13.518    0.435    0.243  204.713   46.479
  370.820   12.724    0.435    0.230  204.730   48.849
  371.070   11.537    0.429    0.206  204.253   55.339
  371.320   10.252    0.408    0.189  203.780   59.180
  371.570    9.162    0.390    0.175  203.303   60.959
  371.820    8.366    0.393    0.189  203.328   62.446
  372.070    7.862    0.410    0.206  204.846   64.520
  372.320    7.457    0.454    0.211  207.860   67.479
  372.570    7.147    0.471    0.217  212.371   67.788
  372.820    7.036    0.458    0.226  215.390   68.683
  373.070    7.119    0.472    0.232  215.906   72.525
  373.320    7.297    0.480    0.231  216.928   76.662
  373.570    7.477    0.489    0.231  218.944   75.793
  373.820    7.753    0.493    0.236  221.957   73.451
  374.070    8.130    0.479    0.242  222.484   71.403
  374.320    8.894    0.471    0.267  219.517   68.178
  374.570    9.661    0.470    0.273  216.044   63.776
  374.820   11.109    0.484    0.265  212.081   61.434
  375.070   12.162    0.471    0.262  210.112   57.618
  375.320   12.441    0.453    0.274  210.134   54.985
  375.570   12.426    0.454    0.272  210.654   56.175
  375.820   12.313    0.472    0.264  211.178   58.838
  376.070   12.199    0.474    0.259  211.200   58.850
  376.320   12.088    0.462    0.260  211.228   58.277
  376.570   11.877    0.450    0.260  211.228   58.289
  376.820   11.955    0.444    0.263  211.272   57.124
  377.070   12.139    0.444    0.266  211.297   55.080
  377.320   12.707    0.442    0.276  211.314   56.269
  377.570   12.595    0.440    0.283  211.336   55.696
  377.820   11.897    0.436    0.278  211.364   55.119
  378.070   10.903    0.430    0.277  210.885   57.195
  378.320   10.597    0.433    0.269  210.414   61.328
  378.570   10.192    0.445    0.255  210.436   64.290
  378.820    9.881    0.460    0.248  210.458   64.889
  379.070    9.282    0.470    0.243  210.478   69.025
  379.320    7.119    0.479    0.237  210.502   73.160
  379.570    5.542    0.478    0.240  210.525   80.830
  379.820    5.917    0.464    0.245  210.525   84.378
  380.070    7.168    0.451    0.244  210.577   82.624
  380.320    7.153    0.452    0.229  210.594   76.159
  380.570    6.750    0.472    0.216  210.619   70.285
  380.820   11.124    0.452    0.204  211.142   63.232
  381.070   15.891    0.446    0.204  211.666   58.534
  381.320   15.191    0.452    0.200  212.181   60.610
  381.570   16.345    0.444    0.191  212.710   67.689
  381.820   17.698    0.420    0.176  212.730   69.174
  382.070   18.073    0.396    0.157  212.752   65.362
  382.320   17.277    0.358    0.150  213.275   61.253
  382.570   15.602    0.363    0.146  213.796   59.499
  382.820   12.659    0.405    0.153  214.317   60.692
  383.070   10.984    0.415    0.189  214.342   60.118
  383.320    9.896    0.413    0.199  213.862   59.540
  383.570    9.294    0.392    0.206  213.887   61.616
