~VERSION INFORMATION
 VERS.                 2.0:   CWLS LOG ASCII STANDARD -VERSION 2.0
 WRAP.                  NO:   ONE LINE PER DEPTH STEP
~WELL INFORMATION BLOCK
#MNEM.UNIT           DATA                    DESCRIPTION OF MNEMONIC
#---------    -------------------            -------------------------------
# Generated from Intellog Unique Number	CS_77_79/WELL/898
WELL.         TRANS-PRAIRIE PIPELINES        : Well_name    - WELL
LOC .         00/07-15-077-12W4/0            : Location     - LOCATION
UWI .         00/07-15-077-12W4/0            : Uwi          - UNIQUE WELL ID
ENTR.         SP                             : Entered      - ENTERED BY
SRVC.         SCHLUMBERGER                   : Scn          - SERVICE COMPANY
STRT.M        242.621                        : top_depth    - START DEPTH
STOP.M        467.871                        : bot_depth    - STOP DEPTH
STEP.M        0.25                           : increment    - STEP LENGTH
 NULL. -999.2500:NULL Value
~CURVE INFORMATION BLOCK
#MNEM UNIT       ERCB CURVE CODE    CURVE DESCRIPTION
#-----------   ------------------   ----------------------------------
DEPT.M        00 001 00 00         : DEPTH        - DEPTH
GR  .API      00 310 00 00         : GR           - GAMMA RAY
DPHI.V/V      00 890 00 00         : PHID         - DENSITY POROSITY (SANDSTONE)
NPHI.V/V      00 330 00 00         : PHIN         - NEUTRON POROSITY (SANDSTONE)
ILD .OHMM     00 120 00 00         : RESD         - DEEP RESISTIVITY (DIL)
~PARAMETER INFORMATION
#MNEM.UNIT           DATA             DESCRIPTION OF MNEMONIC
#---------         -----------     ------------------------------
GL  .M        635.66               : gl           - GROUND LEVEL ELEVATION
EREF.M        639.166              : kb           - ELEVATION OF DEPTH REFERENCE
DATM.M        635.66               : datum        - DATUM ELEVATION
TDD .M        472.44               : tdd          - TOTAL DEPTH DRILLER
RUN .         ONE                  : Run          - RUN NUMBER
ENG .         BILL                 : Engineer     - RECORDING ENGINEER
WIT .         JIM                  : Witness      - WITNESSED BY
MUD .         GEL                  : Mud_type     - MUD TYPE
MATR.         SANDSTONE            : Logunit      - NEUTRON MATRIX
TMAX.C        21.1111              : BHT          - MAXIMUM RECORDED TEMPERATURE
BHTD.M        472.44               : BHTDEP       - MAXIMUM RECORDED TEMPERATURE
MATR.         1                    : LOGUNIT      - NEUTRON MATRIX
RMT .C        25                   : MDTP         - TEMPERATURE OF MUD
NEUT.         1                    : NEUTRON      - NEUTRON TYPE
RESI.         0                    : RESIST       - RESISTIVITY TYPE
RMC .OHMM     0.25                 : RMC          - RESISTIVITY OF MUD CAKE
RMF .OHMM     0.25                 : RMF          - RESISTIVITY OF MUD FILTRATE
SUFT.C        15                   : SUFT         - SURFACE TEMPERATURE
~A  DEPTH       GR     PHID     PHIN     RESD
  242.621   89.041    0.155    0.575    3.476
  242.871   84.558    0.136    0.532    3.640
  243.121   82.487    0.189    0.544    3.527
  243.371   84.568    0.206    0.598    3.354
  243.621   88.839    0.192    0.612    3.481
  243.871   91.900    0.166    0.609    3.698
  244.121   89.824    0.123    0.599    3.918
  244.371   86.220    0.166    0.574    4.216
  244.621   83.328    0.220    0.554    4.430
  244.871   79.820    0.217    0.551    4.619
  245.121   90.114    0.196    0.567    4.972
  245.371   88.901    0.225    0.574    5.104
  245.621   88.029    0.248    0.554    5.185
  245.871   85.597    0.240    0.559    5.290
  246.121   84.720    0.220    0.540    5.381
  246.371   84.759    0.237    0.521    5.352
  246.621   83.893    0.248    0.510    5.752
  246.871   80.734    0.208    0.471    6.088
  247.121   80.848    0.224    0.454    6.717
  247.371   82.632    0.232    0.436    7.398
  247.621   86.443    0.237    0.442    7.823
  247.871   82.838    0.242    0.428    8.728
  248.121   77.235    0.250    0.445    9.528
  248.371   73.248    0.232    0.417   10.076
  248.621   70.013    0.245    0.398   10.830
  248.871   66.649    0.268    0.394   10.778
  249.121   65.465    0.258    0.411   10.586
  249.371   64.812    0.248    0.437   10.355
  249.621   64.302    0.255    0.429   10.571
  249.871   63.927    0.289    0.413   10.638
  250.121   64.072    0.294    0.398   11.523
  250.371   64.168    0.287    0.393   12.419
  250.621   63.387    0.301    0.401   12.792
  250.871   61.006    0.289    0.408   13.486
  251.121   63.767    0.276    0.409   14.113
  251.371   61.462    0.247    0.386   14.448
  251.621   59.307    0.274    0.376   14.422
  251.871   58.504    0.313    0.363   14.769
  252.121   59.592    0.333    0.356   15.707
  252.371   59.942    0.345    0.335   16.677
  252.621   58.836    0.313    0.313   17.527
  252.871   57.286    0.304    0.326   18.025
  253.121   55.782    0.326    0.339   18.906
  253.371   54.810    0.337    0.347   19.432
  253.621   53.866    0.324    0.364   18.142
  253.871   54.719    0.296    0.373   16.437
  254.121   59.045    0.283    0.383   12.914
  254.371   61.078    0.244    0.394    9.671
  254.621   62.594    0.226    0.411    8.254
  254.871   68.324    0.210    0.437    7.095
  255.121   74.843    0.209    0.500    6.421
  255.371   80.139    0.212    0.549    6.035
  255.621   85.450    0.215    0.574    6.030
  255.871   89.033    0.229    0.530    6.495
  256.121   88.697    0.250    0.497    7.719
  256.371   86.096    0.262    0.469    9.379
  256.621   79.097    0.262    0.454   10.807
  256.871   69.322    0.243    0.426   11.935
  257.121   64.253    0.251    0.392   11.674
  257.371   60.279    0.267    0.385   10.760
  257.621   59.102    0.260    0.408   10.648
  257.871   60.486    0.243    0.421   10.530
  258.121   64.288    0.246    0.428   10.723
  258.371   65.273    0.272    0.433   10.711
  258.621   66.258    0.284    0.441   10.708
  258.871   66.240    0.275    0.442   10.726
  259.121   66.239    0.254    0.440   10.488
  259.371   66.226    0.258    0.441   10.519
  259.621   66.229    0.273    0.424   10.313
  259.871   66.269    0.282    0.421   10.081
  260.121   62.053    0.278    0.431    9.952
  260.371   60.075    0.268    0.439    9.757
  260.621   62.224    0.259    0.443    9.573
  260.871   64.241    0.254    0.449    9.457
  261.121   64.775    0.262    0.458    9.154
  261.371   64.983    0.249    0.465    9.061
  261.621   66.637    0.221    0.459    8.885
  261.871   72.267    0.201    0.467    8.895
  262.121   72.147    0.218    0.467    8.894
  262.371   70.547    0.239    0.466    8.893
  262.621   68.893    0.254    0.463    8.891
  262.871   67.927    0.255    0.461    8.890
  263.121   67.824    0.233    0.457    8.888
  263.371   68.529    0.212    0.450    8.885
  263.621   70.054    0.199    0.450    8.899
  263.871   70.305    0.213    0.462    8.706
  264.121   68.971    0.250    0.493    8.722
  264.371   69.026    0.272    0.520    8.619
  264.621   68.990    0.255    0.510    8.401
  264.871   68.990    0.236    0.492    8.251
  265.121   67.936    0.239    0.481    8.102
  265.371   67.751    0.238    0.483    7.898
  265.621   68.311    0.247    0.479    7.809
  265.871   69.920    0.242    0.479    7.621
  266.121   72.250    0.264    0.502    7.989
  266.371   74.308    0.241    0.500    8.213
  266.621   73.171    0.235    0.487    8.406
  266.871   71.207    0.248    0.479    8.395
  267.121   70.088    0.253    0.468    8.273
  267.371   71.515    0.250    0.494    8.280
  267.621   73.722    0.248    0.513    7.871
  267.871   75.312    0.250    0.539    2.809
  268.121   75.424    0.265    0.519  -999.25
  268.371   75.406    0.245    0.504  -999.25
  268.621   76.367    0.224    0.519  -999.25
  268.871   77.320    0.234    0.501  -999.25
  269.121   78.359    0.244    0.505  -999.25
  269.371   77.439    0.241    0.484  -999.25
  269.621   76.512    0.252    0.478  -999.25
  269.871   76.630    0.246    0.469  -999.25
  270.121   74.723    0.243    0.503  -999.25
  270.371   74.198    0.249    0.543  -999.25
  270.621   79.025    0.233    0.573  -999.25
  270.871   83.621    0.233    0.540  -999.25
  271.121   84.844    0.191    0.548  -999.25
  271.371   80.357    0.223    0.566  -999.25
  271.621   80.051    0.256    0.577  -999.25
  271.871   84.187    0.281    0.579  -999.25
  272.121   80.567    0.296    0.554  -999.25
  272.371   77.387    0.255    0.515  -999.25
  272.621   73.933    0.251    0.573  -999.25
  272.871   72.671    0.269    0.596  -999.25
  273.121   82.391    0.280    0.601  -999.25
  273.371   83.623    0.290    0.601  -999.25
  273.621   79.828    0.300    0.564  -999.25
  273.871   68.861    0.308    0.505  -999.25
  274.121   61.053    0.274    0.480  -999.25
  274.371   53.892    0.243    0.474  -999.25
  274.621   57.072    0.275    0.490  -999.25
  274.871   62.613    0.295    0.508  -999.25
  275.121   65.218    0.300    0.510  -999.25
  275.371   62.482    0.309    0.498  -999.25
  275.621   54.447    0.320    0.476  -999.25
  275.871   50.355    0.295    0.449  -999.25
  276.121   50.846    0.277    0.464  -999.25
  276.371   54.747    0.300    0.470  -999.25
  276.621   58.004    0.278    0.472  -999.25
  276.871   61.181    0.244    0.522  -999.25
  277.121   63.820    0.280    0.551  -999.25
  277.371   73.321    0.253    0.595  -999.25
  277.621   77.588    0.224    0.586  -999.25
  277.871   77.193    0.201    0.604  -999.25
  278.121   79.105    0.190    0.598  -999.25
  278.371   78.578    0.128    0.368  -999.25
  278.621   68.869    0.182    0.453  -999.25
  278.871   57.275    0.222    0.506  -999.25
  279.121   63.526    0.257    0.567  -999.25
  279.371   82.651    0.274    0.594  -999.25
  279.621   88.434    0.251    0.579  -999.25
  279.871   84.636    0.238    0.585  -999.25
  280.121   82.047    0.231    0.582  -999.25
  280.371   84.080    0.243    0.580  -999.25
  280.621   84.736    0.234    0.577  -999.25
  280.871   86.816    0.219    0.585  -999.25
  281.121   89.231    0.222    0.590  -999.25
  281.371   89.932    0.221    0.570  -999.25
  281.621   94.450    0.236    0.577  -999.25
  281.871   97.281    0.258    0.574  -999.25
  282.121   96.178    0.242    0.550  -999.25
  282.371   94.877    0.244    0.521  -999.25
  282.621   91.258    0.263    0.501  -999.25
  282.871   88.385    0.244    0.470    7.666
  283.121   82.581    0.247    0.451   10.618
  283.371   77.635    0.270    0.436   10.057
  283.621   75.371    0.265    0.437    9.965
  283.871   74.663    0.276    0.455    9.967
  284.121   72.690    0.300    0.510   10.010
  284.371   72.902    0.310    0.580   10.145
  284.621   73.252    0.294    0.596   10.160
  284.871   72.076    0.277    0.550    9.921
  285.121   73.835    0.256    0.541    9.345
  285.371   75.367    0.245    0.572    8.459
  285.621   75.242    0.251    0.590    7.506
  285.871   75.141    0.196    0.596    7.115
