~VERSION INFORMATION
 VERS.                 2.0:   CWLS LOG ASCII STANDARD -VERSION 2.0
 WRAP.                  NO:   ONE LINE PER DEPTH STEP
~WELL INFORMATION BLOCK
#MNEM.UNIT           DATA                    DESCRIPTION OF MNEMONIC
#---------    -------------------            -------------------------------
# Generated from Intellog Unique Number	CW_73_75/WELL/416
WELL.         ULSTER MARTEN HILLS 03-09      : Well_name    - WELL
LOC .         00/03-09-075-23W4/0            : Location     - LOCATION
UWI .         00/03-09-075-23W4/0            : Uwi          - UNIQUE WELL ID
ENTR.         JAYE                           : Entered      - ENTERED BY
SRVC.         WESTERN ATLAS                  : Scn          - SERVICE COMPANY
DATE.         22 MAR 88                      : Date         - LOG DATE
STRT.M        400                            : top_depth    - START DEPTH
STOP.M        600                            : bot_depth    - STOP DEPTH
STEP.M        0.25                           : increment    - STEP LENGTH
 NULL. -999.2500:NULL Value
~CURVE INFORMATION BLOCK
#MNEM UNIT       ERCB CURVE CODE    CURVE DESCRIPTION
#-----------   ------------------   ----------------------------------
DEPT.M        00 001 00 00         : DEPTH        - DEPTH
ILD .OHMM     00 120 00 00         : RESD         - DEEP RESISTIVITY (DIL)
NPHI.V/V      00 330 00 00         : PHIN         - NEUTRON POROSITY (SANDSTONE)
DPHI.V/V      00 890 00 00         : PHID         - DENSITY POROSITY (SANDSTONE)
GR  .API      00 310 00 00         : GR           - GAMMA RAY
CALI.MM       00 280 01 00         : CAL          - CALIPER
~PARAMETER INFORMATION
#MNEM.UNIT           DATA             DESCRIPTION OF MNEMONIC
#---------         -----------     ------------------------------
GL  .M        686.6                : gl           - GROUND LEVEL ELEVATION
EREF.M        689.9                : kb           - ELEVATION OF DEPTH REFERENCE
DATM.M        686.6                : datum        - DATUM ELEVATION
TDD .M        609                  : tdd          - TOTAL DEPTH DRILLER
RUN .         ONE                  : Run          - RUN NUMBER
ENG .         SELINGER             : Engineer     - RECORDING ENGINEER
WIT .         OLIVER               : Witness      - WITNESSED BY
BASE.         RDD                  : Branch       - HOME BASE OF LOGGING UNIT
MUD .         GEL CHEM             : Mud_type     - MUD TYPE
MATR.         SANDSTONE            : Logunit      - NEUTRON MATRIX
TMAX.C        27                   : BHT          - MAXIMUM RECORDED TEMPERATURE
BHTD.M        602.6                : BHTDEP       - MAXIMUM RECORDED TEMPERATURE
RMT .C        18                   : MDTP         - TEMPERATURE OF MUD
MUDD.KG/M     1110                 : MWT          - MUD DENSITY
NEUT.         1                    : NEUTRON      - NEUTRON TYPE
RESI.         0                    : RESIST       - RESISTIVITY TYPE
RM  .OHMM     3.18                 : RM           - RESISTIVITY OF MUD
RMC .OHMM     3.98                 : RMC          - RESISTIVITY OF MUD CAKE
RMF .OHMM     3.65                 : RMF          - RESISTIVITY OF MUD FILTRATE
SUFT.C        0                    : SUFT         - SURFACE TEMPERATURE
~A  DEPTH     RESD     PHIN     PHID       GR      CAL
# ...
  546.000    7.208    0.445    0.150   96.720  203.509
  546.250    7.150    0.431    0.151   88.380  203.545
  546.500    7.067    0.412    0.164   92.583  203.584
  546.750    6.985    0.433    0.158   94.388  203.721
  547.000    6.994    0.425    0.144   93.979  204.161
  547.250    7.004    0.390    0.131   94.860  204.611
  547.500    7.025    0.379    0.125   93.100  204.654
  547.750    7.035    0.404    0.151   91.462  204.374
  548.000    7.032    0.433    0.167   97.325  204.309
  548.250    7.014    0.454    0.147   96.731  204.347
  548.500    6.920    0.468    0.130   95.526  204.277
  548.750    6.877    0.459    0.146   94.807  204.314
  549.000    6.823    0.443    0.159   96.305  204.354
  549.250    6.831    0.445    0.172  102.475  204.290
  549.500    6.854    0.471    0.178  108.030  204.945
  549.750    6.940    0.443    0.171  102.950  205.387
  550.000    7.158    0.387    0.115   94.796  205.520
  550.250    7.410    0.362    0.078   88.113  205.555
  550.500    7.379    0.346    0.109   80.634  205.595
  550.750    7.212    0.363    0.137   83.730  205.528
  551.000    7.103    0.382    0.178   97.340  205.153
  551.250    7.138    0.393    0.187   98.346  203.345
  551.500    7.309    0.388    0.166   91.911  202.566
  551.750    7.456    0.351    0.163   85.787  201.781
  552.000    7.564    0.336    0.169   86.053  201.718
  552.250    7.587    0.335    0.141   89.210  202.260
  552.500    7.612    0.362    0.138   89.724  202.611
  552.750    7.550    0.397    0.152   83.228  202.643
  553.000    7.463    0.421    0.160   81.529  202.475
  553.250    7.376    0.407    0.167   88.436  202.413
  553.500    7.304    0.387    0.170   95.836  202.442
  553.750    7.314    0.392    0.164   96.904  202.483
  554.000    7.310    0.421    0.168   92.744  202.832
  554.250    7.264    0.433    0.161   90.675  203.379
  554.500    7.221    0.413    0.168   93.525  203.618
  554.750    7.190    0.403    0.167   96.561  204.063
  555.000    7.160    0.432    0.139   92.464  204.301
  555.250    7.195    0.433    0.152   88.429  204.232
  555.500    7.231    0.382    0.164   85.681  204.478
  555.750    7.268    0.367    0.183   82.876  204.509
  556.000    7.359    0.362    0.193   80.685  197.887
  556.250    7.549    0.390    0.198   78.618  197.004
  556.500    8.007    0.396    0.193   76.425  197.038
  556.750    9.062    0.354    0.073   73.985  198.200
  557.000   10.765    0.309    0.047   69.027  200.287
  557.250   12.811    0.291    0.034   63.454  201.863
  557.500   13.639    0.282    0.051   62.431  202.407
  557.750   13.732    0.312    0.081   69.400  202.345
  558.000   13.226    0.338    0.119   75.139  201.967
  558.250   13.170    0.349    0.087   69.874  201.599
  558.500   13.509    0.333    0.053   60.613  201.334
  558.750   14.142    0.305    0.042   55.346  200.958
  559.000   14.944    0.287    0.031   50.879  200.990
  559.250   15.159    0.278    0.023   52.192  200.728
  559.500   13.859    0.330    0.100   67.831  200.656
  559.750   12.232    0.347    0.154   78.799  200.591
  560.000   10.694    0.360    0.166   86.627  201.141
  560.250    9.231    0.344    0.159   91.138  202.092
  560.500    7.819    0.338    0.157   93.436  203.360
  560.750    7.229    0.389    0.169   95.915  204.218
  561.000    7.053    0.425    0.179  100.364  205.178
  561.250    6.971    0.426    0.180  105.244  206.130
  561.500    6.954    0.399    0.168  103.543  207.198
  561.750    7.002    0.395    0.161  103.566  207.023
  562.000    7.156    0.426    0.166  107.767  206.443
  562.250    7.341    0.429    0.146  101.027  205.360
  562.500    7.586    0.390    0.105   91.333  203.855
  562.750    8.002    0.322    0.097   88.650  202.456
  563.000    8.269    0.328    0.151   91.439  201.567
  563.250    8.341    0.337    0.174   88.327  201.300
  563.500    8.353    0.332    0.160   85.396  201.437
  563.750    8.442    0.327    0.147   83.451  201.778
  564.000    8.595    0.328    0.136   90.050  202.635
  564.250    8.687    0.331    0.139   88.535  203.593
  564.500    8.713    0.334    0.135   82.592  204.039
  564.750    8.774    0.342    0.136   88.026  204.284
  565.000    8.885    0.350    0.148   92.905  204.529
  565.250    9.096    0.375    0.161   97.107  204.563
  565.500    9.418    0.343    0.048   93.134  204.596
  565.750    9.969    0.338    0.016   91.125  204.638
  566.000   10.996    0.333    0.051   85.982  204.571
  566.250   11.620    0.300    0.076   70.448  204.500
  566.500   11.613    0.260    0.054   60.325  204.231
  566.750   10.998    0.278    0.038   65.512  204.065
  567.000   10.148    0.316    0.077   79.122  204.096
  567.250    9.504    0.351    0.113   90.887  203.827
  567.500    8.688    0.384    0.130   92.878  203.250
  567.750    7.988    0.409    0.142   91.608  202.976
  568.000    7.707    0.383    0.147   93.042  202.812
  568.250    8.328    0.383    0.110   94.294  202.842
  568.500    8.833    0.384    0.088   90.381  202.988
  568.750    8.943    0.308    0.059   83.885  203.018
  569.000    8.873    0.295    0.047   75.238  203.467
  569.250    8.834    0.348    0.083   79.995  203.911
  569.500    8.716    0.378    0.130   84.198  204.572
  569.750    8.567    0.396    0.151   85.694  204.702
  570.000    8.357    0.416    0.130   87.195  204.739
  570.250    8.153    0.422    0.115   88.260  204.783
  570.500    7.941    0.405    0.128   89.144  204.809
  570.750    7.776    0.394    0.121   89.473  204.743
  571.000    7.757    0.398    0.113   89.493  204.887
  571.250    7.695    0.420    0.144   90.069  205.127
  571.500    7.691    0.402    0.157   90.582  205.160
  571.750    7.672    0.381    0.158   89.927  205.503
  572.000    7.654    0.344    0.128   87.612  205.541
  572.250    7.679    0.320    0.126   94.950  205.381
  572.500    7.575    0.338    0.136   95.648  205.108
  572.750    7.201    0.349    0.116   92.903  204.828
  573.000    6.819    0.327    0.102   94.339  204.458
  573.250    6.352    0.349    0.090   97.623  204.189
  573.500    6.015    0.369    0.079   98.810  203.714
  573.750    5.825    0.397    0.085  101.783  203.949
  574.000    5.854    0.437    0.101   95.902  204.298
  574.250    5.950    0.364    0.051   83.319  204.336
  574.500    6.047    0.256    0.005   76.641  204.264
  574.750    6.066    0.258    0.083   89.144  204.003
  575.000    5.896    0.282    0.106   93.530  203.926
  575.250    5.460    0.297    0.126   96.935  204.272
  575.500    4.686    0.306    0.129  100.153  204.517
  575.750    3.948    0.345    0.146  102.756  204.854
  576.000    3.491    0.508    0.183  103.948  205.199
  576.250    3.180    0.535    0.204  105.506  205.545
  576.500    3.039    0.510    0.192  109.954  205.683
  576.750    3.095    0.487    0.187  111.697  205.518
  577.000    3.192    0.499    0.176  108.829  205.144
  577.250    3.392    0.495    0.154  104.794  205.076
  577.500    3.776    0.431    0.120   98.114  205.628
  577.750    4.235    0.369    0.089   83.257  206.688
  578.000    4.508    0.359    0.001   86.292  207.745
  578.250    4.693    0.360    0.009   90.616  208.189
  578.500    4.978    0.371    0.116   97.586  208.639
  578.750    5.339    0.412    0.141   98.899  209.390
  579.000    5.653    0.423    0.133   95.539  210.247
  579.250    5.973    0.368    0.116   94.393  210.181
  579.500    6.312    0.360    0.114   94.845  209.499
  579.750    6.720    0.371    0.129   94.928  209.333
  580.000    7.424    0.387    0.161   83.884  208.856
  580.250    8.704    0.327    0.203   51.994  206.228
  580.500   10.320    0.331    0.228   49.556  203.394
  580.750   13.832    0.364    0.254   47.121  203.636
  581.000   17.700    0.380    0.272   40.378  203.057
  581.250   20.945    0.394    0.295   31.915  202.683
  581.500   26.159    0.400    0.302   33.781  202.721
  581.750   28.057    0.397    0.300   38.353  202.449
  582.000   29.160    0.368    0.295   39.482  202.078
  582.250   28.712    0.363    0.293   34.894  201.808
