~VERSION INFORMATION
 VERS.                 2.0:   CWLS LOG ASCII STANDARD -VERSION 2.0
 WRAP.                  NO:   ONE LINE PER DEPTH STEP
~WELL INFORMATION BLOCK
#MNEM.UNIT           DATA                    DESCRIPTION OF MNEMONIC
#---------    -------------------            -------------------------------
# Generated from Intellog Unique Number	CW_73_75/WELL/2725
WELL.         CANTERRA MARTEN H 04-25        : Well_name    - WELL
LOC .         00/04-25-073-25W4/0            : Location     - LOCATION
UWI .         00/04-25-073-25W4/0            : Uwi          - UNIQUE WELL ID
ENTR.         JAYE                           : Entered      - ENTERED BY
SRVC.         WESTERN ATLAS                  : Scn          - SERVICE COMPANY
DATE.         21 JAN 86                      : Date         - LOG DATE
STRT.M        385                            : top_depth    - START DEPTH
STOP.M        615                            : bot_depth    - STOP DEPTH
STEP.M        0.25                           : increment    - STEP LENGTH
 NULL. -999.2500:NULL Value
~CURVE INFORMATION BLOCK
#MNEM UNIT       ERCB CURVE CODE    CURVE DESCRIPTION
#-----------   ------------------   ----------------------------------
DEPT.M        00 001 00 00         : DEPTH        - DEPTH
RHOB.KG/M3    00 350 00 00         : DENS         - BULK DENSITY
DPHI.V/V      00 890 00 00         : PHID         - DENSITY POROSITY (SANDSTONE)
ILD .OHMM     00 120 00 00         : RESD         - DEEP RESISTIVITY (DLL)
CALI.MM       00 280 01 00         : CAL          - CALIPER
GR  .API      00 310 00 00         : GR           - GAMMA RAY
NPHI.V/V      00 330 00 00         : PHIN         - NEUTRON POROSITY (SANDSTONE)
~PARAMETER INFORMATION
#MNEM.UNIT           DATA             DESCRIPTION OF MNEMONIC
#---------         -----------     ------------------------------
GL  .M        637.6                : gl           - GROUND LEVEL ELEVATION
EREF.M        641                  : kb           - ELEVATION OF DEPTH REFERENCE
DATM.M        637.6                : datum        - DATUM ELEVATION
TDD .M        617                  : tdd          - TOTAL DEPTH DRILLER
RUN .         ONE                  : Run          - RUN NUMBER
ENG .         MASHON               : Engineer     - RECORDING ENGINEER
WIT .         HUDSON/REID          : Witness      - WITNESSED BY
BASE.         EDM                  : Branch       - HOME BASE OF LOGGING UNIT
MUD .         GEL CHEM             : Mud_type     - MUD TYPE
MATR.         SANDSTONE            : Logunit      - NEUTRON MATRIX
TMAX.C        42                   : BHT          - MAXIMUM RECORDED TEMPERATURE
BHTD.M        617                  : BHTDEP       - MAXIMUM RECORDED TEMPERATURE
RMT .C        22                   : MDTP         - TEMPERATURE OF MUD
MUDD.KG/M     1130                 : MWT          - MUD DENSITY
NEUT.         0                    : NEUTRON      - NEUTRON TYPE
RESI.         1                    : RESIST       - RESISTIVITY TYPE
RM  .OHMM     2.3                  : RM           - RESISTIVITY OF MUD
RMC .OHMM     3.5                  : RMC          - RESISTIVITY OF MUD CAKE
RMF .OHMM     3.2                  : RMF          - RESISTIVITY OF MUD FILTRATE
SUFT.C        0                    : SUFT         - SURFACE TEMPERATURE
~A  DEPTH     DENS     PHID     RESD      CAL       GR     PHIN
# ...
  541.250 2438.900    0.128    7.265  160.394  112.441    0.362
  541.500 2415.530    0.142    7.223  159.608  108.727    0.367
  541.750 2405.740    0.148    7.128  159.856  102.958    0.350
  542.000 2422.680    0.138    7.035  160.201   99.679    0.335
  542.250 2453.810    0.119    6.981  160.663  104.811    0.338
  542.500 2493.580    0.095    6.941  161.326  114.617    0.352
  542.750 2422.490    0.138    6.926  162.195  115.513    0.348
  543.000 2440.870    0.127    6.951  163.994  116.159    0.357
  543.250 2487.840    0.098    7.146  167.776  111.386    0.367
  543.500 2455.420    0.118    7.484  167.294  112.407    0.366
  543.750 2433.900    0.131    7.810  165.672  118.287    0.354
  544.000 2414.440    0.143    8.257  164.570  114.946    0.346
  544.250 2402.580    0.150    8.910  164.300  109.862    0.337
  544.500 2515.980    0.081    9.614  164.338   99.857    0.326
  544.750 2565.210    0.051   10.668  165.006   88.105    0.312
  545.000 2615.260    0.021   11.030  165.359   88.255    0.304
  545.250 2499.960    0.091   11.467  165.495   92.638    0.295
  545.500 2425.170    0.136   11.966  165.848   85.373    0.308
  545.750 2486.740    0.099   11.963  165.887   77.173    0.331
  546.000 2556.140    0.057   11.762  166.032   79.876    0.314
  546.250 2557.430    0.056   11.456  166.175   90.554    0.289
  546.500 2434.530    0.131   11.098  166.215   92.695    0.305
  546.750 2421.850    0.138   10.280  165.943   96.147    0.321
  547.000 2445.990    0.124    9.469  166.811   99.410    0.313
  547.250 2397.120    0.153    8.970  167.370  103.171    0.307
  547.500 2374.370    0.167    8.449  167.825  108.801    0.305
  547.750 2388.010    0.159    8.230  168.179  124.275    0.310
  548.000 2418.530    0.140    8.509  167.491  120.063    0.335
  548.250 2435.470    0.130    9.372  165.247  111.801    0.342
  548.500 2462.690    0.114   10.996  162.586   97.309    0.323
  548.750 2536.390    0.069   11.954  161.173   81.966    0.305
  549.000 2671.790   -0.013   11.907  160.489   83.588    0.276
  549.250 2677.420   -0.017   11.050  160.422   92.957    0.250
  549.500 2533.120    0.071   10.104  160.564  104.943    0.272
  549.750 2453.810    0.119    9.187  161.749  103.097    0.295
  550.000 2443.400    0.125    8.542  163.343  106.423    0.318
  550.250 2489.340    0.097    8.167  165.566  107.381    0.335
  550.500 2499.290    0.091    8.074  167.056  107.094    0.344
  550.750 2465.020    0.112    7.983  168.238  106.869    0.339
  551.000 2422.320    0.138    7.922  169.012  106.705    0.317
  551.250 2414.780    0.143    7.818  169.669  106.296    0.330
  551.500 2453.110    0.119    7.700  169.602  105.570    0.340
  551.750 2443.100    0.125    7.627  167.670  103.225    0.331
  552.000 2454.900    0.118    7.654  165.013   99.823    0.351
  552.250 2483.980    0.101    7.695  162.460  105.268    0.369
  552.500 2477.270    0.105    7.794  160.529  109.403    0.333
  552.750 2477.550    0.105    7.851  161.187   92.731    0.318
  553.000 2645.650    0.003    8.012  164.338   82.787    0.302
  553.250 2586.900    0.038    8.392  166.769   96.205    0.295
  553.500 2508.830    0.086    8.790  167.948  104.141    0.301
  553.750 2470.860    0.109    8.903  168.305  101.423    0.328
  554.000 2516.590    0.081    8.786  168.339  111.103    0.354
  554.250 2475.530    0.106    8.558  168.067  117.606    0.349
  554.500 2435.920    0.130    8.367  167.380  110.590    0.327
  554.750 2444.630    0.124    8.211  166.797  107.623    0.336
  555.000 2437.710    0.129    8.103  166.011  112.819    0.328
  555.250 2447.460    0.123    8.101  165.945  121.626    0.332
  555.500 2461.930    0.114    8.313  167.021  114.299    0.332
  555.750 2463.030    0.113    8.888  168.305  117.314    0.318
  556.000 2646.760    0.002    9.680  166.480  111.668    0.308
  556.250 2677.490   -0.017   10.781  163.195   82.660    0.299
  556.500 2703.480   -0.032   12.098  160.643   84.118    0.291
  556.750 2732.130   -0.050   12.554  159.638   99.466    0.279
  557.000 2788.350   -0.084   12.183  159.575  111.702    0.261
  557.250 2797.480   -0.089   10.995  160.445  108.796    0.265
  557.500 2481.250    0.102    8.808  162.146  106.642    0.279
  557.750 2480.910    0.102    7.176  164.054  112.893    0.308
  558.000 2394.400    0.155    5.113  167.525  123.197    0.328
  558.250 2297.200    0.214    4.236  169.432  124.968    0.377
  558.500 2275.270    0.227    3.215  170.197  120.692    0.457
  558.750 2335.190    0.191    2.827  170.239  117.228    0.468
  559.000 2349.870    0.182    2.643  169.867  116.316    0.444
  559.250 2363.730    0.173    2.642  169.387  118.394    0.434
  559.500 2385.810    0.160    2.841  169.738  117.921    0.456
  559.750 2414.470    0.143    3.129  169.573  114.207    0.447
  560.000 2430.790    0.133    3.570  168.776  109.060    0.418
  560.250 2437.250    0.129    4.081  167.886  103.165    0.365
  560.500 2442.460    0.126    4.614  166.674   98.827    0.338
  560.750 2458.370    0.116    5.216  166.090  100.658    0.326
  561.000 2481.070    0.102    5.576  166.136  105.791    0.337
  561.250 2507.680    0.086    5.733  165.963  112.978    0.349
  561.500 2475.460    0.106    5.689  165.898  120.478    0.356
  561.750 2449.210    0.122    5.773  165.529  125.298    0.362
  562.000 2453.810    0.119    6.218  163.692  115.915    0.362
  562.250 2487.210    0.099    6.760  159.269   91.581    0.347
  562.500 2499.420    0.091    6.937  157.858   93.225    0.327
  562.750 2496.410    0.093    6.571  158.930  101.350    0.309
  563.000 2606.510    0.026    6.121  160.946   99.691    0.316
  563.250 2587.050    0.038    6.018  162.438   99.215    0.331
  563.500 2490.050    0.097    6.422  163.312  104.161    0.341
  563.750 2482.320    0.102    7.479  164.595  103.186    0.346
  564.000 2458.330    0.116    9.108  165.568   84.833    0.340
  564.250 2374.080    0.167   11.556  166.129   64.174    0.288
  564.500 2159.040    0.298   13.866  164.822   43.513    0.185
  564.750 2053.400    0.362   16.918  162.264   41.294    0.163
  565.000 2057.380    0.359   14.820  157.525   37.519    0.166
  565.250 2054.170    0.361   10.481  156.219   37.480    0.194
  565.500 2074.190    0.349    6.629  156.878   41.556    0.228
  565.750 2131.240    0.314    4.939  158.996   40.269    0.274
  566.000 2180.260    0.285    4.130  159.866   34.499    0.298
  566.250 2188.970    0.279    3.638  160.319   33.278    0.325
  566.500 2190.490    0.278    3.265  161.091   32.118    0.342
  566.750 2183.780    0.283    3.122  161.854   32.764    0.340
  567.000 2175.620    0.287    3.086  162.204   36.154    0.326
  567.250 2181.260    0.284    3.074  162.661   36.113    0.311
  567.500 2196.340    0.275    3.161  163.424   32.900    0.316
  567.750 2202.180    0.271    3.410  163.880   34.852    0.327
  568.000 2205.340    0.269    3.763  164.028   38.989    0.325
  568.250 2238.520    0.249    4.286  164.062   40.694    0.317
  568.500 2285.080    0.221    4.982  163.379   34.180    0.306
  568.750 2297.080    0.214    5.781  162.065   34.015    0.277
  569.000 2325.330    0.197    6.391  160.861   36.094    0.266
  569.250 2293.530    0.216    6.595  160.380   36.740    0.284
  569.500 2222.660    0.259    6.030  160.315   37.512    0.294
  569.750 2201.140    0.272    5.175  160.358   41.337    0.308
  570.000 2196.690    0.275    4.467  160.290   38.245    0.319
  570.250 2202.730    0.271    3.935  159.812   39.826    0.320
  570.500 2215.760    0.263    3.402  159.340   44.897    0.324
  570.750 2209.060    0.267    3.152  159.068   47.724    0.334
  571.000 2196.990    0.275    3.013  158.684   42.639    0.344
  571.250 2190.690    0.278    2.957  158.521   42.291    0.336
  571.500 2187.480    0.280    3.046  158.153   43.499    0.324
  571.750 2194.130    0.276    3.172  157.879   45.015    0.316
  572.000 2214.580    0.264    3.304  157.499   48.216    0.315
  572.250 2225.960    0.257    3.480  157.536   50.484    0.320
