~VERSION INFORMATION
 VERS.                 2.0:   CWLS LOG ASCII STANDARD -VERSION 2.0
 WRAP.                  NO:   ONE LINE PER DEPTH STEP
~WELL INFORMATION BLOCK
#MNEM.UNIT           DATA                    DESCRIPTION OF MNEMONIC
#---------    -------------------            -------------------------------
# Generated from Intellog Unique Number	CS_71_72/WELL/783
WELL.         BRENDA IPIATIK                 : Well_name    - WELL
LOC .         00/06-30-071-09W4/0            : Location     - LOCATION
UWI .         00/06-30-071-09W4/0            : Uwi          - UNIQUE WELL ID
ENTR.         SP                             : Entered      - ENTERED BY
SRVC.         SCHLUMBERGER                   : Scn          - SERVICE COMPANY
STRT.M        320                            : top_depth    - START DEPTH
STOP.M        525                            : bot_depth    - STOP DEPTH
STEP.M        0.25                           : increment    - STEP LENGTH
 NULL. -999.2500:NULL Value
~CURVE INFORMATION BLOCK
#MNEM UNIT       ERCB CURVE CODE    CURVE DESCRIPTION
#-----------   ------------------   ----------------------------------
DEPT.M        00 001 00 00         : DEPTH        - DEPTH
ILD .OHMM     00 120 00 00         : RESD         - DEEP RESISTIVITY (DIL)
DPHI.V/V      00 890 00 00         : PHID         - DENSITY POROSITY (LIMESTONE)
NPHI.V/V      00 330 00 00         : PHIN         - NEUTRON POROSITY (LIMESTONE)
GR  .API      00 310 00 00         : GR           - GAMMA RAY
~PARAMETER INFORMATION
#MNEM.UNIT           DATA             DESCRIPTION OF MNEMONIC
#---------         -----------     ------------------------------
GL  .M        678.5                : gl           - GROUND LEVEL ELEVATION
EREF.M        6810.4               : kb           - ELEVATION OF DEPTH REFERENCE
DATM.M        678.5                : datum        - DATUM ELEVATION
TDD .M        539                  : tdd          - TOTAL DEPTH DRILLER
RUN .         ONE                  : Run          - RUN NUMBER
ENG .         BILL                 : Engineer     - RECORDING ENGINEER
WIT .         JIM                  : Witness      - WITNESSED BY
MUD .         GEL                  : Mud_type     - MUD TYPE
MATR.         LIMESTONE            : Logunit      - NEUTRON MATRIX
TMAX.C        22                   : BHT          - MAXIMUM RECORDED TEMPERATURE
BHTD.M        539                  : BHTDEP       - MAXIMUM RECORDED TEMPERATURE
MATR.         1                    : LOGUNIT      - NEUTRON MATRIX
RMT .C        25                   : MDTP         - TEMPERATURE OF MUD
NEUT.         1                    : NEUTRON      - NEUTRON TYPE
RESI.         0                    : RESIST       - RESISTIVITY TYPE
RMC .OHMM     0.25                 : RMC          - RESISTIVITY OF MUD CAKE
RMF .OHMM     0.25                 : RMF          - RESISTIVITY OF MUD FILTRATE
SUFT.C        15                   : SUFT         - SURFACE TEMPERATURE
~A  DEPTH     RESD     PHID     PHIN       GR
# ...
  450.500    6.674    0.242    0.438   90.346
  450.750    6.429    0.249    0.431   89.072
  451.000    6.010    0.258    0.426   89.812
  451.250    5.811    0.267    0.428   90.675
  451.500    5.535    0.261    0.435   89.341
  451.750    5.163    0.242    0.435   90.631
  452.000    4.745    0.227    0.446   92.593
  452.250    4.452    0.219    0.454   92.052
  452.500    4.513    0.232    0.461   91.694
  452.750    4.582    0.244    0.476   93.901
  453.000    4.670    0.244    0.479   96.290
  453.250    4.742    0.234    0.462   97.824
  453.500    4.807    0.228    0.465   99.481
  453.750    4.807    0.222    0.466  100.894
  454.000    4.873    0.224    0.463   97.911
  454.250    4.938    0.235    0.454   92.181
  454.500    5.014    0.247    0.442   87.186
  454.750    5.358    0.244    0.440   85.604
  455.000    5.522    0.243    0.457   84.819
  455.250    5.628    0.242    0.467   85.498
  455.500    5.868    0.236    0.448   87.339
  455.750    5.947    0.235    0.438   89.119
  456.000    6.050    0.238    0.445   90.287
  456.250    6.097    0.241    0.443   91.088
  456.500    6.110    0.242    0.447   91.465
  456.750    6.111    0.241    0.465   91.898
  457.000    6.067    0.237    0.471   93.376
  457.250    6.011    0.229    0.461   94.053
  457.500    5.619    0.220    0.451   95.465
  457.750    4.790    0.212    0.461   97.976
  458.000    4.200    0.209    0.482  101.526
  458.250    3.703    0.218    0.498  104.037
  458.500    3.127    0.225    0.520  105.449
  458.750    2.788    0.231    0.548  104.176
  459.000    2.616    0.229    0.543  102.596
  459.250    2.607    0.235    0.534  100.653
  459.500    2.908    0.238    0.527  100.233
  459.750    3.251    0.223    0.514  100.485
  460.000    3.592    0.213    0.493  100.738
  460.250    3.925    0.220    0.484  100.320
  460.500    4.274    0.225    0.489   99.960
  460.750    4.644    0.250    0.505   98.199
  461.000    4.989    0.249    0.520   94.973
  461.250    5.401    0.240    0.499   91.990
  461.500    5.683    0.230    0.469   89.494
  461.750    5.925    0.219    0.437   86.938
  462.000    6.342    0.204    0.430   91.464
  462.250    6.852    0.192    0.423   96.174
  462.500    7.487    0.176    0.401   91.420
  462.750    8.432    0.134    0.370   83.126
  463.000    9.283    0.038    0.280   77.090
  463.250   10.514    0.023    0.223   70.139
  463.500   11.064    0.093    0.253   67.583
  463.750    9.628    0.137    0.297   74.430
  464.000    8.316    0.165    0.369   80.909
  464.250    7.614    0.184    0.412   86.717
  464.500    6.919    0.188    0.445   90.632
  464.750    6.335    0.182    0.458   93.266
  465.000    5.966    0.190    0.467   95.167
  465.250    5.845    0.203    0.470   97.193
  465.500    5.813    0.211    0.455   96.527
  465.750    5.848    0.209    0.445   94.460
  466.000    5.883    0.205    0.444   96.483
  466.250    5.884    0.219    0.431   98.262
  466.500    5.885    0.211    0.424   99.247
  466.750    5.887    0.212    0.430   99.866
  467.000    5.922    0.218    0.436   98.409
  467.250    5.934    0.216    0.432   95.731
  467.500    6.083    0.208    0.421   95.618
  467.750    6.165    0.203    0.413   96.847
  468.000    6.132    0.207    0.422   94.780
  468.250    6.098    0.219    0.434   93.750
  468.500    6.146    0.227    0.448   95.957
  468.750    6.252    0.242    0.451   95.354
  469.000    6.469    0.234    0.437   95.545
  469.250    6.745    0.213    0.426   98.790
  469.500    6.874    0.202    0.419  101.301
  469.750    7.020    0.199    0.414  102.836
  470.000    7.074    0.194    0.409  102.112
  470.250    6.970    0.190    0.405   99.984
  470.500    6.614    0.185    0.410   99.320
  470.750    5.876    0.181    0.418  101.221
  471.000    4.690    0.187    0.428  102.267
  471.250    3.908    0.198    0.444   99.529
  471.500    3.245    0.216    0.464   97.278
  471.750    2.839    0.229    0.483   93.867
  472.000    2.590    0.238    0.508   93.326
  472.250    2.385    0.234    0.570   94.618
  472.500    2.336    0.235    0.539   96.336
  472.750    2.355    0.239    0.514   98.052
  473.000    2.530    0.227    0.496   99.587
  473.250    2.871    0.221    0.485   98.497
  473.500    3.220    0.220    0.477   95.941
  473.750    3.787    0.213    0.462   92.897
  474.000    4.329    0.205    0.446   87.594
  474.250    4.713    0.201    0.430   84.794
  474.500    4.895    0.206    0.423   87.612
  474.750    4.905    0.208    0.435   89.329
  475.000    4.734    0.199    0.446   90.925
  475.250    4.509    0.190    0.454   92.032
  475.500    4.435    0.183    0.448   92.713
  475.750    4.658    0.189    0.431   92.598
  476.000    4.920    0.184    0.420   90.164
  476.250    5.510    0.178    0.422   86.022
  476.500    6.010    0.100    0.428   81.634
  476.750    6.679    0.068    0.405   75.781
  477.000    7.272    0.051    0.342   66.144
  477.250    7.594    0.060    0.280   61.818
  477.500    8.160    0.139    0.284   66.833
  477.750    8.652    0.183    0.363   71.664
  478.000    9.418    0.195    0.386   74.663
  478.250   10.253    0.111    0.376   71.864
  478.500   10.609    0.086    0.358   71.384
  478.750    9.750    0.050    0.327   71.332
  479.000    8.597    0.038    0.283   69.997
  479.250    7.482    0.067    0.304   69.150
  479.500    6.837    0.168    0.344   75.080
  479.750    6.451    0.201    0.379   80.278
  480.000    6.156    0.215    0.394   82.484
  480.250    6.204    0.217    0.402   80.966
  480.500    6.253    0.215    0.406   80.914
  480.750    6.266    0.211    0.414   81.777
  481.000    6.255    0.207    0.417   82.884
  481.250    6.164    0.204    0.405   84.419
  481.500    5.994    0.205    0.400   84.305
  481.750    5.571    0.205    0.404   83.764
  482.000    4.848    0.202    0.408   87.985
  482.250    4.032    0.198    0.414   94.344
  482.500    3.444    0.191    0.431  102.105
  482.750    3.129    0.196    0.466  110.172
  483.000    3.083    0.193    0.482  112.744
  483.250    3.300    0.182    0.471  107.136
  483.500    3.512    0.177    0.450  102.199
  483.750    3.487    0.172    0.427   99.399
  484.000    3.223    0.185    0.438   98.370
  484.250    3.081    0.196    0.466   99.050
  484.500    3.146    0.185    0.490  101.378
  484.750    3.490    0.183    0.509  105.232
  485.000    4.417    0.198    0.505  107.866
  485.250    5.059    0.209    0.473  103.845
  485.500    5.871    0.200    0.415   94.697
  485.750    6.776    0.200    0.393   87.805
  486.000    7.474    0.221    0.373   81.526
  486.250    8.275    0.229    0.358   78.726
  486.500    8.725    0.223    0.347   76.964
  486.750    8.452    0.218    0.341   74.897
  487.000    8.096    0.232    0.349   73.928
  487.250    7.741    0.234    0.362   79.798
  487.500    7.387    0.206    0.371   83.347
  487.750    7.333    0.192    0.370   83.538
  488.000    7.516    0.207    0.363   75.611
  488.250    7.821    0.231    0.363   67.926
  488.500    8.062    0.247    0.376   68.057
  488.750    8.264    0.238    0.387   71.730
  489.000    8.344    0.228    0.384   73.568
  489.250    8.634    0.223    0.374   72.905
  489.500    9.120    0.213    0.362   69.677
  489.750    9.652    0.195    0.355   67.488
  490.000   10.158    0.164    0.351   68.718
  490.250   10.275    0.041    0.330   70.436
  490.500    9.861    0.015    0.302   68.368
  490.750    9.304    0.056    0.303   72.834
  491.000    8.697    0.124    0.337   76.200
  491.250    8.315    0.166    0.369   78.284
  491.500    7.995    0.193    0.388   76.888
  491.750    8.072    0.200    0.371   77.445
  492.000    8.559    0.197    0.362   79.835
  492.250    9.265    0.207    0.359   80.027
  492.500    9.641    0.198    0.355   77.898
  492.750    9.845    0.191    0.350   77.846
  493.000    9.773    0.191    0.350   78.159
  493.250    9.721    0.199    0.352   72.368
  493.500    9.669    0.208    0.347   66.211
  493.750    9.635    0.209    0.342   62.800
