~VERSION INFORMATION
 VERS.                 2.0:   CWLS LOG ASCII STANDARD -VERSION 2.0
 WRAP.                  NO:   ONE LINE PER DEPTH STEP
~WELL INFORMATION BLOCK
#MNEM.UNIT           DATA                    DESCRIPTION OF MNEMONIC
#---------    -------------------            -------------------------------
# Generated from Intellog Unique Number	CS_77_79/WELL/845
WELL.         CANADIAN OCCIDENTAL            : Well_name    - WELL
LOC .         00/03-28-077-02W4/0            : Location     - LOCATION
UWI .         00/03-28-077-02W4/0            : Uwi          - UNIQUE WELL ID
ENTR.         SP                             : Entered      - ENTERED BY
SRVC.         SCHLUMBERGER                   : Scn          - SERVICE COMPANY
STRT.M        204.12                         : top_depth    - START DEPTH
STOP.M        463.12                         : bot_depth    - STOP DEPTH
STEP.M        0.25                           : increment    - STEP LENGTH
 NULL. -999.2500:NULL Value
~CURVE INFORMATION BLOCK
#MNEM UNIT       ERCB CURVE CODE    CURVE DESCRIPTION
#-----------   ------------------   ----------------------------------
DEPT.M        00 001 00 00         : DEPTH        - DEPTH
GR  .API      00 310 00 00         : GR           - GAMMA RAY
DPHI.V/V      00 890 00 00         : PHID         - DENSITY POROSITY (SANDSTONE)
NPHI.V/V      00 330 00 00         : PHIN         - NEUTRON POROSITY (SANDSTONE)
ILD .OHMM     00 120 00 00         : RESD         - DEEP RESISTIVITY (DIL)
~PARAMETER INFORMATION
#MNEM.UNIT           DATA             DESCRIPTION OF MNEMONIC
#---------         -----------     ------------------------------
GL  .M        592.531              : gl           - GROUND LEVEL ELEVATION
EREF.M        595.884              : kb           - ELEVATION OF DEPTH REFERENCE
DATM.M        592.531              : datum        - DATUM ELEVATION
TDD .M        472.44               : tdd          - TOTAL DEPTH DRILLER
RUN .         ONE                  : Run          - RUN NUMBER
ENG .         BILL                 : Engineer     - RECORDING ENGINEER
WIT .         JIM                  : Witness      - WITNESSED BY
MUD .         GEL                  : Mud_type     - MUD TYPE
MATR.         SANDSTONE            : Logunit      - NEUTRON MATRIX
TMAX.C        23.8889              : BHT          - MAXIMUM RECORDED TEMPERATURE
BHTD.M        472.44               : BHTDEP       - MAXIMUM RECORDED TEMPERATURE
MATR.         1                    : LOGUNIT      - NEUTRON MATRIX
RMT .C        25                   : MDTP         - TEMPERATURE OF MUD
NEUT.         1                    : NEUTRON      - NEUTRON TYPE
RESI.         0                    : RESIST       - RESISTIVITY TYPE
RMC .OHMM     0.25                 : RMC          - RESISTIVITY OF MUD CAKE
RMF .OHMM     0.25                 : RMF          - RESISTIVITY OF MUD FILTRATE
SUFT.C        15                   : SUFT         - SURFACE TEMPERATURE
~A  DEPTH       GR     PHID     PHIN     RESD
# ...
  334.620   88.967    0.253    0.527    2.806
  334.870   88.049    0.264    0.550    2.595
  335.120   88.090    0.282    0.573    2.528
  335.370   88.315    0.245    0.586    2.475
  335.620   90.106    0.255    0.598    2.484
  335.870   92.054    0.261    0.602    2.519
  336.120   94.059    0.252    0.590    2.569
  336.370   95.290    0.263    0.591    2.624
  336.620   95.883    0.262    0.595    2.790
  336.870   91.984    0.272    0.587    2.998
  337.120   87.903    0.278    0.567    3.321
  337.370   83.072    0.284    0.534    3.569
  337.620   82.850    0.256    0.520    3.781
  337.870   84.939    0.235    0.533    3.701
  338.120   83.201    0.261    0.533    3.474
  338.370   84.042    0.248    0.532    3.441
  338.620   81.647    0.272    0.538    3.674
  338.870   75.093    0.284    0.528    4.147
  339.120   64.839    0.265    0.511    4.548
  339.370   56.402    0.112    0.484    5.540
  339.620   48.731    0.043    0.374    7.806
  339.870   41.766    0.018    0.186   10.308
  340.120   48.079    0.016    0.195   13.693
  340.370   54.898    0.102    0.199   15.095
  340.620   64.471    0.143    0.262   12.364
  340.870   73.956    0.177    0.327    8.922
  341.120   74.882    0.236    0.409    7.476
  341.370   75.103    0.266    0.451    6.635
  341.620   75.950    0.280    0.500    6.177
  341.870   72.627    0.293    0.493    5.929
  342.120   69.645    0.295    0.476    5.929
  342.370   71.577    0.287    0.474    5.916
  342.620   72.816    0.286    0.472    6.042
  342.870   74.406    0.282    0.477    6.036
  343.120   74.437    0.262    0.496    6.077
  343.370   74.430    0.263    0.489    6.143
  343.620   73.089    0.263    0.501    6.418
  343.870   70.377    0.236    0.516    6.613
  344.120   68.420    0.199    0.514    6.603
  344.370   70.111    0.237    0.495    6.628
  344.620   72.349    0.286    0.461    6.340
  344.870   75.922    0.293    0.487    5.746
  345.120   78.558    0.287    0.496    5.383
  345.370   81.172    0.275    0.503    5.174
  345.620   80.685    0.265    0.492    5.092
  345.870   77.192    0.261    0.490    5.077
  346.120   76.026    0.287    0.481    5.297
  346.370   78.303    0.284    0.473    5.527
  346.620   79.040    0.277    0.466    5.691
  346.870   76.613    0.275    0.470    5.573
  347.120   75.567    0.251    0.463    5.158
  347.370   78.880    0.220    0.487    4.624
  347.620   82.009    0.220    0.504    3.957
  347.870   79.132    0.256    0.516    3.283
  348.120   76.447    0.252    0.542    2.919
  348.370   76.615    0.268    0.562    2.581
  348.620   75.582    0.288    0.581    2.438
  348.870   75.254    0.290    0.582    2.250
  349.120   73.196    0.293    0.586    2.188
  349.370   71.405    0.307    0.580    2.103
  349.620   71.168    0.307    0.572    2.060
  349.870   72.698    0.301    0.568    2.017
  350.120   74.304    0.297    0.568    2.073
  350.370   76.438    0.296    0.571    2.135
  350.620   81.204    0.307    0.573    2.172
  350.870   81.731    0.299    0.566    2.294
  351.120   79.654    0.268    0.521    2.415
  351.370   76.505    0.261    0.483    2.725
  351.620   76.402    0.260    0.492    2.953
  351.870   76.394    0.256    0.493    3.325
  352.120   74.769    0.255    0.493    3.765
  352.370   71.455    0.265    0.506    4.151
  352.620   73.361    0.280    0.508    4.461
  352.870   75.579    0.267    0.494    4.727
  353.120   76.922    0.237    0.477    4.866
  353.370   76.158    0.263    0.452    4.923
  353.620   77.837    0.263    0.444    4.933
  353.870   80.422    0.254    0.463    4.695
  354.120   82.125    0.296    0.444    4.420
  354.370   83.530    0.269    0.461    4.173
  354.620   85.131    0.250    0.482    3.985
  354.870   84.952    0.233    0.493    3.865
  355.120   83.957    0.263    0.496    3.661
  355.370   84.895    0.249    0.485    3.496
  355.620   86.528    0.239    0.477    3.393
  355.870   85.727    0.244    0.493    3.292
  356.120   85.126    0.238    0.503    3.187
  356.370   85.033    0.229    0.514    3.161
  356.620   83.344    0.236    0.521    3.060
  356.870   82.596    0.227    0.499    3.000
  357.120   84.267    0.237    0.493    3.003
  357.370   85.726    0.242    0.509    2.999
  357.620   84.103    0.251    0.501    3.086
  357.870   82.295    0.241    0.508    3.169
  358.120   80.373    0.238    0.518    3.264
  358.370   78.763    0.238    0.532    3.487
  358.620   76.339    0.259    0.499    3.476
  358.870   70.752    0.264    0.480    3.647
  359.120   67.192    0.294    0.464    3.825
  359.370   65.146    0.284    0.443    4.097
  359.620   63.200    0.260    0.436    4.219
  359.870   64.130    0.257    0.429    4.398
  360.120   65.165    0.268    0.421    4.563
  360.370   63.579    0.276    0.414    4.756
  360.620   66.628    0.265    0.408    4.942
  360.870   67.915    0.251    0.404    5.262
  361.120   68.692    0.227    0.408    5.415
  361.370   64.046    0.210    0.409    5.701
  361.620   60.655    0.173    0.375    5.883
  361.870   60.123    0.112    0.378    5.739
  362.120   63.944    0.249    0.422    5.458
  362.370   63.149    0.288    0.438    5.177
  362.620   61.959    0.298    0.423    4.612
  362.870   63.205    0.304    0.420    4.303
  363.120   66.519    0.298    0.409    4.076
  363.370   67.697    0.288    0.406    3.987
  363.620   69.121    0.283    0.414    3.584
  363.870   69.726    0.289    0.429    3.587
  364.120   70.362    0.284    0.447    3.558
  364.370   70.892    0.275    0.457    3.413
  364.620   70.365    0.262    0.468    3.075
  364.870   72.853    0.272    0.475    2.908
  365.120   73.268    0.265    0.488    2.831
  365.370   72.865    0.278    0.490    2.700
  365.620   70.094    0.280    0.503    2.709
  365.870   62.811    0.305    0.510    2.701
  366.120   57.768    0.319    0.495    2.751
  366.370   54.627    0.312    0.424    2.862
  366.620   54.021    0.310    0.427    2.558
  366.870   51.125    0.303    0.433    2.495
  367.120   48.646    0.303    0.419    2.508
  367.370   48.558    0.302    0.404    2.510
  367.620   48.413    0.298    0.405    2.509
  367.870   46.799    0.293    0.412    2.549
  368.120   46.986    0.299    0.415    2.554
  368.370   47.271    0.296    0.422    2.555
  368.620   46.577    0.295    0.402    2.549
  368.870   48.439    0.308    0.391    2.604
  369.120   53.956    0.296    0.390    2.599
  369.370   64.010    0.292    0.407    2.542
  369.620   69.460    0.299    0.427    2.602
  369.870   70.050    0.301    0.437    2.597
  370.120   68.742    0.306    0.446    2.596
  370.370   67.664    0.302    0.446    2.596
  370.620   68.326    0.290    0.438    2.591
  370.870   65.829    0.275    0.447    2.646
  371.120   62.524    0.279    0.457    2.639
  371.370   60.509    0.282    0.444    2.679
  371.620   61.230    0.289    0.426    2.686
  371.870   61.453    0.303    0.432    2.687
  372.120   56.915    0.299    0.445    2.687
  372.370   53.672    0.288    0.435    2.689
  372.620   51.319    0.299    0.436    2.636
  372.870   47.335    0.305    0.422    2.636
  373.120   50.072    0.305    0.419    2.634
  373.370   51.885    0.298    0.425    2.632
  373.620   48.635    0.298    0.411    2.606
  373.870   45.243    0.302    0.404    2.584
  374.120   41.082    0.301    0.394    2.586
  374.370   41.474    0.310    0.382    2.529
  374.620   43.543    0.301    0.372    2.530
  374.870   43.299    0.281    0.375    2.484
  375.120   42.283    0.250    0.378    2.486
  375.370   43.963    0.210    0.391    2.485
  375.620   46.389    0.266    0.395    2.483
  375.870   47.786    0.321    0.390    2.472
  376.120   49.351    0.301    0.401    2.437
  376.370   45.375    0.292    0.416    2.416
  376.620   43.287    0.303    0.427    2.349
  376.870   44.056    0.326    0.422    2.271
  377.120   37.759    0.311    0.411    2.247
  377.370   31.323    0.308    0.422    2.175
  377.620   26.080    0.324    0.402    2.105
  377.870   28.413    0.325    0.396    2.085
