~VERSION INFORMATION
 VERS.                 2.0:   CWLS LOG ASCII STANDARD -VERSION 2.0
 WRAP.                  NO:   ONE LINE PER DEPTH STEP
~WELL INFORMATION BLOCK
#MNEM.UNIT           DATA                    DESCRIPTION OF MNEMONIC
#---------    -------------------            -------------------------------
# Generated from Intellog Unique Number	CS_73_76/WELL/2179
WELL.         MIAMI OIL PRODUCERS INC.       : Well_name    - WELL
LOC .         00/07-33-074-11W4/0            : Location     - LOCATION
UWI .         00/07-33-074-11W4/0            : Uwi          - UNIQUE WELL ID
ENTR.         SP                             : Entered      - ENTERED BY
SRVC.         SCHLUMBERGER                   : Scn          - SERVICE COMPANY
STRT.M        280.416                        : top_depth    - START DEPTH
STOP.M        514.916                        : bot_depth    - STOP DEPTH
STEP.M        0.25                           : increment    - STEP LENGTH
 NULL. -999.2500:NULL Value
~CURVE INFORMATION BLOCK
#MNEM UNIT       ERCB CURVE CODE    CURVE DESCRIPTION
#-----------   ------------------   ----------------------------------
DEPT.M        00 001 00 00         : DEPTH        - DEPTH
GR  .API      00 310 00 00         : GR           - GAMMA RAY
DPHI.V/V      00 890 00 00         : PHID         - DENSITY POROSITY (SANDSTONE)
NPHI.V/V      00 330 00 00         : PHIN         - NEUTRON POROSITY (SANDSTONE)
ILD .OHMM     00 120 00 00         : RESD         - DEEP RESISTIVITY (DIL)
~PARAMETER INFORMATION
#MNEM.UNIT           DATA             DESCRIPTION OF MNEMONIC
#---------         -----------     ------------------------------
GL  .M        657.149              : gl           - GROUND LEVEL ELEVATION
EREF.M        660.38               : kb           - ELEVATION OF DEPTH REFERENCE
DATM.M        657.149              : datum        - DATUM ELEVATION
TDD .M        743.712              : tdd          - TOTAL DEPTH DRILLER
RUN .         `                    : Run          - RUN NUMBER
ENG .         BILL                 : Engineer     - RECORDING ENGINEER
WIT .         JIM                  : Witness      - WITNESSED BY
MUD .         GEL                  : Mud_type     - MUD TYPE
MATR.         SANDSTONE            : Logunit      - NEUTRON MATRIX
TMAX.C        26.1111              : BHT          - MAXIMUM RECORDED TEMPERATURE
BHTD.M        743.712              : BHTDEP       - MAXIMUM RECORDED TEMPERATURE
MATR.         1                    : LOGUNIT      - NEUTRON MATRIX
RMT .C        25                   : MDTP         - TEMPERATURE OF MUD
NEUT.         1                    : NEUTRON      - NEUTRON TYPE
RESI.         0                    : RESIST       - RESISTIVITY TYPE
RMC .OHMM     0.25                 : RMC          - RESISTIVITY OF MUD CAKE
RMF .OHMM     0.25                 : RMF          - RESISTIVITY OF MUD FILTRATE
SUFT.C        15                   : SUFT         - SURFACE TEMPERATURE
~A  DEPTH       GR     PHID     PHIN     RESD
# ...
  454.416   78.870    0.237    0.506   17.073
  454.666   79.810    0.186    0.475   18.092
  454.916   81.340    0.127    0.496   17.608
  455.166   87.900    0.159    0.525   15.268
  455.416   94.702    0.206    0.533   13.924
  455.666  100.742    0.221    0.539   12.261
  455.916  104.541    0.194    0.568   11.164
  456.166  101.189    0.197    0.573   10.425
  456.416  101.354    0.213    0.584    9.943
  456.666  103.309    0.209    0.585    9.934
  456.916  105.186    0.218    0.558    9.937
  457.166  105.872    0.212    0.548   10.236
  457.416  101.984    0.221    0.537   10.844
  457.666   96.598    0.206    0.529   11.510
  457.916   91.014    0.202    0.524   12.488
  458.166   88.253    0.204    0.515   13.435
  458.416   80.653    0.219    0.512   15.086
  458.666   74.025    0.245    0.508   17.955
  458.916   68.032    0.263    0.502   20.495
  459.166   65.580    0.281    0.496   23.006
  459.416   70.653    0.274    0.490   25.519
  459.666   72.717    0.267    0.483   25.696
  459.916   75.313    0.255    0.480   23.758
  460.166   75.417    0.245    0.476   21.780
  460.416   75.421    0.235    0.478   19.918
  460.666   73.897    0.226    0.507   19.326
  460.916   67.949    0.225    0.529   19.251
  461.166   60.978    0.253    0.537   19.235
  461.416   54.798    0.277    0.544   20.040
  461.666   55.373    0.290    0.531   21.359
  461.916   62.782    0.294    0.520   23.470
  462.166   73.140    0.245    0.521   24.332
  462.416   78.784    0.227    0.520   22.669
  462.666   82.206    0.214    0.495   19.447
  462.916   82.194    0.206    0.490   17.387
  463.166   80.456    0.212    0.485   15.939
  463.416   77.377    0.221    0.512   15.050
  463.666   76.019    0.234    0.536   14.504
  463.916   79.961    0.211    0.545   13.771
  464.166   84.171    0.183    0.552   12.717
  464.416   88.307    0.204    0.544   11.997
  464.666   81.672    0.240    0.536   11.262
  464.916   77.385    0.261    0.508   12.664
  465.166   79.141    0.279    0.499   15.604
  465.416   81.929    0.263    0.491   18.641
  465.666   85.108    0.253    0.483   22.482
  465.916   87.413    0.271    0.469   27.035
  466.166   86.302    0.269    0.471   32.396
  466.416   85.485    0.253    0.483   38.879
  466.666   85.495    0.242    0.458   38.550
  466.916   81.282    0.228    0.448   34.573
  467.166   81.191    0.227    0.447   28.758
  467.416   77.086    0.268    0.469   23.527
  467.666   72.360    0.283    0.487   20.009
  467.916   67.322    0.290    0.482   20.022
  468.166   64.530    0.278    0.477   22.413
  468.416   62.809    0.273    0.475   28.489
  468.666   60.892    0.282    0.471   31.110
  468.916   58.204    0.287    0.466   28.631
  469.166   59.142    0.273    0.471   26.201
  469.416   56.959    0.261    0.481   22.894
  469.666   56.020    0.271    0.477   21.194
  469.916   55.596    0.283    0.473   20.853
  470.166   57.705    0.295    0.478   25.979
  470.416   65.072    0.274    0.502   37.535
  470.666   73.816    0.261    0.507   51.510
  470.916   80.215    0.266    0.514   60.981
  471.166   75.982    0.279    0.509   68.293
  471.416   68.951    0.274    0.504   73.119
  471.666   60.484    0.287    0.500   78.819
  471.916   56.149    0.297    0.500   82.640
  472.166   58.785    0.292    0.499   76.516
  472.416   61.806    0.290    0.505   63.663
  472.666   66.683    0.288    0.548   53.704
  472.916   74.994    0.270    0.565   48.769
  473.166   76.569    0.266    0.558   45.266
  473.416   68.597    0.279    0.538   38.845
  473.666   60.177    0.290    0.526   29.221
  473.916   55.000    0.277    0.525   22.085
  474.166   62.706    0.245    0.574   20.227
  474.416   62.802    0.230    0.580   22.461
  474.666   52.190    0.264    0.554   24.798
  474.916   45.691    0.306    0.551   33.435
  475.166   42.747    0.329    0.543   52.725
  475.416   42.880    0.320    0.533   81.765
  475.666   44.697    0.333    0.522   90.310
  475.916   49.557    0.305    0.518   91.631
  476.166   55.421    0.314    0.525   91.706
  476.416   59.462    0.327    0.527   89.823
  476.666   64.133    0.319    0.524   78.891
  476.916   65.610    0.304    0.519   48.848
  477.166   67.014    0.278    0.550   38.011
  477.416   69.468    0.257    0.546   32.499
  477.666   71.341    0.246    0.525   32.007
  477.916   63.550    0.279    0.514   33.092
  478.166   58.874    0.301    0.504   36.183
  478.416   54.921    0.302    0.505   54.312
  478.666   54.825    0.287    0.509   82.239
  478.916   58.877    0.294    0.516   88.848
  479.166   62.175    0.310    0.524   73.894
  479.416   65.750    0.292    0.548   59.445
  479.666   66.932    0.275    0.559   38.020
  479.916   63.712    0.285    0.562   33.880
  480.166   61.357    0.295    0.579   42.378
  480.416   57.791    0.304    0.606   52.309
  480.666   61.650    0.275    0.600   37.428
  480.916   67.472    0.248    0.566   28.520
  481.166   65.918    0.249    0.549   21.973
  481.416   70.981    0.266    0.539   16.715
  481.666   87.836    0.149    0.543   12.489
  481.916   89.723    0.157    0.556   11.092
  482.166   83.740    0.178    0.577   10.259
  482.416   77.202    0.195    0.587   10.207
  482.666   72.900    0.213    0.606   10.419
  482.916   67.390    0.226    0.610   11.449
  483.166   60.980    0.252    0.607   12.328
  483.416   56.840    0.267    0.598   14.987
  483.666   52.020    0.283    0.568   18.518
  483.916   47.657    0.308    0.565   26.067
  484.166   42.689    0.327    0.543   35.246
  484.416   43.449    0.337    0.543   43.715
  484.666   53.843    0.330    0.545   45.115
  484.916   58.627    0.313    0.552   32.825
  485.166   61.269    0.298    0.562   26.004
  485.416   64.568    0.280    0.566   22.275
  485.666   65.803    0.272    0.572   20.017
  485.916   68.805    0.264    0.597   19.392
  486.166   70.898    0.258    0.602   19.797
  486.416   67.920    0.253    0.597   21.014
  486.666   65.219    0.248    0.574   23.009
  486.916   62.339    0.276    0.554   25.123
  487.166   65.905    0.296    0.561   24.678
  487.416   68.760    0.305    0.581   23.468
  487.666   71.219    0.303    0.591   16.264
  487.916   72.736    0.282    0.597   12.573
  488.166   73.172    0.267    0.597    9.335
  488.416   66.286    0.249    0.588    7.913
  488.666   63.184    0.265    0.564    6.576
  488.916   57.127    0.293    0.539    5.201
  489.166   49.078    0.312    0.532    4.432
  489.416   44.910    0.335    0.503    3.849
  489.666   43.485    0.316    0.493    3.756
  489.916   48.697    0.332    0.484    4.587
  490.166   55.584    0.324    0.473    5.967
  490.416   61.827    0.289    0.452    7.881
  490.666   64.817    0.245    0.433    9.640
  490.916   67.921    0.232    0.504   10.442
  491.166   71.788    0.217    0.512   11.291
  491.416   77.650    0.237    0.523   11.039
  491.666   80.613    0.263    0.524   10.447
  491.916   84.982    0.264    0.521    9.284
  492.166   88.849    0.254    0.521    8.705
  492.416   93.083    0.276    0.534    8.098
  492.666   95.380    0.294    0.539    7.619
  492.916   98.754    0.288    0.553    7.190
  493.166  104.756    0.310    0.532    7.104
  493.416  110.586    0.329    0.528    7.602
  493.666  109.120    0.308    0.533    8.537
  493.916  100.203    0.303    0.543    9.605
  494.166   94.756    0.309    0.542   10.883
  494.416   93.387    0.296    0.538   11.785
  494.666   93.379    0.283    0.532   12.547
  494.916   93.304    0.278    0.533   12.122
  495.166   93.957    0.278    0.548   11.375
  495.416   94.020    0.276    0.531   10.320
  495.666  100.360    0.271    0.506    9.452
  495.916  105.247    0.239    0.482    8.973
  496.166  109.299    0.213    0.479    8.691
  496.416  107.667    0.211    0.473    8.692
  496.666   98.124    0.248    0.574    9.434
  496.916   81.750    0.281    0.601    9.637
  497.166   68.287    0.312    0.602    9.607
  497.416   61.810    0.323    0.600    9.301
  497.666   63.998    0.330    0.592    9.032
