~VERSION INFORMATION
 VERS.                 2.0:   CWLS LOG ASCII STANDARD -VERSION 2.0
 WRAP.                  NO:   ONE LINE PER DEPTH STEP
~WELL INFORMATION BLOCK
#MNEM.UNIT           DATA                    DESCRIPTION OF MNEMONIC
#---------    -------------------            -------------------------------
# Generated from Intellog Unique Number	CW_76_78/WELL/694
WELL.         NORTHSTAR ET AL MARTEN HILLS 0 : Well_name    - WELL
LOC .         00/08-09-076-03W5/0            : Location     - LOCATION
UWI .         00/08-09-076-03W5/0            : Uwi          - UNIQUE WELL ID
ENTR.         JAYE                           : Entered      - ENTERED BY
SRVC.         COMPUTALOG                     : Scn          - SERVICE COMPANY
DATE.         19 FEB 81                      : Date         - LOG DATE
STRT.M        520                            : top_depth    - START DEPTH
STOP.M        730                            : bot_depth    - STOP DEPTH
STEP.M        0.25                           : increment    - STEP LENGTH
 NULL. -999.2500:NULL Value
~CURVE INFORMATION BLOCK
#MNEM UNIT       ERCB CURVE CODE    CURVE DESCRIPTION
#-----------   ------------------   ----------------------------------
DEPT.M        00 001 00 00         : DEPTH        - DEPTH
ILD .OHMM     00 120 00 00         : RESD         - DEEP RESISTIVITY (DIL)
NPHI.V/V      00 330 00 00         : PHIN         - NEUTRON POROSITY (SANDSTONE)
DPHI.V/V      00 890 00 00         : PHID         - DENSITY POROSITY (SANDSTONE)
GR  .API      00 310 00 00         : GR           - GAMMA RAY
CALI.MM       00 280 01 00         : CAL          - CALIPER
~PARAMETER INFORMATION
#MNEM.UNIT           DATA             DESCRIPTION OF MNEMONIC
#---------         -----------     ------------------------------
GL  .M        793.13               : gl           - GROUND LEVEL ELEVATION
EREF.M        796.43               : kb           - ELEVATION OF DEPTH REFERENCE
DATM.M        793.13               : datum        - DATUM ELEVATION
TDD .M        743                  : tdd          - TOTAL DEPTH DRILLER
RUN .         ONE                  : Run          - RUN NUMBER
ENG .         HUDSON               : Engineer     - RECORDING ENGINEER
WIT .         HOLT/FITZIMMONS      : Witness      - WITNESSED BY
BASE.         EDM                  : Branch       - HOME BASE OF LOGGING UNIT
MUD .         GEL BASE             : Mud_type     - MUD TYPE
MATR.         SANDSTONE            : Logunit      - NEUTRON MATRIX
TMAX.C        32                   : BHT          - MAXIMUM RECORDED TEMPERATURE
BHTD.M        745                  : BHTDEP       - MAXIMUM RECORDED TEMPERATURE
RMT .C        12                   : MDTP         - TEMPERATURE OF MUD
MUDD.KG/M     1120                 : MWT          - MUD DENSITY
NEUT.         1                    : NEUTRON      - NEUTRON TYPE
RESI.         0                    : RESIST       - RESISTIVITY TYPE
RM  .OHMM     5.4                  : RM           - RESISTIVITY OF MUD
RMC .OHMM     10                   : RMC          - RESISTIVITY OF MUD CAKE
RMF .OHMM     9.3                  : RMF          - RESISTIVITY OF MUD FILTRATE
SUFT.C        0                    : SUFT         - SURFACE TEMPERATURE
~A  DEPTH     RESD     PHIN     PHID       GR      CAL
# ...
  666.000    6.032    0.368    0.122  121.122  169.745
  666.250    5.992    0.345    0.149  120.399  171.202
  666.500    6.112    0.310    0.160  118.652  174.581
  666.750    6.394    0.274    0.156  114.671  178.062
  667.000    6.514    0.296    0.148  109.538  170.998
  667.250    6.554    0.336    0.192  108.112  163.083
  667.500    6.755    0.364    0.197  112.884  167.630
  667.750    7.036    0.342    0.170  117.210  177.717
  668.000    7.518    0.314    0.137  118.405  183.541
  668.250    8.161    0.315    0.125  115.188  168.809
  668.500    9.326    0.350    0.136  112.292  163.339
  668.750   10.209    0.358    0.169  109.973  162.560
  669.000   13.983    0.389    0.195  106.627  162.525
  669.250   16.152    0.350    0.205  101.751  162.710
  669.500   17.316    0.237    0.174   95.787  164.166
  669.750   17.236    0.193    0.098   83.624  166.368
  670.000   17.116    0.147    0.052   58.678  168.145
  670.250   17.397    0.214    0.189   59.808  169.074
  670.500   17.959    0.343    0.219   71.420  170.638
  670.750   18.803    0.336    0.225   81.753  171.670
  671.000   19.485    0.337    0.213   80.071  168.971
  671.250   19.445    0.306    0.198   76.537  165.744
  671.500   19.044    0.326    0.200   76.836  166.241
  671.750   18.121    0.348    0.210   77.264  167.804
  672.000   16.314    0.313    0.187   76.285  168.521
  672.250   13.985    0.282    0.108   70.066  167.103
  672.500   12.580    0.209    0.167   63.590  163.554
  672.750   11.898    0.328    0.207   66.126  165.220
  673.000   11.737    0.365    0.219   74.224  165.933
  673.250   11.898    0.383    0.219   78.549  165.476
  673.500   12.219    0.402    0.231   80.000  164.376
  673.750   12.822    0.402    0.240   80.043  165.836
  674.000   13.304    0.375    0.239   81.046  169.424
  674.250   13.103    0.368    0.233   86.203  170.987
  674.500   13.545    0.372    0.230  119.803  171.382
  674.750   13.665    0.378    0.225  132.949  168.261
  675.000   13.425    0.365    0.217  140.470  158.958
  675.250   13.063    0.346    0.209  113.351  159.987
  675.500   12.502    0.317    0.203   98.695  164.324
  675.750   12.221    0.318    0.198   92.026  166.635
  676.000   11.859    0.325    0.197   91.495  167.454
  676.250   11.699    0.334    0.200   90.390  167.208
  676.500   11.458    0.346    0.208   85.640  167.172
  676.750   11.298    0.362    0.216   86.449  167.138
  677.000   11.258    0.373    0.217   87.453  167.637
  677.250   11.298    0.356    0.214   85.452  167.712
  677.500   11.459    0.359    0.208   85.047  168.528
  677.750   11.780    0.367    0.203   88.734  168.606
  678.000   12.101    0.363    0.203   91.588  168.355
  678.250   12.463    0.353    0.211   92.017  167.793
  678.500   12.905    0.362    0.214   91.103  170.528
  678.750   13.467    0.373    0.215   91.659  173.160
  679.000   14.110    0.373    0.210   89.913  173.761
  679.250   14.551    0.389    0.199   87.337  172.025
  679.500   15.073    0.344    0.186   91.022  169.862
  679.750   15.194    0.318    0.158   91.579  168.977
  680.000   15.074    0.301    0.139   90.216  168.626
  680.250   14.713    0.304    0.147   87.256  169.015
  680.500   14.632    0.309    0.169   90.303  169.616
  680.750   15.034    0.337    0.182   90.924  169.264
  681.000   15.636    0.368    0.177   86.494  168.807
  681.250   16.399    0.315    0.143   84.619  169.628
  681.500   17.203    0.275    0.108   83.961  168.737
  681.750   17.404    0.256    0.063   77.103  167.961
  682.000   17.123    0.306    0.071   75.737  168.358
  682.250   17.163    0.332    0.112   79.044  167.259
  682.500   17.564    0.312    0.146   84.198  164.663
  682.750   18.368    0.316    0.163   87.823  163.564
  683.000   18.930    0.329    0.166   90.488  164.069
  683.250   19.211    0.335    0.165   87.273  165.521
  683.500   18.810    0.331    0.162   84.823  167.092
  683.750   18.127    0.328    0.152   85.442  169.293
  684.000   16.602    0.319    0.144   85.934  170.753
  684.250   15.357    0.315    0.155   85.658  173.274
  684.500   14.554    0.323    0.169   88.450  172.175
  684.750   13.952    0.361    0.169   92.327  170.970
  685.000   13.149    0.357    0.159   94.802  169.977
  685.250   12.025    0.321    0.144   94.653  169.200
  685.500   10.941    0.306    0.136   92.524  169.805
  685.750    9.978    0.324    0.145   92.376  169.348
  686.000    8.572    0.312    0.163   96.192  166.333
  686.250    7.609    0.302    0.160   98.665  164.489
  686.500    7.127    0.291    0.146  104.716  166.367
  686.750    6.886    0.282    0.134  110.449  168.257
  687.000    6.726    0.294    0.131  111.643  171.524
  687.250    6.646    0.300    0.131  112.646  174.260
  687.500    6.606    0.286    0.137  115.821  174.122
  687.750    6.606    0.289    0.139  118.229  173.447
  688.000    6.566    0.304    0.136  117.187  172.774
  688.250    6.566    0.295    0.127  112.246  166.565
  688.500    6.606    0.294    0.136  110.948  165.571
  688.750    6.647    0.316    0.146  110.097  167.667
  689.000    6.687    0.309    0.148  109.885  169.767
  689.250    6.727    0.298    0.135  112.230  171.545
  689.500    6.808    0.300    0.114  117.579  172.789
  689.750    6.848    0.321    0.115  116.472  173.926
  690.000    6.888    0.308    0.123  116.899  174.852
  690.250    6.929    0.301    0.125  119.308  175.459
  690.500    6.929    0.315    0.112  121.334  166.053
  690.750    6.929    0.310    0.103  118.756  166.868
  691.000    6.969    0.301    0.123  117.969  171.311
  691.250    7.050    0.294    0.126  116.990  177.561
  691.500    7.170    0.298    0.121  114.286  177.315
  691.750    7.411    0.315    0.107  109.537  174.621
  692.000    7.853    0.325    0.089  103.893  172.239
  692.250    8.375    0.315    0.102  112.117  171.887
  692.500    9.499    0.319    0.128  122.898  173.026
  692.750   10.664    0.334    0.152  129.651  174.913
  693.000   11.708    0.326    0.159  128.611  180.205
  693.250   12.953    0.299    0.157  119.387  178.784
  693.500   14.559    0.275    0.144  109.651  166.930
  693.750   14.600    0.277    0.136  113.148  164.124
  694.000   14.278    0.305    0.144  115.045  169.525
  694.250   14.038    0.300    0.154  110.295  171.943
  694.500   14.118    0.285    0.152  104.204  172.547
  694.750   14.319    0.269    0.143  104.694  172.516
  695.000   14.600    0.266    0.133  109.404  172.267
  695.250   15.002    0.286    0.137  115.966  172.125
  695.500   15.444    0.298    0.149  120.613  171.667
  695.750   16.407    0.301    0.152  112.988  171.421
  696.000   17.090    0.298    0.146  102.485  171.385
  696.250   17.291    0.259    0.139   96.072  171.460
  696.500   17.532    0.250    0.150  100.081  171.319
  696.750   18.054    0.282    0.154  105.492  171.287
  697.000   18.536    0.300    0.155  102.214  171.251
  697.250   18.576    0.310    0.157   99.699  171.858
  697.500   18.416    0.323    0.162  103.196  173.211
  697.750   18.175    0.330    0.160   99.915  176.906
  698.000   16.610    0.318    0.154   97.531  167.495
  698.250   15.525    0.289    0.149   99.109  168.426
  698.500   14.602    0.281    0.142  103.883  171.480
  698.750   13.960    0.301    0.139  106.802  174.430
  699.000   13.398    0.271    0.137  109.276  173.118
  699.250   12.996    0.254    0.133  110.150  173.828
  699.500   12.515    0.269    0.131  109.937  174.755
  699.750   12.113    0.283    0.126  109.088  175.043
  700.000   11.511    0.286    0.117  109.196  175.436
  700.250   10.829    0.285    0.113  107.130  175.825
  700.500   10.106    0.284    0.111  111.264  176.541
  700.750    8.661    0.275    0.105  112.586  178.423
  701.000    7.577    0.269    0.098  112.311  177.964
  701.250    6.894    0.272    0.097  116.062  174.627
  701.500    6.854    0.293    0.112  120.069  172.359
  701.750    7.296    0.330    0.119  126.057  173.920
  702.000    7.738    0.352    0.121  134.473  178.150
  702.250    8.581    0.335    0.118  130.107  182.059
