~VERSION INFORMATION
 VERS.                 2.0:   CWLS LOG ASCII STANDARD -VERSION 2.0
 WRAP.                  NO:   ONE LINE PER DEPTH STEP
~WELL INFORMATION BLOCK
#MNEM.UNIT           DATA                    DESCRIPTION OF MNEMONIC
#---------    -------------------            -------------------------------
# Generated from Intellog Unique Number	CX_WELLS/WELL/1049
LOC .         00/03-10-088-03W4/0            : Location     - LOCATION
UWI .         00/03-10-088-03W400            : Uwi          - UNIQUE WELL ID
ENTR.         TIM                            : Entered      - ENTERED BY
SRVC.         SCHLUMBERGER                   : Scn          - SERVICE COMPANY
STRT.F        100                            : top_depth    - START DEPTH
STOP.F        689.731                        : bot_depth    - STOP DEPTH
STEP.F        0.82                           : increment    - STEP LENGTH
 NULL. -999.2500:NULL Value
~CURVE INFORMATION BLOCK
#MNEM UNIT       ERCB CURVE CODE    CURVE DESCRIPTION
#-----------   ------------------   ----------------------------------
DEPT.F        00 001 00 00         : DEPTH        - DEPTH
GR  .API      00 310 00 00         : GR           - GAMMA RAY
NPHI.V/V      00 330 00 00         : PHIN         - NEUTRON POROSITY (SANDSTONE)
DPHI.V/V      00 890 00 00         : PHID         - DENSITY POROSITY (SANDSTONE)
ILD .OHMM     00 120 00 00         : RESD         - DEEP RESISTIVITY (DIL)
~PARAMETER INFORMATION
#MNEM.UNIT           DATA             DESCRIPTION OF MNEMONIC
#---------         -----------     ------------------------------
GL  .M        474.269              : gl           - GROUND LEVEL ELEVATION
EREF.M        475.488              : kb           - ELEVATION OF DEPTH REFERENCE
DATM.M        475.488              : datum        - DATUM ELEVATION
TDD .M        213.97               : tdd          - TOTAL DEPTH DRILLER
RUN .         ONE                  : Run          - RUN NUMBER
ENG .         BILL                 : Engineer     - RECORDING ENGINEER
WIT .         JIM                  : Witness      - WITNESSED BY
MUD .         GEL                  : Mud_type     - MUD TYPE
MATR.         SANDSTONE            : Logunit      - NEUTRON MATRIX
TMAX.C        21.1111              : BHT          - MAXIMUM RECORDED TEMPERATURE
BHTD.M        213.97               : BHTDEP       - MAXIMUM RECORDED TEMPERATURE
MATR.         1                    : LOGUNIT      - NEUTRON MATRIX
RMT .C        25                   : MDTP         - TEMPERATURE OF MUD
NEUT.         1                    : NEUTRON      - NEUTRON TYPE
RESI.         0                    : RESIST       - RESISTIVITY TYPE
RMC .OHMM     0.25                 : RMC          - RESISTIVITY OF MUD CAKE
RMF .OHMM     0.25                 : RMF          - RESISTIVITY OF MUD FILTRATE
SUFT.C        15                   : SUFT         - SURFACE TEMPERATURE
~A  DEPTH       GR     PHIN     PHID     RESD
# ...
  242.717  115.820    0.504    0.237   10.963
  243.537  116.544    0.509    0.238   10.982
  244.357  117.229    0.516    0.239   10.026
  245.177  114.242    0.518    0.245    9.325
  245.997  107.031    0.518    0.253    9.703
  246.818  104.652    0.497    0.260   10.087
  247.638  102.312    0.471    0.262   10.683
  248.458  102.998    0.465    0.249   11.111
  249.278  104.292    0.461    0.230   11.130
  250.098  106.196    0.470    0.230   10.944
  250.919  107.509    0.480    0.229   10.757
  251.739  107.605    0.489    0.236   10.775
  252.559  107.643    0.493    0.242   11.006
  253.379  108.957    0.490    0.248   11.020
  254.199  110.270    0.496    0.250   10.841
  255.020  111.546    0.503    0.251   10.655
  255.840  113.468    0.508    0.249   10.293
  256.660  117.217    0.514    0.246   10.121
  257.480  118.512    0.520    0.239    9.948
  258.301  119.806    0.523    0.237    9.782
  259.121  119.902    0.520    0.237    9.799
  259.941  120.568    0.520    0.241    9.816
  260.761  120.055    0.521    0.244    9.833
  261.581  118.324    0.525    0.245    9.854
  262.402  116.555    0.529    0.244    9.867
  263.222  112.997    0.525    0.244   10.454
  264.042  111.209    0.507    0.245   11.077
  264.862  107.061    0.495    0.246   11.510
  265.682  105.920    0.484    0.239   12.196
  266.503  106.605    0.463    0.214   11.992
  267.323  107.900    0.438    0.208   11.367
  268.143  112.239    0.447    0.211   10.572
  268.963  116.597    0.475    0.217   10.391
  269.783  116.674    0.482    0.227   10.038
  270.604  115.532    0.488    0.230   10.047
  271.424  115.019    0.470    0.229    9.884
  272.244  114.468    0.469    0.233    9.905
  273.064  112.147    0.494    0.240    9.918
  273.885  110.986    0.500    0.247    9.939
  274.705  110.435    0.471    0.251    9.952
  275.525  109.332    0.453    0.255    9.978
  276.345  110.607    0.452    0.259    9.991
  277.165  111.293    0.456    0.260   10.008
  277.986  110.799    0.461    0.258   10.029
  278.806  109.638    0.467    0.256   10.239
  279.626  108.516    0.473    0.252   10.253
  280.446  107.356    0.482    0.245   10.270
  281.266  106.234    0.490    0.242   10.481
  282.087  106.310    0.494    0.241   10.695
  282.907  106.368    0.467    0.238   10.719
  283.727  108.290    0.459    0.237   10.943
  284.547  108.348    0.457    0.236   10.962
  285.367  107.835    0.458    0.239   10.976
  286.188  103.649    0.465    0.266   11.416
  287.008   97.027    0.484    0.273   13.022
  287.828   85.534    0.485    0.297   16.915
  288.648   78.894    0.474    0.307   22.812
  289.469   69.837    0.457    0.332   28.027
  290.289   61.388    0.445    0.348   33.815
  291.109   55.356    0.446    0.360   36.500
  291.929   52.997    0.450    0.368   38.656
  292.749   51.285    0.461    0.381   40.187
  293.570   50.734    0.479    0.383   38.773
  294.390   50.221    0.468    0.380   36.077
  295.210   50.297    0.447    0.372   34.822
  296.030   51.611    0.444    0.363   33.611
  296.850   52.277    0.440    0.355   33.683
  297.671   52.963    0.435    0.351   33.756
  298.491   54.885    0.430    0.345   34.418
  299.311   57.417    0.423    0.334   34.522
  300.131   59.320    0.424    0.321   34.552
  300.951   60.006    0.429    0.324   34.611
  301.772   59.454    0.430    0.329   32.191
  302.592   59.550    0.427    0.336   30.500
  303.412   60.844    0.427    0.339   28.366
  304.232   64.574    0.430    0.331   24.494
  305.052   72.586    0.452    0.322   18.574
  305.873   88.514    0.477    0.305   14.349
  306.693  101.397    0.489    0.292   11.292
  307.513  108.210    0.510    0.288    9.400
  308.333  106.440    0.534    0.299    8.738
  309.154  105.299    0.547    0.309    8.754
  309.974  109.048    0.530    0.308    9.453
  310.794  112.150    0.514    0.284    9.295
  311.614  118.335    0.523    0.281    8.803
  312.434  120.239    0.529    0.287    7.889
  313.255  120.315    0.537    0.294    6.940
  314.075  120.430    0.532    0.280    6.335
  314.895  121.116    0.526    0.271    5.680
  315.715  121.211    0.530    0.269    5.483
  316.535  121.250    0.536    0.268    5.492
  317.356  120.108    0.545    0.266    5.504
  318.176  117.768    0.552    0.266    5.619
  318.996  116.627    0.563    0.265    5.624
  319.816  116.704    0.573    0.266    5.634
  320.636  116.780    0.581    0.269    5.749
  321.457  116.248    0.570    0.275    5.979
  322.277  115.107    0.552    0.279    6.338
  323.097  113.966    0.537    0.285    6.462
  323.917  112.235    0.512    0.287    6.598
  324.738  113.529    0.515    0.282    6.733
  325.558  115.432    0.541    0.276    6.620
  326.378  116.118    0.563    0.275    6.393
  327.198  116.233    0.580    0.273    6.171
  328.018  116.918    0.575    0.274    6.068
  328.839  118.822    0.553    0.279    6.192
  329.659  119.507    0.536    0.276    6.437
  330.479  117.757    0.512    0.269    6.951
  331.299  112.353    0.497    0.264    7.223
  332.119  108.757    0.494    0.262    7.793
  332.940  109.462    0.512    0.263    8.102
  333.760  111.974    0.519    0.265    8.268
  334.580  113.877    0.517    0.265    8.286
  335.400  114.601    0.512    0.267    8.297
  336.220  114.088    0.511    0.269    8.162
  337.041  113.517    0.511    0.272    8.176
  337.861  111.786    0.508    0.275    8.190
  338.681  110.017    0.502    0.274    8.514
  339.501  107.068    0.492    0.274    9.021
  340.322  104.100    0.487    0.274    9.742
  341.142  100.523    0.480    0.274   10.313
  341.962   98.773    0.486    0.274   10.927
  342.782  103.740    0.497    0.271   11.146
  343.602  105.624    0.505    0.268   11.379
  344.423  103.874    0.513    0.269   10.988
  345.243  102.752    0.514    0.273   10.597
  346.063  101.611    0.511    0.277    9.860
  346.883  100.489    0.504    0.263    9.695
  347.703   99.956    0.510    0.252    9.537
  348.524  106.712    0.504    0.260    9.550
  349.344  111.698    0.494    0.269    9.570
  350.164  111.185    0.487    0.277    9.766
  350.984  110.005    0.484    0.284    9.779
  351.804  108.255    0.485    0.281    9.796
  352.625  112.024    0.491    0.276   10.010
  353.445  115.735    0.500    0.270    9.838
  354.265  117.638    0.499    0.267    9.678
  355.085  114.689    0.494    0.263    9.513
  355.906  111.150    0.493    0.260    9.182
  356.726  109.971    0.489    0.260    8.862
  357.546  108.259    0.484    0.261    9.048
  358.366  107.708    0.480    0.262    9.233
  359.186  107.765    0.479    0.262    9.418
  360.007  108.470    0.477    0.261    9.443
  360.827  109.802    0.486    0.259    9.281
  361.647  111.059    0.508    0.259    8.484
  362.467  113.571    0.542    0.262    8.186
  363.287  116.711    0.558    0.266    7.749
  364.108  119.851    0.559    0.272    7.210
  364.928  120.556    0.554    0.276    6.956
  365.748  120.024    0.559    0.281    6.356
  366.568  120.100    0.566    0.284    6.245
  367.388  120.786    0.573    0.287    5.810
  368.209  122.061    0.579    0.290    5.608
  369.029  123.356    0.595    0.291    5.314
  369.849  125.906    0.608    0.293    4.944
  370.669  127.829    0.617    0.294    4.600
  371.490  128.476    0.622    0.296    4.437
  372.310  127.982    0.617    0.297    4.128
  373.130  127.430    0.616    0.299    3.986
  373.950  125.699    0.613    0.298    3.916
  374.770  125.776    0.608    0.293    3.925
  375.591  125.833    0.600    0.286    3.932
  376.411  125.948    0.598    0.275    4.166
  377.231  126.006    0.597    0.269    4.329
  378.051  126.082    0.593    0.264    4.762
  378.871  126.159    0.580    0.261    5.140
  379.692  125.018    0.563    0.261    5.441
  380.512  122.658    0.547    0.262    5.654
  381.332  117.883    0.517    0.267    6.103
  382.152  115.524    0.497    0.268    6.711
  382.972  114.383    0.505    0.270    7.241
  383.793  114.478    0.516    0.271    7.392
  384.613  115.773    0.527    0.271    7.547
