~VERSION INFORMATION
 VERS.                 2.0:   CWLS LOG ASCII STANDARD -VERSION 2.0
 WRAP.                  NO:   ONE LINE PER DEPTH STEP
~WELL INFORMATION BLOCK
#MNEM.UNIT           DATA                    DESCRIPTION OF MNEMONIC
#---------    -------------------            -------------------------------
# Generated from Intellog Unique Number	CS_69_70/WELL/623
NULL.         -999.25                        : NULL_VALUE
WELL.         BVI HEART LAKE                 : Well_name    - WELL              
LOC .         00/04-11-070-10W4/0            : Location     - LOCATION          
UWI .         00/04-11-070-10W4/0            : Uwi          - UNIQUE WELL ID    
ENTR.         SP                             : Entered      - ENTERED BY        
SRVC.         SCHLUMBERGER                   : Scn          - SERVICE COMPANY   
STRT.M        275                            : top_depth    - START DEPTH       
STOP.M        495                            : bot_depth    - STOP DEPTH        
STEP.M        0.25                           : increment    - STEP LENGTH       
~CURVE INFORMATION BLOCK
#MNEM UNIT       ERCB CURVE CODE    CURVE DESCRIPTION
#-----------   ------------------   ----------------------------------
DEPT.M        00 001 00 00         : DEPTH        - DEPTH                       
ILD .OHMM     00 120 00 00         : RESD         - DEEP RESISTIVITY (DIL)      
DPHI.V/V      00 890 00 00         : PHID         - DENSITY POROSITY (LIMESTONE)
NPHI.V/V      00 330 00 00         : PHIN         - NEUTRON POROSITY (LIMESTONE)
GR  .API      00 310 00 00         : GR           - GAMMA RAY                   
~PARAMETER INFORMATION       
#MNEM.UNIT           DATA             DESCRIPTION OF MNEMONIC
#---------         -----------     ------------------------------
GL  .M        614.6                : gl           - GROUND LEVEL ELEVATION      
EREF.M        617.8                : kb           - ELEVATION OF DEPTH REFERENCE
DATM.M        614.6                : datum        - DATUM ELEVATION             
TDD .M        520                  : tdd          - TOTAL DEPTH DRILLER         
RUN .         ONE                  : Run          - RUN NUMBER                  
ENG .         BILL                 : Engineer     - RECORDING ENGINEER          
WIT .         JIM                  : Witness      - WITNESSED BY                
MUD .         GEL                  : Mud_type     - MUD TYPE                    
MATR.         LIMESTONE            : Logunit      - NEUTRON MATRIX              
TMAX.C        23                   : BHT          - MAXIMUM RECORDED TEMPERATURE
BHTD.M        520                  : BHTDEP       - MAXIMUM RECORDED TEMPERATURE
MATR.         1                    : LOGUNIT      - NEUTRON MATRIX              
RMT .C        25                   : MDTP         - TEMPERATURE OF MUD          
NEUT.         1                    : NEUTRON      - NEUTRON TYPE                
RESI.         0                    : RESIST       - RESISTIVITY TYPE            
RMC .OHMM     0.25                 : RMC          - RESISTIVITY OF MUD CAKE     
RMF .OHMM     0.25                 : RMF          - RESISTIVITY OF MUD FILTRATE 
SUFT.C        15                   : SUFT         - SURFACE TEMPERATURE         
~A  DEPTH     RESD     PHID     PHIN       GR
# ...
  362.000   11.755    0.335    0.387   56.286
  362.250   11.953    0.370    0.392   53.823
  362.500   12.222    0.392    0.413   54.601
  362.750   12.428    0.401    0.434   54.887
  363.000   12.637    0.392    0.449   54.993
  363.250   12.681    0.367    0.445   53.752
  363.500   12.584    0.350    0.422   55.565
  363.750   12.509    0.339    0.417   57.321
  364.000   12.364    0.347    0.424   58.466
  364.250   12.245    0.349    0.432   57.164
  364.500   12.174    0.350    0.430   52.743
  364.750   12.011    0.335    0.424   51.441
  365.000   11.917    0.325    0.426   54.174
  365.250   11.670    0.318    0.421   57.151
  365.500   10.718    0.309    0.413   57.562
  365.750    9.338    0.297    0.408   61.882
  366.000    8.322    0.281    0.417   71.651
  366.250    8.165    0.268    0.424   79.337
  366.500    8.177    0.260    0.428   83.966
  366.750    8.191    0.262    0.433   83.642
  367.000    8.343    0.268    0.440   81.787
  367.250    8.389    0.263    0.445   85.439
  367.500    8.371    0.256    0.440   90.742
  367.750    7.939    0.245    0.439   94.085
  368.000    7.319    0.237    0.441   94.861
  368.250    6.889    0.229    0.436   92.460
  368.500    6.977    0.226    0.431   90.608
  368.750    7.083    0.233    0.440   91.385
  369.000    7.635    0.262    0.449   95.464
  369.250    8.371    0.282    0.442   98.013
  369.500    9.075    0.291    0.444   95.610
  369.750    9.820    0.298    0.450   87.825
  370.000   10.368    0.302    0.443   84.079
  370.250   10.784    0.304    0.438   85.405
  370.500   11.152    0.305    0.430   88.626
  370.750   11.277    0.302    0.421   89.466
  371.000   11.147    0.296    0.419   87.491
  371.250   10.875    0.293    0.424   85.456
  371.500   10.669    0.292    0.421   87.209
  371.750   10.626    0.289    0.413   90.371
  372.000   10.623    0.280    0.408   92.250
  372.250   10.598    0.267    0.399   87.888
  372.500   10.597    0.258    0.396   86.343
  372.750   10.534    0.252    0.397   87.608
  373.000   10.531    0.245    0.420   89.913
  373.250   10.529    0.239    0.443   90.446
  373.500   10.545    0.234    0.424   89.695
  373.750   10.641    0.228    0.405   89.921
  374.000   10.740    0.225    0.390   90.756
  374.250   10.961    0.232    0.407   91.778
  374.500   10.959    0.240    0.423   92.984
  374.750   10.957    0.245    0.406   91.436
  375.000   10.749    0.247    0.401   90.255
  375.250   10.174    0.248    0.420   90.850
  375.500    9.540    0.248    0.438   91.995
  375.750    9.014    0.245    0.449   92.649
  376.000    8.694    0.241    0.461   91.469
  376.250    8.578    0.240    0.465   89.677
  376.500    8.447    0.237    0.470   91.615
  376.750    8.350    0.229    0.458   94.900
  377.000    8.316    0.220    0.449   98.367
  377.250    8.236    0.212    0.439  100.123
  377.500    8.218    0.207    0.433  101.694
  377.750    8.262    0.210    0.433  102.346
  378.000    8.292    0.226    0.434  102.269
  378.250    8.511    0.239    0.438   97.726
  378.500    8.769    0.248    0.448   92.693
  378.750    9.053    0.237    0.451   88.701
  379.000    9.415    0.224    0.439   93.877
  379.250    9.430    0.214    0.433   99.610
  379.500    9.148    0.217    0.441  101.242
  379.750    8.807    0.221    0.458   99.941
  380.000    8.657    0.215    0.445   97.534
  380.250    8.605    0.214    0.421   96.051
  380.500    8.538    0.217    0.417   96.462
  380.750    8.536    0.217    0.442   98.216
  381.000    8.534    0.212    0.458  101.378
  381.250    8.629    0.203    0.456  103.195
  381.500    8.757    0.193    0.441  102.012
  381.750    8.922    0.182    0.430  101.324
  382.000    9.003    0.175    0.416  103.507
  382.250    8.984    0.178    0.406  104.834
  382.500    8.914    0.187    0.409  103.654
  382.750    8.795    0.195    0.409   99.050
  383.000    8.710    0.201    0.408   94.507
  383.250    8.626    0.202    0.416   93.939
  383.500    8.527    0.202    0.437   96.427
  383.750    8.445    0.201    0.448   98.610
  384.000    8.332    0.200    0.432  102.441
  384.250    8.190    0.198    0.418  106.217
  384.500    8.004    0.193    0.423  109.868
  384.750    7.838    0.187    0.439  113.823
  385.000    7.718    0.183    0.449  116.374
  385.250    7.558    0.192    0.443  112.625
  385.500    7.415    0.197    0.441  106.432
  385.750    7.275    0.198    0.449  102.561
  386.000    7.123    0.194    0.458  101.199
  386.250    6.989    0.189    0.453  104.970
  386.500    6.805    0.185    0.438  107.949
  386.750    6.203    0.190    0.418  107.501
  387.000    5.175    0.202    0.403  103.816
  387.250    4.342    0.212    0.413  101.717
  387.500    3.870    0.224    0.457  104.024
  387.750    3.391    0.234    0.464  105.657
  388.000    3.010    0.226    0.470  103.927
  388.250    2.898    0.216    0.483  104.153
  388.500    2.892    0.206    0.468  105.602
  388.750    2.991    0.200    0.479  108.519
  389.000    3.230    0.201    0.493  111.802
  389.250    3.568    0.217    0.495  112.764
  389.500    3.950    0.228    0.475  108.770
  389.750    4.355    0.236    0.459  102.695
  390.000    4.748    0.242    0.452   98.766
  390.250    5.109    0.240    0.449   94.709
  390.500    5.601    0.233    0.441   92.613
  390.750    5.804    0.228    0.432   91.192
  391.000    6.163    0.228    0.424   87.749
  391.250    6.458    0.240    0.413   85.224
  391.500    6.794    0.247    0.439   94.011
  391.750    7.173    0.246    0.438   99.191
  392.000    7.489    0.258    0.415   97.888
  392.250    7.473    0.260    0.405   94.690
  392.500    6.572    0.250    0.409   87.027
  392.750    6.185    0.240    0.432   81.384
  393.000    6.184    0.266    0.444   77.147
  393.250    6.241    0.283    0.450   75.600
  393.500    6.406    0.300    0.450   74.238
  393.750    6.600    0.309    0.446   78.866
  394.000    6.852    0.307    0.437   84.042
  394.250    7.020    0.298    0.429   85.802
  394.500    7.151    0.292    0.431   84.376
  394.750    7.298    0.288    0.424   79.951
  395.000    7.311    0.285    0.412   78.653
  395.250    7.391    0.285    0.406   75.516
  395.500    7.418    0.288    0.401   70.910
  395.750    7.402    0.291    0.398   68.204
  396.000    7.289    0.294    0.403   69.653
  396.250    7.192    0.296    0.411   71.468
  396.500    7.016    0.297    0.421   71.573
  396.750    6.896    0.299    0.425   71.126
  397.000    6.842    0.294    0.411   75.692
  397.250    6.918    0.284    0.406   81.668
  397.500    7.222    0.273    0.419   86.480
  397.750    7.442    0.261    0.447   88.849
  398.000    8.651    0.228    0.450   84.120
  398.250   10.094    0.188    0.357   78.049
  398.500   11.405    0.127    0.325   72.955
  398.750   12.815    0.100    0.307   68.779
  399.000   13.789    0.075    0.294   65.950
  399.250   13.200    0.071    0.284   76.204
  399.500   10.447    0.156    0.283   86.703
  399.750    8.700    0.194    0.296   92.494
  400.000    7.494    0.218    0.311   95.717
  400.250    6.578    0.233    0.342   93.252
  400.500    6.192    0.245    0.390   88.767
  400.750    5.839    0.259    0.448   85.816
  401.000    5.675    0.273    0.458   88.244
  401.250    5.578    0.269    0.447   95.929
  401.500    5.577    0.250    0.438  100.497
  401.750    5.584    0.231    0.426  103.231
  402.000    5.408    0.220    0.433  100.646
  402.250    5.457    0.214    0.447   95.919
  402.500    5.539    0.210    0.441   95.779
  402.750    5.684    0.203    0.420   98.268
  403.000    5.652    0.200    0.415  100.571
  403.250    5.576    0.215    0.441  103.116
  403.500    5.471    0.222    0.462  104.446
  403.750    5.347    0.227    0.454  105.473
  404.000    5.275    0.218    0.452  105.760
  404.250    5.284    0.209    0.452  103.662
  404.500    5.332    0.203    0.448  100.954
  404.750    5.381    0.207    0.437   94.760
  405.000    5.441    0.207    0.431   92.723
  405.250    5.596    0.205    0.426   95.885
