~VERSION INFORMATION
 VERS.                 2.0:   CWLS LOG ASCII STANDARD -VERSION 2.0
 WRAP.                  NO:   ONE LINE PER DEPTH STEP
~WELL INFORMATION BLOCK
#MNEM.UNIT           DATA                    DESCRIPTION OF MNEMONIC
#---------    -------------------            -------------------------------
# Generated from Intellog Unique Number	CW_76_78/WELL/693
WELL.         ASHLAND PCP TOTAL PELICAN 07-3 : Well_name    - WELL
LOC .         00/07-36-076-19W4/0            : Location     - LOCATION
UWI .         00/07-36-076-19W4/0            : Uwi          - UNIQUE WELL ID
ENTR.         JAYE                           : Entered      - ENTERED BY
SRVC.         SCHLUMBERGER                   : Scn          - SERVICE COMPANY
DATE.         25 FEB 75                      : Date         - LOG DATE
STRT.M        210.312                        : top_depth    - START DEPTH
STOP.M        387.062                        : bot_depth    - STOP DEPTH
STEP.M        0.25                           : increment    - STEP LENGTH
 NULL. -999.2500:NULL Value
~CURVE INFORMATION BLOCK
#MNEM UNIT       ERCB CURVE CODE    CURVE DESCRIPTION
#-----------   ------------------   ----------------------------------
DEPT.M        00 001 00 00         : DEPTH        - DEPTH
ILD .OHMM     00 120 00 00         : RESD         - DEEP RESISTIVITY (DIL)
NPHI.V/V      00 330 00 00         : PHIN         - NEUTRON POROSITY (SANDSTONE)
DPHI.V/V      00 890 00 00         : PHID         - DENSITY POROSITY (SANDSTONE)
GR  .API      00 310 00 00         : GR           - GAMMA RAY
CALI.MM       00 280 01 00         : CAL          - CALIPER
~PARAMETER INFORMATION
#MNEM.UNIT           DATA             DESCRIPTION OF MNEMONIC
#---------         -----------     ------------------------------
GL  .M        565.099              : gl           - GROUND LEVEL ELEVATION
EREF.M        568.757              : kb           - ELEVATION OF DEPTH REFERENCE
DATM.M        565.099              : datum        - DATUM ELEVATION
TDD .M        406.908              : tdd          - TOTAL DEPTH DRILLER
RUN .         ONE                  : Run          - RUN NUMBER
ENG .         LAVERCIERE           : Engineer     - RECORDING ENGINEER
WIT .         GARDINER             : Witness      - WITNESSED BY
BASE.         EDM                  : Branch       - HOME BASE OF LOGGING UNIT
MUD .         GEL                  : Mud_type     - MUD TYPE
MATR.         SANDSTONE            : Logunit      - NEUTRON MATRIX
TMAX.C        20                   : BHT          - MAXIMUM RECORDED TEMPERATURE
BHTD.M        406.298              : BHTDEP       - MAXIMUM RECORDED TEMPERATURE
RMT .C        10                   : MDTP         - TEMPERATURE OF MUD
MUDD.KG/M     1056                 : MWT          - MUD DENSITY
NEUT.         1                    : NEUTRON      - NEUTRON TYPE
RESI.         0                    : RESIST       - RESISTIVITY TYPE
RM  .OHMM     1.8                  : RM           - RESISTIVITY OF MUD
RMC .OHMM     0                    : RMC          - RESISTIVITY OF MUD CAKE
RMF .OHMM     1.94                 : RMF          - RESISTIVITY OF MUD FILTRATE
SUFT.C        -17.7778             : SUFT         - SURFACE TEMPERATURE
~A  DEPTH     RESD     PHIN     PHID       GR      CAL
# ...
  283.312   10.149    0.490    0.369   58.132  161.447
  283.562   10.123    0.490    0.368   57.052  161.474
  283.812   10.131    0.483    0.367   56.029  161.618
  284.062   10.203    0.496    0.365   54.646  161.832
  284.312   10.294    0.505    0.365   50.876  162.072
  284.562   10.305    0.488    0.366   52.543  162.226
  284.812   10.317    0.458    0.368   57.813  162.253
  285.062   10.268    0.466    0.368   58.140  162.277
  285.312   10.141    0.480    0.367   56.822  162.017
  285.562   10.052    0.482    0.366   56.104  162.028
  285.812   10.021    0.462    0.365   55.563  162.156
  286.062   10.054    0.462    0.366   55.229  162.196
  286.312   10.083    0.464    0.368   55.125  162.336
  286.562   10.134    0.460    0.373   56.721  162.364
  286.812   10.245    0.448    0.381   56.615  162.397
  287.062   10.216    0.451    0.357   55.045  162.331
  287.312   10.149    0.464    0.353   54.650  162.468
  287.562   10.079    0.477    0.369   55.325  162.599
  287.812   10.151    0.491    0.389   56.882  162.710
  288.062   10.201    0.494    0.366   57.559  162.660
  288.312   10.172    0.506    0.359   57.273  162.677
  288.562   10.264    0.488    0.373   56.381  162.805
  288.812   10.295    0.481    0.375   55.425  162.948
  289.062   10.307    0.471    0.369   55.068  163.076
  289.312   10.318    0.482    0.366   55.456  163.210
  289.562   10.290    0.464    0.365   56.999  163.440
  289.812   10.261    0.468    0.365   60.006  163.800
  290.062   10.133    0.457    0.365   58.562  164.128
  290.312   10.002    0.454    0.367   57.057  164.065
  290.562    9.874    0.470    0.368   56.770  163.885
  290.812    9.864    0.482    0.370   56.357  163.319
  291.062    9.936    0.482    0.372   56.192  162.600
  291.312   10.007    0.475    0.371   55.903  162.437
  291.562   10.057    0.475    0.368   55.923  161.725
  291.812   10.150    0.480    0.364   60.032  161.056
  292.062   10.259    0.478    0.364   60.303  160.363
  292.312   10.290    0.474    0.371   60.200  160.171
  292.562   10.202    0.478    0.376   60.206  159.798
  292.812   10.193    0.498    0.352   60.598  160.029
  293.062   10.205    0.501    0.357   60.313  160.253
  293.312   10.256    0.497    0.367   59.589  160.283
  293.562   10.286    0.490    0.357   55.396  160.343
  293.812   10.297    0.473    0.328   54.076  160.461
  294.062   10.329    0.461    0.314   54.883  160.588
  294.312   10.380    0.460    0.321   55.454  161.032
  294.562   10.412    0.455    0.351   55.894  161.169
  294.812   10.443    0.470    0.361   55.795  161.306
  295.062   10.414    0.459    0.359   55.261  161.336
  295.312   10.324    0.445    0.353   54.181  161.503
  295.562   10.316    0.435    0.345   55.847  161.404
  295.812   10.348    0.453    0.339   56.721  161.531
  296.062   10.338    0.480    0.336   56.682  161.245
  296.312   10.350    0.490    0.332   55.968  161.076
  296.562   10.360    0.465    0.314   56.042  160.793
  296.812   10.331    0.461    0.333   58.014  160.656
  297.062   10.363    0.468    0.337   60.718  160.574
  297.312   10.413    0.471    0.334   61.102  160.601
  297.562   10.506    0.463    0.343   60.702  160.622
  297.812   10.516    0.443    0.335   60.232  160.859
  298.062   10.507    0.448    0.327   59.877  160.999
  298.312   10.498    0.456    0.334   59.776  161.143
  298.562   10.369    0.459    0.347   60.037  161.451
  298.812   10.061    0.446    0.342   60.480  161.585
  299.062    9.613    0.436    0.329   61.539  161.732
  299.312    9.004    0.442    0.328   65.766  161.875
  299.562    8.196    0.464    0.334   72.438  162.009
  299.812    8.587    0.475    0.319   75.882  162.136
  300.062   10.176    0.468    0.290   77.179  162.267
  300.312   11.207    0.460    0.303   77.199  162.501
  300.562   12.716    0.462    0.296   73.061  162.735
  300.812   15.385    0.347    0.303   66.671  162.688
  301.062   18.053    0.240    0.275   59.853  162.706
  301.312   25.357    0.167    0.094   56.325  162.639
  301.562   28.625    0.143    0.056   54.633  162.767
  301.812   25.579    0.140    0.048   54.286  162.920
  302.062   21.355    0.213    0.103   60.348  163.041
  302.312   16.890    0.324    0.238   69.587  162.949
  302.562   12.266    0.371    0.270   80.169  163.086
  302.812   10.280    0.460    0.310   85.317  163.316
  303.062    8.952    0.480    0.293   86.567  163.560
  303.312    7.804    0.508    0.280   85.290  163.807
  303.562    7.336    0.519    0.314   81.949  164.867
  303.812    7.188    0.519    0.290   82.457  166.131
  304.062    7.179    0.491    0.289   84.559  166.587
  304.312    7.211    0.505    0.297   87.202  166.808
  304.562    7.201    0.521    0.294   86.728  166.848
  304.812    7.072    0.507    0.295   85.097  166.999
  305.062    6.883    0.492    0.290   86.099  167.232
  305.312    6.654    0.510    0.266   89.710  167.373
  305.562    6.426    0.535    0.271   90.904  167.490
  305.812    6.238    0.539    0.294   91.643  167.747
  306.062    6.149    0.507    0.279   93.255  167.868
  306.312    6.100    0.514    0.278   94.792  168.092
  306.562    6.071    0.530    0.253   97.071  167.303
  306.812    6.162    0.544    0.271  100.934  166.307
  307.062    6.254    0.495    0.270   99.423  165.708
  307.312    6.185    0.487    0.266   96.397  165.035
  307.562    6.316    0.514    0.273   92.690  164.229
  307.812    6.607    0.508    0.311   87.393  163.007
  308.062    6.918    0.495    0.334   82.034  161.905
  308.312    7.169    0.495    0.341   79.183  160.522
  308.562    7.440    0.486    0.357   79.998  160.207
  308.812    7.649    0.480    0.361   80.022  160.024
  309.062    8.101    0.518    0.356   78.503  159.768
  309.312    8.751    0.539    0.340   74.617  159.682
  309.562    9.401    0.526    0.317   73.110  159.626
  309.812   10.053    0.504    0.342   76.489  159.433
  310.062   10.283    0.470    0.355   82.548  159.147
  310.312   10.454    0.466    0.338   88.001  158.975
  310.562   10.486    0.468    0.330   90.707  158.808
  310.812   10.456    0.478    0.327   89.871  157.890
  311.062   10.208    0.478    0.316   83.657  158.237
  311.312   10.019    0.468    0.327   77.815  159.830
  311.562    9.850    0.473    0.323   75.937  160.883
  311.812    9.523    0.492    0.299   72.051  162.253
  312.062    9.113    0.512    0.277   69.936  164.169
  312.312    8.406    0.497    0.293   73.366  164.920
  312.562    7.937    0.480    0.304   80.228  165.563
  312.812    7.369    0.498    0.280   85.806  166.666
  313.062    6.820    0.507    0.304   85.460  167.807
  313.312    6.393    0.507    0.311   85.604  169.060
  313.562    6.104    0.506    0.282   87.562  170.024
  313.812    5.774    0.510    0.260   91.555  170.254
  314.062    5.506    0.528    0.243   95.729  170.195
  314.312    5.338    0.517    0.247   97.270  170.315
  314.562    5.149    0.506    0.231   97.164  169.836
  314.812    4.862    0.515    0.217   98.099  170.796
  315.062    4.771    0.509    0.215  100.017  174.362
  315.312    4.744    0.513    0.225  102.222  177.394
  315.562    4.854    0.548    0.263  103.721  179.271
  315.812    5.125    0.552    0.262  106.962  179.815
  316.062    5.436    0.537    0.248  105.147  179.129
  316.312    5.847    0.524    0.247   98.020  177.106
  316.562    6.397    0.516    0.249   92.912  174.315
  316.812    7.128    0.506    0.247   91.832  169.504
  317.062    7.758    0.491    0.250   92.277  165.923
  317.312    8.508    0.511    0.269   92.179  163.891
  317.562    9.258    0.498    0.271   89.807  163.076
  317.812   10.009    0.480    0.297   83.176  162.170
  318.062   10.379    0.517    0.279   76.475  161.504
  318.312   10.492    0.551    0.250   73.502  161.318
  318.562   10.542    0.508    0.319   73.581  160.922
  318.812   10.633    0.476    0.333   74.817  160.749
  319.062   10.704    0.469    0.320   76.671  160.677
  319.312   10.795    0.461    0.296   76.689  160.697
  319.562   10.986    0.443    0.296   76.768  160.641
