~VERSION INFORMATION
 VERS.                 2.0:   CWLS LOG ASCII STANDARD -VERSION 2.0
 WRAP.                  NO:   ONE LINE PER DEPTH STEP
~WELL INFORMATION BLOCK
#MNEM.UNIT           DATA                    DESCRIPTION OF MNEMONIC
#---------    -------------------            -------------------------------
# Generated from Intellog Unique Number	CW_82_90/WELL/199
WELL.         SHELL FINA RUBIN 03-25         : Well_name    - WELL
LOC .         00/03-25-083-02W5/0            : Location     - LOCATION
UWI .         00/03-25-083-02W5/0            : Uwi          - UNIQUE WELL ID
ENTR.         JAYE                           : Entered      - ENTERED BY
SRVC.         SCHLUMBERGER                   : Scn          - SERVICE COMPANY
DATE.         9 JAN 79                       : Date         - LOG DATE
STRT.M        225                            : top_depth    - START DEPTH
STOP.M        485                            : bot_depth    - STOP DEPTH
STEP.M        0.25                           : increment    - STEP LENGTH
 NULL. -999.2500:NULL Value
~CURVE INFORMATION BLOCK
#MNEM UNIT       ERCB CURVE CODE    CURVE DESCRIPTION
#-----------   ------------------   ----------------------------------
DEPT.M        00 001 00 00         : DEPTH        - DEPTH
CALI.MM       00 280 01 00         : CAL          - CALIPER
GR  .API      00 310 00 00         : GR           - GAMMA RAY
NPHI.V/V      00 330 00 00         : PHIN         - NEUTRON POROSITY (SANDSTONE)
DPHI.V/V      00 890 00 00         : PHID         - DENSITY POROSITY (SANDSTONE)
ILD .OHMM     00 120 00 00         : RESD         - DEEP RESISTIVITY (DIL)
~PARAMETER INFORMATION
#MNEM.UNIT           DATA             DESCRIPTION OF MNEMONIC
#---------         -----------     ------------------------------
GL  .M        613.4                : gl           - GROUND LEVEL ELEVATION
EREF.M        618                  : kb           - ELEVATION OF DEPTH REFERENCE
DATM.M        613.4                : datum        - DATUM ELEVATION
TDD .M        413.2                : tdd          - TOTAL DEPTH DRILLER
RUN .         ONE                  : Run          - RUN NUMBER
WIT .         CRAIG                : Witness      - WITNESSED BY
BASE.         EDMONTON             : Branch       - HOME BASE OF LOGGING UNIT
MUD .         GEL                  : Mud_type     - MUD TYPE
MATR.         SANDSTONE            : Logunit      - NEUTRON MATRIX
TMAX.C        0                    : BHT          - MAXIMUM RECORDED TEMPERATURE
BHTD.M        413.2                : BHTDEP       - MAXIMUM RECORDED TEMPERATURE
RMT .C        15                   : MDTP         - TEMPERATURE OF MUD
MUDD.KG/M     1050                 : MWT          - MUD DENSITY
NEUT.         1                    : NEUTRON      - NEUTRON TYPE
RESI.         0                    : RESIST       - RESISTIVITY TYPE
RM  .OHMM     2.26                 : RM           - RESISTIVITY OF MUD
RMC .OHMM     0                    : RMC          - RESISTIVITY OF MUD CAKE
RMF .OHMM     3.6                  : RMF          - RESISTIVITY OF MUD FILTRATE
SUFT.C        0                    : SUFT         - SURFACE TEMPERATURE
~A  DEPTH      CAL       GR     PHIN     PHID     RESD
# ...
  444.000  258.432   69.144    0.312    0.211   10.462
  444.250  258.973   66.212    0.299    0.148   10.391
  444.500  260.022   64.470    0.280    0.174   10.125
  444.750  261.588   64.516    0.304    0.236   10.334
  445.000  262.128   65.730    0.324    0.235   11.231
  445.250  262.685   65.174    0.325    0.219   12.319
  445.500  263.743   61.060    0.310    0.184   12.797
  445.750  263.799   58.725    0.292    0.139   11.498
  446.000  263.856   60.842    0.278    0.169   11.212
  446.250  263.929   63.251    0.268    0.221   11.334
  446.500  263.994   65.364    0.287    0.258   12.210
  446.750  264.075   65.702    0.303    0.256   13.518
  447.000  264.123   64.544    0.309    0.228   14.691
  447.250  264.188   60.435    0.289    0.139   15.970
  447.500  264.261   57.206    0.266    0.057   16.440
  447.750  264.326   52.795    0.247    0.090   14.905
  448.000  264.391   50.164    0.238    0.146   14.667
  448.250  264.956   57.914    0.268    0.216   13.915
  448.500  265.497   58.540    0.291    0.201   12.166
  448.750  266.554   59.471    0.279    0.191   11.332
  449.000  267.103   61.885    0.273    0.186   10.851
  449.250  268.652   62.811    0.282    0.161    9.926
  449.500  269.718   63.437    0.284    0.144    9.415
  449.750  271.251   65.549    0.278    0.145    8.382
  450.000  272.785   68.551    0.294    0.202    7.881
  450.250  275.803   72.749    0.329    0.210    7.755
  450.500  279.814   73.670    0.343    0.221    7.562
  450.750  283.816   71.928    0.342    0.174    7.438
  451.000  288.319   72.262    0.335    0.170    7.382
  451.250  292.822   71.410    0.327    0.173    7.197
  451.500  296.325   69.668    0.324    0.170    7.082
  451.750  299.335   68.222    0.320    0.167    7.029
  452.000  304.830   68.556    0.320    0.202    6.981
  452.250  308.333   69.784    0.324    0.208    6.992
  452.500  312.344   69.524    0.330    0.216    7.004
  452.750  315.370   69.265    0.329    0.218    6.955
  453.000  317.888   68.704    0.332    0.217    6.902
  453.250  320.914   67.856    0.332    0.208    6.316
  453.500  323.440   66.707    0.331    0.146    5.673
  453.750  325.966   66.448    0.337    0.121    5.007
  454.000  327.515   65.892    0.347    0.120    4.580
  454.250  328.557   65.336    0.341    0.146    4.266
  454.500  329.114   66.258    0.337    0.164    4.196
  454.750  329.671   68.676    0.343    0.175    4.167
  455.000  330.728   68.120    0.350    0.139    4.025
  455.250  331.285   67.564    0.352    0.092    3.996
  455.500  331.850   69.084    0.349    0.101    3.897
  455.750  332.407   71.192    0.343    0.126    3.729
  456.000  332.948   73.606    0.348    0.157    3.474
  456.250  333.013   74.231    0.363    0.187    3.238
  456.500  333.570   73.675    0.374    0.143    3.332
  456.750  333.635   76.385    0.364    0.148    3.931
  457.000  332.723   79.688    0.376    0.185    4.554
  457.250  332.304   78.238    0.381    0.204    5.135
  457.500  331.384   78.572    0.361    0.207    5.735
  457.750  330.940   79.202    0.346    0.188    5.957
  458.000  329.536   79.837    0.334    0.162    6.361
  458.250  327.640   79.276    0.329    0.155    7.368
  458.500  326.704   73.976    0.328    0.170    8.305
  458.750  325.301   66.300    0.334    0.204   10.068
  459.000  323.897   49.733    0.322    0.238   12.093
  459.250  322.485   35.830    0.294    0.352   15.764
  459.500  321.565   26.078    0.282    0.377   19.285
  459.750  320.637   19.004    0.275    0.380   22.747
  460.000  319.225   18.147    0.273    0.370   26.359
  460.250  317.814   20.852    0.262    0.334   27.884
  460.500  316.410   26.527    0.233    0.290   28.445
  460.750  314.990   30.419    0.209    0.142   24.198
  461.000  314.570   34.014    0.166    0.124   20.032
  461.250  315.119   37.614    0.144    0.149   16.738
  461.500  317.153   40.912    0.178    0.167   13.856
  461.750  320.671   44.512    0.234    0.212   11.580
  462.000  324.182   46.323    0.266    0.231   10.404
  462.250  328.201   49.330    0.313    0.253    9.608
  462.500  331.219   51.442    0.332    0.266    9.448
  462.750  334.221   49.997    0.322    0.265    9.726
  463.000  337.239   44.099    0.333    0.266   10.477
  463.250  341.742   39.101    0.342    0.269   11.492
  463.500  346.737   34.097    0.342    0.287   13.194
  463.750  349.255   30.572    0.337    0.303   15.563
  464.000  353.775   27.352    0.346    0.300   17.231
  464.250  355.784   25.314    0.356    0.289   18.398
  464.500  358.810   26.240    0.354    0.302   19.108
  464.750  361.336   27.463    0.346    0.308   19.849
  465.000  364.863   28.093    0.334    0.303   19.527
  465.250  367.373   28.723    0.329    0.294   18.029
  465.500  367.930   29.061    0.321    0.286   15.910
  465.750  368.979   29.089    0.341    0.290   14.820
  466.000  370.036   27.950    0.352    0.291   13.807
  466.250  370.593   26.796    0.361    0.307   13.102
  466.500  370.166   26.235    0.369    0.304   12.541
  466.750  368.754   25.383    0.373    0.295   11.790
  467.000  368.819   25.128    0.370    0.313   10.400
  467.250  366.422   26.940    0.363    0.358    7.246
  467.500  359.588   32.323    0.356    0.384    4.135
  467.750  358.176   36.511    0.380    0.403    2.961
  468.000  355.295   40.101    0.396    0.429    2.967
  468.250  352.891   44.294    0.434    0.457    3.195
  468.500  350.002   47.301    0.452    0.472    3.412
  468.750  346.129   49.705    0.455    0.464    3.480
  469.000  341.271   52.707    0.456    0.455    3.455
  469.250  335.930   56.608    0.456    0.450    3.688
  469.500  331.556   58.424    0.453    0.449    4.273
  469.750  325.714   61.421    0.442    0.323    5.226
  470.000  320.856   66.202    0.417    0.246    7.326
  470.250  316.491   72.174    0.385    0.248    9.291
  470.500  314.095   74.287    0.357    0.262    8.735
  470.750  312.207   71.062    0.341    0.268    5.508
  471.000  311.763   66.948    0.366    0.365    3.701
  471.250  311.836   62.538    0.399    0.404    3.037
  471.500  312.385   56.937    0.432    0.439    3.156
  471.750  314.911   51.642    0.453    0.464    3.308
  472.000  317.937   61.166    0.462    0.455    3.468
  472.250  317.009   64.762    0.450    0.251    3.601
  472.500  311.659   67.768    0.430    0.194    3.880
  472.750  316.655   68.097    0.400    0.210    4.105
  473.000  338.870   65.762    0.385    0.275    4.755
  473.250  313.339   58.683    0.399    0.288    7.301
  473.500  302.074   52.786    0.368    0.276    9.009
  473.750  298.201   49.566    0.348    0.304   11.024
  474.000  298.274   51.377    0.336    0.323   12.423
  474.250  298.346   62.093    0.331    0.316    9.918
  474.500  298.411   67.171    0.329    0.284    7.991
  474.750  299.461   69.881    0.324    0.272    7.182
  475.000  302.963   73.481    0.320    0.253    7.000
  475.250  313.365   71.739    0.332    0.252    6.824
  475.500  327.220   71.479    0.352    0.277    6.653
  475.750  311.033   74.185    0.369    0.331    6.486
  476.000  308.161   74.819    0.371    0.306    6.557
  476.250  306.741   74.847    0.349    0.269    6.811
  476.500  309.266   74.588    0.330    0.262    6.521
  476.750  311.792   73.740    0.336    0.245    5.966
  477.000  314.318   70.214    0.335    0.240    5.610
  477.250  317.837   60.467    0.328    0.258    5.620
  477.500  320.355   51.011    0.331    0.277    5.283
  477.750  324.358   42.747    0.347    0.309    4.256
  478.000  333.783   34.185    0.358    0.349    3.020
  478.250  344.185   30.368    0.373    0.385    3.194
  478.500  329.975   29.214    0.400    0.440    3.769
  478.750  334.962   27.482    0.448    0.377    4.287
  479.000  353.740   26.333    0.405    0.381    4.877
  479.250  339.529   24.586    0.365    0.392    5.497
  479.500  325.804   22.840    0.391    0.371    6.973
  479.750  312.578   21.987    0.363    0.238    8.685
  480.000  303.790   22.024    0.324    0.194   11.425
  480.250  300.410   20.880    0.294    0.192   14.894
