~VERSION INFORMATION
 VERS.                 2.0:   CWLS LOG ASCII STANDARD -VERSION 2.0
 WRAP.                  NO:   ONE LINE PER DEPTH STEP
~WELL INFORMATION BLOCK
#MNEM.UNIT           DATA                    DESCRIPTION OF MNEMONIC
#---------    -------------------            -------------------------------
# Generated from Intellog Unique Number	CS_67_68/WELL/2162
WELL.         GLOBAL ATMORE                  : Well_name    - WELL
LOC .         00/03-20-067-16W4/0            : Location     - LOCATION
UWI .         00/03-20-067-16W4/0            : Uwi          - UNIQUE WELL ID
ENTR.         SP                             : Entered      - ENTERED BY
SRVC.         SCHLUMBERGER                   : Scn          - SERVICE COMPANY
STRT.M        370                            : top_depth    - START DEPTH
STOP.M        537                            : bot_depth    - STOP DEPTH
STEP.M        0.25                           : increment    - STEP LENGTH
 NULL. -999.2500:NULL Value
~CURVE INFORMATION BLOCK
#MNEM UNIT       ERCB CURVE CODE    CURVE DESCRIPTION
#-----------   ------------------   ----------------------------------
DEPT.M        00 001 00 00         : DEPTH        - DEPTH
ILD .OHMM     00 120 00 00         : RESD         - DEEP RESISTIVITY (DIL)
DPHI.V/V      00 890 00 00         : PHID         - DENSITY POROSITY (LIMESTONE)
NPHI.V/V      00 330 00 00         : PHIN         - NEUTRON POROSITY (LIMESTONE)
GR  .API      00 310 00 00         : GR           - GAMMA RAY
~PARAMETER INFORMATION
#MNEM.UNIT           DATA             DESCRIPTION OF MNEMONIC
#---------         -----------     ------------------------------
GL  .M        627.39               : gl           - GROUND LEVEL ELEVATION
EREF.M        630.39               : kb           - ELEVATION OF DEPTH REFERENCE
DATM.M        630.39               : datum        - DATUM ELEVATION
TDD .M        546                  : tdd          - TOTAL DEPTH DRILLER
RUN .         ONE                  : Run          - RUN NUMBER
ENG .         BILL                 : Engineer     - RECORDING ENGINEER
WIT .         JIM                  : Witness      - WITNESSED BY
MUD .         GEL                  : Mud_type     - MUD TYPE
MATR.         LIMESTONE            : Logunit      - NEUTRON MATRIX
TMAX.C        23                   : BHT          - MAXIMUM RECORDED TEMPERATURE
BHTD.M        543.8                : BHTDEP       - MAXIMUM RECORDED TEMPERATURE
MATR.         1                    : LOGUNIT      - NEUTRON MATRIX
RMT .C        25                   : MDTP         - TEMPERATURE OF MUD
NEUT.         1                    : NEUTRON      - NEUTRON TYPE
RESI.         0                    : RESIST       - RESISTIVITY TYPE
RMC .OHMM     0.25                 : RMC          - RESISTIVITY OF MUD CAKE
RMF .OHMM     0.25                 : RMF          - RESISTIVITY OF MUD FILTRATE
SUFT.C        15                   : SUFT         - SURFACE TEMPERATURE
~A  DEPTH     RESD     PHID     PHIN       GR
# ...
  413.500    3.309    0.276    0.458   73.211
  413.750    3.506    0.277    0.468   73.153
  414.000    3.631    0.236    0.289   72.915
  414.250    3.523    0.176    0.230   71.465
  414.500    3.088    0.103    0.224   70.863
  414.750    2.785    0.078    0.222   70.443
  415.000    2.520    0.076    0.218   68.751
  415.250    2.333    0.144    0.239   74.874
  415.500    2.285    0.234    0.313   80.572
  415.750    2.461    0.273    0.384   86.331
  416.000    2.642    0.298    0.426   90.515
  416.250    2.809    0.262    0.419   94.093
  416.500    2.937    0.243    0.421   96.824
  416.750    2.997    0.230    0.440   97.555
  417.000    3.030    0.224    0.443   98.891
  417.250    3.023    0.225    0.439   99.562
  417.500    2.943    0.229    0.437   95.992
  417.750    2.834    0.239    0.438   90.604
  418.000    2.708    0.242    0.437   90.184
  418.250    2.622    0.248    0.441   93.580
  418.500    2.568    0.256    0.432   94.917
  418.750    2.505    0.258    0.422   91.468
  419.000    2.403    0.256    0.412   91.775
  419.250    2.305    0.248    0.403   95.111
  419.500    2.236    0.264    0.400   94.266
  419.750    2.198    0.289    0.405   92.332
  420.000    2.197    0.318    0.420   82.643
  420.250    2.241    0.319    0.430   77.740
  420.500    2.253    0.312    0.433   82.651
  420.750    2.215    0.306    0.434   83.806
  421.000    2.132    0.300    0.435   82.053
  421.250    2.049    0.293    0.436   81.088
  421.500    1.984    0.288    0.437   81.091
  421.750    1.954    0.287    0.435   81.278
  422.000    1.942    0.297    0.431   81.948
  422.250    1.952    0.312    0.426   83.466
  422.500    2.033    0.320    0.437   85.894
  422.750    2.211    0.315    0.419   86.079
  423.000    2.400    0.310    0.412   88.264
  423.250    2.591    0.310    0.419   88.571
  423.500    2.802    0.291    0.418   92.634
  423.750    2.935    0.259    0.404   98.029
  424.000    3.029    0.241    0.405  102.395
  424.250    3.056    0.219    0.421  105.974
  424.500    3.009    0.202    0.416  105.008
  424.750    2.838    0.202    0.413  105.134
  425.000    2.896    0.202    0.427  109.318
  425.250    3.062    0.199    0.441  111.927
  425.500    3.232    0.210    0.476  112.234
  425.750    3.515    0.225    0.508  113.631
  426.000    3.794    0.234    0.491  117.088
  426.250    3.975    0.225    0.461  118.364
  426.500    4.148    0.214    0.442  115.460
  426.750    4.240    0.213    0.426  110.921
  427.000    4.318    0.221    0.410  107.290
  427.250    4.350    0.218    0.405  109.717
  427.500    4.412    0.204    0.418  116.567
  427.750    4.453    0.188    0.427  119.479
  428.000    4.493    0.176    0.421  117.665
  428.250    4.433    0.167    0.414  111.732
  428.500    4.341    0.165    0.413  108.889
  428.750    4.102    0.181    0.412  114.952
  429.000    3.549    0.194    0.414  116.894
  429.250    3.212    0.201    0.413  109.446
  429.500    2.806    0.205    0.402  102.241
  429.750    2.464    0.210    0.408   91.158
  430.000    2.260    0.223    0.441   82.317
  430.250    2.069    0.268    0.440   76.930
  430.500    1.904    0.300    0.430   75.601
  430.750    1.847    0.306    0.421   75.302
  431.000    1.864    0.308    0.411   75.306
  431.250    1.949    0.307    0.406   76.037
  431.500    2.096    0.309    0.424   76.223
  431.750    2.313    0.301    0.440   76.832
  432.000    2.502    0.276    0.436   79.684
  432.250    2.705    0.243    0.419   87.745
  432.500    2.926    0.220    0.409   96.109
  432.750    3.117    0.222    0.405  101.263
  433.000    3.223    0.245    0.400  103.145
  433.250    3.006    0.235    0.393  102.664
  433.500    2.695    0.230    0.386   96.852
  433.750    2.371    0.239    0.412   87.769
  434.000    2.175    0.249    0.431   80.019
  434.250    1.968    0.259    0.433   75.782
  434.500    1.846    0.288    0.406   71.364
  434.750    1.778    0.312    0.393   71.912
  435.000    1.764    0.318    0.389   75.006
  435.250    1.776    0.312    0.401   77.070
  435.500    1.785    0.309    0.412   76.832
  435.750    1.805    0.313    0.420   77.442
  436.000    1.821    0.308    0.430   78.536
  436.250    1.848    0.308    0.436   78.540
  436.500    1.892    0.318    0.439   77.514
  436.750    1.938    0.325    0.440   77.942
  437.000    2.065    0.326    0.441   79.279
  437.250    2.250    0.323    0.447   80.374
  437.500    2.484    0.306    0.445   83.527
  437.750    2.804    0.293    0.433   91.770
  438.000    3.238    0.258    0.424  100.741
  438.250    3.535    0.226    0.414  106.803
  438.500    3.724    0.192    0.403  109.715
  438.750    3.828    0.187    0.408  110.022
  439.000    3.721    0.191    0.416  106.391
  439.250    3.637    0.184    0.393  111.121
  439.500    3.608    0.184    0.398  114.699
  439.750    3.681    0.188    0.419  116.641
  440.000    3.785    0.200    0.433  115.979
  440.250    3.927    0.214    0.439  114.892
  440.500    4.008    0.215    0.433  117.743
  440.750    4.067    0.197    0.426  119.625
  441.000    4.065    0.186    0.406  117.569
  441.250    3.827    0.179    0.386  116.544
  441.500    3.386    0.179    0.379  116.124
  441.750    3.230    0.174    0.394  121.701
  442.000    2.940    0.168    0.393  125.340
  442.250    2.617    0.174    0.393  117.650
  442.500    2.329    0.245    0.411  105.356
  442.750    2.310    0.269    0.425   95.546
  443.000    2.353    0.284    0.430   90.703
  443.250    2.428    0.292    0.434   95.978
  443.500    2.572    0.262    0.418  111.309
  443.750    2.710    0.232    0.398  121.248
  444.000    2.828    0.214    0.415  125.614
  444.250    2.907    0.202    0.451  126.709
  444.500    2.939    0.212    0.486  118.050
  444.750    2.966    0.221    0.498  113.570
  445.000    2.942    0.206    0.456  111.333
  445.250    2.801    0.202    0.458  105.097
  445.500    2.608    0.236    0.445   97.589
  445.750    2.450    0.263    0.430   91.838
  446.000    2.342    0.284    0.417   89.539
  446.250    2.263    0.286    0.407   88.271
  446.500    2.266    0.273    0.416   87.427
  446.750    2.300    0.267    0.429   87.734
  447.000    2.307    0.259    0.432   85.194
  447.250    2.289    0.271    0.423   81.927
  447.500    2.297    0.281    0.418   80.537
  447.750    2.262    0.287    0.414   78.481
  448.000    2.223    0.289    0.428   78.303
  448.250    2.256    0.282    0.437   88.666
  448.500    2.302    0.272    0.437  103.150
  448.750    2.335    0.251    0.425  112.301
  449.000    2.326    0.224    0.415  119.272
  449.250    2.256    0.195    0.436  122.366
  449.500    2.054    0.178    0.452  101.711
  449.750    1.848    0.217    0.451   92.568
  450.000    1.727    0.272    0.446   88.573
  450.250    1.779    0.296    0.442   85.548
  450.500    2.116    0.314    0.431   82.766
  450.750    2.417    0.318    0.448   80.528
  451.000    2.744    0.294    0.352   76.291
  451.250    3.035    0.229    0.274   72.479
  451.500    3.276    0.092    0.224   70.423
  451.750    3.148    0.071    0.203   75.396
  452.000    2.724    0.051    0.252   77.883
  452.250    2.366    0.061    0.327   80.492
  452.500    2.190    0.089    0.377   81.828
  452.750    2.081    0.153    0.403   83.892
  453.000    2.246    0.217    0.412   85.956
  453.250    2.452    0.268    0.417   87.777
  453.500    2.564    0.290    0.431   88.266
  453.750    2.671    0.285    0.450   87.906
  454.000    2.756    0.291    0.435   86.275
  454.250    2.812    0.294    0.409   86.400
  454.500    2.853    0.296    0.396   88.281
  454.750    2.836    0.289    0.405   90.346
  455.000    2.788    0.281    0.417   91.803
  455.250    2.781    0.268    0.428   91.141
  455.500    2.780    0.254    0.431   89.994
  455.750    2.779    0.244    0.426   89.089
  456.000    2.747    0.251    0.419   90.486
  456.250    2.710    0.256    0.410   93.095
  456.500    2.694    0.262    0.401   95.159
  456.750    2.707    0.255    0.393   93.709
