~VERSION INFORMATION
 VERS.                 2.0:   CWLS LOG ASCII STANDARD -VERSION 2.0
 WRAP.                  NO:   ONE LINE PER DEPTH STEP
~WELL INFORMATION BLOCK
#MNEM.UNIT           DATA                    DESCRIPTION OF MNEMONIC
#---------    -------------------            -------------------------------
# Generated from Intellog Unique Number	CS_77_79/WELL/865
WELL.         CWWE THORNBURY                 : Well_name    - WELL
LOC .         00/05-31-079-13W4/0            : Location     - LOCATION
UWI .         00/05-31-079-13W4/0            : Uwi          - UNIQUE WELL ID
ENTR.         JHS                            : Entered      - ENTERED BY
SRVC.         SCHLUMBERGER                   : Scn          - SERVICE COMPANY
STRT.M        245                            : top_depth    - START DEPTH
STOP.M        510                            : bot_depth    - STOP DEPTH
STEP.M        0.25                           : increment    - STEP LENGTH
 NULL. -999.2500:NULL Value
~CURVE INFORMATION BLOCK
#MNEM UNIT       ERCB CURVE CODE    CURVE DESCRIPTION
#-----------   ------------------   ----------------------------------
DEPT.M        00 001 00 00         : DEPTH        - DEPTH
DPHI.V/V      00 890 00 00         : PHID         - DENSITY POROSITY (LIMESTONE)
NPHI.V/V      00 330 00 00         : PHIN         - NEUTRON POROSITY (LIMESTONE)
GR  .API      00 310 00 00         : GR           - GAMMA RAY
ILD .OHMM     00 120 00 00         : RESD         - DEEP RESISTIVITY (DIL)
RHOB.KG/M3    00 350 00 00         : DENS         - BULK DENSITY
~PARAMETER INFORMATION
#MNEM.UNIT           DATA             DESCRIPTION OF MNEMONIC
#---------         -----------     ------------------------------
GL  .M        694.2                : gl           - GROUND LEVEL ELEVATION
EREF.M        698                  : kb           - ELEVATION OF DEPTH REFERENCE
DATM.M        698                  : datum        - DATUM ELEVATION
TDD .M        510                  : tdd          - TOTAL DEPTH DRILLER
RUN .         ONE                  : Run          - RUN NUMBER
ENG .         BILL                 : Engineer     - RECORDING ENGINEER
WIT .         JIM                  : Witness      - WITNESSED BY
MUD .         GEL                  : Mud_type     - MUD TYPE
MATR.         LIMESTONE            : Logunit      - NEUTRON MATRIX
TMAX.C        22                   : BHT          - MAXIMUM RECORDED TEMPERATURE
BHTD.M        510                  : BHTDEP       - MAXIMUM RECORDED TEMPERATURE
MATR.         1                    : LOGUNIT      - NEUTRON MATRIX
RMT .C        25                   : MDTP         - TEMPERATURE OF MUD
NEUT.         1                    : NEUTRON      - NEUTRON TYPE
RESI.         0                    : RESIST       - RESISTIVITY TYPE
RMC .OHMM     0.25                 : RMC          - RESISTIVITY OF MUD CAKE
RMF .OHMM     0.25                 : RMF          - RESISTIVITY OF MUD FILTRATE
SUFT.C        15                   : SUFT         - SURFACE TEMPERATURE
~A  DEPTH     PHID     PHIN       GR     RESD     DENS
# ...
  391.000    0.248    0.509  106.416    4.639    0.000
  391.250    0.251    0.532  108.866    4.731    0.000
  391.500    0.208    0.524  103.994    5.010    0.000
  391.750    0.197    0.486   93.634    5.614    0.000
  392.000    0.198    0.447   87.544    6.172    0.000
  392.250    0.261    0.426   88.774    6.659    0.000
  392.500    0.332    0.408   82.074    7.185    0.000
  392.750    0.343    0.403   74.153    7.609    0.000
  393.000    0.322    0.418   69.282    7.761    0.000
  393.250    0.291    0.419   66.851    7.913    0.000
  393.500    0.305    0.415   71.127    7.772    0.000
  393.750    0.308    0.408   76.626    7.491    0.000
  394.000    0.311    0.410   77.853    7.355    0.000
  394.250    0.316    0.430   78.471    7.501    0.000
  394.500    0.283    0.456   77.870    7.794    0.000
  394.750    0.240    0.415   75.436    9.068    0.000
  395.000    0.139    0.356   70.567   10.749    0.000
  395.250    0.029    0.224   66.306   14.267    0.000
  395.500    0.009    0.183   60.825   17.562    0.000
  395.750    0.000    0.182   52.906   20.433    0.000
  396.000    0.014    0.215   53.524   21.633    0.000
  396.250    0.064    0.307   60.847   19.708    0.000
  396.500    0.221    0.408   77.321   16.337    0.000
  396.750    0.238    0.431   80.986   10.408    0.000
  397.000    0.253    0.426   82.823    8.155    0.000
  397.250    0.268    0.417   90.760    7.155    0.000
  397.500    0.262    0.408   95.036    6.768    0.000
  397.750    0.255    0.398   95.044    6.645    0.000
  398.000    0.252    0.405   92.001    6.527    0.000
  398.250    0.246    0.442   92.011    6.291    0.000
  398.500    0.255    0.465   93.240    6.177    0.000
  398.750    0.269    0.454   92.635    6.066    0.000
  399.000    0.286    0.443   93.862    6.187    0.000
  399.250    0.279    0.443   91.431    6.310    0.000
  399.500    0.249    0.441   87.170    6.683    0.000
  399.750    0.221    0.427   82.299    6.686    0.000
  400.000    0.274    0.454   82.031    6.636    0.000
  400.250    0.265    0.449   82.624    6.388    0.000
  400.500    0.263    0.448   88.116    5.920    0.000
  400.750    0.266    0.459   89.938    5.487    0.000
  401.000    0.269    0.475   89.922    4.991    0.000
  401.250    0.269    0.490   92.963    4.539    0.000
  401.500    0.260    0.496   94.175    4.207    0.000
  401.750    0.255    0.481   99.664    4.127    0.000
  402.000    0.255    0.487  100.874    4.204    0.000
  402.250    0.258    0.481   95.961    4.365    0.000
  402.500    0.263    0.464   89.208    4.533    0.000
  402.750    0.274    0.460   89.192    4.981    0.000
  403.000    0.274    0.448   86.726    5.173    0.000
  403.250    0.231    0.426   82.425    5.793    0.000
  403.500    0.232    0.400   80.573    6.488    0.000
  403.750    0.280    0.404   89.738    6.865    0.000
  404.000    0.289    0.446   97.066    7.128    0.000
  404.250    0.264    0.441   98.883    6.992    0.000
  404.500    0.237    0.413   97.645    6.731    0.000
  404.750    0.234    0.409  100.077    6.239    0.000
  405.000    0.228    0.424  104.344    5.674    0.000
  405.250    0.230    0.447  107.392    5.462    0.000
  405.500    0.236    0.453  106.149    5.258    0.000
  405.750    0.240    0.462   98.177    5.158    0.000
  406.000    0.231    0.472   93.875    4.965    0.000
  406.250    0.227    0.476  101.814    4.963    0.000
  406.500    0.230    0.481  105.472    5.057    0.000
  406.750    0.244    0.466  104.233    5.152    0.000
  407.000    0.259    0.446   98.093    5.452    0.000
  407.250    0.248    0.429   93.790    5.769    0.000
  407.500    0.232    0.412   96.225    6.221    0.000
  407.750    0.234    0.411   99.879    7.100    0.000
  408.000    0.246    0.416   99.252    7.513    0.000
  408.250    0.194    0.418   94.947    8.257    0.000
  408.500    0.158    0.396   91.258    8.737    0.000
  408.750    0.162    0.381   94.303    8.901    0.000
  409.000    0.224    0.388   99.184    8.899    0.000
  409.250    0.240    0.402  100.392    8.730    0.000
  409.500    0.240    0.420   99.150    8.092    0.000
  409.750    0.236    0.433   97.907    7.500    0.000
  410.000    0.238    0.443   98.506    6.952    0.000
  410.250    0.243    0.429  101.549    6.204    0.000
  410.500    0.242    0.434  103.368    5.971    0.000
  410.750    0.233    0.437  101.519    5.970    0.000
  411.000    0.236    0.436   94.768    6.198    0.000
  411.250    0.259    0.442   89.240    6.316    0.000
  411.500    0.242    0.420   81.266    6.683    0.000
  411.750    0.206    0.401   75.126    7.207    0.000
  412.000    0.210    0.415   79.395    7.482    0.000
  412.250    0.252    0.416   84.277    7.481    0.000
  412.500    0.286    0.409   87.314    7.338    0.000
  412.750    0.316    0.403   86.079    7.336    0.000
  413.000    0.323    0.404   80.550    7.197    0.000
  413.250    0.332    0.429   76.253    7.195    0.000
  413.500    0.322    0.443   76.844    7.059    0.000
  413.750    0.306    0.425   80.504    6.925    0.000
  414.000    0.294    0.418   85.382    6.666    0.000
  414.250    0.270    0.442   90.876    6.416    0.000
  414.500    0.247    0.469   91.472    6.294    0.000
  414.750    0.235    0.500   86.557    6.175    0.000
  415.000    0.275    0.464   81.033    6.291    0.000
  415.250    0.301    0.444   77.955    6.289    0.000
  415.500    0.317    0.440   77.327    6.288    0.000
  415.750    0.325    0.439   77.310    6.287    0.000
  416.000    0.331    0.445   77.291    6.404    0.000
  416.250    0.327    0.447   74.217    6.403    0.000
  416.500    0.300    0.466   67.464    6.524    0.000
  416.750    0.243    0.467   61.938    7.035    0.000
  417.000    0.184    0.341   58.251    7.587    0.000
  417.250    0.272    0.326   64.965    8.337    0.000
  417.500    0.313    0.365   69.236    8.657    0.000
  417.750    0.331    0.410   72.273    8.492    0.000
  418.000    0.318    0.457   72.873    8.021    0.000
  418.250    0.320    0.451   72.859    7.577    0.000
  418.500    0.308    0.448   74.065    7.022    0.000
  418.750    0.283    0.448   72.822    6.759    0.000
  419.000    0.276    0.444   72.196    6.758    0.000
  419.250    0.288    0.450   73.405    6.630    0.000
  419.500    0.307    0.453   80.120    6.754    0.000
  419.750    0.310    0.443   86.228    6.753    0.000
  420.000    0.320    0.423   85.594    6.751    0.000
  420.250    0.309    0.433   81.908    6.878    0.000
  420.500    0.266    0.441   76.380    7.417    0.000
  420.750    0.195    0.457   69.630    8.466    0.000
  421.000    0.008    0.392   63.492   10.622    0.000
  421.250    0.026    0.174   57.965   15.801    0.000
  421.500    0.024    0.187   53.665   18.380    0.000
  421.750    0.016    0.200   48.140   20.197    0.000
  422.000    0.054    0.187   46.286   19.813    0.000
  422.250    0.179    0.205   65.248   18.021    0.000
  422.500    0.268    0.275   75.636   14.630    0.000
  422.750    0.291    0.394   75.004   11.222    0.000
  423.000    0.291    0.422   71.319    7.981    0.000
  423.250    0.291    0.418   68.854    6.857    0.000
  423.500    0.299    0.415   70.061    6.477    0.000
  423.750    0.306    0.443   76.165    6.235    0.000
  424.000    0.288    0.443   80.433    6.116    0.000
  424.250    0.277    0.447   79.807    6.115    0.000
  424.500    0.266    0.456   73.664    6.230    0.000
  424.750    0.255    0.447   73.037    6.229    0.000
  425.000    0.266    0.458   75.469    6.346    0.000
  425.250    0.293    0.483   77.899    6.344    0.000
  425.500    0.295    0.450   76.661    6.343    0.000
  425.750    0.294    0.419   75.421    6.222    0.000
  426.000    0.298    0.411   79.079    6.221    0.000
  426.250    0.300    0.444   82.119    6.102    0.000
  426.500    0.294    0.456   79.042    6.101    0.000
  426.750    0.282    0.467   74.741    5.985    0.000
  427.000    0.268    0.474   71.049    6.097    0.000
  427.250    0.263    0.468   66.747    6.212    0.000
