~VERSION INFORMATION
 VERS.                 2.0:   CWLS LOG ASCII STANDARD -VERSION 2.0
 WRAP.                  NO:   ONE LINE PER DEPTH STEP
~WELL INFORMATION BLOCK
#MNEM.UNIT           DATA                    DESCRIPTION OF MNEMONIC
#---------    -------------------            -------------------------------
# Generated from Intellog Unique Number	CX_WELLS/WELL/2736
WELL.         THORNBURY                      : Well_name    - WELL
LOC .         00/07-26-080-12W4/0            : Location     - LOCATION
UWI .         00/07-26-080-12W4/0            : Uwi          - UNIQUE WELL ID
ENTR.         TIM                            : Entered      - ENTERED BY
SRVC.         SCHLUMBERGER                   : Scn          - SERVICE COMPANY
STRT.M        270                            : top_depth    - START DEPTH
STOP.M        500                            : bot_depth    - STOP DEPTH
STEP.M        0.25                           : increment    - STEP LENGTH
 NULL. -999.2500:NULL Value
~CURVE INFORMATION BLOCK
#MNEM UNIT       ERCB CURVE CODE    CURVE DESCRIPTION
#-----------   ------------------   ----------------------------------
DEPT.M        00 001 00 00         : DEPTH        - DEPTH
GR  .API      00 310 00 00         : GR           - GAMMA RAY
NPHI.V/V      00 330 00 00         : PHIN         - NEUTRON POROSITY (SANDSTONE)
DPHI.V/V      00 890 00 00         : PHID         - DENSITY POROSITY (SANDSTONE)
ILD .OHMM     00 120 00 00         : RESD         - DEEP RESISTIVITY (DLL)
~PARAMETER INFORMATION
#MNEM.UNIT           DATA             DESCRIPTION OF MNEMONIC
#---------         -----------     ------------------------------
GL  .M        698.9                : gl           - GROUND LEVEL ELEVATION
EREF.M        702.6                : kb           - ELEVATION OF DEPTH REFERENCE
DATM.M        702.6                : datum        - DATUM ELEVATION
TDD .M        513                  : tdd          - TOTAL DEPTH DRILLER
RUN .         ONE                  : Run          - RUN NUMBER
ENG .         BILL                 : Engineer     - RECORDING ENGINEER
WIT .         JIM                  : Witness      - WITNESSED BY
MUD .         GEL                  : Mud_type     - MUD TYPE
MATR.         SANDSTONE            : Logunit      - NEUTRON MATRIX
TMAX.C        26                   : BHT          - MAXIMUM RECORDED TEMPERATURE
BHTD.M        513                  : BHTDEP       - MAXIMUM RECORDED TEMPERATURE
MATR.         1                    : LOGUNIT      - NEUTRON MATRIX
RMT .C        14.4                 : MDTP         - TEMPERATURE OF MUD
NEUT.         1                    : NEUTRON      - NEUTRON TYPE
RESI.         3                    : RESIST       - RESISTIVITY TYPE
RMC .OHMM     2.6                  : RMC          - RESISTIVITY OF MUD CAKE
RMF .OHMM     3.2                  : RMF          - RESISTIVITY OF MUD FILTRATE
SUFT.C        4                    : SUFT         - SURFACE TEMPERATURE
~A  DEPTH       GR     PHIN     PHID     RESD
  270.000  101.957    0.510    0.213    3.804
  270.250  102.613    0.511    0.226    3.887
  270.500  103.840    0.505    0.241    3.966
  270.750  106.239    0.495    0.251    4.046
  271.000  108.623    0.496    0.254    4.056
  271.250  109.265    0.502    0.256    4.062
  271.500  108.164    0.506    0.256    4.073
  271.750  105.892    0.510    0.257    4.079
  272.000  104.191    0.507    0.258    4.166
  272.250  103.634    0.500    0.259    4.172
  272.500  102.519    0.492    0.259    4.261
  272.750  101.404    0.490    0.259    4.267
  273.000  102.046    0.492    0.256    4.441
  273.250  101.531    0.495    0.253    4.531
  273.500  100.430    0.497    0.248    4.623
  273.750   99.886    0.502    0.243    4.902
  274.000   97.029    0.503    0.239    5.092
  274.250   95.886    0.509    0.238    5.601
  274.500   92.443    0.512    0.235    6.276
  274.750   88.972    0.515    0.230    6.769
  275.000   84.343    0.518    0.227    7.304
  275.250   80.287    0.516    0.223    8.333
  275.500   76.244    0.509    0.226    9.337
  275.750   71.044    0.476    0.242   11.472
  276.000   67.573    0.356    0.261   13.582
  276.250   62.373    0.298    0.336   16.687
  276.500   58.316    0.290    0.362   20.136
  276.750   56.044    0.298    0.364   21.330
  277.000   57.857    0.358    0.356   20.595
  277.250   60.242    0.391    0.318   17.145
  277.500   62.054    0.407    0.288   14.532
  277.750   66.210    0.414    0.271   13.528
  278.000   68.022    0.423    0.273   13.548
  278.250   66.336    0.447    0.292   13.589
  278.500   66.978    0.471    0.301   13.857
  278.750   69.962    0.466    0.303   14.145
  279.000   72.360    0.454    0.299   13.657
  279.250   74.759    0.443    0.297   12.944
  279.500   78.914    0.434    0.293   12.044
  279.750   83.654    0.427    0.289   11.629
  280.000   88.395    0.423    0.284   11.444
  280.250   94.321    0.417    0.282   11.473
  280.500   97.890    0.414    0.281   11.484
  280.750   97.361    0.409    0.276   12.171
  281.000   96.846    0.402    0.269   12.656
  281.250   96.302    0.398    0.263   12.919
  281.500   96.944    0.407    0.260   12.945
  281.750   97.586    0.432    0.251   12.745
  282.000   96.471    0.458    0.249   12.765
  282.250   94.185    0.492    0.258   12.556
  282.500   89.557    0.535    0.331   13.056
  282.750   80.244    0.564    0.396   13.334
  283.000   72.088    0.597    0.526   13.347
  283.250   68.046    0.597    0.540   13.631
  283.500   69.887    0.574    0.501   13.907
  283.750   69.915    0.413    0.414   14.476
  284.000   66.472    0.375    0.271   15.045
  284.250   61.829    0.385    0.288   15.349
  284.500   53.102    0.400    0.304   15.668
  284.750   47.289    0.388    0.317   16.597
  285.000   42.075    0.364    0.317   18.255
  285.250   35.690    0.358    0.317   18.982
  285.500   35.746    0.360    0.317   19.376
  285.750   43.415    0.366    0.315   19.059
  286.000   50.512    0.372    0.317   17.732
  286.250   56.423    0.379    0.319   15.327
  286.500   61.764    0.387    0.319   14.784
  286.750   73.545    0.387    0.309   13.502
  287.000   75.344    0.385    0.303   13.037
  287.250   78.913    0.385    0.291   12.823
  287.500   83.069    0.386    0.280   12.619
  287.750   85.467    0.390    0.253   12.638
  288.000   87.308    0.396    0.235   12.209
  288.250   88.521    0.402    0.235   12.009
  288.500   92.119    0.411    0.256   12.033
  288.750   93.904    0.412    0.253   12.289
  289.000   99.230    0.412    0.249   12.538
  289.250  102.228    0.411    0.255   13.288
  289.500   99.356    0.411    0.264   14.076
  289.750   94.128    0.414    0.280   14.911
  290.000   77.789    0.413    0.291   15.795
  290.250   73.746    0.413    0.304   16.115
  290.500   75.559    0.414    0.320   16.450
  290.750   77.958    0.416    0.337   16.799
  291.000   78.585    0.415    0.348   17.140
  291.250   79.841    0.415    0.342   17.513
  291.500   80.483    0.415    0.330   17.530
  291.750   80.539    0.415    0.319   17.912
  292.000   81.195    0.417    0.316   17.930
  292.250   82.394    0.423    0.321   17.975
  292.500   85.991    0.435    0.328   18.002
  292.750   87.776    0.431    0.333   17.716
  293.000   90.189    0.430    0.334   17.743
  293.250   90.844    0.425    0.335   17.470
  293.500   91.472    0.420    0.331   17.505
  293.750   92.685    0.414    0.325   17.226
  294.000   96.269    0.404    0.322   17.244
  294.250   99.281    0.404    0.305   16.986
  294.500  100.480    0.407    0.293   17.012
  294.750  102.307    0.409    0.292   17.029
  295.000  103.535    0.412    0.285   17.072
  295.250  104.162    0.422    0.283   17.098
  295.500  105.390    0.446    0.275   16.826
  295.750  106.031    0.443    0.270   16.246
  296.000  105.502    0.430    0.256   15.108
  296.250  103.216    0.415    0.244   13.045
  296.500   99.173    0.404    0.235   11.914
  296.750   97.473    0.398    0.220   10.496
  297.000   98.129    0.405    0.210    9.943
  297.250  100.541    0.416    0.197    9.429
  297.500  102.326    0.438    0.164    9.100
  297.750  105.895    0.442    0.146    8.782
  298.000  111.821    0.423    0.128    8.179
  298.250  115.976    0.418    0.134    8.037
  298.500  118.375    0.413    0.146    7.905
  298.750  120.773    0.421    0.166    7.362
  299.000  122.586    0.447    0.186    7.238
  299.250  123.228    0.471    0.168    6.737
  299.500  121.527    0.476    0.146    6.499
  299.750  121.012    0.478    0.144    6.052
  300.000  121.054    0.479    0.153    5.631
  300.250  122.310    0.482    0.177    5.434
  300.500  122.937    0.484    0.200    5.250
  300.750  124.165    0.488    0.195    5.159
  301.000  124.806    0.495    0.189    4.981
  301.250  126.062    0.502    0.185    4.902
  301.500  126.689    0.506    0.197    4.819
  301.750  127.331    0.514    0.216    4.831
  302.000  127.387    0.521    0.231    5.117
  302.250  124.516    0.525    0.249    5.623
  302.500  119.874    0.497    0.261    7.579
  302.750  115.231    0.456    0.273    9.491
  303.000  111.189    0.435    0.287   11.031
  303.250  105.989    0.413    0.287   12.366
  303.500  105.459    0.401    0.264   12.845
  303.750  105.516    0.394    0.259   13.607
  304.000  103.216    0.390    0.270   13.890
  304.250   99.173    0.386    0.273   13.662
  304.500   95.130    0.391    0.249   12.949
  304.750   99.285    0.399    0.243   11.396
  305.000  105.197    0.411    0.224    9.487
  305.250  114.051    0.422    0.204    8.992
  305.500  119.962    0.429    0.181    9.010
  305.750  125.303    0.441    0.181    9.369
  306.000  127.687    0.446    0.207    9.925
  306.250  125.401    0.440    0.227   10.320
  306.500  123.115    0.430    0.241   10.943
  306.750  121.415    0.420    0.269   11.165
  307.000  119.129    0.414    0.275   11.396
  307.250  115.086    0.413    0.287   11.857
  307.500  110.458    0.410    0.300   12.323
  307.750  104.658    0.407    0.310   12.579
  308.000   97.688    0.405    0.313   12.840
  308.250   93.631    0.402    0.305   13.358
  308.500   99.557    0.404    0.291   13.636
  308.750  104.883    0.402    0.272   13.918
  309.000  104.354    0.407    0.255   13.690
  309.250  100.325    0.409    0.253   13.466
  309.500   96.868    0.409    0.250   13.245
  309.750   92.240    0.404    0.245   13.028
  310.000   89.926    0.399    0.243   12.808
  310.250   88.811    0.398    0.240   12.367
  310.500   90.038    0.398    0.238   11.947
  310.750   92.465    0.398    0.236   11.529
  311.000   95.448    0.398    0.234   11.132
  311.250   99.004    0.397    0.234   10.748
  311.500  103.759    0.397    0.238   10.572
  311.750  100.887    0.398    0.244   10.993
  312.000   96.245    0.398    0.254   12.548
  312.250   89.288    0.399    0.255   13.286
  312.500   85.232    0.402    0.249   13.312
  312.750   87.059    0.407    0.243   13.346
  313.000   88.857    0.412    0.247   13.373
  313.250   94.212    0.421    0.252   13.399
