~VERSION INFORMATION
 VERS.                 2.0:   CWLS LOG ASCII STANDARD -VERSION 2.0
 WRAP.                  NO:   ONE LINE PER DEPTH STEP
~WELL INFORMATION BLOCK
#MNEM.UNIT           DATA                    DESCRIPTION OF MNEMONIC
#---------    -------------------            -------------------------------
# Generated from Intellog Unique Number	CS_67_68/WELL/737
WELL.         BRASCAN RESOURCES              : Well_name    - WELL
LOC .         00/06-31-068-18W4/0            : Location     - LOCATION
UWI .         00/06-31-068-18W4/0            : Uwi          - UNIQUE WELL ID
ENTR.         SP                             : Entered      - ENTERED BY
SRVC.         SCHLUMBERGER                   : Scn          - SERVICE COMPANY
STRT.M        274.32                         : top_depth    - START DEPTH
STOP.M        517.82                         : bot_depth    - STOP DEPTH
STEP.M        0.25                           : increment    - STEP LENGTH
 NULL. -999.2500:NULL Value
~CURVE INFORMATION BLOCK
#MNEM UNIT       ERCB CURVE CODE    CURVE DESCRIPTION
#-----------   ------------------   ----------------------------------
DEPT.M        00 001 00 00         : DEPTH        - DEPTH
GR  .API      00 310 00 00         : GR           - GAMMA RAY
DPHI.V/V      00 890 00 00         : PHID         - DENSITY POROSITY (SANDSTONE)
NPHI.V/V      00 330 00 00         : PHIN         - NEUTRON POROSITY (SANDSTONE)
ILD .OHMM     00 120 00 00         : RESD         - DEEP RESISTIVITY (DIL)
~PARAMETER INFORMATION
#MNEM.UNIT           DATA             DESCRIPTION OF MNEMONIC
#---------         -----------     ------------------------------
GL  .M        551.993              : gl           - GROUND LEVEL ELEVATION
EREF.M        554.431              : kb           - ELEVATION OF DEPTH REFERENCE
DATM.M        551.993              : datum        - DATUM ELEVATION
TDD .M        525.78               : tdd          - TOTAL DEPTH DRILLER
RUN .         ONE                  : Run          - RUN NUMBER
ENG .         BILL                 : Engineer     - RECORDING ENGINEER
WIT .         JIM                  : Witness      - WITNESSED BY
MUD .         GEL                  : Mud_type     - MUD TYPE
MATR.         SANDSTONE            : Logunit      - NEUTRON MATRIX
TMAX.C        15                   : BHT          - MAXIMUM RECORDED TEMPERATURE
BHTD.M        526.085              : BHTDEP       - MAXIMUM RECORDED TEMPERATURE
MATR.         1                    : LOGUNIT      - NEUTRON MATRIX
RMT .C        25                   : MDTP         - TEMPERATURE OF MUD
NEUT.         1                    : NEUTRON      - NEUTRON TYPE
RESI.         0                    : RESIST       - RESISTIVITY TYPE
RMC .OHMM     0.25                 : RMC          - RESISTIVITY OF MUD CAKE
RMF .OHMM     0.25                 : RMF          - RESISTIVITY OF MUD FILTRATE
SUFT.C        15                   : SUFT         - SURFACE TEMPERATURE
~A  DEPTH       GR     PHID     PHIN     RESD
# ...
  317.820  101.899    0.188    0.513    3.208
  318.070   98.787    0.166    0.501    3.088
  318.320   99.027    0.124    0.506    2.967
  318.570  105.247    0.098    0.529    2.834
  318.820  105.696    0.167    0.540    2.723
  319.070  104.130    0.204    0.528    2.690
  319.320  103.861    0.197    0.534    2.764
  319.570  105.194    0.186    0.557    2.798
  319.820  107.389    0.175    0.575    2.882
  320.070  110.177    0.199    0.563    2.940
  320.320  112.273    0.186    0.574    2.971
  320.570  111.737    0.192    0.559    2.974
  320.820  109.933    0.177    0.535    2.942
  321.070  108.387    0.176    0.547    2.870
  321.320  109.624    0.192    0.557    2.782
  321.570  108.142    0.201    0.546    2.723
  321.820  105.145    0.198    0.517    2.702
  322.070  101.169    0.194    0.503    2.723
  322.320   99.337    0.187    0.519    2.796
  322.570   98.842    0.192    0.536    2.991
  322.820   99.089    0.196    0.560    3.274
  323.070   95.197    0.159    0.561    3.606
  323.320   90.936    0.186    0.486    3.911
  323.570   88.265    0.202    0.453    4.185
  323.820   86.938    0.220    0.427    4.444
  324.070   87.204    0.215    0.440    4.585
  324.320   89.278    0.221    0.454    4.601
  324.570   90.944    0.221    0.448    4.528
  324.820   92.736    0.221    0.435    4.409
  325.070   94.967    0.224    0.426    4.288
  325.320   97.051    0.221    0.442    4.118
  325.570   98.945    0.218    0.448    3.993
  325.820   99.988    0.223    0.445    3.909
  326.070  101.404    0.219    0.444    3.874
  326.320  101.921    0.211    0.446    3.915
  326.570   96.318    0.218    0.462    4.033
  326.820   86.928    0.235    0.486    4.140
  327.070   76.936    0.276    0.448    4.352
  327.320   78.755    0.264    0.400    4.552
  327.570   88.543    0.267    0.399    4.743
  327.820   98.987    0.234    0.413    4.886
  328.070  101.275    0.209    0.421    4.940
  328.320   98.624    0.207    0.431    4.877
  328.570   94.746    0.202    0.441    4.798
  328.820   88.463    0.210    0.442    4.658
  329.070   83.265    0.225    0.429    4.436
  329.320   79.061    0.216    0.435    4.249
  329.570   74.954    0.235    0.443    4.022
  329.820   72.166    0.264    0.445    3.870
  330.070   70.990    0.283    0.436    3.573
  330.320   68.360    0.293    0.426    3.304
  330.570   64.293    0.286    0.424    2.994
  330.820   58.557    0.274    0.422    2.727
  331.070   53.962    0.293    0.416    2.495
  331.320   51.355    0.310    0.413    2.427
  331.570   50.551    0.301    0.415    2.559
  331.820   50.070    0.311    0.422    2.777
  332.070   49.967    0.301    0.431    3.059
  332.320   50.973    0.300    0.438    3.360
  332.570   54.521    0.321    0.457    3.659
  332.820   57.547    0.331    0.478    3.939
  333.070   60.751    0.357    0.529    4.070
  333.320   66.049    0.392    0.582    4.171
  333.570   74.477    0.444    0.574    4.189
  333.820   79.604    0.319    0.488    4.117
  334.070   80.138    0.242    0.489    4.000
  334.320   79.494    0.197    0.490    3.851
  334.570   77.975    0.253    0.482    3.758
  334.820   76.153    0.261    0.477    3.737
  335.070   74.780    0.252    0.479    3.737
  335.320   72.173    0.252    0.497    3.769
  335.570   70.626    0.268    0.530    3.817
  335.820   69.628    0.283    0.559    3.862
  336.070   69.385    0.298    0.532    3.912
  336.320   73.477    0.290    0.505    3.868
  336.570   75.042    0.281    0.503    3.644
  336.820   75.509    0.270    0.510    3.450
  337.070   74.116    0.265    0.500    3.221
  337.320   75.894    0.272    0.484    3.052
  337.570   77.690    0.258    0.471    2.981
  337.820   79.093    0.256    0.467    3.018
  338.070   79.121    0.259    0.467    3.086
  338.320   78.518    0.256    0.470    3.168
  338.570   77.436    0.277    0.472    3.257
  338.820   76.918    0.265    0.474    3.294
  339.070   76.009    0.253    0.470    3.272
  339.320   75.457    0.249    0.466    3.203
  339.570   75.207    0.254    0.468    3.114
  339.820   75.706    0.271    0.482    3.071
  340.070   77.464    0.263    0.491    3.107
  340.320   79.822    0.253    0.493    3.309
  340.570   81.664    0.256    0.480    3.543
  340.820   83.739    0.247    0.474    3.775
  341.070   84.511    0.233    0.465    3.971
  341.320   84.397    0.179    0.450    4.118
  341.570   83.262    0.113    0.404    4.129
  341.820   76.638    0.083    0.309    3.988
  342.070   73.178    0.132    0.337    3.689
  342.320   77.375    0.220    0.409    3.319
  342.570   79.521    0.276    0.464    3.223
  342.820   79.957    0.274    0.465    3.476
  343.070   83.581    0.253    0.455    3.741
  343.320   89.102    0.238    0.459    4.004
  343.570   93.317    0.215    0.478    4.133
  343.820   96.195    0.192    0.472    4.169
  344.070   99.369    0.103    0.480    4.125
  344.320  103.248    0.082    0.485    4.001
  344.570  108.901    0.162    0.496    4.000
  344.820  116.581    0.182    0.512    4.235
  345.070  124.073    0.183    0.504    4.479
  345.320  120.022    0.209    0.471    4.753
  345.570  111.271    0.210    0.461    5.023
  345.820  105.148    0.197    0.448    5.206
  346.070  101.719    0.191    0.424    5.362
  346.320   99.605    0.183    0.409    5.437
  346.570  101.229    0.189    0.432    5.456
  346.820  102.289    0.190    0.454    5.425
  347.070  101.612    0.186    0.460    5.366
  347.320   98.199    0.189    0.449    5.243
  347.570   93.051    0.195    0.443    5.111
  347.820   89.487    0.205    0.450    5.020
  348.070   90.904    0.203    0.459    5.108
  348.320   94.482    0.182    0.467    5.291
  348.570   93.057    0.163    0.472    5.246
  348.820   97.003    0.137    0.468    5.001
  349.070  105.151    0.143    0.456    4.716
  349.320  109.524    0.190    0.444    4.528
  349.570  111.083    0.194    0.451    4.455
  349.820  110.491    0.186    0.473    4.588
  350.070  112.852    0.194    0.467    4.701
  350.320  116.440    0.211    0.454    4.777
  350.570  119.421    0.209    0.465    4.851
  350.820  118.262    0.199    0.482    4.961
  351.070  114.152    0.188    0.500    5.075
  351.320  111.026    0.200    0.496    5.173
  351.570  109.370    0.239    0.468    5.185
  351.820  112.775    0.214    0.441    5.150
  352.070  115.783    0.193    0.430    4.877
  352.320  119.444    0.178    0.433    4.159
  352.570  122.557    0.167    0.458    3.788
  352.820  124.407    0.171    0.479    3.510
  353.070  125.525    0.168    0.510    3.273
  353.320  125.091    0.172    0.530    3.251
  353.570  121.127    0.207    0.530    3.384
  353.820  110.906    0.217    0.513    3.484
  354.070  105.231    0.211    0.524    3.610
  354.320   98.097    0.233    0.515    3.763
  354.570   90.842    0.240    0.506    3.896
  354.820   85.898    0.235    0.507    4.023
  355.070   85.715    0.221    0.500    4.296
  355.320   86.606    0.226    0.495    4.435
  355.570   88.099    0.238    0.499    4.532
  355.820   88.468    0.241    0.497    4.672
  356.070   87.560    0.243    0.505    4.735
  356.320   84.067    0.247    0.495    4.773
  356.570   80.810    0.256    0.462    4.727
  356.820   82.658    0.266    0.449    4.463
  357.070   83.083    0.278    0.461    4.161
  357.320   81.597    0.293    0.482    3.941
  357.570   80.712    0.279    0.501    3.749
  357.820   82.889    0.274    0.514    3.657
  358.070   85.371    0.265    0.511    3.853
  358.320   86.841    0.271    0.525    4.217
  358.570   86.079    0.275    0.527    4.418
  358.820   81.775    0.275    0.509    4.767
  359.070   77.979    0.275    0.486    5.168
  359.320   75.642    0.275    0.475    5.527
  359.570   74.469    0.290    0.471    6.009
  359.820   75.731    0.300    0.473    6.471
  360.070   76.626    0.296    0.479    7.019
  360.320   76.635    0.295    0.482    7.551
  360.570   74.728    0.294    0.475    8.036
  360.820   73.526    0.288    0.465    8.371
  361.070   72.370    0.300    0.457    8.051
