~VERSION INFORMATION
 VERS.                 2.0:   CWLS LOG ASCII STANDARD -VERSION 2.0
 WRAP.                  NO:   ONE LINE PER DEPTH STEP
~WELL INFORMATION BLOCK
#MNEM.UNIT           DATA                    DESCRIPTION OF MNEMONIC
#---------    -------------------            -------------------------------
# Generated from Intellog Unique Number	CS_71_72/WELL/833
WELL.         BOW VALLEY INDUSTRIES          : Well_name    - WELL
LOC .         00/07-35-071-17W4/2            : Location     - LOCATION
UWI .         00/07-35-071-17W4/2            : Uwi          - UNIQUE WELL ID
ENTR.         SP                             : Entered      - ENTERED BY
SRVC.         SCHLUMBERGER                   : Scn          - SERVICE COMPANY
STRT.M        274.32                         : top_depth    - START DEPTH
STOP.M        446.07                         : bot_depth    - STOP DEPTH
STEP.M        0.25                           : increment    - STEP LENGTH
 NULL. -999.2500:NULL Value
~CURVE INFORMATION BLOCK
#MNEM UNIT       ERCB CURVE CODE    CURVE DESCRIPTION
#-----------   ------------------   ----------------------------------
DEPT.M        00 001 00 00         : DEPTH        - DEPTH
GR  .API      00 310 00 00         : GR           - GAMMA RAY
DPHI.V/V      00 890 00 00         : PHID         - DENSITY POROSITY (SANDSTONE)
NPHI.V/V      00 330 00 00         : PHIN         - NEUTRON POROSITY (SANDSTONE)
ILD .OHMM     00 120 00 00         : RESD         - DEEP RESISTIVITY (DIL)
~PARAMETER INFORMATION
#MNEM.UNIT           DATA             DESCRIPTION OF MNEMONIC
#---------         -----------     ------------------------------
GL  .M        583.387              : gl           - GROUND LEVEL ELEVATION
EREF.M        586.435              : kb           - ELEVATION OF DEPTH REFERENCE
DATM.M        583.387              : datum        - DATUM ELEVATION
TDD .M        452.628              : tdd          - TOTAL DEPTH DRILLER
RUN .         ONE                  : Run          - RUN NUMBER
ENG .         BILL                 : Engineer     - RECORDING ENGINEER
WIT .         JIM                  : Witness      - WITNESSED BY
MUD .         GEL                  : Mud_type     - MUD TYPE
MATR.         SANDSTONE            : Logunit      - NEUTRON MATRIX
TMAX.C        25.5556              : BHT          - MAXIMUM RECORDED TEMPERATURE
BHTD.M        452.628              : BHTDEP       - MAXIMUM RECORDED TEMPERATURE
MATR.         1                    : LOGUNIT      - NEUTRON MATRIX
RMT .C        25                   : MDTP         - TEMPERATURE OF MUD
NEUT.         1                    : NEUTRON      - NEUTRON TYPE
RESI.         0                    : RESIST       - RESISTIVITY TYPE
RMC .OHMM     0.25                 : RMC          - RESISTIVITY OF MUD CAKE
RMF .OHMM     0.25                 : RMF          - RESISTIVITY OF MUD FILTRATE
SUFT.C        15                   : SUFT         - SURFACE TEMPERATURE
~A  DEPTH       GR     PHID     PHIN     RESD
# ...
  404.820   71.484    0.249    0.493    5.047
  405.070   71.293    0.245    0.498    5.437
  405.320   71.676    0.240    0.491    5.660
  405.570   73.403    0.235    0.491    5.876
  405.820   73.058    0.225    0.475    5.969
  406.070   74.426    0.213    0.432    5.888
  406.320   75.981    0.196    0.406    5.734
  406.570   76.500    0.179    0.389    5.411
  406.820   75.792    0.161    0.374    5.187
  407.070   71.053    0.167    0.383    4.831
  407.320   71.091    0.193    0.470    4.286
  407.570   77.730    0.217    0.495    3.898
  407.820   82.189    0.232    0.513    3.651
  408.070   86.899    0.212    0.521    3.587
  408.320   89.251    0.191    0.532    3.558
  408.570   91.387    0.179    0.555    3.560
  408.820   93.784    0.186    0.593    3.577
  409.070   96.329    0.213    0.625    3.578
  409.320   97.856    0.214    0.673    3.568
  409.570   97.772    0.205    0.645    3.526
  409.820   99.245    0.198    0.638    3.478
  410.070  100.101    0.193    0.644    3.413
  410.320   98.846    0.195    0.648    3.366
  410.570   97.560    0.198    0.632    3.320
  410.820   96.736    0.214    0.610    3.307
  411.070   96.406    0.212    0.621    3.303
  411.320   96.611    0.206    0.638    3.313
  411.570   96.830    0.208    0.635    3.260
  411.820   96.918    0.211    0.627    3.240
  412.070   97.114    0.212    0.629    3.275
  412.320   97.954    0.209    0.622    3.316
  412.570   98.908    0.207    0.614    3.381
  412.820   99.995    0.196    0.627    3.451
  413.070  100.376    0.175    0.617    3.626
  413.320  100.306    0.166    0.602    3.829
  413.570  100.362    0.161    0.559    3.986
  413.820  100.509    0.155    0.533    4.185
  414.070  100.823    0.160    0.508    4.408
  414.320   99.967    0.184    0.486    4.756
  414.570   99.332    0.187    0.463    5.075
  414.820   98.409    0.181    0.446    5.404
  415.070   93.984    0.187    0.429    6.110
  415.320   89.671    0.186    0.415    6.922
  415.570   85.354    0.174    0.397    7.771
  415.820   82.930    0.157    0.357    8.353
  416.070   80.196    0.094    0.301    8.675
  416.320   72.472    0.054    0.271    8.598
  416.570   65.240    0.081    0.360    7.934
  416.820   67.316    0.156    0.379    7.286
  417.070   70.547    0.182    0.392    6.765
  417.320   73.518    0.180    0.385    6.998
  417.570   76.354    0.162    0.377    7.647
  417.820   78.531    0.141    0.404    8.367
  418.070   78.824    0.126    0.393    8.384
  418.320   77.421    0.110    0.360    8.113
  418.570   73.596    0.079    0.328    7.570
  418.820   71.081    0.070    0.312    6.960
  419.070   76.942    0.128    0.355    6.573
  419.320   83.404    0.157    0.406    6.326
  419.570   88.498    0.160    0.437    6.142
  419.820   91.535    0.147    0.440    6.046
  420.070   92.711    0.128    0.444    5.964
  420.320   93.116    0.127    0.456    5.905
  420.570   93.273    0.139    0.473    5.920
  420.820   92.869    0.148    0.485    5.987
  421.070   90.355    0.125    0.487    6.075
  421.320   89.145    0.128    0.474    6.222
  421.570   89.204    0.134    0.470    6.346
  421.820   90.225    0.139    0.476    6.524
  422.070   92.941    0.139    0.485    6.630
  422.320   94.611    0.138    0.486    6.705
  422.570   93.822    0.122    0.479    6.677
  422.820   91.250    0.111    0.471    6.643
  423.070   90.309    0.103    0.452    6.392
  423.320   92.983    0.101    0.448    6.171
  423.570   96.018    0.138    0.446    6.095
  423.820   99.193    0.158    0.454    6.100
  424.070  102.166    0.162    0.475    6.126
  424.320  103.685    0.165    0.489    6.204
  424.570  104.072    0.172    0.462    6.268
  424.820  104.235    0.172    0.434    6.296
  425.070  103.054    0.166    0.423    6.277
  425.320   99.897    0.157    0.425    6.215
  425.570   99.156    0.145    0.430    6.046
  425.820   97.862    0.135    0.435    5.964
  426.070   95.516    0.149    0.432    5.842
  426.320   94.372    0.144    0.428    5.401
  426.570   94.438    0.150    0.426    4.836
  426.820   95.825    0.148    0.430    4.159
  427.070   97.285    0.143    0.430    3.515
  427.320   98.716    0.155    0.426    3.072
  427.570  102.533    0.167    0.450    2.661
  427.820  105.523    0.189    0.501    2.401
  428.070  108.836    0.202    0.557    2.335
  428.320  112.489    0.191    0.601    2.418
  428.570  114.980    0.175    0.618    2.647
  428.820  116.901    0.161    0.597    3.054
  429.070  117.814    0.152    0.528    3.572
  429.320  114.409    0.142    0.471    4.514
  429.570  108.894    0.124    0.378    5.380
  429.820  103.288    0.106    0.334    5.938
  430.070   97.584    0.093    0.321    6.365
  430.320  101.590    0.091    0.369    6.614
  430.570  109.932    0.121    0.422    6.541
  430.820  116.469    0.149    0.449    6.024
  431.070  123.829    0.143    0.454    5.580
  431.320  126.013    0.127    0.424    5.674
  431.570  124.826    0.114    0.382    6.046
  431.820  124.766    0.098    0.356    6.569
  432.070  126.690    0.085    0.336    6.858
  432.320  135.066    0.081    0.345    6.911
  432.570  143.608    0.109    0.374    6.888
  432.820  150.134    0.156    0.389    6.572
  433.070  155.206    0.182    0.394    6.088
  433.320  155.742    0.182    0.401    5.583
  433.570  155.125    0.174    0.420    4.936
  433.820  154.984    0.163    0.429    4.274
  434.070  154.685    0.172    0.449    3.729
  434.320  153.123    0.167    0.489    3.471
  434.570  144.165    0.155    0.526    3.570
  434.820  105.468    0.146    0.566    3.790
  435.070  101.619    0.128    0.590    4.081
  435.320   97.100    0.106    0.582    4.347
  435.570   94.800    0.088    0.558    4.570
  435.820   96.010    0.090    0.531    4.708
  436.070  100.681    0.101    0.491    4.701
  436.320  106.936    0.103    0.505    4.515
  436.570  110.193    0.132    0.531    4.279
  436.820  110.547    0.158    0.548    4.007
  437.070  110.518    0.156    0.545    3.925
  437.320  112.220    0.142    0.537    3.846
  437.570  114.035    0.138    0.532    3.846
  437.820  114.378    0.139    0.539    3.903
  438.070  113.089    0.156    0.529    3.979
  438.320  111.872    0.168    0.513    4.179
  438.570  112.378    0.159    0.498    4.312
  438.820  112.281    0.151    0.483    4.450
  439.070  110.238    0.150    0.493    4.528
  439.320  107.425    0.150    0.509    4.578
  439.570  107.625    0.141    0.514    4.539
  439.820  109.506    0.150    0.495    4.446
  440.070  106.188    0.159    0.477    4.226
  440.320  105.484    0.143    0.460    3.891
  440.570  109.214    0.149    0.476    3.644
  440.820  111.563    0.159    0.519    3.578
  441.070  113.668    0.166    0.538    3.976
  441.320  112.871    0.171    0.544    4.492
  441.570  111.202    0.175    0.537    5.059
  441.820  108.380    0.176    0.495    5.628
  442.070  102.302    0.158    0.452    6.145
  442.320   96.414    0.140    0.411    6.760
  442.570   90.008    0.135    0.384    7.253
  442.820   85.769    0.141    0.383    7.720
  443.070   82.162    0.127    0.392    8.252
  443.320   78.428    0.112    0.401    8.821
  443.570   71.625    0.053    0.412    9.647
  443.820   64.880    0.033    0.393   10.630
  444.070   58.513    0.008    0.288   11.850
  444.320   55.159    0.031    0.248   13.896
  444.570   56.441    0.051    0.261   15.199
  444.820   52.171    0.043    0.257   17.233
  445.070   47.178    0.032    0.249   18.829
  445.320   43.995    0.019    0.238   20.256
  445.570   39.514    0.012    0.228   21.778
  445.820   35.545    0.018    0.222   22.573
  446.070   31.625    0.041    0.225   19.105
