~VERSION INFORMATION
 VERS.                 2.0:   CWLS LOG ASCII STANDARD -VERSION 2.0
 WRAP.                  NO:   ONE LINE PER DEPTH STEP
~WELL INFORMATION BLOCK
#MNEM.UNIT           DATA                    DESCRIPTION OF MNEMONIC
#---------    -------------------            -------------------------------
# Generated from Intellog Unique Number	CS_73_76/WELL/2610
WELL.         BOW VALLEY INDUSTRIES LTD      : Well_name    - WELL
LOC .         00/07-30-075-15W4/0            : Location     - LOCATION
UWI .         00/07-30-075-15W4/0            : Uwi          - UNIQUE WELL ID
ENTR.         SP                             : Entered      - ENTERED BY
SRVC.         SCHLUMBERGER                   : Scn          - SERVICE COMPANY
STRT.M        350                            : top_depth    - START DEPTH
STOP.M        565                            : bot_depth    - STOP DEPTH
STEP.M        0.25                           : increment    - STEP LENGTH
 NULL. -999.2500:NULL Value
~CURVE INFORMATION BLOCK
#MNEM UNIT       ERCB CURVE CODE    CURVE DESCRIPTION
#-----------   ------------------   ----------------------------------
DEPT.M        00 001 00 00         : DEPTH        - DEPTH
ILD .OHMM     00 120 00 00         : RESD         - DEEP RESISTIVITY (DIL)
DPHI.V/V      00 890 00 00         : PHID         - DENSITY POROSITY (LIMESTONE)
NPHI.V/V      00 330 00 00         : PHIN         - NEUTRON POROSITY (LIMESTONE)
GR  .API      00 310 00 00         : GR           - GAMMA RAY
~PARAMETER INFORMATION
#MNEM.UNIT           DATA             DESCRIPTION OF MNEMONIC
#---------         -----------     ------------------------------
GL  .M        733.4                : gl           - GROUND LEVEL ELEVATION
EREF.M        736.4                : kb           - ELEVATION OF DEPTH REFERENCE
DATM.M        733.4                : datum        - DATUM ELEVATION
TDD .M        564                  : tdd          - TOTAL DEPTH DRILLER
RUN .         ONE                  : Run          - RUN NUMBER
ENG .         BILL                 : Engineer     - RECORDING ENGINEER
WIT .         JIM                  : Witness      - WITNESSED BY
MUD .         GEL                  : Mud_type     - MUD TYPE
MATR.         LIMESTONE            : Logunit      - NEUTRON MATRIX
TMAX.C        26.6                 : BHT          - MAXIMUM RECORDED TEMPERATURE
BHTD.M        564                  : BHTDEP       - MAXIMUM RECORDED TEMPERATURE
MATR.         1                    : LOGUNIT      - NEUTRON MATRIX
RMT .C        25                   : MDTP         - TEMPERATURE OF MUD
NEUT.         1                    : NEUTRON      - NEUTRON TYPE
RESI.         0                    : RESIST       - RESISTIVITY TYPE
RMC .OHMM     0.25                 : RMC          - RESISTIVITY OF MUD CAKE
RMF .OHMM     0.25                 : RMF          - RESISTIVITY OF MUD FILTRATE
SUFT.C        15                   : SUFT         - SURFACE TEMPERATURE
~A  DEPTH     RESD     PHID     PHIN       GR
# ...
  480.500    5.480    0.360    0.432   67.399
  480.750    5.479    0.361    0.428   65.604
  481.000    5.582    0.361    0.418   65.008
  481.250    5.581    0.359    0.429   66.223
  481.500    5.580    0.357    0.434   68.641
  481.750    5.477    0.354    0.411   71.058
  482.000    5.476    0.351    0.417   69.866
  482.250    5.475    0.348    0.427   69.269
  482.500    5.475    0.344    0.435   68.677
  482.750    5.474    0.343    0.420   69.891
  483.000    5.473    0.346    0.406   72.912
  483.250    5.472    0.350    0.424   75.933
  483.500    5.471    0.350    0.440   77.748
  483.750    5.471    0.348    0.445   79.567
  484.000    5.470    0.349    0.447   80.779
  484.250    5.469    0.344    0.453   76.571
  484.500    5.469    0.332    0.455   75.375
  484.750    5.468    0.323    0.445   78.396
  485.000    5.467    0.320    0.440   80.816
  485.250    5.467    0.320    0.432   79.622
  485.500    5.466    0.316    0.430   78.424
  485.750    5.465    0.305    0.434   79.035
  486.000    5.265    0.303    0.435   82.659
  486.250    4.886    0.303    0.442   84.477
  486.500    4.535    0.302    0.455   84.485
  486.750    4.369    0.276    0.447   88.711
  487.000    3.980    0.250    0.456   92.337
  487.250    3.763    0.245    0.473   95.359
  487.500    3.693    0.242    0.470   97.172
  487.750    3.693    0.243    0.467   98.386
  488.000    3.762    0.246    0.485   95.383
  488.250    3.977    0.254    0.482   96.601
  488.500    4.205    0.262    0.470   94.799
  488.750    4.284    0.262    0.438   89.386
  489.000    4.364    0.253    0.416   91.203
  489.250    4.363    0.249    0.424   93.018
  489.500    4.363    0.254    0.443   91.823
  489.750    4.362    0.257    0.458   90.628
  490.000    4.361    0.258    0.467   91.239
  490.250    4.280    0.253    0.470   94.261
  490.500    4.360    0.249    0.456   96.076
  490.750    4.610    0.253    0.449   98.498
  491.000    4.696    0.265    0.451   99.709
  491.250    4.874    0.269    0.447  100.320
  491.500    4.965    0.259    0.415   97.922
  491.750    4.964    0.254    0.410   96.724
  492.000    4.963    0.247    0.427   97.338
  492.250    4.963    0.243    0.443   99.155
  492.500    4.962    0.237    0.456   99.764
  492.750    4.870    0.233    0.462   96.762
  493.000    4.869    0.247    0.452   96.167
  493.250    4.960    0.245    0.449   96.178
  493.500    5.053    0.237    0.443   97.391
  493.750    5.147    0.245    0.437   98.002
  494.000    5.051    0.253    0.443   96.805
  494.250    5.051    0.254    0.460   96.815
  494.500    4.957    0.253    0.464   99.234
  494.750    4.865    0.255    0.467  102.257
  495.000    4.956    0.255    0.458  102.866
  495.250    5.143    0.244    0.440   94.444
  495.500    5.438    0.233    0.431   90.837
  495.750    5.968    0.226    0.423   86.026
  496.000    6.549    0.238    0.420   81.218
  496.250    7.054    0.249    0.426   78.815
  496.500    7.321    0.252    0.443   75.812
  496.750    7.598    0.268    0.440   71.001
  497.000    7.739    0.291    0.428   64.386
  497.250    7.739    0.312    0.416   61.983
  497.500    7.317    0.318    0.406   60.787
  497.750    6.919    0.325    0.424   63.810
  498.000    6.542    0.337    0.435   66.230
  498.250    6.421    0.332    0.427   67.441
  498.500    6.302    0.325    0.416   68.054
  498.750    6.184    0.319    0.405   66.859
  499.000    5.848    0.324    0.395   68.073
  499.250    5.739    0.326    0.394   69.288
  499.500    5.632    0.326    0.416   69.296
  499.750    5.632    0.330    0.427   69.304
  500.000    5.527    0.334    0.416   67.506
  500.250    5.424    0.338    0.413   66.310
  500.500    5.323    0.337    0.429   65.715
  500.750    5.225    0.335    0.445   69.943
  501.000    5.127    0.333    0.445   72.361
  501.250    5.032    0.331    0.437   71.768
  501.500    5.032    0.325    0.447   70.571
  501.750    5.031    0.322    0.451   70.582
  502.000    5.030    0.327    0.447   72.399
  502.250    5.030    0.331    0.440   73.611
  502.500    5.029    0.334    0.452   75.430
  502.750    4.936    0.339    0.457   76.039
  503.000    4.935    0.333    0.453   76.048
  503.250    4.844    0.326    0.446   74.854
  503.500    4.753    0.333    0.432   73.057
  503.750    4.753    0.338    0.440   71.259
  504.000    4.664    0.338    0.441   73.073
  504.250    4.664    0.326    0.429   79.712
  504.500    4.664    0.312    0.427   82.126
  504.750    5.514    0.284    0.436   85.751
  505.000    6.051    0.254    0.443   79.735
  505.250    6.279    0.173    0.440   72.515
  505.500    6.279    0.118    0.297   69.513
  505.750    6.048    0.155    0.319   78.558
  506.000    5.719    0.247    0.366   85.194
  506.250    5.308    0.278    0.406   88.214
  506.500    4.926    0.280    0.435   84.009
  506.750    4.835    0.273    0.449   85.222
  507.000    4.657    0.269    0.436   87.642
  507.250    4.657    0.282    0.437   84.640
  507.500    4.743    0.294    0.451   82.838
  507.750    4.832    0.304    0.461   80.438
  508.000    4.922    0.310    0.461   79.243
  508.250    4.922    0.295    0.449   79.854
  508.500    5.014    0.282    0.437   82.875
  508.750    5.013    0.282    0.448   79.875
  509.000    5.012    0.301    0.454   78.075
  509.250    4.828    0.311    0.448   81.098
  509.500    4.919    0.305    0.469   82.912
  509.750    5.011    0.297    0.457   81.113
  510.000    5.104    0.300    0.443   78.712
  510.250    5.199    0.296    0.442   78.121
  510.500    5.296    0.295    0.457   77.526
  510.750    5.295    0.294    0.467   75.731
  511.000    5.295    0.303    0.460   76.341
  511.250    5.294    0.309    0.462   77.556
  511.500    5.196    0.313    0.471   76.960
  511.750    5.099    0.308    0.461   77.572
  512.000    5.005    0.307    0.445   80.594
  512.250    4.911    0.307    0.441   83.017
  512.500    4.911    0.314    0.437   83.625
  512.750    4.910    0.304    0.433   83.031
  513.000    5.002    0.297    0.435   75.812
  513.250    5.001    0.283    0.439   75.216
  513.500    5.095    0.275    0.446   78.237
  513.750    5.094    0.284    0.452   80.657
  514.000    5.189    0.279    0.452   81.268
  514.250    5.286    0.273    0.452   83.688
  514.500    5.384    0.263    0.444   85.506
  514.750    5.384    0.283    0.439   86.116
  515.000    5.484    0.290    0.451   85.522
  515.250    5.484    0.284    0.434   83.725
  515.500    5.483    0.281    0.417   80.723
  515.750    5.482    0.276    0.415   78.322
  516.000    5.584    0.272    0.421   76.523
  516.250    5.584    0.261    0.429   79.543
  516.500    5.583    0.252    0.441   84.371
  516.750    5.687    0.262    0.444   87.392
  517.000    5.479    0.265    0.438   87.400
  517.250    5.180    0.269    0.434   89.820
  517.500    4.990    0.263    0.425   94.653
  517.750    4.807    0.251    0.421   97.070
  518.000    4.631    0.240    0.416   98.885
  518.250    4.461    0.233    0.434  100.100
  518.500    4.461    0.234    0.451  100.710
  518.750    4.544    0.228    0.464  100.719
  519.000    4.804    0.234    0.468   98.924
  519.250    4.986    0.239    0.435   97.121
  519.500    5.370    0.241    0.413   90.506
  519.750    5.894    0.248    0.419   83.890
  520.000    6.468    0.242    0.423   79.077
  520.250    7.098    0.211    0.425   74.267
  520.500    8.085    0.160    0.402   69.456
  520.750   10.108    0.116    0.407   62.837
  521.000   11.950    0.078    0.268   53.208
  521.250   14.129    0.035    0.193   54.423
  521.500   14.939    0.024    0.157   60.457
  521.750   14.937    0.015    0.216   71.911
  522.000   13.110    0.044    0.321   84.572
  522.250   10.483    0.076    0.379   86.991
  522.500    9.201    0.143    0.431   75.553
  522.750    7.927    0.131    0.339   64.116
  523.000    7.495    0.059    0.273   64.124
  523.250    7.087    0.063    0.267   79.195
  523.500    7.086    0.114    0.314   88.842
  523.750    6.954    0.155    0.340   95.478
