~VERSION INFORMATION
 VERS.                 2.0:   CWLS LOG ASCII STANDARD -VERSION 2.0
 WRAP.                  NO:   ONE LINE PER DEPTH STEP
~WELL INFORMATION BLOCK
#MNEM.UNIT           DATA                    DESCRIPTION OF MNEMONIC
#---------    -------------------            -------------------------------
# Generated from Intellog Unique Number	CW_79_81/WELL/3694
WELL.         AMCO                           : Well_name    - WELL
LOC .         00/07-09-078-23W4/0            : Location     - LOCATION
UWI .         00/07-09-078-23W4/0            : Uwi          - UNIQUE WELL ID
ENTR.         TIM                            : Entered      - ENTERED BY
SRVC.         SCHLUMBERGER                   : Scn          - SERVICE COMPANY
DATE.         05\15\92                       : Date         - LOG DATE
STRT.M        250                            : top_depth    - START DEPTH
STOP.M        525                            : bot_depth    - STOP DEPTH
STEP.M        0.25                           : increment    - STEP LENGTH
 NULL. -999.2500:NULL Value
~CURVE INFORMATION BLOCK
#MNEM UNIT       ERCB CURVE CODE    CURVE DESCRIPTION
#-----------   ------------------   ----------------------------------
DEPT.M        00 001 00 00         : DEPTH        - DEPTH
GR  .API      00 310 00 00         : GR           - GAMMA RAY
DPHI.V/V      00 890 00 00         : PHID         - DENSITY POROSITY (SANDSTONE)
ILD .OHMM     00 120 00 00         : RESD         - DEEP RESISTIVITY (DIL)
NPHI.V/V      00 330 00 00         : PHIN         - NEUTRON POROSITY (SANDSTONE)
~PARAMETER INFORMATION
#MNEM.UNIT           DATA             DESCRIPTION OF MNEMONIC
#---------         -----------     ------------------------------
GL  .M        605                  : gl           - GROUND LEVEL ELEVATION
EREF.M        609                  : kb           - ELEVATION OF DEPTH REFERENCE
DATM.M        609                  : datum        - DATUM ELEVATION
TDD .M        525                  : tdd          - TOTAL DEPTH DRILLER
RUN .         ONE                  : Run          - RUN NUMBER
ENG .         JO                   : Engineer     - RECORDING ENGINEER
WIT .         TIM                  : Witness      - WITNESSED BY
MUD .         GEL                  : Mud_type     - MUD TYPE
MATR.         SANDSTONE            : Logunit      - NEUTRON MATRIX
TMAX.C        27                   : BHT          - MAXIMUM RECORDED TEMPERATURE
BHTD.M        525                  : BHTDEP       - MAXIMUM RECORDED TEMPERATURE
RMT .C        20                   : MDTP         - TEMPERATURE OF MUD
MUDD.KG/M     1090                 : MWT          - MUD DENSITY
NEUT.         1                    : NEUTRON      - NEUTRON TYPE
RESI.         0                    : RESIST       - RESISTIVITY TYPE
RM  .OHMM     5.2                  : RM           - RESISTIVITY OF MUD
RMC .OHMM     4                    : RMC          - RESISTIVITY OF MUD CAKE
RMF .OHMM     6.3                  : RMF          - RESISTIVITY OF MUD FILTRATE
SUFT.C        4                    : SUFT         - SURFACE TEMPERATURE
~A  DEPTH       GR     PHID     RESD     PHIN
  250.000  124.374    0.231    3.055    0.512
  250.250  127.428    0.215    3.059    0.506
  250.500  127.421    0.219    3.064    0.508
  250.750  124.352    0.226    3.066    0.516
  251.000  121.280    0.223    3.070    0.523
  251.250  124.950    0.213    3.074    0.525
  251.500  125.556    0.208    3.135    0.523
  251.750  118.809    0.206    3.256    0.512
  252.000  104.096    0.196    3.508    0.442
  252.250   95.509    0.089    3.921    0.430
  252.500   91.213    0.155    4.070    0.419
  252.750   89.370    0.186    4.384    0.428
  253.000   93.651    0.214    5.468    0.441
  253.250  105.896    0.228    5.997    0.438
  253.500  108.341    0.254    5.793    0.448
  253.750  116.299    0.258    5.196    0.465
  254.000  129.771    0.258    4.660    0.469
  254.250  130.989    0.251    4.181    0.459
  254.500  129.754    0.246    3.752    0.442
  254.750  129.133    0.233    3.429    0.429
  255.000  128.516    0.218    3.432    0.425
  255.250  127.280    0.209    3.437    0.432
  255.500  123.599    0.214    3.441    0.443
  255.750  119.914    0.227    3.575    0.458
  256.000  124.197    0.236    3.646    0.482
  256.250  127.253    0.244    3.716    0.517
  256.500  110.091    0.240    3.859    0.539
  256.750   87.415    0.184    3.935    0.470
  257.000   78.217    0.189    3.941    0.440
  257.250   69.633    0.213    4.169    0.340
  257.500   81.266    0.223    4.173    0.369
  257.750   86.161    0.240    3.957    0.468
  258.000  100.245    0.256    3.817    0.546
  258.250  107.590    0.267    3.489    0.543
  258.500  111.259    0.269    3.246    0.479
  258.750  111.862    0.269    2.912    0.475
  259.000  110.628    0.264    2.661    0.498
  259.250  108.785    0.256    2.432    0.518
  259.500  103.876    0.247    2.435    0.522
  259.750   87.939    0.241    2.528    0.447
  260.000   82.418    0.233    2.931    0.442
  260.250   75.669    0.230    4.079    0.448
  260.500   70.761    0.227    4.728    0.457
  260.750   66.467    0.223    5.683    0.446
  261.000   61.558    0.206    6.963    0.423
  261.250   58.486    0.189    7.639    0.408
  261.500   59.091    0.200    8.080    0.401
  261.750   59.697    0.198    8.090    0.390
  262.000   60.300    0.176    7.806    0.380
  262.250   62.131    0.184    7.401    0.368
  262.500   65.187    0.199    7.014    0.358
  262.750   69.471    0.217    6.526    0.390
  263.000   85.393    0.224    5.963    0.447
  263.250   97.639    0.235    5.064    0.482
  263.500  101.921    0.144    4.382    0.519
  263.750   98.849    0.133    4.002    0.479
  264.000   95.780    0.171    3.591    0.456
  264.250   87.195    0.195    3.405    0.440
  264.500   68.195    0.222    3.407    0.419
  264.750   56.545    0.249    3.475    0.397
  265.000   55.925    0.257    3.677    0.384
  265.250   57.754    0.250    3.959    0.412
  265.500   60.810    0.243    4.759    0.417
  265.750   60.803    0.239    6.158    0.434
  266.000   60.185    0.229    6.885    0.455
  266.250   63.241    0.222    6.891    0.461
  266.500   74.875    0.220    6.897    0.473
  266.750   70.579    0.226    6.906    0.503
  267.000   57.704    0.251    6.795    0.512
  267.250   55.248    0.263    6.676    0.525
  267.500   52.173    0.288    6.808    0.518
  267.750   50.328    0.301    6.940    0.489
  268.000   52.159    0.267    7.345    0.475
  268.250   55.830    0.254    7.488    0.475
  268.500   58.271    0.260    7.497    0.483
  268.750   58.264    0.266    7.239    0.484
  269.000   59.484    0.262    7.116    0.487
  269.250   62.540    0.262    7.123    0.513
  269.500   66.820    0.261    7.007    0.481
  269.750   69.265    0.260    7.013    0.446
  270.000   71.705    0.253    7.024    0.406
  270.250   75.376    0.239    7.031    0.413
  270.500   79.659    0.229    6.664    0.461
  270.750   89.455    0.220    6.430    0.477
  271.000   96.187    0.221    5.664    0.474
  271.250   99.241    0.228    4.991    0.469
  271.500   98.623    0.237    4.644    0.462
  271.750   96.164    0.239    4.243    0.452
  272.000   93.706    0.234    3.808    0.466
  272.250   93.086    0.228    3.675    0.500
  272.500   92.466    0.226    3.421    0.501
  272.750   90.006    0.222    3.243    0.514
  273.000   89.386    0.220    3.187    0.524
  273.250   93.055    0.215    3.132    0.528
  273.500   94.272    0.211    3.079    0.522
  273.750   95.492    0.206    3.027    0.512
  274.000   96.712    0.206    2.977    0.513
  274.250   97.930    0.205    2.928    0.539
  274.500   99.760    0.204    2.930    0.555
  274.750  100.977    0.203    2.934    0.561
  275.000   99.130    0.203    2.883    0.527
  275.250   97.283    0.207    2.889    0.517
  275.500   97.277    0.211    2.840    0.533
  275.750   98.497    0.215    2.792    0.551
  276.000   99.101    0.219    2.745    0.557
  276.250  100.319    0.222    2.699    0.545
  276.500  100.314    0.226    2.701    0.519
  276.750  100.306    0.227    2.655    0.515
  277.000  101.525    0.230    2.610    0.518
  277.250  103.352    0.236    2.566    0.508
  277.500  103.961    0.242    2.569    0.534
  277.750  104.565    0.239    2.482    0.547
  278.000  104.559    0.229    2.439    0.579
  278.250  104.550    0.232    2.397    0.597
  278.500  104.545    0.235    2.358    0.583
  278.750  105.759    0.241    2.316    0.584
  279.000  105.139    0.238    2.319    0.589
  279.250  101.456    0.236    2.365    0.589
  279.500   99.000    0.236    2.368    0.577
  279.750   94.091    0.242    2.372    0.571
  280.000   95.922    0.244    2.372    0.560
  280.250  102.655    0.240    2.377    0.540
  280.500  104.484    0.233    2.383    0.462
  280.750  104.475    0.232    2.385    0.457
  281.000  103.856    0.230    2.386    0.504
  281.250  104.462    0.227    2.390    0.563
  281.500  102.617    0.232    2.392    0.552
  281.750  100.771    0.236    2.396    0.548
  282.000  101.377    0.237    2.398    0.559
  282.250  107.497    0.224    2.402    0.548
  282.500  109.940    0.217    2.404    0.534
  282.750  111.771    0.213    2.451    0.546
  283.000  111.764    0.212    2.501    0.571
  283.250  112.367    0.210    2.504    0.590
  283.500  112.973    0.213    2.508    0.587
  283.750  112.967    0.214    2.510    0.562
  284.000  111.122    0.214    2.513    0.538
  284.250  106.826    0.217    2.516    0.522
  284.500  103.143    0.218    2.567    0.512
  284.750  106.810    0.220    2.616    0.516
  285.000  108.643    0.223    2.619    0.523
  285.250  109.861    0.223    2.672    0.531
  285.500  111.075    0.220    2.675    0.543
  285.750  111.681    0.213    2.679    0.504
  286.000  111.675    0.207    2.681    0.464
  286.250  112.281    0.201    2.685    0.442
  286.500  109.210    0.191    2.738    0.487
  286.750  100.626    0.163    2.792    0.557
  287.000   87.139    0.123    2.796    0.527
  287.250   81.618    0.095    2.905    0.446
  287.500   73.034    0.121    3.185    0.418
  287.750   71.801    0.184    3.625    0.394
  288.000   81.597    0.189    4.279    0.424
  288.250   93.843    0.203    5.143    0.454
  288.500  103.026    0.185    6.187    0.489
  288.750  109.758    0.184    6.790    0.385
  289.000  115.876    0.188    7.047    0.455
  289.250  119.543    0.190    7.058    0.527
  289.500  117.698    0.192    6.690    0.515
  289.750  113.404    0.200    5.891    0.498
  290.000  110.331    0.217    5.003    0.478
  290.250  109.099    0.234    4.489    0.492
  290.500  107.866    0.244    4.102    0.514
  290.750  104.795    0.250    3.550    0.521
  291.000  103.565    0.252    3.362    0.537
  291.250  101.719    0.258    3.129    0.554
  291.500  100.487    0.263    2.861    0.575
  291.750   98.642    0.269    2.811    0.591
  292.000   95.567    0.272    2.664    0.593
  292.250   93.111    0.227    2.572    0.582
  292.500   90.041    0.191    2.482    0.564
  292.750   82.681    0.191    2.396    0.526
  293.000   67.970    0.259    2.727    0.490
  293.250   52.033    0.305    3.400    0.497
