~VERSION INFORMATION
 VERS.                 2.0:   CWLS LOG ASCII STANDARD -VERSION 2.0
 WRAP.                  NO:   ONE LINE PER DEPTH STEP
~WELL INFORMATION BLOCK
#MNEM.UNIT           DATA                    DESCRIPTION OF MNEMONIC
#---------    -------------------            -------------------------------
# Generated from Intellog Unique Number	CS_73_76/WELL/1031
WELL.         BP FT AL MARGIE                : Well_name    - WELL
LOC .         00/06-03-075-10W4/0            : Location     - LOCATION
UWI .         00/06-03-075-10W4/0            : Uwi          - UNIQUE WELL ID
ENTR.         SP                             : Entered      - ENTERED BY
SRVC.         SCHLUMBERGER                   : Scn          - SERVICE COMPANY
STRT.M        304.8                          : top_depth    - START DEPTH
STOP.M        511.8                          : bot_depth    - STOP DEPTH
STEP.M        0.25                           : increment    - STEP LENGTH
 NULL. -999.2500:NULL Value
~CURVE INFORMATION BLOCK
#MNEM UNIT       ERCB CURVE CODE    CURVE DESCRIPTION
#-----------   ------------------   ----------------------------------
DEPT.M        00 001 00 00         : DEPTH        - DEPTH
GR  .API      00 310 00 00         : GR           - GAMMA RAY
DPHI.V/V      00 890 00 00         : PHID         - DENSITY POROSITY (SANDSTONE)
NPHI.V/V      00 330 00 00         : PHIN         - NEUTRON POROSITY (SANDSTONE)
ILD .OHMM     00 120 00 00         : RESD         - DEEP RESISTIVITY (DIL)
~PARAMETER INFORMATION
#MNEM.UNIT           DATA             DESCRIPTION OF MNEMONIC
#---------         -----------     ------------------------------
GL  .M        683.88               : gl           - GROUND LEVEL ELEVATION
EREF.M        687.172              : kb           - ELEVATION OF DEPTH REFERENCE
DATM.M        683.88               : datum        - DATUM ELEVATION
TDD .M        676.656              : tdd          - TOTAL DEPTH DRILLER
RUN .         ONE                  : Run          - RUN NUMBER
ENG .         BILL                 : Engineer     - RECORDING ENGINEER
WIT .         JIM                  : Witness      - WITNESSED BY
MUD .         GEL                  : Mud_type     - MUD TYPE
MATR.         SANDSTONE            : Logunit      - NEUTRON MATRIX
TMAX.C        25.5556              : BHT          - MAXIMUM RECORDED TEMPERATURE
BHTD.M        676.656              : BHTDEP       - MAXIMUM RECORDED TEMPERATURE
MATR.         1                    : LOGUNIT      - NEUTRON MATRIX
RMT .C        25                   : MDTP         - TEMPERATURE OF MUD
NEUT.         1                    : NEUTRON      - NEUTRON TYPE
RESI.         0                    : RESIST       - RESISTIVITY TYPE
RMC .OHMM     0.25                 : RMC          - RESISTIVITY OF MUD CAKE
RMF .OHMM     0.25                 : RMF          - RESISTIVITY OF MUD FILTRATE
SUFT.C        15                   : SUFT         - SURFACE TEMPERATURE
~A  DEPTH       GR     PHID     PHIN     RESD
# ...
  391.800   69.329    0.271    0.480    5.922
  392.050   70.184    0.265    0.480    5.925
  392.300   68.750    0.262    0.490    5.926
  392.550   65.942    0.261    0.505    5.927
  392.800   62.911    0.284    0.519    5.928
  393.050   61.627    0.300    0.508    5.929
  393.300   62.041    0.310    0.503    5.848
  393.550   63.163    0.317    0.503    5.793
  393.800   65.203    0.310    0.515    5.716
  394.050   66.557    0.297    0.508    5.654
  394.300   67.769    0.287    0.486    5.640
  394.550   68.219    0.279    0.490    5.716
  394.800   68.240    0.284    0.491    5.893
  395.050   67.409    0.295    0.511    5.929
  395.300   65.948    0.309    0.497    5.953
  395.550   65.964    0.301    0.469    5.442
  395.800   71.526    0.306    0.453    4.723
  396.050   77.081    0.302    0.455    4.052
  396.300   80.020    0.292    0.483    3.680
  396.550   81.954    0.264    0.513    3.426
  396.800   82.532    0.273    0.556    3.458
  397.050   82.250    0.270    0.557    3.775
  397.300   80.775    0.246    0.539    4.105
  397.550   80.032    0.237    0.530    4.444
  397.800   80.795    0.243    0.534    4.835
  398.050   80.697    0.251    0.501    5.115
  398.300   79.728    0.256    0.483    5.382
  398.550   76.463    0.232    0.502    5.537
  398.800   76.966    0.250    0.516    5.703
  399.050   78.898    0.247    0.525    5.835
  399.300   80.168    0.251    0.508    5.947
  399.550   80.794    0.265    0.530    6.011
  399.800   79.704    0.265    0.515    6.167
  400.050   75.396    0.273    0.506    6.281
  400.300   72.249    0.279    0.497    6.354
  400.550   73.647    0.291    0.486    6.390
  400.800   75.850    0.301    0.487    6.511
  401.050   76.334    0.291    0.491    6.517
  401.300   73.816    0.259    0.483    6.520
  401.550   72.707    0.264    0.479    6.521
  401.800   74.292    0.269    0.479    6.514
  402.050   77.290    0.260    0.481    6.660
  402.300   77.939    0.268    0.491    6.751
  402.550   74.809    0.261    0.502    7.114
  402.800   75.344    0.254    0.506    7.704
  403.050   74.670    0.237    0.500    8.763
  403.300   69.472    0.243    0.484    9.713
  403.550   63.520    0.175    0.454    9.959
  403.800   56.974    0.074    0.318    9.397
  404.050   52.135    0.031    0.256    8.648
  404.300   55.959    0.014    0.244    7.774
  404.550   64.244    0.053    0.286    7.172
  404.800   68.733    0.134    0.376    6.476
  405.050   74.782    0.177    0.437    6.204
  405.300   77.086    0.212    0.477    6.012
  405.550   75.254    0.228    0.484    5.957
  405.800   74.661    0.236    0.492    5.846
  406.050   75.696    0.228    0.500    5.853
  406.300   77.110    0.243    0.509    5.855
  406.550   75.208    0.236    0.515    5.855
  406.800   73.886    0.241    0.497    5.856
  407.050   77.614    0.228    0.499    5.857
  407.300   77.226    0.234    0.502    5.868
  407.550   78.502    0.253    0.513    5.743
  407.800   81.527    0.257    0.522    5.751
  408.050   82.228    0.245    0.494    5.704
  408.300   77.399    0.245    0.480    5.651
  408.550   76.799    0.256    0.495    5.646
  408.800   79.444    0.250    0.506    5.605
  409.050   77.005    0.232    0.522    5.656
  409.300   77.044    0.223    0.526    5.765
  409.550   78.274    0.227    0.516    5.792
  409.800   78.302    0.218    0.520    5.765
  410.050   78.255    0.227    0.528    5.330
  410.300   80.320    0.239    0.517    4.569
  410.550   79.632    0.235    0.505    3.565
  410.800   78.983    0.221    0.495    3.027
  411.050   81.434    0.233    0.505    2.633
  411.300   85.245    0.257    0.545    2.149
  411.550   89.986    0.280    0.591    1.948
  411.800   91.489    0.268    0.613    1.995
  412.050   90.202    0.270    0.610    2.140
  412.300   84.118    0.277    0.600    2.318
  412.550   83.044    0.274    0.586    2.574
  412.800   83.422    0.264    0.562    3.117
  413.050   83.370    0.252    0.541    3.626
  413.300   78.511    0.240    0.524    4.429
  413.550   76.271    0.260    0.516    4.953
  413.800   75.822    0.282    0.512    5.411
  414.050   70.305    0.266    0.489    5.645
  414.300   65.593    0.229    0.477    5.736
  414.550   62.412    0.189    0.475    5.552
  414.800   60.417    0.140    0.459    5.305
  415.050   59.302    0.246    0.460    5.099
  415.300   56.611    0.306    0.482    4.890
  415.550   52.472    0.312    0.492    4.809
  415.800   49.930    0.326    0.482    4.709
  416.050   47.825    0.342    0.468    4.719
  416.300   46.334    0.339    0.460    4.720
  416.550   48.651    0.350    0.449    4.720
  416.800   48.952    0.344    0.439    4.721
  417.050   48.703    0.332    0.454    4.729
  417.300   47.739    0.336    0.463    4.624
  417.550   47.312    0.337    0.467    4.783
  417.800   46.525    0.335    0.461    4.806
  418.050   46.584    0.335    0.455    4.811
  418.300   47.648    0.343    0.451    4.812
  418.550   47.779    0.352    0.450    4.815
  418.800   47.148    0.350    0.454    4.813
  419.050   47.892    0.345    0.461    4.730
  419.300   50.143    0.348    0.464    4.626
  419.550   53.640    0.356    0.463    4.555
  419.800   54.650    0.337    0.453    4.556
  420.050   55.699    0.338    0.448    4.557
  420.300   55.125    0.346    0.443    4.558
  420.550   52.857    0.355    0.448    4.559
  420.800   50.617    0.359    0.454    4.559
  421.050   52.599    0.355    0.463    4.560
  421.300   55.183    0.351    0.470    4.560
  421.550   58.564    0.345    0.476    4.561
  421.800   60.207    0.344    0.480    4.561
  422.050   60.625    0.348    0.478    4.562
  422.300   61.488    0.342    0.468    4.562
  422.550   62.841    0.344    0.471    4.563
  422.800   66.082    0.351    0.476    4.563
  423.050   69.069    0.347    0.474    4.565
  423.300   67.009    0.331    0.484    4.610
  423.550   63.537    0.323    0.485    4.648
  423.800   63.450    0.330    0.482    4.642
  424.050   65.723    0.339    0.481    4.738
  424.300   69.445    0.315    0.479    4.833
  424.550   71.903    0.296    0.473    4.990
  424.800   72.134    0.275    0.469    5.038
  425.050   68.605    0.260    0.482    5.099
  425.300   66.324    0.270    0.500    5.200
  425.550   63.622    0.303    0.497    5.191
  425.800   61.604    0.311    0.503    5.201
  426.050   58.695    0.300    0.503    5.030
  426.300   57.358    0.320    0.490    5.328
  426.550   59.010    0.315    0.496    5.832
  426.800   60.054    0.311    0.497    7.351
  427.050   59.547    0.320    0.495    9.472
  427.300   58.679    0.312    0.483   10.369
  427.550   55.990    0.319    0.474   10.724
  427.800   54.747    0.296    0.464   10.601
  428.050   50.559    0.290    0.453    9.334
  428.300   48.111    0.037    0.269    7.803
  428.550   49.431    0.034    0.248    6.857
  428.800   53.917    0.080    0.260    5.991
  429.050   57.397    0.182    0.395    5.710
  429.300   59.628    0.281    0.469    5.306
  429.550   59.426    0.309    0.489    5.031
  429.800   57.719    0.312    0.487    5.130
  430.050   58.839    0.317    0.490    5.274
  430.300   59.855    0.325    0.504    5.546
  430.550   60.772    0.321    0.512    5.828
  430.800   59.128    0.318    0.520    5.997
  431.050   58.017    0.312    0.515    6.162
  431.300   56.011    0.318    0.469    6.030
  431.550   54.357    0.316    0.445    6.081
  431.800   54.206    0.298    0.421    5.865
  432.050   55.351    0.289    0.404    5.514
  432.300   57.961    0.282    0.408    5.251
  432.550   59.757    0.275    0.429    4.987
  432.800   61.764    0.312    0.464    4.938
  433.050   63.340    0.320    0.492    4.884
  433.300   61.658    0.316    0.505    4.953
  433.550   59.082    0.314    0.498    5.120
  433.800   58.318    0.317    0.509    5.267
  434.050   59.070    0.325    0.529    5.314
  434.300   59.588    0.331    0.520    5.416
  434.550   60.399    0.326    0.501    5.418
  434.800   61.991    0.314    0.493    5.312
  435.050   64.002    0.304    0.498    5.262
